~Version Information
VERS.                      2.0: CWLS Log ASCII Standard - VERSION 2.0
WRAP.                       NO: One line per depth step
~Well Information Block
STRT.FT               451.7500: 
STOP.FT              1387.0000: 
STEP.FT                 0.2500: 
NULL.                -999.2500: 
COMP.          Petrogulf Corporation: COMPANY
WELL.          Great Plains 22-22R: WELL
FLD.           Purgatoire River: FIELD
LOC.           2042' FNL & 1657' FWL--: LOCATION
PROV.                 Colorado: PROVINCE
CNTY.               Las Animas: COUNTRY
SRVC.                Patterson: SERVICE COMPANY
DATE.          Fri Sep 09 10:42:01 2005: LOG DATE
UWI.           05 071 08028 00: UNIQUE WELL ID
~Curve Information Block
DEPT.FT            0 000 00 00: Depth
SP.mV                         : DIL Spontaneous Potential
RILD.Ohm-m                    : DIL Deep Resistivity
RILM.Ohm-m                    : DIL Medium Resistivity
RLL3.Ohm-m                    : DIL Shallow Resistivity
GR.GAPI                       : Gamma Ray
~Parameter Information Block
~A  Depth        SP         RILD        RILM        RLL3         GR     
# ...
  1039.7500     85.1719     16.7723     22.1650     34.5923    104.2630
  1040.0000     85.4953     17.0825     23.1409     34.5971    101.8624
  1040.2500     85.8108     17.1879     23.6696     33.5606    101.1262
  1040.5000     86.1055     17.0846     23.6786     32.0748    102.3343
  1040.7500     86.3654     16.7940     23.1933     30.4341    104.2029
  1041.0000     86.5743     16.3588     22.3014     28.7206    106.7335
  1041.2500     86.7151     15.8327     21.1122     27.0787    107.5617
  1041.5000     86.7745     15.2669     19.7406     25.6317    108.2811
  1041.7500     86.7479     14.6992     18.3035     24.1861    109.5785
  1042.0000     86.6445     14.1496     16.9089     22.3276    114.0393
  1042.2500     86.4861     13.6240     15.6366     19.9335    118.3671
  1042.5000     86.3027     13.1205     14.5272     17.4233    125.1132
  1042.7500     86.1245     12.6364     13.5854     15.3891    128.9514
  1043.0000     85.9729     12.1724     12.7933     14.0749    133.6765
  1043.2500     85.8544     11.7350     12.1262     13.2795    136.6325
  1043.5000     85.7589     11.3358     11.5632     12.6701    141.2492
  1043.7500     85.6645     10.9886     11.0912     12.0885    144.1399
  1044.0000     85.5477     10.7064     10.7030     11.5919    147.0773
  1044.2500     85.3929     10.4983     10.3938     11.3055    147.5572
  1044.5000     85.1985     10.3683     10.1593     11.2835    145.9807
  1044.7500     84.9744     10.3165      9.9969     11.4732    143.9379
  1045.0000     84.7333     10.3419      9.9077     11.7517    140.6704
  1045.2500     84.4828     10.4440      9.8978     11.9833    138.7660
  1045.5000     84.2240     10.6243      9.9793     12.0860    136.1204
  1045.7500     83.9559     10.8842     10.1697     12.1087    134.1392
  1046.0000     83.6810     11.2237     10.4906     12.2921    130.2515
  1046.2500     83.4073     11.6410     10.9655     13.0593    126.7831
  1046.5000     83.1466     12.1331     11.6176     14.9040    120.2478
  1046.7500     82.9125     12.6980     12.4662     18.1846    115.4517
  1047.0000     82.7171     13.3350     13.5225     22.8820    108.9010
  1047.2500     82.5671     14.0467     14.7869     28.4517    105.6031
  1047.5000     82.4603     14.8405     16.2497     33.9276    102.4058
  1047.7500     82.3862     15.7282     17.8965     38.3039    100.8587
  1048.0000     82.3321     16.7219     19.7119     41.0154     97.7916
  1048.2500     82.2918     17.8256     21.6766     42.2503     94.5915
  1048.5000     82.2683     19.0267     23.7522     42.8955     88.4374
  1048.7500     82.2668     20.2879     25.8669     44.0391     84.3978
  1049.0000     82.2861     21.5452     27.9162     46.2083     79.9149
  1049.2500     82.3172     22.7121     29.7860     48.8890     78.1325
  1049.5000     82.3486     23.6990     31.3815     50.9073     76.6822
  1049.7500     82.3713     24.4415     32.6422     51.5002     76.2981
  1050.0000     82.3799     24.9231     33.5378     50.9863     76.6078
  1050.2500     82.3716     25.1727     34.0577     50.2251     77.3048
  1050.5000     82.3467     25.2405     34.2072     49.5092     78.6262
  1050.7500     82.3086     25.1715     34.0122     48.2714     79.6289
  1051.0000     82.2634     24.9942     33.5270     45.8967     81.8242
  1051.2500     82.2196     24.7235     32.8311     42.5423     84.0213
  1051.5000     82.1881     24.3736     32.0095     39.0697     88.0955
  1051.7500     82.1822     23.9702     31.1283     36.3586     90.7187
  1052.0000     82.2151     23.5528     30.2245     34.7302     93.4524
  1052.2500     82.2956     23.1624     29.3161     33.8185     94.1739
  1052.5000     82.4221     22.8226     28.4215     32.9305     93.6565
  1052.7500     82.5818     22.5309     27.5707     31.7574     92.4020
  1053.0000     82.7583     22.2687     26.8006     30.9040     89.4145
  1053.2500     82.9412     22.0219     26.1400     31.5712     86.9311
  1053.5000     83.1309     21.7962     25.5978     34.3994     83.5156
  1053.7500     83.3355     21.6131     25.1660     38.4324     82.4481
  1054.0000     83.5641     21.4942     24.8354     41.3632     84.0347
  1054.2500     83.8248     21.4449     24.6144     41.2194     87.0207
  1054.5000     84.1242     21.4504     24.5330     38.1123     92.1638
  1054.7500     84.4683     21.4826     24.6271     34.3134     94.5338
  1055.0000     84.8617     21.5089     24.9064     32.4828     95.4937
  1055.2500     85.3089     21.4966     25.3283     33.6622     95.0072
  1055.5000     85.8160     21.4154     25.7968     36.6648     94.5458
  1055.7500     86.3855     21.2422     26.1957     39.1160     95.1158
  1056.0000     87.0090     20.9660     26.4351     39.2045     96.7643
  1056.2500     87.6645     20.5857     26.4707     36.8724     97.5353
  1056.5000     88.3252     20.1025     26.2786     33.6519     97.4283
  1056.7500     88.9706     19.5181     25.8161     31.3754     96.8378
  1057.0000     89.5929     18.8408     25.0186     30.8431     96.4045
  1057.2500     90.1919     18.0935     23.8434     31.4473     97.0096
  1057.5000     90.7659     17.3116     22.3253     31.8150     99.6019
  1057.7500     91.3058     16.5315     20.5910     30.7544    102.3334
  1058.0000     91.7935     15.7793     18.8160     27.8522    107.6406
  1058.2500     92.2062     15.0677     17.1595     23.5745    111.9442
  1058.5000     92.5225     14.3996     15.7221     18.9738    119.5214
  1058.7500     92.7308     13.7731     14.5384     15.1414    124.9982
  1059.0000     92.8344     13.1842     13.5944     12.6802    132.4551
  1059.2500     92.8504     12.6273     12.8490     11.5355    136.0081
  1059.5000     92.8026     12.0961     12.2536     11.2359    138.8618
  1059.7500     92.7145     11.5881     11.7646     11.2714    139.8432
  1060.0000     92.6051     11.1074     11.3494     11.3249    141.5366
  1060.2500     92.4883     10.6649     10.9867     11.2895    143.2056
  1060.5000     92.3752     10.2728     10.6647     11.1689    146.3798
  1060.7500     92.2738      9.9383     10.3784     10.9821    148.8539
  1061.0000     92.1852      9.6598     10.1270     10.7379    152.9984
  1061.2500     92.1017      9.4276      9.9115     10.4647    155.7099
  1061.5000     92.0089      9.2279      9.7313     10.2306    158.6253
  1061.7500     91.8926      9.0469      9.5813     10.1128    159.2152
  1062.0000     91.7468      8.8737      9.4508     10.1437    157.6083
  1062.2500     91.5757      8.7017      9.3253     10.2826    155.0453
  1062.5000     91.3900      8.5279      9.1904     10.4307    150.1361
  1062.7500     91.2003      8.3534      9.0364     10.4733    147.2100
  1063.0000     91.0120      8.1816      8.8604     10.3277    144.9564
  1063.2500     90.8252      8.0179      8.6656      9.9809    145.2347
  1063.5000     90.6367      7.8673      8.4593      9.4950    147.7271
  1063.7500     90.4454      7.7322      8.2502      8.9721    149.9755
  1064.0000     90.2558      7.6110      8.0472      8.5039    152.7369
  1064.2500     90.0781      7.4995      7.8574      8.1422    153.5121
  1064.5000     89.9248      7.3931      7.6849      7.9024    152.6171
  1064.7500     89.8036      7.2894      7.5304      7.7808    150.7012
  1065.0000     89.7151      7.1907      7.3916      7.7631    146.1998
  1065.2500     89.6536      7.1031      7.2649      7.8176    142.5542
  1065.5000     89.6099      7.0348      7.1478      7.8879    137.5328
  1065.7500     89.5738      6.9945      7.0412      7.9040    135.3764
  1066.0000     89.5341      6.9891      6.9509      7.8121    134.5743
  1066.2500     89.4790      7.0233      6.8876      7.6105    135.4211
  1066.5000     89.3955      7.0978      6.8667      7.3613    137.8118
  1066.7500     89.2722      7.2095      6.9046      7.1699    139.3917
  1067.0000     89.1016      7.3512      7.0169      7.1523    140.1617
  1067.2500     88.8832      7.5134      7.2155      7.4173    138.9579
  1067.5000     88.6256      7.6855      7.5057      8.0583    134.9097
