~Version Information
VERS.                      2.0: CWLS Log ASCII Standard - VERSION 2.0
WRAP.                       NO: One line per depth step
~Well Information Block
STRT.FT               955.2500: 
STOP.FT              2226.0000: 
STEP.FT                 0.2500: 
NULL.                -999.2500: 
COMP.          Petrogulf Corporation: COMPANY
WELL.             Burson 8-13R: WELL
FLD.           Purgatorie River: FIELD
LOC.           1045' FNL & 2189' FEL: LOCATION
CNTY.               Las Animas: COUNTY
SRVC.                         : SERVICE COMPANY
DATE.          Fri Apr 30 04:52:15 2004: LOG DATE
UWI.           05 071 08039 00: UNIQUE WELL ID
STAT.                 Colorado: STATE
~Curve Information Block
DEPT.FT            0 000 00 00: Depth
SP.mV                         : DIL Spontaneous Potential
RILD.Ohm-m                    : DIL Deep Resistivity
RILM.Ohm-m                    : DIL Medium Resistivity
RLL3.Ohm-m                    : DIL Shallow Resistivity
~Parameter Information Block
~A  Depth        SP         RILD        RILM        RLL3    
# ...
  1223.2500   2000.0000     14.9756     16.6493   2000.0000
  1223.5000   2000.0000     15.1750     16.7950   2000.0000
  1223.7500   2000.0000     15.6101     16.8798   2000.0000
  1224.0000   2000.0000     16.2164     17.0038   2000.0000
  1224.2500   2000.0000     16.8867     17.2895   2000.0000
  1224.5000   2000.0000     17.5066     17.8303   2000.0000
  1224.7500   2000.0000     17.9908     18.6502   2000.0000
  1225.0000   2000.0000     18.2976     19.6800   2000.0000
  1225.2500   2000.0000     18.4176     20.7439   2000.0000
  1225.5000   2000.0000     18.3575     21.5663   2000.0000
  1225.7500   2000.0000     18.1359     21.8359   2000.0000
  1226.0000   2000.0000     17.7834     21.3625   2000.0000
  1226.2500   2000.0000     17.3382     20.2339   2000.0000
  1226.5000   2000.0000     16.8360     18.7822   2000.0000
  1226.7500   2000.0000     16.3060     17.3693   2000.0000
  1227.0000   2000.0000     15.7717     16.2176   2000.0000
  1227.2500   2000.0000     15.2528     15.3920   2000.0000
  1227.5000   2000.0000     14.7627     14.8598   2000.0000
  1227.7500   2000.0000     14.3074     14.5523   2000.0000
  1228.0000   2000.0000     13.8874     14.4013   2000.0000
  1228.2500   2000.0000     13.5005     14.3554   2000.0000
  1228.5000   2000.0000     13.1420     14.3804   2000.0000
  1228.7500   2000.0000     12.8044     14.4480   2000.0000
  1229.0000   2000.0000     12.4836     14.5202   2000.0000
  1229.2500   2000.0000     12.1845     14.5432   2000.0000
  1229.5000   2000.0000     11.9236     14.4590   2000.0000
  1229.7500   2000.0000     11.7222     14.2291   2000.0000
  1230.0000   2000.0000     11.5964     13.8533   2000.0000
  1230.2500   2000.0000     11.5484     13.3747   2000.0000
  1230.5000   2000.0000     11.5649     12.8676   2000.0000
  1230.7500   2000.0000     11.6196     12.4121   2000.0000
  1231.0000   2000.0000     11.6775     12.0640   2000.0000
  1231.2500   2000.0000     11.7029     11.8332   2000.0000
  1231.5000   2000.0000     11.6685     11.6845   2000.0000
  1231.7500   2000.0000     11.5668     11.5592   2000.0000
  1232.0000   2000.0000     11.4109     11.4067   2000.0000
  1232.2500   2000.0000     11.2263     11.2080   2000.0000
  1232.5000   2000.0000     11.0392     10.9752   2000.0000
  1232.7500   2000.0000     10.8726     10.7365   2000.0000
  1233.0000   2000.0000     10.7487     10.5210   2000.0000
  1233.2500   2000.0000     10.6900     10.3506   2000.0000
  1233.5000   2000.0000     10.7135     10.2398   2000.0000
  1233.7500   2000.0000     10.8209     10.1977   2000.0000
  1234.0000   2000.0000     10.9948     10.2305   2000.0000
  1234.2500   2000.0000     11.2041     10.3417   2000.0000
  1234.5000   2000.0000     11.4175     10.5297   2000.0000
  1234.7500   2000.0000     11.6138     10.7839   2000.0000
  1235.0000   2000.0000     11.7829     11.0818   2000.0000
  1235.2500   2000.0000     11.9202     11.3902   2000.0000
  1235.5000   2000.0000     12.0234     11.6726   2000.0000
  1235.7500   2000.0000     12.0929     11.9009   2000.0000
  1236.0000   2000.0000     12.1332     12.0624   2000.0000
  1236.2500   2000.0000     12.1542     12.1603   2000.0000
  1236.5000   2000.0000     12.1708     12.2076   2000.0000
  1236.7500   2000.0000     12.2000     12.2215   2000.0000
  1237.0000   2000.0000     12.2534     12.2172   2000.0000
  1237.2500   2000.0000     12.3305     12.2037   2000.0000
  1237.5000   2000.0000     12.4172     12.1812   2000.0000
  1237.7500   2000.0000     12.4932     12.1432   2000.0000
  1238.0000   2000.0000     12.5400     12.0827   2000.0000
  1238.2500   2000.0000     12.5465     11.9985   2000.0000
  1238.5000   2000.0000     12.5089     11.8965   2000.0000
  1238.7500   2000.0000     12.4274     11.7873   2000.0000
  1239.0000   2000.0000     12.3036     11.6837   2000.0000
  1239.2500   2000.0000     12.1415     11.5975   2000.0000
  1239.5000   2000.0000     11.9520     11.5356   2000.0000
  1239.7500   2000.0000     11.7557     11.4949   2000.0000
  1240.0000   2000.0000     11.5798     11.4633   2000.0000
  1240.2500   2000.0000     11.4512     11.4267   2000.0000
  1240.5000   2000.0000     11.3894     11.3786   2000.0000
  1240.7500   2000.0000     11.4044     11.3204   2000.0000
  1241.0000   2000.0000     11.4973     11.2531   2000.0000
  1241.2500   2000.0000     11.6650     11.1717   2000.0000
  1241.5000   2000.0000     11.9033     11.0725   2000.0000
  1241.7500   2000.0000     12.2020     10.9681   2000.0000
  1242.0000   2000.0000     12.5318     10.8927   2000.0000
  1242.2500   2000.0000     12.8369     10.8885   2000.0000
  1242.5000   2000.0000     13.0530     10.9865   2000.0000
  1242.7500   2000.0000     13.1483     11.1958   2000.0000
  1243.0000   2000.0000     13.1492     11.5052   2000.0000
  1243.2500   2000.0000     13.1217     11.8935   2000.0000
  1243.5000   2000.0000     13.1302     12.3371   2000.0000
  1243.7500   2000.0000     13.2112     12.8133   2000.0000
  1244.0000   2000.0000     13.3736     13.2999   2000.0000
  1244.2500   2000.0000     13.6102     13.7782   2000.0000
  1244.5000   2000.0000     13.9076     14.2421   2000.0000
  1244.7500   2000.0000     14.2493     14.7060   2000.0000
  1245.0000   2000.0000     14.6176     15.2028   2000.0000
  1245.2500   2000.0000     14.9979     15.7644   2000.0000
  1245.5000   2000.0000     15.3818     16.3877   2000.0000
  1245.7500   2000.0000     15.7666     17.0039   2000.0000
  1246.0000   2000.0000     16.1472     17.4832   2000.0000
  1246.2500   2000.0000     16.5082     17.7059   2000.0000
  1246.5000   2000.0000     16.8238     17.6608   2000.0000
  1246.7500   2000.0000     17.0670     17.4657   2000.0000
  1247.0000   2000.0000     17.2176     17.2813   2000.0000
  1247.2500   2000.0000     17.2678     17.2136   2000.0000
  1247.5000   2000.0000     17.2230     17.2772   2000.0000
  1247.7500   2000.0000     17.1005     17.4194   2000.0000
  1248.0000   2000.0000     16.9176     17.5665   2000.0000
  1248.2500   2000.0000     16.6769     17.6594   2000.0000
  1248.5000   2000.0000     16.3622     17.6568   2000.0000
  1248.7500   2000.0000     15.9580     17.5127   2000.0000
  1249.0000   2000.0000     15.4765     17.1666   2000.0000
  1249.2500   2000.0000     14.9641     16.5730   2000.0000
  1249.5000   2000.0000     14.4796     15.7486   2000.0000
  1249.7500   2000.0000     14.0629     14.7812   2000.0000
  1250.0000   2000.0000     13.7202     13.7874   2000.0000
  1250.2500   2000.0000     13.4321     12.8626   2000.0000
  1250.5000   2000.0000     13.1767     12.0655   2000.0000
  1250.7500   2000.0000     12.9489     11.4265   2000.0000
  1251.0000   2000.0000     12.7560     10.9607   2000.0000
  1251.2500   2000.0000     12.5959     10.6723   2000.0000
  1251.5000   2000.0000     12.4438     10.5522   2000.0000
  1251.7500   2000.0000     12.2672     10.5746   2000.0000
  1252.0000   2000.0000     12.0558     10.6942   2000.0000
  1252.2500   2000.0000     11.8319     10.8512   2000.0000
  1252.5000   2000.0000     11.6266     10.9880   2000.0000
  1252.7500   2000.0000     11.4510     11.0733   2000.0000
  1253.0000   2000.0000     11.2892     11.1150   2000.0000
  1253.2500   2000.0000     11.1210     11.1470   2000.0000
  1253.5000   2000.0000     10.9462     11.2032   2000.0000
  1253.7500   2000.0000     10.7898     11.2970   2000.0000
  1254.0000   2000.0000     10.6822     11.4205   2000.0000
  1254.2500   2000.0000     10.6394     11.5613   2000.0000
  1254.5000   2000.0000     10.6572     11.7218   2000.0000
  1254.7500   2000.0000     10.7181     11.9193   2000.0000
  1255.0000   2000.0000     10.8002     12.1607   2000.0000
  1255.2500   2000.0000     10.8819     12.4122   2000.0000
  1255.5000   2000.0000     10.9444     12.5996   2000.0000
  1255.7500   2000.0000     10.9742     12.6509   2000.0000
  1256.0000   2000.0000     10.9673     12.5453   2000.0000
  1256.2500   2000.0000     10.9348     12.3180   2000.0000
  1256.5000   2000.0000     10.9051     12.0244   2000.0000
