~Version Information
VERS.                      2.0: CWLS Log ASCII Standard - VERSION 2.0
WRAP.                       NO: One line per depth step
~Well Information Block
STRT.FT                -8.2500: 
STOP.FT              2209.7500: 
STEP.FT                 0.2500: 
NULL.                -999.2500: 
COMP.          Petrogulf Corporation: COMPANY
WELL.          Alexander 9-43V: WELL
FLD.           Purgatorie River: FIELD
LOC.                          : LOCATION
CNTY.               Las Animas: COUNTY
SRVC.                         : SERVICE COMPANY
DATE.          Wed May 28 09:25:28 2003: LOG DATE
UWI.           05 071 07727 00: UNIQUE WELL ID
STAT.                 Colorado: STATE
~Curve Information Block
DEPT.FT            0 000 00 00: Depth
CCL.                          : Casing Collar Locator
TT3.usec                      : CBL 3' Travel Time
AMP3.mV                       : CBL 3' Amplitude
GR.GAPI                       : Gamma Ray
~Parameter Information Block
~A  Depth       CCL         TT3         AMP3         GR     
# ...
  1164.2500      0.0000    508.6554      5.7766    103.3305
  1164.5000      0.0000    516.9958      5.7266    109.7486
  1164.7500      0.0000    533.9815      5.7058    119.5527
  1165.0000      0.0000    557.6311      5.6866    130.9672
  1165.2500      0.0000    585.6381      5.6580    141.7670
  1165.5000      0.0000    611.5553      5.6065    150.1864
  1165.7500      0.0000    626.3100      5.5076    155.7123
  1166.0000      0.0000    624.3672      5.3505    159.3321
  1166.2500      0.0000    607.5618      5.1754    162.7416
  1166.5000      0.0000    583.6118      5.0679    166.9652
  1166.7500      0.0000    561.9540      5.0870    171.5463
  1167.0000      0.0000    549.9106      5.1975    174.9077
  1167.2500      0.0000    550.5060      5.3083    175.6822
  1167.5000      0.0000    562.4210      5.3711    174.1276
  1167.7500      0.0000    581.9028      5.3938    172.3562
  1168.0000      0.0000    605.1412      5.3735    172.8160
  1168.2500      0.0000    628.9603      5.2782    176.0879
  1168.5000      0.0000    650.1386      5.1007    180.0401
  1168.7500      0.0000    665.8029      4.8823    181.3097
  1169.0000      0.0000    675.1213      4.6684    177.6980
  1169.2500      0.0000    680.0015      4.4671    169.3687
  1169.5000      0.0000    683.8409      4.2612    158.5113
  1169.7500      0.0000    689.4918      4.0489    148.1838
  1170.0000      0.0000    697.6164      3.8641    140.6074
  1170.2500      0.0000    706.5143      3.7539    135.6917
  1170.5000      0.0000    713.9219      3.7410    131.4695
  1170.7500      0.0000    718.8538      3.7995    126.4671
  1171.0000      0.0000    720.6881      3.8686    121.3018
  1171.2500      0.0000    716.9923      3.9017    117.6179
  1171.5000      0.0000    704.6491      3.9091    115.9367
  1171.7500      0.0000    684.0355      3.9417    115.1829
  1172.0000      0.0000    660.5122      4.0328    114.1621
  1172.2500      0.0000    640.0336      4.1699    113.0233
  1172.5000      0.0000    623.0297      4.3183    113.1300
  1172.7500      0.0000    603.6886      4.4603    115.4690
  1173.0000      0.0000    576.4080      4.6071    119.1945
  1173.2500      0.0000    542.6011      4.7722    122.0227
  1173.5000      0.0000    510.0609      4.9466    122.3148
  1173.7500      0.0000    486.0885      5.1199    120.6740
  1174.0000      0.0000    472.5188      5.3039    119.5051
  1174.2500      0.0000    466.6968      5.4978    121.1415
  1174.5000      0.0000    465.0480      5.6531    126.1320
  1174.7500      0.0000    465.1869      5.7144    132.9881
  1175.0000      0.0000    466.0522      5.6786    139.5867
  1175.2500      0.0000    467.3613      5.5830    144.8992
  1175.5000      0.0000    469.2106      5.4583    149.1285
  1175.7500      0.0000    471.9319      5.3282    152.2805
  1176.0000      0.0000    476.0948      5.2319    153.3014
  1176.2500      0.0000    482.3885      5.2035    151.2388
  1176.5000      0.0000    491.3917      5.2242    147.0103
  1176.7500      0.0000    503.7152      5.2206    143.3653
  1177.0000      0.0000    520.2667      5.1285    142.6137
  1177.2500      0.0000    541.6435      4.9530    144.4409
  1177.5000      0.0000    567.1609      4.7449    146.3339
  1177.7500      0.0000    595.6219      4.5286    146.1086
  1178.0000      0.0000    626.6962      4.2904    143.6050
  1178.2500      0.0000    659.0978      4.0370    140.0246
  1178.5000      0.0000    687.4603      3.8219    136.2554
  1178.7500      0.0000    704.4799      3.6906    132.1741
  1179.0000      0.0000    707.5065      3.6282    127.2574
  1179.2500      0.0000    700.6382      3.5877    121.5476
  1179.5000      0.0000    689.5621      3.5574    115.8720
  1179.7500      0.0000    676.6976      3.5830    110.9726
  1180.0000      0.0000    661.7798      3.7257    106.5388
  1180.2500      2.9614    644.0256      4.0065    101.5146
  1180.5000      0.0000    622.3795      4.3878     95.3353
  1180.7500      0.0000    596.1550      4.7896     88.6462
  1181.0000      0.0000    567.4515      5.1195     82.9169
  1181.2500      0.0000    541.9451      5.3273     79.5559
  1181.5000      0.0000    525.7040      5.4684     79.4205
  1181.7500      0.0000    520.8708      5.6641     82.9676
  1182.0000      0.0000    524.0201      5.9460     90.3000
  1182.2500      0.0000    528.3916      6.1837    100.5620
  1182.5000      0.0000    528.4946      6.2300    111.5769
  1182.7500      0.0000    524.2268      6.0891    120.6602
  1183.0000      0.0000    521.5289      5.8731    125.8308
  1183.2500      0.0000    527.7866      5.6565    126.2933
  1183.5000      0.0000    544.3831      5.4580    122.2432
  1183.7500      0.0000    563.7403      5.3191    114.5862
  1184.0000      0.0000    575.5492      5.3059    104.8033
  1184.2500      0.0000    576.2847      5.4392     94.9277
  1184.5000      0.0000    571.5875      5.6813     87.1660
  1184.7500      0.0000    569.4634      5.9781     82.9788
  1185.0000      0.0000    572.2557      6.2732     82.6336
  1185.2500      0.0000    575.2275      6.5006     85.8164
  1185.5000      0.0000    571.9960      6.6075     92.0896
  1185.7500      0.0000    560.4938      6.5790    100.2746
  1186.0000      0.0000    543.6316      6.4322    108.0643
  1186.2500      0.0000    525.7153      6.2060    113.2411
  1186.5000      0.0000    509.7429      5.9552    115.4432
  1186.7500      0.0000    497.4202      5.7257    116.3763
  1187.0000      0.0000    489.4584      5.5378    118.1862
  1187.2500      0.0000    484.8962      5.4118    121.6627
  1187.5000      0.0000    481.1436      5.3814    125.8406
  1187.7500      0.0000    475.8492      5.4407    129.1077
  1188.0000      0.0000    468.7475      5.5090    130.6264
  1188.2500      0.0000    461.3557      5.5092    130.8967
  1188.5000      0.0000    455.0549      5.4728    131.2013
  1188.7500      0.0000    449.8286      5.5189    132.5162
  1189.0000      0.0000    444.6955      5.7238    134.9030
  1189.2500      0.0000    438.8724      6.0423    137.7850
  1189.5000      0.0000    432.3129      6.3598    140.4285
  1189.7500      0.0000    425.4573      6.5833    141.9667
  1190.0000      0.0000    418.9436      6.6706    141.5221
  1190.2500      0.0000    413.5487      6.6064    138.9105
  1190.5000      0.0000    409.9151      6.3897    135.2319
  1190.7500      0.0000    408.1286      6.0596    132.5557
  1191.0000      0.0000    407.7378      5.7214    132.8297
  1191.2500      0.0000    408.2859      5.5149    136.5613
  1191.5000      0.0000    409.8323      5.5116    142.1519
  1191.7500      0.0000    412.9546      5.6264    146.7699
  1192.0000      0.0000    417.9813      5.6742    148.3334
  1192.2500      0.0000    423.8671      5.5496    146.8266
  1192.5000      0.0000    428.0417      5.3380    143.8586
  1192.7500      0.0000    428.1417      5.2190    141.3388
  1193.0000      0.0000    424.1373      5.2689    140.5893
  1193.2500      0.0000    418.3530      5.3945    141.9504
  1193.5000      0.0000    413.4029      5.4731    144.4856
  1193.7500      0.0000    410.5580      5.5103    146.3186
  1194.0000      0.0000    409.9514      5.6050    145.9800
  1194.2500      0.0000    411.5474      5.7824    143.4964
  1194.5000      0.0000    415.3750      5.9425    139.9970
  1194.7500      0.0000    421.0546      5.9900    136.5694
  1195.0000      0.0000    427.9015      5.9369    133.5785
  1195.2500      0.0000    436.1285      5.8379    130.4981
  1195.5000      0.0000    447.5471      5.6998    126.2814
  1195.7500      0.0000    464.1242      5.5176    120.3525
  1196.0000      0.0000    485.8632      5.3420    113.3350
  1196.2500      0.0000    510.8013      5.2355    106.5956
  1196.5000      0.0000    536.5906      5.1826    101.1303
  1196.7500      0.0000    560.8788      5.1081     96.9120
  1197.0000      0.0000    580.3868      4.9834     93.0376
  1197.2500      0.0000    591.0956      4.8698     88.5540
  1197.5000      0.0000    589.5497      4.8529     83.5037
