~Version Information
VERS.                      2.0: CWLS Log ASCII Standard - VERSION 2.0
WRAP.                       NO: One line per depth step
~Well Information Block
STRT.FT                 3.5000: 
STOP.FT              1971.5000: 
STEP.FT                 0.2500: 
NULL.                -999.2500: 
COMP.          Evergreen Operating Corporation: COMPANY
WELL.          McCullough 34-32 Tr: WELL
FLD.           Purgatorie River: FIELD
LOC.           394' FSL & 2077' FEL: LOCATION
PROV.                 Colorado: PROVINCE
CNTY.               Las Animas: COUNTRY
SRVC.                         : SERVICE COMPANY
DATE.          Fri Sep 24 11:00:22 2004: LOG DATE
UWI.           05 071 08157 00: UNIQUE WELL ID
~Curve Information Block
DEPT.FT            0 000 00 00: Depth
GR.GAPI                       : Gamma Ray
CCL.                          : Casing Collar Locator
TT3.usec                      : CBL 3' Travel Time
AMP3.mV                       : CBL 3' Amplitude
~Parameter Information Block
~A  Depth        GR         CCL         TT3         AMP3    
# ...
  1310.0000    134.2439      0.0000    683.8740      5.2251
  1310.2500    133.1528      0.0000    683.0952      5.2149
  1310.5000    128.4625      0.0000    682.8724      5.2514
  1310.7500    122.1844      0.0000    682.7936      5.3310
  1311.0000    116.1416      0.0000    682.7021      5.4230
  1311.2500    111.2227      0.0000    682.5250      5.4985
  1311.5000    107.6310      0.0000    682.2272      5.5379
  1311.7500    105.4628      0.0000    681.8163      5.5371
  1312.0000    104.9328      0.0000    681.3309      5.5135
  1312.2500    106.1561      0.0000    680.8278      5.4929
  1312.5000    108.7164      0.0000    680.3696      5.4903
  1312.7500    111.6499      0.0000    680.0052      5.5108
  1313.0000    114.1191      0.0000    679.7463      5.5544
  1313.2500    115.9553      0.0000    679.5642      5.6072
  1313.5000    117.4345      0.0000    679.4142      5.6366
  1313.7500    118.7629      0.0000    679.2528      5.6152
  1314.0000    119.7634      0.0000    679.0227      5.5401
  1314.2500    119.8435      0.0000    678.6244      5.4165
  1314.5000    118.4398      0.0000    677.9387      5.2340
  1314.7500    115.6672      0.0000    676.9045      4.9813
  1315.0000    112.4271      0.0000    675.5593      4.6778
  1315.2500    109.8119      0.0000    673.8776      4.3651
  1315.5000    108.3705      0.0000    671.5266      4.0648
  1315.7500    107.7261      0.0000    668.1639      3.7609
  1316.0000    106.7636      0.0000    664.4477      3.4314
  1316.2500    104.3469      0.0000    662.4001      3.0839
  1316.5000    100.0394      0.0000    663.6334      2.7525
  1316.7500     94.1177      0.0000    666.8735      2.4684
  1317.0000     87.0196      0.0000    668.2493      2.2418
  1317.2500     79.0639      0.0000    664.8360      2.0718
  1317.5000     70.7814      0.0000    657.7328      1.9606
  1317.7500     63.2510      0.0000    651.2634      1.9105
  1318.0000     57.7163      0.0000    649.2246      1.9093
  1318.2500     54.7213      0.0000    652.0667      1.9283
  1318.5000     53.8829      0.0000    657.3978      1.9383
  1318.7500     54.6336      0.0000    662.5844      1.9262
  1319.0000     56.7562      0.0000    666.6312      1.8982
  1319.2500     59.8570      0.0000    670.0046      1.8702
  1319.5000     62.7523      0.0000    673.3047      1.8535
  1319.7500     64.0231      0.0000    676.4690      1.8440
  1320.0000     63.2935      0.0000    679.4340      1.8313
  1320.2500     61.7011      0.0000    683.0795      1.8201
  1320.5000     60.9943      0.0000    688.3365      1.8359
  1320.7500     62.2855      0.0000    694.1465      1.8993
  1321.0000     65.6124      0.0000    697.3177      1.9982
  1321.2500     70.2300      0.0000    695.0904      2.0905
  1321.5000     75.0091      0.0000    687.9668      2.1357
  1321.7500     78.7881      0.0000    679.9744      2.1261
  1322.0000     80.7196      0.0000    675.7413      2.0921
  1322.2500     80.5657      0.0000    676.9098      2.0806
  1322.5000     78.8954      0.0000    681.4222      2.1245
  1322.7500     76.8940      0.0000    685.9572      2.2285
  1323.0000     75.5879      0.0000    688.3460      2.3757
  1323.2500     75.1754      0.0000    687.9898      2.5443
  1323.5000     75.2329      0.0000    685.5253      2.7215
  1323.7500     75.3747      0.0000    683.1353      2.9079
  1324.0000     75.6217      0.0000    684.4859      3.1147
  1324.2500     76.5256      0.0000    692.5804      3.3518
  1324.5000     79.1548      0.0000    706.8065      3.6125
  1324.7500     84.6112      0.0000    722.8538      3.8735
  1325.0000     93.0558      0.0000    736.3377      4.1168
  1325.2500    103.0586      0.0000    745.9609      4.3464
  1325.5000    112.2501      0.0000    752.6953      4.5762
  1325.7500    119.0632      0.0000    756.9940      4.8069
  1326.0000    123.8822      0.0000    758.0906      5.0230
  1326.2500    128.3241      0.0000    755.7370      5.2065
  1326.5000    133.3968      0.0000    751.5256      5.3531
  1326.7500    138.4514      0.0000    747.6589      5.4763
  1327.0000    141.8294      0.0000    744.2371      5.5977
  1327.2500    142.3581      0.0000    738.6193      5.7306
  1327.5000    140.4988      0.0000    728.4042      5.8683
  1327.7500    138.3837      0.0000    714.6276      5.9924
  1328.0000    138.4414      0.0000    701.1664      6.0931
  1328.2500    141.5438      0.0000    691.3418      6.1763
  1328.5000    146.4775      0.0000    685.8227      6.2466
  1328.7500    151.1782      0.0000    683.3216      6.2939
  1329.0000    154.2158      0.0000    682.2670      6.3010
  1329.2500    155.1787      0.0000    681.6824      6.2577
  1329.5000    154.1586      0.0000    681.1960      6.1644
  1329.7500    151.4887      0.0000    680.7545      6.0303
  1330.0000    148.1820      0.0000    680.4090      5.8768
  1330.2500    145.9952      0.0000    680.2162      5.7393
  1330.5000    146.3258      0.0000    680.2976      5.6533
  1330.7500    149.0713      0.0000    681.0406      5.6344
  1331.0000    152.8580      0.0000    683.4139      5.6661
  1331.2500    156.1102      0.0000    689.0753      5.7091
  1331.5000    157.7261      0.0000    699.6410      5.7290
  1331.7500    157.3114      0.0000    715.0593      5.7153
  1332.0000    155.3636      0.0000    732.5994      5.6756
  1332.2500    152.9160      0.0000    748.1334      5.6247
  1332.5000    150.5520      0.0000    758.8226      5.5828
  1332.7500    148.0609      0.0000    764.4720      5.5737
  1333.0000    145.3029      0.0000    766.4150      5.6146
  1333.2500    142.9534      0.0000    765.4918      5.7073
  1333.5000    142.0541      0.0000    760.8013      5.8365
  1333.7500    143.1534      0.0000    750.0588      5.9771
  1334.0000    146.1567      0.0000    731.6368      6.1102
  1334.2500    150.7928      0.0000    706.4805      6.2395
  1334.5000    156.8332      0.0000    676.9377      6.3885
  1334.7500    163.5421      0.0000    643.5803      6.5767
  1335.0000    168.9932      0.0000    605.6642      6.7952
  1335.2500    170.7211      0.0000    565.6437      7.0089
  1335.5000    167.9198      0.0000    530.4775      7.1800
  1335.7500    162.7644      0.0000    507.0926      7.2854
  1336.0000    158.7507      0.0000    498.7460      7.3140
  1336.2500    157.7784      0.0000    506.1273      7.2662
  1336.5000    159.2775      0.0000    527.7186      7.1681
  1336.7500    161.6195      0.0000    555.7896      7.0713
  1337.0000    163.3398      0.0000    575.2286      7.0126
  1337.2500    163.2520      0.0000    572.6428      6.9840
  1337.5000    160.7977      0.0000    548.0906      6.9539
  1337.7500    156.6834      0.0000    515.1151      6.9024
  1338.0000    152.1843      0.0000    489.3600      6.8278
  1338.2500    147.3870      0.0000    479.7822      6.7368
  1338.5000    140.8853      0.0000    489.1958      6.6390
  1338.7500    131.6599      0.0000    517.2532      6.5437
  1339.0000    120.7448      0.0000    559.7437      6.4585
  1339.2500    110.5383      0.0000    607.7631      6.3875
  1339.5000    102.5805      0.0000    651.8431      6.3085
  1339.7500     96.1943      0.0000    687.3574      6.1464
  1340.0000     89.2698      0.0000    714.1338      5.8004
  1340.2500     80.2039      0.0000    731.9096      5.2386
  1340.5000     69.0877      0.0000    738.9653      4.5663
  1340.7500     57.6167      0.0000    735.0008      3.9723
  1341.0000     48.3841      0.0000    723.3070      3.5914
  1341.2500     43.8667     -3.0000    709.9614      3.4197
  1341.5000     45.2193      0.0000    701.4490      3.3607
  1341.7500     51.7103      0.0000    701.9165      3.3549
  1342.0000     61.4471      0.0000    711.0389      3.4628
  1342.2500     72.8128      0.0000    724.4343      3.8028
  1342.5000     85.3346      0.0000    736.8003      4.4001
  1342.7500     99.0883      0.0000    744.7680      5.1247
  1343.0000    113.2095      0.0000    747.2927      5.7854
  1343.2500    125.4536      0.0000    744.9337      6.2590
