~Version Information
VERS.                      2.0: CWLS Log ASCII Standard - VERSION 2.0
WRAP.                       NO: One line per depth step
~Well Information Block
STRT.FT               757.3000: 
STOP.FT              2418.0000: 
STEP.FT                 0.1000: 
NULL.                -999.2500: 
COMP.          Petrogulf Corporation: COMPANY
WELL.            Montoya 7-21V: WELL
FLD.           Purgatorie River: FIELD
LOC.           738' FSL & 2070' FWL: LOCATION
CNTY.               Las Animas: COUNTY
SRVC.                         : SERVICE COMPANY
DATE.          Fri Aug 20 14:08:15 2004: LOG DATE
UWI.           05 071 08018 00: UNIQUE WELL ID
STAT.                 Colorado: STATE
~Curve Information Block
DEPT.FT            0 000 00 00: Depth
DCAL.in                       : CDL Caliper
RHOB.g/cc                     : CDL Bulk Density
RHOC.g/cc                     : CDL Density Correction
DPOR.pu                       : CDL Density Porosity
GR.GAPI                       : Gamma Ray
NPOR.pu                       : Neutron Porosity
~Parameter Information Block
~A  Depth       DCAL        RHOB        RHOC        DPOR         GR         NPOR    
# ...
  1006.9000      8.4612      2.5534      0.0106      5.8516    144.2834     26.2464
  1007.0000      8.4803      2.5700      0.0073      4.8502    143.4088     26.6338
  1007.1000      8.4803      2.5937      0.0360      3.4120    144.2158     26.6539
  1007.2000      8.4803      2.6046      0.0164      2.7506    152.0309     25.7271
  1007.3000      8.4872      2.5993      0.0290      3.0734    162.6763     24.8387
  1007.4000      8.4872      2.5908     -0.0144      3.5906    167.1229     24.7070
  1007.5000      8.4921      2.5870      0.0177      3.8173    166.7761     24.9086
  1007.6000      8.4921      2.5835     -0.0034      4.0274    166.2692     24.8420
  1007.7000      8.4921      2.5765     -0.0145      4.4542    164.3657     24.5977
  1007.8000      8.5022      2.5631     -0.0057      5.2663    160.0957     24.6155
  1007.9000      8.5022      2.5425     -0.0398      6.5156    158.0448     25.0980
  1008.0000      8.5055      2.5206     -0.0423      7.8445    161.9010     25.9306
  1008.1000      8.5055      2.4976     -0.0362      9.2384    164.2163     26.8407
  1008.2000      8.5055      2.4626     -0.0151     11.3593    160.3421     27.3702
  1008.3000      8.5128      2.4147     -0.0516     14.2619    155.5818     27.2289
  1008.4000      8.5128      2.3729     -0.0751     16.7963    152.3858     27.2302
  1008.5000      8.5230      2.3463     -0.0362     18.4045    151.8145     28.2087
  1008.6000      8.5230      2.3278     -0.0320     19.5291    155.6993     29.1403
  1008.7000      8.5230      2.3167     -0.0158     20.1998    157.7766     28.8829
  1008.8000      8.5231      2.3126     -0.0070     20.4471    152.5791     28.3490
  1008.9000      8.5231      2.3135     -0.0203     20.3937    148.0903     28.3947
  1009.0000      8.5093      2.3333     -0.0134     19.1936    152.9652     28.4230
  1009.1000      8.5093      2.3812      0.0411     16.2932    163.8535     28.0672
  1009.2000      8.5093      2.4352      0.1268     13.0162    172.6125     27.6543
  1009.3000      8.4884      2.4696      0.1706     10.9342    172.3308     27.6019
  1009.4000      8.4884      2.4814      0.2343     10.2171    165.7569     27.7524
  1009.5000      8.4525      2.4828      0.1702     10.1315    161.7965     27.8535
  1009.6000      8.4525      2.4902      0.1155      9.6851    162.9497     28.0023
  1009.7000      8.4525      2.5061      0.0835      8.7214    167.3460     28.0387
  1009.8000      8.4315      2.5233      0.0638      7.6801    173.8398     27.6762
  1009.9000      8.4315      2.5450      0.0682      6.3649    178.4552     26.9019
  1010.0000      8.4271      2.5748      0.1004      4.5577    176.5277     26.0622
  1010.1000      8.4271      2.6105      0.1285      2.3929    173.4119     25.8739
  1010.2000      8.4271      2.6508      0.2015     -0.0467    175.7559     26.3604
  1010.3000      8.4234      2.6924      0.1926     -2.5691    179.4338     26.7682
  1010.4000      8.4234      2.7302      0.2330     -4.8595    177.2205     26.7309
  1010.5000      8.4232      2.7504      0.2256     -6.0852    167.5251     26.3038
  1010.6000      8.4232      2.7423      0.1777     -5.5955    155.2627     25.7275
  1010.7000      8.4232      2.7149      0.1366     -3.9340    149.9229     25.5729
  1010.8000      8.4239      2.6887      0.1122     -2.3463    152.9097     26.0117
  1010.9000      8.4239      2.6749      0.1044     -1.5081    154.3342     26.4836
  1011.0000      8.4201      2.6671      0.0256     -1.0374    151.1116     26.7565
  1011.1000      8.4201      2.6547      0.0046     -0.2838    150.2225     26.9728
  1011.2000      8.4201      2.6329     -0.0217      1.0374    149.2638     26.9322
  1011.3000      8.4078      2.6158     -0.0605      2.0739    143.7461     26.6188
  1011.4000      8.4078      2.6221      0.0146      1.6919    143.8956     26.4803
  1011.5000      8.3984      2.6416      0.0788      0.5070    151.5035     26.7496
  1011.6000      8.3984      2.6528      0.0941     -0.1700    154.0336     27.1180
  1011.7000      8.3984      2.6521      0.0829     -0.1294    148.5181     27.2731
  1011.8000      8.3976      2.6455      0.1013      0.2741    137.7289     27.3172
  1011.9000      8.3976      2.6343      0.0875      0.9496    127.2685     27.5318
  1012.0000      8.3991      2.6146      0.1180      2.1474    125.3885     27.4524
  1012.1000      8.3991      2.5871      0.0541      3.8129    130.4357     26.4162
  1012.2000      8.3991      2.5648      0.0703      5.1665    136.1603     25.4084
  1012.3000      8.3979      2.5570      0.0307      5.6342    143.6037     25.3801
  1012.4000      8.3979      2.5607      0.0711      5.4140    154.2962     25.5961
  1012.5000      8.3911      2.5681      0.0424      4.9654    161.0499     25.4490
  1012.6000      8.3911      2.5761      0.0976      4.4783    161.0188     25.5906
  1012.7000      8.3911      2.5846      0.0980      3.9622    159.5159     26.6315
  1012.8000      8.3865      2.6009      0.0830      2.9757    156.8118     27.6040
  1012.9000      8.3865      2.6266      0.1533      1.4212    155.6132     27.1998
  1013.0000      8.3847      2.6480      0.1486      0.1217    160.6021     26.0922
  1013.1000      8.3847      2.6607      0.1526     -0.6469    168.5871     25.9147
  1013.2000      8.3847      2.6705      0.1185     -1.2409    173.9414     26.8276
  1013.3000      8.3756      2.6716      0.1557     -1.3075    174.1390     27.5035
  1013.4000      8.3756      2.6503      0.1077     -0.0164    167.5109     27.3736
  1013.5000      8.3577      2.6108      0.0665      2.3750    156.3395     27.2900
  1013.6000      8.3577      2.5713     -0.0174      4.7674    144.7584     27.4317
  1013.7000      8.3577      2.5431     -0.0370      6.4777    133.8845     27.0820
  1013.8000      8.3495      2.5244     -0.0179      7.6126    130.7395     26.1296
  1013.9000      8.3495      2.5144     -0.0444      8.2180    137.9774     24.8635
  1014.0000      8.3604      2.5165     -0.0353      8.0913    146.2501     23.6828
  1014.1000      8.3604      2.5314     -0.0051      7.1909    146.8476     23.0273
  1014.2000      8.3604      2.5624      0.0107      5.3092    139.5927     22.4883
  1014.3000      8.3597      2.6069      0.0896      2.6125    131.8246     21.2543
  1014.4000      8.3597      2.6414      0.1416      0.5222    127.6161     19.5383
  1014.5000      8.3410      2.6449      0.1018      0.3105    124.3791     18.4738
  1014.6000      8.3410      2.6292      0.1201      1.2635    118.5700     18.4753
  1014.7000      8.3410      2.6167      0.0759      2.0185    109.0352     18.5613
  1014.8000      8.3072      2.6091      0.0665      2.4796     98.4368     17.7998
  1014.9000      8.3072      2.5961      0.0559      3.2647     89.0157     16.5719
  1015.0000      8.2539      2.5739      0.0504      4.6102     81.0945     16.0139
  1015.1000      8.2539      2.5488      0.0193      6.1328     74.3587     16.4964
  1015.2000      8.2539      2.5301      0.0241      7.2638     69.4792     17.1871
  1015.3000      8.2172      2.5229      0.0013      7.7017     68.6120     17.1188
  1015.4000      8.2172      2.5278      0.0285      7.4084     70.9088     16.4465
  1015.5000      8.2054      2.5363      0.0524      6.8901     71.5862     16.0248
  1015.6000      8.2054      2.5399      0.0142      6.6747     67.0557     15.7045
  1015.7000      8.2054      2.5427      0.0509      6.5049     59.3651     15.1054
  1015.8000      8.2066      2.5422      0.0655      6.5326     54.3786     14.5464
  1015.9000      8.2066      2.5307      0.0441      7.2299     54.0769     14.2069
  1016.0000      8.2277      2.5175      0.0455      8.0317     55.1526     14.1342
  1016.1000      8.2277      2.5185      0.0336      7.9679     55.6842     14.5033
  1016.2000      8.2277      2.5342      0.0472      7.0167     57.4176     14.9993
  1016.3000      8.2709      2.5483      0.0627      6.1649     61.4306     14.9203
  1016.4000      8.2709      2.5494      0.0340      6.0990     65.5595     14.5368
