~Version Information
VERS.                      2.0: CWLS Log ASCII Standard - VERSION 2.0
WRAP.                       NO: One line per depth step
~Well Information Block
STRT.FT                -4.7500: 
STOP.FT              1784.7500: 
STEP.FT                 0.2500: 
NULL.                -999.2500: 
COMP.          Pioneer Natural Resources: COMPANY
WELL.          Buckeye 11-13 Tr: WELL
FLD.           Purgatorie River: FIELD
LOC.           211' FNL & 1054' FWL--: LOCATION
STAT.                       CO: State
CNTY.               Las Animas: COUNTY
CTRY. USA : Country
SECT. 13 : Section
TOWN. 33S : Township
RANG. 67W : range
SRVC.          Patterson Wireline: SERVICE COMPANY
DATE.          Wed Mar 16 09:19:21 2005: LOG DATE
API.           05 071 08317 00: UNIQUE WELL ID
~Curve Information Block
DEPT.FT            0 000 00 00: Depth
CCL.                          : Casing Collar Locator
TT3.usec                      : CBL 3' Travel Time
AMP3.mV                       : CBL 3' Amplitude
GR.GAPI                       : Gamma Ray
~Parameter Information Block
~A  Depth       CCL         TT3         AMP3         GR     
# ...
   229.7500      0.0000    265.2057     85.0230     83.7863
   230.0000      0.0000    265.2057     84.9884     80.2433
   230.2500      0.0000    265.2101     84.9541     77.2305
   230.5000      0.0000    265.2126     84.9472     74.6414
   230.7500      0.0000    265.2127     84.9863     71.9204
   231.0000      0.0000    265.2162     85.0583     69.0443
   231.2500      0.0000    265.2283     85.1239     66.7579
   231.5000      0.0000    265.2464     85.1572     66.0248
   231.7500      0.0000    265.2629     85.1736     67.2065
   232.0000      0.0000    265.2690     85.2162     69.5755
   232.2500      0.0000    265.2537     85.3214     71.7681
   232.5000      0.0000    265.1776     85.5483     72.9420
   232.7500      0.0000    264.9185     86.0840     73.3720
   233.0000      0.0000    264.2209     87.3457     73.7981
   233.2500      0.0000    262.7908     89.8167     74.4426
   233.5000      0.0000    260.6649     93.4295     74.8173
   233.7500      0.0000    258.5490     96.9686     74.2106
   234.0000      0.0000    257.4717     98.5518     72.2301
   234.2500      0.0000    257.7523     97.2329     69.0673
   234.5000      0.0000    258.5163     93.9538     65.3910
   234.7500      0.0000    258.6425     90.5876     61.9861
   235.0000      0.0000    258.1044     88.3182     59.4960
   235.2500      0.0000    257.9792     87.1664     58.2819
   235.5000      0.0000    259.1274     86.6328     58.0961
   235.7500      0.0000    261.2515     86.3341     57.9472
   236.0000      0.0000    263.3599     86.1221     56.8978
   236.2500      0.0000    264.7678     85.9487     55.1324
   236.5000      0.0000    265.4365     85.7854     53.7305
   236.7500      0.0000    265.6505     85.6191     53.3805
   237.0000      0.0000    265.6652     85.4590     53.8754
   237.2500      0.0000    265.6139     85.3162     54.8284
   237.5000      0.0000    265.5520     85.1979     56.2694
   237.7500      0.0000    265.5019     85.1141     58.4249
   238.0000      0.0000    265.4720     85.0692     61.3526
   238.2500      0.0000    265.4565     85.0480     64.8956
   238.5000      0.0000    265.4453     85.0276     68.6757
   238.7500      0.0000    265.4348     85.0043     72.0017
   239.0000      0.0000    265.4292     84.9977     74.0302
   239.2500      0.0000    265.4305     85.0256     74.3012
   239.5000      0.0000    265.4353     85.0875     73.1732
   239.7500      0.0000    265.4415     85.1677     71.5300
   240.0000      0.0000    265.4494     85.2468     69.9126
   240.2500      0.0000    265.4563     85.3116     68.0690
   240.5000      0.0000    265.4561     85.3625     65.5555
   240.7500      0.0000    265.4484     85.4132     62.6644
   241.0000      0.0000    265.4402     85.4785     60.4578
   241.2500      0.0000    265.4345     85.5632     59.8022
   241.5000      0.0000    265.4256     85.6633     60.5472
   241.7500      0.0000    265.4083     85.7658     61.7582
   242.0000      0.0000    265.3860     85.8471     62.6247
   242.2500      0.0000    265.3675     85.8864     63.0372
   242.5000      0.0000    265.3617     85.8954     63.4656
   242.7500      0.0000    265.3742     85.9216     64.4871
   243.0000      0.0000    265.4035     86.0054     66.3483
   243.2500      0.0000    265.4384     86.1365     68.7194
   243.5000      0.0000    265.4646     86.2609     70.8037
   243.7500      0.0000    265.4765     86.3317     71.8300
   244.0000      0.0000    265.4803     86.3498     71.5916
   244.2500      0.0000    265.4843     86.3526     70.6537
   244.5000      0.0000    265.4864     86.3702     70.0311
   244.7500      0.0000    265.4726     86.4054     70.4591
   245.0000      0.0000    265.4002     86.4373     71.9938
   245.2500      0.0000    265.1501     86.4174     74.5382
   245.5000      0.0000    264.4699     86.2552     78.4501
   245.7500      0.0000    263.0672     85.8587     83.9776
   246.0000      0.0000    260.9814     85.2540     90.2232
   246.2500      0.0000    258.9471     84.6715     95.5634
   246.5000      0.0000    258.0984     84.4332     99.3019
   246.7500      0.0000    258.9981     84.6771    102.2256
   247.0000      0.0000    261.0696     85.2220    105.3442
   247.2500      0.0000    263.1746     85.7484    108.7494
   247.5000      0.0000    264.5804     86.0731    111.9798
   247.7500      0.0000    265.2517     86.2125    114.8782
   248.0000      0.0000    265.4918     86.2533    117.4905
   248.2500      0.0000    265.5677     86.2402    119.3429
   248.5000      0.0000    265.6037     86.1809    119.3720
   248.7500      0.0000    265.6315     86.0984    116.7552
   249.0000      0.0000    265.6497     86.0404    111.8943
   249.2500      0.0000    265.6570     86.0398    106.6607
   249.5000      0.0000    265.6569     86.0811    103.1664
   249.7500      0.0000    265.6539     86.1191    101.8759
   250.0000      0.0000    265.6494     86.1314    101.2751
   250.2500      0.0000    265.6431     86.1354     99.6068
   250.5000      0.0000    265.6379     86.1552     96.4826
   250.7500      0.0000    265.6371     86.1897     92.7915
   251.0000      0.0000    265.6395     86.2312     89.7466
   251.2500      0.0000    265.6377     86.2973     88.2355
   251.5000      0.0000    265.5938     86.4703     88.4969
   251.7500      0.0000    265.3806     86.9648     90.0564
   252.0000      0.0000    264.7282     88.2096     92.1999
   252.2500      0.0000    263.3323     90.6932     94.6709
   252.5000      0.0000    261.2340     94.3494     97.7048
   252.7500      0.0000    259.1776     97.9415    101.3098
   253.0000      0.0000    258.3083     99.5188    104.9489
   253.2500      0.0000    259.2065     97.9783    108.2723
   253.5000      0.0000    261.3321     93.9510    111.6892
   253.7500      0.0000    263.6501     88.8347    115.4706
   254.0000      0.0000    265.6740     83.3913    118.4731
   254.2500      0.0000    267.7961     77.6617    118.5058
   254.5000      0.0000    270.7334     71.7708    114.0821
   254.7500      0.0000    274.6361     66.2205    105.7412
   255.0000      0.0000    278.5622     61.5273     96.0273
   255.2500      0.0000    280.9740     57.9648     88.1339
   255.5000      0.0000    281.0389     55.6005     83.8509
   255.7500      0.0000    279.3643     54.3092     82.4244
   256.0000      0.0000    277.3102     53.7794     81.5436
   256.2500      0.0000    275.8238     53.6529     79.5556
   256.5000     -2.0000    275.0510     53.7025     76.8172
   256.7500     -2.0000    274.6977     53.9231     74.9554
   257.0000      0.0000    274.4122     54.5254     74.7829
   257.2500      0.0000    273.9070     55.8098     75.1147
   257.5000      0.0000    272.9929     57.9673     73.9510
   257.7500      0.0000    271.6470     61.0443     70.6409
   258.0000      0.0000    270.0345     65.0808     66.5000
   258.2500      0.0000    268.4302     69.9795     63.5442
   258.5000      0.0000    267.0865     75.1236     63.0176
   258.7500      0.0000    266.1393     79.4841     64.7886
   259.0000      0.0000    265.5818     82.3472     67.5695
   259.2500      0.0000    265.3079     83.7729     69.8317
   259.5000      0.0000    265.1919     84.3060     70.9685
   259.7500      0.0000    265.1466     84.4573     71.6500
   260.0000      0.0000    265.1318     84.4924     73.0507
   260.2500      0.0000    265.1339     84.5019     75.9181
   260.5000      0.0000    265.1467     84.5007     80.2959
   260.7500      0.0000    265.1622     84.4764     85.7364
   261.0000      0.0000    265.1714     84.4133     91.5871
   261.2500      0.0000    265.1705     84.3166     97.1177
   261.5000      0.0000    265.1650     84.2205    101.4849
   261.7500      0.0000    265.1675     84.1635    103.9206
   262.0000      0.0000    265.1870     84.1569    104.3299
   262.2500      0.0000    265.2189     84.1767    103.6017
   262.5000      0.0000    265.2478     84.1842    102.8841
   262.7500      0.0000    265.2620     84.1571    102.4246
   263.0000      0.0000    265.2625     84.1010    101.4858
