~Version Information
VERS.                      2.0: CWLS Log ASCII Standard - VERSION 2.0
WRAP.                       NO: One line per depth step
~Well Information Block
STRT.FT               500.0000: 
STOP.FT              2760.5000: 
STEP.FT                 0.1000: 
NULL.                -999.2500: 
COMP.          Petrogulf Corporation: COMPANY
WELL.              Silva 1-43V: WELL
FLD.           Purgatorie River: FIELD
LOC.           2010' FSL & 614' FEL: LOCATION
PROV.                 Colorado: PROVINCE
CNTY.               Las Animas: COUNTRY
SRVC.                Patterson: SERVICE COMPANY
DATE.          Mon Aug 29 08:02:37 2005: LOG DATE
UWI.                          : UNIQUE WELL ID
~Curve Information Block
DEPT.FT            0 000 00 00: Depth
DCAL.in                       : CDL Caliper
RHOB.g/cc                     : CDL Bulk Density
RHOC.g/cc                     : CDL Density Correction
DPOR.pu                       : CDL Density Porosity
GR.GAPI                       : Gamma Ray
NPOR.pu                       : Neutron Porosity
~Parameter Information Block
~A  Depth       DCAL        RHOB        RHOC        DPOR         GR         NPOR    
   500.0000      8.1501      2.2564     -0.4090     23.8534    107.1932     39.9998
   500.1000      8.1501      2.2716     -0.3549     22.9352    111.3301     40.1201
   500.2000      8.1501      2.2756     -0.3735     22.6886    111.8829     40.2924
   500.3000      8.1566      2.2708     -0.3822     22.9814    111.0729     40.4603
   500.4000      8.1566      2.2649     -0.3701     23.3415    112.0744     40.6493
   500.5000      8.1708      2.2619     -0.3965     23.5239    113.2156     40.8630
   500.6000      8.1708      2.2641     -0.4218     23.3884    110.6896     40.8213
   500.7000      8.1708      2.2679     -0.3783     23.1562    105.7320     40.4359
   500.8000      8.1673      2.2707     -0.3976     22.9899    102.9903     40.0222
   500.9000      8.1673      2.2783     -0.3971     22.5273    103.0321     39.8386
   501.0000      8.1741      2.2865     -0.3159     22.0274    101.8844     39.8491
   501.1000      8.1741      2.2838     -0.3700     22.1910     99.0402     39.8691
   501.2000      8.1741      2.2759     -0.3853     22.6756     98.2770     39.7367
   501.3000      8.1753      2.2733     -0.3832     22.8276    100.6408     39.4870
   501.4000      8.1753      2.2748     -0.3422     22.7408    103.2236     39.3452
   501.5000      8.1861      2.2731     -0.3980     22.8452    103.8482     39.4525
   501.6000      8.1861      2.2646     -0.3985     23.3562    103.1021     39.6651
   501.7000      8.1861      2.2469     -0.3900     24.4318    101.9294     39.6985
   501.8000      8.1920      2.2198     -0.4102     26.0714    101.4500     39.4846
   501.9000      8.1920      2.1964     -0.4399     27.4928    101.7169     39.1607
   502.0000      8.1960      2.1907     -0.4509     27.8351    101.0560     38.9033
   502.1000      8.1960      2.2054     -0.4168     26.9457     99.9271     38.8887
   502.2000      8.1960      2.2359     -0.4205     25.0966     99.2495     39.0845
   502.3000      8.1924      2.2661     -0.3384     23.2678     98.0203     39.2311
   502.4000      8.1924      2.2690     -0.3361     23.0891     96.0218     39.2584
   502.5000      8.1884      2.2399     -0.4253     24.8543     94.8126     39.2784
   502.6000      8.1884      2.2057     -0.4405     26.9252     94.2818     39.2440
   502.7000      8.1884      2.1913     -0.4138     27.8029     93.5194     38.9910
   502.8000      8.1739      2.1984     -0.4166     27.3722     93.6270     38.5439
   502.9000      8.1739      2.2128     -0.3453     26.4961     95.4852     38.1805
   503.0000      8.1814      2.2170     -0.3624     26.2447     96.9342     38.1291
   503.1000      8.1814      2.2052     -0.4044     26.9593     95.7716     38.3847
   503.2000      8.1814      2.1853     -0.4168     28.1657     95.1246     38.6725
   503.3000      8.1762      2.1695     -0.4368     29.1204     97.3333     38.7753
   503.4000      8.1762      2.1734     -0.4729     28.8852     99.6519     38.7294
   503.5000      8.1739      2.2025     -0.4144     27.1220    101.7577     38.6990
   503.6000      8.1739      2.2308     -0.3277     25.4059    105.3260     38.8693
   503.7000      8.1739      2.2243     -0.3245     25.7989    109.6043     39.2023
   503.8000      8.1652      2.1909     -0.4272     27.8213    111.6413     39.4106
   503.9000      8.1652      2.1648     -0.4398     29.4087    110.5197     39.4117
   504.0000      8.1760      2.1498     -0.4219     30.3168    109.5471     39.3782
   504.1000      8.1760      2.1331     -0.4253     31.3274    110.8501     39.3739
   504.2000      8.1760      2.1261     -0.4746     31.7530    113.8660     39.4141
   504.3000      8.1716      2.1349     -0.4140     31.2177    116.7750     39.6807
   504.4000      8.1716      2.1352     -0.3833     31.1991    118.1786     40.2525
   504.5000      8.1733      2.1198     -0.4772     32.1306    119.0377     40.8565
   504.6000      8.1733      2.1099     -0.4475     32.7318    118.9080     41.1884
   504.7000      8.1733      2.1121     -0.4759     32.5974    116.7417     41.2461
   504.8000      8.1716      2.1165     -0.4103     32.3362    114.6205     41.2848
   504.9000      8.1716      2.1148     -0.4263     32.4387    112.7388     41.4449
   505.0000      8.1588      2.1118     -0.4585     32.6176    111.2457     41.4835
   505.1000      8.1588      2.1096     -0.4139     32.7492    112.1400     41.1783
   505.2000      8.1588      2.1009     -0.4352     33.2788    114.0407     40.7006
   505.3000      8.1790      2.0897     -0.4769     33.9598    114.3835     40.4018
   505.4000      8.1790      2.0842     -0.4692     34.2889    113.7189     40.3756
   505.5000      8.1806      2.0888     -0.4969     34.0093    112.3950     40.4479
   505.6000      8.1806      2.1092     -0.4651     32.7739    108.3269     40.4721
   505.7000      8.1806      2.1392     -0.4080     30.9605    104.7060     40.4305
   505.8000      8.1717      2.1603     -0.4136     29.6789    106.0477     40.3861
   505.9000      8.1717      2.1672     -0.4187     29.2607    107.6558     40.2376
   506.0000      8.1833      2.1733     -0.4328     28.8934    104.7251     39.8374
   506.1000      8.1833      2.1880     -0.3992     28.0027    100.6438     39.4096
   506.2000      8.1833      2.1975     -0.3466     27.4252     98.6140     39.1462
   506.3000      8.1920      2.1870     -0.4073     28.0579     97.8313     39.0129
   506.4000      8.1920      2.1714     -0.4400     29.0040     97.9838     39.0598
   506.5000      8.1777      2.1716     -0.4094     28.9943     99.7312     39.2871
   506.6000      8.1777      2.1859     -0.4003     28.1297    100.7245     39.5193
   506.7000      8.1777      2.2036     -0.3652     27.0563     98.4002     39.7058
   506.8000      8.1761      2.2176     -0.3858     26.2090     94.8766     39.9382
   506.9000      8.1761      2.2251     -0.3649     25.7500     93.5263     40.0853
   507.0000      8.1705      2.2300     -0.3874     25.4565     94.4221     40.0501
   507.1000      8.1705      2.2333     -0.3734     25.2554     96.2207     40.0884
   507.2000      8.1705      2.2236     -0.3755     25.8450     99.3430     40.3215
   507.3000      8.1659      2.1974     -0.4394     27.4318    104.1101     40.5327
   507.4000      8.1659      2.1660     -0.3975     29.3348    108.3576     40.5637
   507.5000      8.1653      2.1368     -0.4474     31.1016    109.8806     40.4759
   507.6000      8.1653      2.1150     -0.4413     32.4253    109.7675     40.4766
   507.7000      8.1653      2.1017     -0.4425     33.2328    110.2382     40.5779
   507.8000      8.1653      2.0999     -0.4558     33.3381    111.6852     40.5634
   507.9000      8.1653      2.1118     -0.4434     32.6207    113.5629     40.4406
   508.0000      8.1623      2.1232     -0.4011     31.9293    114.7189     40.3447
   508.1000      8.1623      2.1187     -0.4177     32.2017    115.0833     40.3099
   508.2000      8.1623      2.1036     -0.4174     33.1131    115.0105     40.3960
   508.3000      8.1432      2.0973     -0.4508     33.4988    113.4976     40.6505
   508.4000      8.1432      2.1103     -0.4264     32.7085    112.7964     40.9614
   508.5000      8.1619      2.1278     -0.3863     31.6502    116.3822     41.0674
   508.6000      8.1619      2.1218     -0.4045     32.0143    122.4564     40.8420
   508.7000      8.1619      2.0920     -0.4592     33.8167    125.5021     40.4828
   508.8000      8.1485      2.0684     -0.4988     35.2480    123.2932     40.3703
   508.9000      8.1485      2.0654     -0.4219     35.4295    119.9342     40.6174
   509.0000      8.1313      2.0735     -0.4579     34.9420    118.5079     40.9177
   509.1000      8.1313      2.0830     -0.4203     34.3628    117.7531     40.9573
   509.2000      8.1313      2.0872     -0.4395     34.1091    116.6637     40.7643
   509.3000      8.1330      2.0865     -0.4589     34.1499    115.5401     40.5548
   509.4000      8.1330      2.0820     -0.4071     34.4213    114.5684     40.5343
   509.5000      8.1324      2.0694     -0.4436     35.1878    113.7349     40.7667
