~Version Information
VERS.                      2.0: CWLS Log ASCII Standard - VERSION 2.0
WRAP.                       NO: One line per depth step
~Well Information Block
STRT.FT                -4.7500: 
STOP.FT              1784.7500: 
STEP.FT                 0.2500: 
NULL.                -999.2500: 
COMP.          Pioneer Natural Resources: COMPANY
WELL.          Buckeye 11-13 Tr: WELL
FLD.           Purgatorie River: FIELD
LOC.           211' FNL & 1054' FWL--: LOCATION
STAT.                       CO: State
CNTY.               Las Animas: COUNTY
CTRY. USA : Country
SECT. 13 : Section
TOWN. 33S : Township
RANG. 67W : range
SRVC.          Patterson Wireline: SERVICE COMPANY
DATE.          Wed Mar 16 09:19:21 2005: LOG DATE
API.           05 071 08317 00: UNIQUE WELL ID
~Curve Information Block
DEPT.FT            0 000 00 00: Depth
CCL.                          : Casing Collar Locator
TT3.usec                      : CBL 3' Travel Time
AMP3.mV                       : CBL 3' Amplitude
GR.GAPI                       : Gamma Ray
~Parameter Information Block
~A  Depth       CCL         TT3         AMP3         GR     
# ...
  1737.2500      0.0000    681.8738      4.6753     66.8163
  1737.5000      0.0000    683.6327      4.7377     66.0823
  1737.7500      0.0000    687.9095      5.0209     64.8745
  1738.0000      0.0000    691.8314      5.3818     62.7774
  1738.2500      0.0000    693.5803      5.6563     59.9555
  1738.5000      0.0000    692.5198      5.7286     56.9794
  1738.7500      0.0000    689.2659      5.5775     54.5716
  1739.0000      0.0000    685.2682      5.3109     53.2479
  1739.2500      0.0000    681.9894      5.1276     53.0813
  1739.5000      0.0000    680.3151      5.1791     53.8706
  1739.7500      0.0000    680.6707      5.4406     55.5570
  1740.0000      0.0000    683.5298      5.7247     58.2204
  1740.2500      0.0000    689.6004      5.8198     61.4244
  1740.5000      0.0000    699.4300      5.6222     63.8454
  1740.7500      0.0000    712.8037      5.1778     64.0705
  1741.0000      0.0000    728.2197      4.6443     61.8835
  1741.2500      0.0000    742.4450      4.2119     58.4848
  1741.5000      0.0000    750.9691      4.0131     55.4325
  1741.7500      0.0000    750.3091      4.0601     53.6547
  1742.0000      0.0000    740.6326      4.2506     53.3775
  1742.2500      0.0000    725.6405      4.4466     54.4521
  1742.5000      0.0000    709.8173      4.5701     56.5729
  1742.7500      0.0000    696.1931      4.6332     59.3461
  1743.0000      0.0000    686.0827      4.6751     62.2413
  1743.2500      0.0000    679.6970      4.6947     64.5786
  1743.5000      0.0000    676.7477      4.6781     65.8431
  1743.7500      0.0000    676.9493      4.6759     66.1794
  1744.0000      0.0000    680.0367      4.7901     66.4754
  1744.2500      0.0000    685.2891      5.0580     67.6608
  1744.5000      0.0000    691.6125      5.3756     69.6217
  1744.7500      0.0000    698.7262      5.5580     70.8625
  1745.0000      0.0000    707.8287      5.4794     69.6839
  1745.2500      0.0000    719.7606      5.1745     65.8623
  1745.5000      0.0000    732.1132      4.8295     60.9231
  1745.7500      0.0000    739.4223      4.6666     56.7692
  1746.0000      0.0000    737.6855      4.7942     54.4404
  1746.2500      0.0000    728.6553      5.1295     54.2435
  1746.5000      0.0000    718.8450      5.4501     56.5489
  1746.7500      0.0000    714.4224      5.5369     61.9541
  1747.0000      0.0000    717.6127      5.3065     70.6875
  1747.2500      0.0000    727.0822      4.8530     82.0148
  1747.5000      0.0000    739.9888      4.3835     94.2823
  1747.7500      0.0000    753.2011      4.0930    105.7441
  1748.0000      0.0000    763.5270      4.0572    115.5413
  1748.2500      0.0000    767.8008      4.2108    123.8381
  1748.5000      0.0000    763.7275      4.4168    130.9466
  1748.7500      0.0000    752.2456      4.5693    136.4624
  1749.0000      0.0000    739.3513      4.6529    139.3563
  1749.2500      0.0000    733.1703      4.7189    138.7424
  1749.5000      0.0000    737.4420      4.8111    134.4492
  1749.7500      0.0000    749.0132      4.9235    127.2497
  1750.0000      2.0000    762.6484      5.0231    119.0070
  1750.2500      2.0000    776.2316      5.0909    112.3423
  1750.5000      0.0000    789.8972      5.1332    109.5152
  1750.7500      0.0000    802.4697      5.1706    111.1969
  1751.0000      0.0000    811.2983      5.2245    116.1431
  1751.2500      0.0000    814.9479      5.2966    122.0494
  1751.5000      0.0000    814.8901      5.3562    127.1971
  1751.7500      0.0000    814.4882      5.3707    131.7993
  1752.0000      0.0000    816.1725      5.3566    137.3831
  1752.2500      0.0000    819.4116      5.3828    144.3479
  1752.5000      0.0000    821.4164      5.5135    150.5985
  1752.7500      0.0000    819.5079      5.7494    153.1496
  1753.0000      0.0000    812.4066      6.0258    150.8613
  1753.2500      0.0000    799.6213      6.2597    145.4864
  1753.5000      0.0000    780.9540      6.4006    140.1942
  1753.7500      0.0000    757.6810      6.4487    136.8582
  1754.0000      0.0000    733.3938      6.4395    134.6818
  1754.2500      0.0000    711.2419      6.4122    131.6947
  1754.5000      0.0000    689.6409      6.3834    127.3584
  1754.7500      0.0000    662.9056      6.3354    123.2273
  1755.0000      0.0000    628.4031      6.2244    121.4406
  1755.2500      0.0000    592.7124      6.0055    122.9821
  1755.5000      0.0000    568.7954      5.6598    126.8436
  1755.7500      0.0000    566.1369      5.2058    130.5413
  1756.0000      0.0000    583.9242      4.6958    132.1133
  1756.2500      0.0000    613.3557      4.2060    131.8457
  1756.5000      0.0000    644.6762      3.8175    131.6083
  1756.7500      0.0000    671.3297      3.5869    132.7111
  1757.0000      0.0000    689.7928      3.5302    134.9464
  1757.2500      0.0000    698.6344      3.6315    137.4586
  1757.5000      0.0000    698.5260      3.8592    139.9440
  1757.7500      0.0000    692.0994      4.1714    142.8181
  1758.0000      0.0000    682.4122      4.5165    146.3574
  1758.2500      0.0000    670.7561      4.8408    149.9138
  1758.5000      0.0000    656.9765      5.1050    152.3374
  1758.7500      0.0000    643.3798      5.2993    153.1118
  1759.0000      0.0000    636.8743      5.4446    152.7205
  1759.2500      0.0000    644.3555      5.5728    151.9650
  1759.5000      0.0000    666.3929      5.7059    151.2861
  1759.7500      0.0000    697.3607      5.8488    150.7136
  1760.0000      0.0000    730.4160      5.9963    150.1594
  1760.2500      0.0000    760.5085      6.1415    149.7108
  1760.5000      0.0000    784.3507      6.2782    149.8672
  1760.7500      0.0000    800.1996      6.4024    151.4521
  1761.0000      0.0000    808.1304      6.5101    154.9836
  1761.2500      0.0000    809.9432      6.5918    159.9745
  1761.5000      0.0000    808.3900      6.6299    164.9222
  1761.7500      0.0000    805.9735      6.6115    168.0266
  1762.0000      0.0000    803.9251      6.5435    168.2094
  1762.2500      0.0000    802.0169      6.4524    165.7500
  1762.5000      0.0000    798.9527      6.3641    161.7995
  1762.7500      0.0000    792.8445      6.2863    157.2111
  1763.0000      0.0000    782.0614      6.2093    152.2216
  1763.2500      0.0000    766.6934      6.1204    147.3091
  1763.5000      0.0000    749.3993      6.0216    143.9101
  1763.7500      0.0000    734.1006      5.9348    144.0690
  1764.0000      0.0000    723.2136      5.8905    149.1345
  1764.2500      0.0000    715.8092      5.9085    158.2340
  1764.5000      0.0000    707.6122      5.9899    167.7339
  1764.7500      0.0000    692.1829      6.1175    172.9901
  1765.0000      0.0000    663.5555      6.2514    171.6580
  1765.2500      0.0000    620.6054      6.3345    165.3397
  1765.5000      0.0000    569.9865      6.3244    157.6981
  1765.7500      0.0000    523.2649      6.2288    151.3890
  1766.0000      0.0000    489.8438      6.0996    147.1936
  1766.2500      0.0000    472.7562      5.9804    145.1018
  1766.5000      0.0000    470.6014      5.8599    144.9370
  1766.7500      0.0000    480.9951      5.6903    146.0448
  1767.0000      0.0000    500.2832      5.4474    147.3990
  1767.2500      0.0000    521.1736      5.1634    148.2616
  1767.5000      0.0000    534.3508      4.9062    148.3653
  1767.7500      0.0000    534.8148      4.7482    147.6984
  1768.0000      0.0000    525.6139      4.7471    146.5568
  1768.2500      0.0000    514.0919      4.9280    145.4818
  1768.5000      0.0000    505.6466      5.2634    144.6778
  1768.7500      0.0000    501.8176      5.6713    143.6999
  1769.0000      0.0000    502.6908      6.0391    141.9517
  1769.2500      0.0000    509.3690      6.2591    139.3105
  1769.5000      0.0000    524.2257      6.2657    136.1717
  1769.7500      0.0000    549.5662      6.0654    133.1263
  1770.0000      0.0000    586.0181      5.7514    130.6182
  1770.2500      0.0000    630.9367      5.4747    128.5783
  1770.5000      0.0000    677.2333      5.3666    125.8020
