~Version Information
VERS.                      2.0: CWLS Log ASCII Standard - VERSION 2.0
WRAP.                       NO: One line per depth step
~Well Information Block
STRT.FT               -12.2500: 
STOP.FT              2183.0000: 
STEP.FT                 0.2500: 
NULL.                -999.2500: 
COMP.          Petrogulf Corporation: COMPANY
WELL.            Montoya 6-14R: WELL
FLD.           Purgatorie River: FIELD
LOC.           867' FSL & 751' FWL: LOCATION
CNTY.               Las Animas: COUNTY
SRVC.                         : SERVICE COMPANY
DATE.          Mon Nov 22 13:07:31 2004: LOG DATE
UWI.           05-071-08242-00: UNIQUE WELL ID
STAT.                 Colorado: STATE
~Curve Information Block
DEPT.FT            0 000 00 00: Depth
TT3.usec                      : CBL 3' Travel Time
AMP3.mV                       : CBL 3' Amplitude
GR.GAPI                       : Gamma Ray
CCL.                          : Casing Collar Locator
~Parameter Information Block
~A  Depth       TT3         AMP3         GR         CCL     
# ...
   557.2500    284.0738     79.6223    102.2165      0.0000
   557.5000    284.0900     79.7988    101.3876      0.0000
   557.7500    284.0798     80.0037     99.0544      0.0000
   558.0000    284.0574     80.2136     96.1644      0.0000
   558.2500    284.0374     80.4436     94.4358      0.0000
   558.5000    284.0210     80.6989     94.5614      0.0000
   558.7500    283.9955     80.9613     95.5266      0.0000
   559.0000    283.9514     81.1998     95.7381      0.0000
   559.2500    283.8959     81.3798     94.5660      0.0000
   559.5000    283.8448     81.4804     92.6125      0.0000
   559.7500    283.8082     81.5133     90.7345      0.0000
   560.0000    283.7884     81.5091     89.0985      0.0000
   560.2500    283.7819     81.4813     87.0511      0.0000
   560.5000    283.7794     81.4262     83.7093      0.0000
   560.7500    283.7715     81.3462     78.7679      0.0000
   561.0000    283.7559     81.2371     72.9646      0.0000
   561.2500    283.7358     81.0580     67.7353      0.0000
   561.5000    283.7122     80.7716     64.2831      0.0000
   561.7500    283.6859     80.4180     62.9304      0.0000
   562.0000    283.6646     80.0995     63.2340      0.0000
   562.2500    283.6577     79.8848     64.3495      0.0000
   562.5000    283.6651     79.7731     65.1866      0.0000
   562.7500    283.6792     79.7531     64.7756      0.0000
   563.0000    283.6960     79.8335     62.8752      0.0000
   563.2500    283.7192     79.9969     59.9354      0.0000
   563.5000    283.7507     80.1640     56.3567      0.0000
   563.7500    283.7860     80.2306     52.2641      0.0000
   564.0000    283.8180     80.1491     48.1761      0.0000
   564.2500    283.8410     79.9830     45.3349      0.0000
   564.5000    283.8508     79.8840     44.8728      0.0000
   564.7500    283.8452     79.9911     46.7357      0.0000
   565.0000    283.8275     80.3235     49.6158      0.0000
   565.2500    283.8087     80.7724     51.8517      0.0000
   565.5000    283.8017     81.1931     52.3874      0.0000
   565.7500    283.8112     81.4783     51.1438      0.0000
   566.0000    283.8302     81.5550     48.8044      0.0000
   566.2500    283.8475     81.3876     46.3319      0.0000
   566.5000    283.8573     81.0325     44.5782      0.0000
   566.7500    283.8599     80.6418     44.1388      0.0000
   567.0000    283.8574     80.3626     45.2912      0.0000
   567.2500    283.8510     80.2411     47.8190      0.0000
   567.5000    283.8412     80.2278     50.8831      0.0000
   567.7500    283.8277     80.2377     53.3580      0.0000
   568.0000    283.8091     80.2054     54.5084      0.0000
   568.2500    283.7846     80.1303     54.2892      0.0000
   568.5000    283.7572     80.0824     53.0501      0.0000
   568.7500    283.7342     80.1422     51.2681      0.0000
   569.0000    283.7221     80.3321     49.5843      0.0000
   569.2500    283.7209     80.6067     48.5660      0.0000
   569.5000    283.7251     80.8770     48.1043      0.0000
   569.7500    283.7288     81.0429     47.4166      0.0000
   570.0000    283.7292     81.0458     45.9489      0.0000
   570.2500    283.7287     80.9090     44.0714      0.0000
   570.5000    283.7337     80.7150     42.8303      0.0000
   570.7500    283.7495     80.5508     43.2530      0.0000
   571.0000    283.7735     80.4842     45.7448      0.0000
   571.2500    283.7971     80.5559     49.6727      0.0000
   571.5000    283.8126     80.7575     53.5312      0.0000
   571.7500    283.8177     81.0341     55.9134      0.0000
   572.0000    283.8146     81.3304     56.5320      0.0000
   572.2500    283.8087     81.6168     56.2602      0.0000
   572.5000    283.8056     81.8501     56.0327      0.0000
   572.7500    283.8087     81.9428     55.7149      0.0000
   573.0000    283.8175     81.8240     54.3847      0.0000
   573.2500    283.8275     81.5401     51.8100      0.0000
   573.5000    283.8326     81.2498     49.1957      0.0000
   573.7500    283.8279     81.0888     48.1026      0.0000
   574.0000    283.8126     81.0614     48.8381      0.0000
   574.2500    283.7933     81.0848     50.2542      0.0000
   574.5000    283.7819     81.1060     51.0256      0.0000
   574.7500    283.7863     81.1488     50.7926      0.0000
   575.0000    283.8006     81.2691     50.0449      0.0000
   575.2500    283.8068     81.4907     49.3594      0.0000
   575.5000    283.7897     81.7788     49.1060      0.0000
   575.7500    283.7536     82.0599     49.6416      0.0000
   576.0000    283.7206     82.2649     51.3531      0.0000
   576.2500    283.7101     82.3718     54.4041      0.0000
   576.5000    283.7198     82.4227     58.5744      0.0000
   576.7500    283.7292     82.4813     63.5244      0.0000
   577.0000    283.7202     82.5443     69.4091      0.0000
   577.2500    283.6908     82.5217     77.0503      0.0000
   577.5000    283.6521     82.3370     87.0144      0.0000
   577.7500    283.6214     82.0208     98.3852      0.0000
   578.0000    283.6156     81.6778    108.9093      0.0000
   578.2500    283.6399     81.3939    116.5494      0.0000
   578.5000    283.6795     81.2066    120.6160      0.0000
   578.7500    283.7086     81.1324    121.6173      0.0000
   579.0000    283.7117     81.1671    120.6728      0.0000
   579.2500    283.6971     81.2593    118.9932      0.0000
   579.5000    283.6924     81.3133    117.2869      0.0000
   579.7500    283.7354     81.1976    115.5642      0.0000
   580.0000    283.8785     80.6979    113.6804      0.0000
   580.2500    284.2112     79.4684    111.9039      0.0000
   580.5000    284.8617     77.1787    110.7466      0.0000
   580.7500    285.9284     73.8693    110.2500      0.0000
   581.0000    287.3619     70.1408    109.5789      0.0000
   581.2500    288.9257     66.8294    107.4526      0.0000
   581.5000    290.3099     64.4508    103.1707      0.0000
   581.7500    291.3076     63.0249     97.4444      0.0000
   582.0000    291.8948     62.3327     92.2599      0.0000
   582.2500    292.1785     62.1499     89.5686      0.0000
   582.5000    292.2958     62.2573     89.7322     -4.9408
   582.7500    292.3543     62.4020     91.2896      0.0000
   583.0000    292.4175     62.3329     92.4473      0.0000
   583.2500    292.4880     61.9538     92.7627      0.0000
   583.5000    292.4666     61.5116     93.2492      0.0000
   583.7500    292.1441     61.5761     95.0108      0.0000
   584.0000    291.3127     62.6907     98.0583      0.0000
   584.2500    289.9645     65.0020    101.4011      0.0000
   584.5000    288.3756     68.2467    103.9641      0.0000
   584.7500    286.9416     71.9302    105.2624      0.0000
   585.0000    285.9190     75.4208    105.5311      0.0000
   585.2500    285.3275     78.1086    105.5603      0.0000
   585.5000    285.0441     79.7185    106.2067      0.0000
   585.7500    284.9314     80.4396    107.6717      0.0000
   586.0000    284.8942     80.6849    109.1837      0.0000
   586.2500    284.8792     80.7653    109.6015      0.0000
   586.5000    284.8640     80.7901    108.5099      0.0000
   586.7500    284.8468     80.7860    106.7663      0.0000
   587.0000    284.8350     80.8075    105.8566      0.0000
   587.2500    284.8322     80.9285    106.5597      0.0000
   587.5000    284.8342     81.1694    108.1607      0.0000
   587.7500    284.8342     81.4741    108.9135      0.0000
   588.0000    284.8315     81.7611    107.3705      0.0000
   588.2500    284.8334     81.9946    103.5208      0.0000
   588.5000    284.8457     82.2012     98.7643      0.0000
   588.7500    284.8648     82.4126     94.7701      0.0000
   589.0000    284.8831     82.6077     92.3563      0.0000
   589.2500    284.8998     82.7287     91.2908      0.0000
   589.5000    284.9211     82.7435     90.8732      0.0000
   589.7500    284.9507     82.6843     90.6259      0.0000
   590.0000    284.9838     82.6273     90.5175      0.0000
   590.2500    285.0095     82.6251     90.6078      0.0000
   590.5000    285.0203     82.6397     90.6982      0.0000
