~Version Information
VERS.                      2.0: CWLS Log ASCII Standard - VERSION 2.0
WRAP.                       NO: One line per depth step
~Well Information Block
STRT.FT               830.0000: 
STOP.FT              3122.7500: 
STEP.FT                 0.2500: 
NULL.                -999.2500: 
COMP.          Pioneer Natural Resources: COMPANY
WELL.              Stones 24-8: WELL
FLD.           Purgatoire River: FIELD
LOC.           648' FSL & 2264' FWL: LOCATION
PROV.                 Colorado: PROVINCE
CNTY.               Las Animas: COUNTRY
SRVC.                Patterson: SERVICE COMPANY
DATE.          Wed Jan 19 12:44:32 2005: LOG DATE
UWI.           05 071 07945 00: UNIQUE WELL ID
~Curve Information Block
DEPT.FT            0 000 00 00: Depth
SN.Ohm-m                      : IEL Short Normal
SP.mV                         : IEL Spontaneous Potential
DIR.Ohm-m                     : IEL Induction Resistivity
GR.GAPI                       : Gamma Ray
~Parameter Information Block
~A  Depth        SN          SP         DIR          GR     
# ...
  2940.5000     27.9512   -135.0093     20.5367    133.5148
  2940.7500     26.0977   -129.6076     18.9599    138.2697
  2941.0000     24.2566   -123.8642     17.2611    144.6245
  2941.2500     22.5638   -118.1888     15.5999    148.4362
  2941.5000     21.1103   -113.0097     14.1224    154.1485
  2941.7500     19.9155   -108.6909     12.9184    157.8257
  2942.0000     18.9325   -105.4794     12.0125    161.3475
  2942.2500     18.0768   -103.4858     11.3797    161.0621
  2942.5000     17.2610   -102.6823     10.9677    155.7171
  2942.7500     16.4255   -102.8990     10.7178    149.1910
  2943.0000     15.5627   -103.8181     10.5810    136.1747
  2943.2500     14.7304   -104.9851     10.5276    126.2297
  2943.5000     14.0374   -105.8636     10.5489    111.5710
  2943.7500     13.5943   -105.9403     10.6486    103.5596
  2944.0000     13.4497   -104.8502     10.8317     96.3187
  2944.2500     13.5502   -102.4722     11.0929     94.9599
  2944.5000     13.7550    -98.9515     11.4105     97.1454
  2944.7500     13.9084    -94.6419     11.7431    100.5731
  2945.0000     13.9284    -89.9966     12.0336    107.3287
  2945.2500     13.8431    -85.4557     12.2237    112.0634
  2945.5000     13.7486    -81.3663     12.2763    117.8224
  2945.7500     13.7292    -77.9462     12.1922    119.9543
  2946.0000     13.8078    -75.2823     12.0081    120.3515
  2946.2500     13.9502    -73.3473     11.7772    119.3095
  2946.5000     14.0988    -72.0272     11.5462    117.0306
  2946.7500     14.2023    -71.1542     11.3421    115.4512
  2947.0000     14.2288    -70.5432     11.1718    113.0940
  2947.2500     14.1661    -70.0270     11.0290    111.4891
  2947.5000     14.0177    -69.4808     10.9026    109.3500
  2947.7500     13.7983    -68.8318     10.7814    108.7303
  2948.0000     13.5290    -68.0547     10.6555    110.4945
  2948.2500     13.2300    -67.1584     10.5171    113.8435
  2948.5000     12.9152    -66.1733     10.3615    120.7886
  2948.7500     12.5926    -65.1418     10.1899    125.0965
  2949.0000     12.2680    -64.1124     10.0087    129.0902
  2949.2500     11.9479    -63.1346      9.8248    130.2044
  2949.5000     11.6404    -62.2524      9.6418    131.1022
  2949.7500     11.3538    -61.4978      9.4582    131.8532
  2950.0000     11.0946    -60.8899      9.2705    132.9783
  2950.2500     10.8638    -60.4378      9.0769    133.1485
  2950.5000     10.6592    -60.1495      8.8795    131.9729
  2950.7500     10.4804    -60.0401      8.6838    130.4738
  2951.0000     10.3310    -60.1346      8.4967    128.3871
  2951.2500     10.2147    -60.4643      8.3265    127.9984
  2951.5000     10.1304    -61.0570      8.1819    129.7401
  2951.7500     10.0727    -61.9283      8.0719    131.9695
  2952.0000     10.0339    -63.0791      8.0036    134.6957
  2952.2500     10.0046    -64.5033      7.9800    134.9277
  2952.5000      9.9746    -66.2029      7.9989    132.5516
  2952.7500      9.9382    -68.2027      8.0549    129.9105
  2953.0000      9.8997    -70.5507      8.1429    126.2484
  2953.2500      9.8733    -73.2978      8.2614    124.7978
  2953.5000      9.8774    -76.4572      8.4142    124.3161
  2953.7500      9.9284    -79.9626      8.6078    124.7376
  2954.0000     10.0402    -83.6475      8.8476    125.7705
  2954.2500     10.2263    -87.2635      9.1319    126.5015
  2954.5000     10.4971    -90.5348      9.4481    127.4040
  2954.7500     10.8485    -93.2271      9.7702    127.6687
  2955.0000     11.2453    -95.2013     10.0618    127.2490
  2955.2500     11.6208    -96.4304     10.2843    126.5349
  2955.5000     11.9016    -96.9818     10.4094    125.7440
  2955.7500     12.0439    -96.9797     10.4314    126.0896
  2956.0000     12.0486    -96.5684     10.3688    128.4351
  2956.2500     11.9466    -95.8871     10.2524    130.9272
  2956.5000     11.7755    -95.0565     10.1073    134.7443
  2956.7500     11.5664    -94.1722      9.9438    136.4344
  2957.0000     11.3384    -93.3033      9.7629    136.9989
  2957.2500     11.0975    -92.4972      9.5675    136.6681
  2957.5000     10.8424    -91.7902      9.3689    137.2870
  2957.7500     10.5758    -91.2203      9.1827    139.3544
  2958.0000     10.3069    -90.8327      9.0227    144.4628
  2958.2500     10.0461    -90.6741      8.8965    147.9258
  2958.5000      9.8041    -90.7749      8.8064    150.9293
  2958.7500      9.5980    -91.1305      8.7515    150.8811
  2959.0000      9.4533    -91.6920      8.7286    148.2585
  2959.2500      9.3964    -92.3746      8.7329    145.6423
  2959.5000      9.4396    -93.0818      8.7578    141.9106
  2959.7500      9.5690    -93.7337      8.7958    140.2030
  2960.0000      9.7465    -94.2887      8.8390    139.3896
  2960.2500      9.9250    -94.7488      8.8809    139.9194
  2960.5000     10.0681    -95.1527      8.9175    141.1624
  2960.7500     10.1596    -95.5618      8.9475    141.1865
  2961.0000     10.2027    -96.0482      8.9721    138.7204
  2961.2500     10.2129    -96.6852      8.9941    135.6980
  2961.5000     10.2120    -97.5389      9.0179    131.0779
  2961.7500     10.2216    -98.6541      9.0509    128.9340
  2962.0000     10.2568   -100.0365      9.1028    127.2042
  2962.2500     10.3198   -101.6336      9.1823    126.4560
  2962.5000     10.3955   -103.3250      9.2919    125.4794
  2962.7500     10.4533   -104.9313      9.4240    125.3304
  2963.0000     10.4570   -106.2460      9.5624    126.5923
  2963.2500     10.3807   -107.0833      9.6866    128.0049
  2963.5000     10.2204   -107.3269      9.7795    128.9319
  2963.7500      9.9932   -106.9599      9.8330    127.9276
  2964.0000      9.7302   -106.0645      9.8500    124.9038
  2964.2500      9.4698   -104.7916      9.8419    123.3473
  2964.5000      9.2546   -103.3165      9.8220    123.6116
  2964.7500      9.1264   -101.7985      9.8007    125.6280
  2965.0000      9.1157   -100.3593      9.7828    130.4911
  2965.2500      9.2304    -99.0799      9.7698    134.3628
  2965.5000      9.4475    -98.0122      9.7622    140.2574
  2965.7500      9.7171    -97.1911      9.7611    143.7495
  2966.0000      9.9818    -96.6415      9.7670    147.7772
  2966.2500     10.2035    -96.3778      9.7795    149.6935
  2966.5000     10.3784    -96.3969      9.7996    151.5247
  2966.7500     10.5311    -96.6747      9.8344    151.7075
  2967.0000     10.6968    -97.1709      9.9006    149.7538
  2967.2500     10.9016    -97.8444     10.0206    147.3224
  2967.5000     11.1533    -98.6769     10.2134    143.8319
  2967.7500     11.4458    -99.6914     10.4862    142.3471
  2968.0000     11.7740   -100.9579     10.8312    140.7489
  2968.2500     12.1463   -102.5781     11.2312    139.1505
  2968.5000     12.5879   -104.6545     11.6729    135.1225
  2968.7500     13.1371   -107.2547     12.1597    131.6255
  2969.0000     13.8364   -110.3827     12.7151    126.0963
  2969.2500     14.7240   -113.9644     13.3755    122.5227
  2969.5000     15.8232   -117.8508     14.1765    117.1900
  2969.7500     17.1259   -121.8362     15.1380    113.4115
  2970.0000     18.5846   -125.6895     16.2503    107.4759
  2970.2500     20.1281   -129.1936     17.4651    103.8758
  2970.5000     21.6947   -132.1858     18.6978    100.1995
  2970.7500     23.2404   -134.5904     19.8502     99.1307
  2971.0000     24.7174   -136.4366     20.8442     98.7989
  2971.2500     26.0585   -137.8568     21.6462     98.6990
  2971.5000     27.1916   -139.0629     22.2665     98.0448
  2971.7500     28.0693   -140.3036     22.7454     97.2764
  2972.0000     28.6844   -141.8049     23.1363     95.7545
  2972.2500     29.0660   -143.7047     23.4919     94.5475
  2972.5000     29.2598   -145.9991     23.8518     92.9475
  2972.7500     29.3005   -148.5217     24.2297     92.5412
  2973.0000     29.1915   -150.9701     24.6055     93.1447
  2973.2500     28.9061   -152.9757     24.9217     93.6985
  2973.5000     28.4141   -154.1952     25.0926     93.3568
  2973.7500     27.7226   -154.3918     25.0317     92.3708
