~Version Information
VERS.                      2.0: CWLS Log ASCII Standard - VERSION 2.0
WRAP.                       NO: One line per depth step
~Well Information Block
STRT.FT                 0.0000: 
STOP.FT              2384.7500: 
STEP.FT                 0.2500: 
NULL.                -999.2500: 
COMP.          Petrogulf Corporation: COMPANY
WELL.           McDaniel 9-34V: WELL
FLD.           Purgatorie River: FIELD
LOC.           620' FSL & 1800' FEL: LOCATION
STAT.                 Colorado: State
CNTY.               Las Animas: COUNTY
CTRY. USA : Country
SECT. 9 : Section
TOWN. 33S : Township
RANG. 67W : Range
SRVC.                Patterson: SERVICE COMPANY
DATE.          Thu Nov 10 12:28:18 2005: LOG DATE
API. 05-071-08333                         : UNIQUE WELL ID
~Curve Information Block
DEPT.FT            0 000 00 00: Depth
AMP3.mV                       : CBL 3' Amplitude
CCL.                          : Casing Collar Locator
GR.GAPI                       : Gamma Ray
TT3.usec                      : CBL 3' Travel Time
~Parameter Information Block
~A  Depth       AMP3        CCL          GR         TT3     
# ...
  2043.5000      6.0514      0.0000     97.5413    616.7936
  2043.7500      6.0964      0.0000     94.3491    624.3580
  2044.0000      6.0942      0.0000     90.8098    627.7764
  2044.2500      6.0086      0.0000     87.3461    624.3060
  2044.5000      5.8623      0.0000     85.3036    614.3826
  2044.7500      5.6780      0.0000     85.3739    602.6804
  2045.0000      5.4958      0.0000     86.3071    596.9650
  2045.2500      5.3568      0.0000     85.6917    601.3907
  2045.5000      5.2254      0.0000     81.9193    612.5788
  2045.7500      5.0199      0.0000     75.4983    624.9319
  2046.0000      4.7453      0.0000     68.8747    637.6368
  2046.2500      4.4951      0.0000     64.7878    651.3449
  2046.5000      4.3138      0.0000     64.1449    660.8719
  2046.7500      4.1550      0.0000     65.4751    660.4741
  2047.0000      3.9828      0.0000     66.8042    653.0648
  2047.2500      3.8334      0.0000     67.6484    646.4273
  2047.5000      3.7561      0.0000     68.7639    644.5594
  2047.7500      3.7456      0.0000     70.7391    644.4440
  2048.0000      3.7411      0.0000     73.6874    641.0823
  2048.2500      3.6694      0.0000     77.7612    635.3943
  2048.5000      3.5097      0.0000     82.8674    631.9114
  2048.7500      3.3257      0.0000     87.9930    632.2498
  2049.0000      3.2144      0.0000     91.7025    634.6895
  2049.2500      3.2160      0.0000     93.4441    636.2998
  2049.5000      3.3095      0.0000     93.8068    635.5277
  2049.7500      3.4737      0.0000     93.5399    633.7629
  2050.0000      3.6733      0.0000     92.8805    633.3729
  2050.2500      3.8252      0.0000     91.7731    635.7686
  2050.5000      3.8840      0.0000     90.1791    641.1625
  2050.7500      3.9142      0.0000     88.2037    647.8934
  2051.0000      3.9992      0.0000     86.3193    653.1207
  2051.2500      4.1413      0.0000     85.2586    655.5695
  2051.5000      4.2960      0.0000     85.3272    656.4432
  2051.7500      4.4351      0.0000     85.9599    658.1700
  2052.0000      4.5397      0.0000     86.1522    663.4964
  2052.2500      4.5840      0.0000     85.4572    674.0631
  2052.5000      4.5626      0.0000     84.6572    688.3141
  2052.7500      4.4910      0.0000     85.1297    702.3876
  2053.0000      4.3916      0.0000     87.2657    711.6088
  2053.2500      4.3003      0.0000     90.0265    709.9985
  2053.5000      4.2469      0.0000     92.3162    694.4764
  2053.7500      4.2401      0.0000     93.9720    668.1644
  2054.0000      4.2784      0.0000     94.9739    636.4819
  2054.2500      4.3561      0.0000     94.5630    605.9476
  2054.5000      4.4655      0.0000     92.0421    583.9694
  2054.7500      4.5733      0.0000     88.1127    575.6270
  2055.0000      4.5951      0.0000     84.5053    581.8422
  2055.2500      4.4752      0.0000     82.1719    599.5701
  2055.5000      4.2722      0.0000     80.5424    623.2034
  2055.7500      4.0674      0.0000     78.7554    645.7919
  2056.0000      3.8515     -2.0000     76.9397    661.7222
  2056.2500      3.5729      2.0000     75.8759    670.6307
  2056.5000      3.2291      2.0000     75.7230    675.9412
  2056.7500      2.8627      0.0000     75.5251    679.8742
  2057.0000      2.5099      0.0000     73.9758    682.3456
  2057.2500      2.2198      0.0000     70.4017    681.5302
  2057.5000      2.0634      0.0000     64.9791    676.7554
  2057.7500      2.0408      0.0000     58.4984    673.4274
  2058.0000      2.0641      0.0000     52.3456    675.4862
  2058.2500      2.0848      0.0000     48.3908    674.2230
  2058.5000      2.1532      0.0000     48.2667    661.9600
  2058.7500      2.3435      0.0000     52.5645    646.8392
  2059.0000      2.6610      0.0000     60.6132    638.4911
  2059.2500      3.0355      0.0000     70.6332    636.3474
  2059.5000      3.4282      0.0000     80.0239    636.8748
  2059.7500      3.8833      0.0000     86.1646    638.0667
  2060.0000      4.4300      0.0000     87.7047    639.2689
  2060.2500      5.0114      0.0000     85.2854    641.1550
  2060.5000      5.5242      0.0000     80.9110    642.8325
  2060.7500      5.8845      0.0000     76.7623    642.4859
  2061.0000      6.0873      0.0000     74.5737    641.8463
  2061.2500      6.2052      0.0000     75.3927    642.8054
  2061.5000      6.2983      0.0000     79.0475    641.5360
  2061.7500      6.3685      0.0000     83.8790    633.6360
  2062.0000      6.4133      0.0000     87.6531    621.0877
  2062.2500      6.4622      0.0000     89.1477    608.7075
  2062.5000      6.5408      0.0000     88.7704    599.8849
  2062.7500      6.6185      0.0000     87.6674    598.6851
  2063.0000      6.6323      0.0000     86.5965    607.3000
  2063.2500      6.5712      0.0000     85.7215    620.3354
  2063.5000      6.4940      0.0000     84.9839    629.5629
  2063.7500      6.4647      0.0000     84.3764    633.3331
  2064.0000      6.5015      0.0000     84.1266    635.5874
  2064.2500      6.5695      0.0000     84.7151    638.0454
  2064.5000      6.5999      0.0000     86.4228    636.5919
  2064.7500      6.5508      0.0000     88.7860    626.0565
  2065.0000      6.4554      0.0000     90.6866    608.6696
  2065.2500      6.3703      0.0000     91.0231    593.1219
  2065.5000      6.3045      0.0000     89.2946    584.6602
  2065.7500      6.2266      0.0000     85.8664    581.8158
  2066.0000      6.1073      0.0000     81.9649    581.3252
  2066.2500      5.9487      0.0000     79.1641    581.4816
  2066.5000      5.7718      0.0000     78.3855    581.8034
  2066.7500      5.5697      0.0000     79.2597    582.1721
  2067.0000      5.2959      0.0000     80.5261    583.0992
  2067.2500      4.9324      0.0000     80.9550    586.1799
  2067.5000      4.5444      0.0000     79.8628    592.2087
  2067.7500      4.2227      0.0000     77.0732    598.9604
  2068.0000      4.0049      0.0000     72.9282    604.0922
  2068.2500      3.8771      0.0000     68.5133    609.5436
  2068.5000      3.8042      0.0000     65.3355    620.5325
  2068.7500      3.7538      0.0000     64.3677    640.0309
  2069.0000      3.7262      0.0000     65.5689    664.0491
  2069.2500      3.7324      0.0000     68.2673    683.3008
  2069.5000      3.7544      0.0000     71.5397    689.7202
  2069.7500      3.7570      0.0000     74.3463    682.5648
  2070.0000      3.7110      0.0000     75.9220    669.0817
  2070.2500      3.6050      0.0000     76.2196    658.1029
  2070.5000      3.4599      0.0000     75.6769    653.1164
  2070.7500      3.3256      0.0000     74.5173    652.2377
  2071.0000      3.2357      0.0000     72.6563    652.6424
  2071.2500      3.1923      0.0000     70.4311    652.9708
  2071.5000      3.2040      0.0000     69.0607    652.9146
  2071.7500      3.2772      0.0000     69.9672    652.4354
  2072.0000      3.3711      0.0000     73.5070    651.6587
  2072.2500      3.4120      0.0000     78.5014    650.9234
  2072.5000      3.3575      0.0000     83.0348    650.4714
  2072.7500      3.2348      0.0000     85.6697    650.1370
  2073.0000      3.1187      0.0000     85.9595    649.2704
  2073.2500      3.0736      0.0000     84.1407    646.8547
  2073.5000      3.1119      0.0000     80.6957    642.6945
  2073.7500      3.2031      0.0000     76.2320    639.3334
  2074.0000      3.2953      0.0000     71.5835    641.0850
  2074.2500      3.3590      0.0000     67.9143    650.3903
  2074.5000      3.4212      0.0000     66.4570    666.3173
  2074.7500      3.4985      0.0000     67.7404    683.9984
  2075.0000      3.5570      0.0000     71.0205    694.2932
  2075.2500      3.5789      0.0000     74.7119    690.5729
  2075.5000      3.5994      0.0000     77.5087    679.0397
  2075.7500      3.6476      0.0000     79.0434    673.0154
  2076.0000      3.7045      0.0000     79.4589    673.3798
  2076.2500      3.7478      0.0000     78.5561    669.7319
  2076.5000      3.8078      0.0000     75.7017    660.9893
  2076.7500      3.9548      0.0000     70.8100    655.5019
