~Version Information
VERS.                      2.0: CWLS Log ASCII Standard - VERSION 2.0
WRAP.                       NO: One line per depth step
~Well Information Block
STRT.FT               702.7000: 
STOP.FT              2529.2000: 
STEP.FT                 0.1000: 
NULL.                -999.2500: 
COMP.          Pioneer Natural Resources: COMPANY
WELL.          Aztec Federal 41-15: WELL
FLD.           Purgatorie River: FIELD
LOC.           706' FNL & 1253' FEL: LOCATION
CNTY.               Las Animas: COUNTY
SRVC.          Superior Well Services: SERVICE COMPANY
DATE.          Tue Mar 18 09-36-47 2008: LOG DATE
UWI.           05-071-08342-00: UNIQUE WELL ID
STAT.                       CO: STATE
~Curve Information Block
DEPT.FT            0 000 00 00: Depth
DCAL.in                       : CDL Caliper
DPOR.pu                       : CDL Density Porosity
GR.GAPI                       : Gamma Ray
RHOB.g/cc                     : CDL Bulk Density
RHOC.g/cc                     : CDL Density Correction
~Parameter Information Block
~A  Depth       DCAL        DPOR         GR         RHOB        RHOC    
# ...
  1430.7000      8.0176     65.1506     70.4553      1.5750      0.0751
  1430.8000      8.0606     70.9507     69.3545      1.4793      0.0464
  1430.9000      8.1115     76.1316     68.7791      1.3938      0.0109
  1431.0000      8.1647     79.6165     64.9775      1.3363     -0.0187
  1431.1000      8.2133     81.1162     59.7414      1.3116     -0.0314
  1431.2000      8.2501     81.3843     55.9950      1.3072     -0.0346
  1431.3000      8.2683     80.7213     52.8161      1.3181     -0.0337
  1431.4000      8.2633     78.8971     50.2151      1.3482     -0.0256
  1431.5000      8.2340     76.0677     50.2673      1.3949     -0.0129
  1431.6000      8.1844     72.8777     51.2948      1.4475     -0.0058
  1431.7000      8.1234     69.9917     51.9441      1.4951     -0.0182
  1431.8000      8.0618     67.4662     54.3222      1.5368     -0.0563
  1431.9000      8.0086     64.5509     57.9444      1.5849     -0.1025
  1432.0000      7.9682     60.3120     60.8359      1.6549     -0.1271
  1432.1000      7.9405     54.4679     63.4110      1.7513     -0.1243
  1432.2000      7.9228     46.8382     64.9828      1.8772     -0.1060
  1432.3000      7.9118     37.0224     64.7507      2.0391     -0.0733
  1432.4000      7.9046     26.0274     66.6868      2.2205     -0.0265
  1432.5000      7.8995     16.7988     74.9108      2.3728      0.0195
  1432.6000      7.8954     11.3097     86.2842      2.4634      0.0513
  1432.7000      7.8918      8.2745     94.7009      2.5135      0.0832
  1432.8000      7.8886      6.1891     98.1567      2.5479      0.1325
  1432.9000      7.8859      5.8668     99.9201      2.5532      0.1804
  1433.0000      7.8837      7.6366    105.0191      2.5240      0.2029
  1433.1000      7.8822     10.1698    113.0406      2.4822      0.2042
  1433.2000      7.8811     13.1823    116.5941      2.4325      0.1893
  1433.3000      7.8802     17.8594    110.7851      2.3553      0.1540
  1433.4000      7.8793     23.5843    100.7252      2.2609      0.1081
  1433.5000      7.8782     27.9548     94.6353      2.1887      0.0715
  1433.6000      7.8769     29.5894     94.2550      2.1618      0.0510
  1433.7000      7.8754     28.9479     96.2017      2.1724      0.0339
  1433.8000      7.8739     27.8464     95.2252      2.1905     -0.0002
  1433.9000      7.8723     26.9710     88.5838      2.2050     -0.0433
  1434.0000      7.8706     24.7127     80.9141      2.2422     -0.0601
  1434.1000      7.8687     20.4234     78.0688      2.3130     -0.0375
  1434.2000      7.8665     15.2602     79.1645      2.3982      0.0092
  1434.3000      7.8639     10.3763     79.7482      2.4788      0.0534
  1434.4000      7.8612      6.7129     79.6083      2.5392      0.0747
  1434.5000      7.8587      4.6352     81.1131      2.5735      0.0755
  1434.6000      7.8567      4.6550     84.0240      2.5732      0.0602
  1434.7000      7.8560      6.7212     85.1613      2.5391      0.0299
  1434.8000      7.8573      8.9166     83.6545      2.5029      0.0058
  1434.9000      7.8614      9.6978     84.2263      2.4900      0.0068
  1435.0000      7.8687      9.0483     90.0045      2.5007      0.0221
  1435.1000      7.8788      7.6469     98.4726      2.5238      0.0358
  1435.2000      7.8908      6.4456    106.6316      2.5436      0.0396
  1435.3000      7.9027      5.9578    111.6617      2.5517      0.0351
  1435.4000      7.9130      5.4589    113.0239      2.5599      0.0356
  1435.5000      7.9204      4.3051    113.6813      2.5790      0.0438
  1435.6000      7.9248      3.8853    113.8176      2.5859      0.0441
  1435.7000      7.9266      5.5395    111.9864      2.5586      0.0257
  1435.8000      7.9271      7.7832    110.1031      2.5216      0.0011
  1435.9000      7.9275      8.5885    109.6447      2.5083     -0.0088
  1436.0000      7.9289      7.6705    108.5864      2.5234     -0.0000
  1436.1000      7.9320      5.6845    106.5184      2.5562      0.0167
  1436.2000      7.9364      3.7644    104.5104      2.5879      0.0266
  1436.3000      7.9415      2.6704    101.7202      2.6059      0.0254
  1436.4000      7.9462      2.1136     99.2105      2.6151      0.0266
  1436.5000      7.9498      1.4552     98.4199      2.6260      0.0402
  1436.6000      7.9520      0.9857     98.0664      2.6337      0.0569
  1436.7000      7.9529      1.1245     97.5788      2.6314      0.0645
  1436.8000      7.9525      1.2293     96.4160      2.6297      0.0682
  1436.9000      7.9502      0.9316     93.8090      2.6346      0.0752
  1437.0000      7.9457      1.0504     94.1101      2.6327      0.0771
  1437.1000      7.9389      2.7737    102.0754      2.6042      0.0600
  1437.2000      7.9304      5.6685    114.7227      2.5565      0.0333
  1437.3000      7.9217      8.0174    123.4047      2.5177      0.0155
  1437.4000      7.9144      9.6227    123.6902      2.4912      0.0015
  1437.5000      7.9094     10.5351    118.5539      2.4762     -0.0112
  1437.6000      7.9072      9.8615    112.6139      2.4873     -0.0090
  1437.7000      7.9072      7.6981    108.9583      2.5230      0.0099
  1437.8000      7.9083      5.0757    107.4720      2.5663      0.0346
  1437.9000      7.9091      2.8832    104.6700      2.6024      0.0576
  1438.0000      7.9084      1.5813     99.4271      2.6239      0.0790
  1438.1000      7.9053      1.1675     95.0508      2.6307      0.0962
  1438.2000      7.8996      1.6208     93.4350      2.6233      0.0980
  1438.3000      7.8919      2.9208     93.5164      2.6018      0.0825
  1438.4000      7.8834      4.0879     93.9578      2.5825      0.0681
  1438.5000      7.8753      3.5173     93.2862      2.5920      0.0712
  1438.6000      7.8688      2.2401     92.5221      2.6130      0.0757
  1438.7000      7.8643      1.4596     93.3081      2.6259      0.0628
  1438.8000      7.8616      0.2092     96.2808      2.6465      0.0364
  1438.9000      7.8604     -0.9828    100.0237      2.6662      0.0093
  1439.0000      7.8600     -0.8943    101.6811      2.6648     -0.0009
  1439.1000      7.8599     -0.8739    101.7203      2.6644      0.0167
  1439.2000      7.8599     -1.5028    102.5973      2.6748      0.0398
  1439.3000      7.8598     -2.1989    103.8521      2.6863      0.0496
  1439.4000      7.8596     -3.2273    102.2056      2.7033      0.0556
  1439.5000      7.8593     -4.6217     97.5229      2.7263      0.0679
  1439.6000      7.8590     -5.2378     93.9505      2.7364      0.0756
  1439.7000      7.8587     -3.5398     91.6105      2.7084      0.0588
  1439.8000      7.8586      0.2102     88.7576      2.6465      0.0162
  1439.9000      7.8587      3.6028     86.6005      2.5906     -0.0255
  1440.0000      7.8593      4.6139     85.7226      2.5739     -0.0347
  1440.1000      7.8602      3.3834     86.4521      2.5942     -0.0048
  1440.2000      7.8616      1.3919     89.1597      2.6270      0.0386
  1440.3000      7.8632     -0.8899     93.1459      2.6647      0.0736
  1440.4000      7.8650     -3.1961     95.8685      2.7027      0.0981
  1440.5000      7.8673     -3.7716     97.5237      2.7122      0.1060
  1440.6000      7.8704     -2.2544    100.7800      2.6872      0.0981
  1440.7000      7.8744     -0.5122    103.5850      2.6585      0.0916
  1440.8000      7.8790      0.7406    103.2981      2.6378      0.0894
  1440.9000      7.8835      1.9441    101.8839      2.6179      0.0788
  1441.0000      7.8871      2.4364    101.1350      2.6098      0.0658
  1441.1000      7.8893      1.8984    101.8398      2.6187      0.0642
  1441.2000      7.8906      1.5307    102.2490      2.6247      0.0641
  1441.3000      7.8919      1.6394     98.9551      2.6229      0.0583
  1441.4000      7.8939      1.6275     94.8416      2.6231      0.0608
  1441.5000      7.8971      1.3049     96.2730      2.6285      0.0763
  1441.6000      7.9015      0.8414    103.8764      2.6361      0.0922
  1441.7000      7.9068      0.8905    111.8464      2.6353      0.0930
  1441.8000      7.9126      2.2940    113.1932      2.6121      0.0749
