~Version Information
VERS.                      2.0: CWLS Log ASCII Standard - VERSION 2.0
WRAP.                       NO: One line per depth step
~Well Information Block
STRT.FT               510.0000: 
STOP.FT              1845.5000: 
STEP.FT                 0.1000: 
NULL.                -999.2500: 
COMP.          Pioneer Natural Resources: COMPANY
WELL.           Stampede 42-18: WELL
FLD.           Purgatoire River: FIELD
LOC.           2479' FNL & 160' FEL--: LOCATION
CNTY.               Las Animas: COUNTY
SRVC.          Superior Well Services: SERVICE COMPANY
DATE.          Sat Jun 09 02:39:23 2007: LOG DATE
UWI.           05 071 08237 00: UNIQUE WELL ID
STAT.                 Colorado: STATE
~Curve Information Block
DEPT.FT            0 000 00 00: Depth
DCAL.in                       : CDL Caliper
RHOB.g/cc                     : CDL Bulk Density
RHOC.g/cc                     : CDL Density Correction
DPOR.pu                       : CDL Density Porosity
GR.GAPI                       : Gamma Ray
~Parameter Information Block
~A  Depth       DCAL        RHOB        RHOC        DPOR         GR     
# ...
   946.8000      7.9628      2.6128      0.0410      2.2538    124.1235
   946.9000      7.9628      2.6031      0.0666      2.8413    118.3504
   947.0000      7.9618      2.5946      0.0708      3.3564    115.1672
   947.1000      7.9618      2.5895      0.0330      3.6696    115.4610
   947.2000      7.9618      2.5900      0.0706      3.6338    120.0823
   947.3000      7.9605      2.5901      0.0823      3.6273    126.9389
   947.4000      7.9605      2.5898      0.0649      3.6493    130.3277
   947.5000      7.9590      2.5945      0.0700      3.3641    127.0990
   947.6000      7.9590      2.5989      0.0835      3.0985    120.7424
   947.7000      7.9590      2.5972      0.0820      3.1990    119.2549
   947.8000      7.9579      2.5892      0.0960      3.6855    123.5953
   947.9000      7.9579      2.5755      0.0675      4.5170    127.6394
   948.0000      7.9617      2.5633      0.0260      5.2573    131.7022
   948.1000      7.9617      2.5607      0.0481      5.4142    136.5455
   948.2000      7.9617      2.5657      0.0537      5.1076    138.0814
   948.3000      7.9767      2.5708      0.0857      4.7985    136.8523
   948.4000      7.9767      2.5724      0.0475      4.7049    136.1641
   948.5000      7.9997      2.5673      0.0992      5.0096    135.6580
   948.6000      7.9997      2.5555      0.0533      5.7268    134.5451
   948.7000      7.9997      2.5445      0.0925      6.3939    133.4050
   948.8000      8.0207      2.5333      0.0686      7.0725    135.6864
   948.9000      8.0207      2.5157      0.0348      8.1382    142.8619
   949.0000      8.0330      2.4913      0.0304      9.6188    148.0141
   949.1000      8.0330      2.4649     -0.0211     11.2167    144.4734
   949.2000      8.0330      2.4291      0.0230     13.3907    135.4587
   949.3000      8.0394      2.3571      0.0011     17.7494    127.3170
   949.4000      8.0394      2.2425     -0.0115     24.6989    122.4255
   949.5000      8.0481      2.1059     -0.0756     32.9782    118.9083
   949.6000      8.0481      1.9685     -0.0491     41.3027    112.6568
   949.7000      8.0481      1.8443     -0.0884     48.8275    102.9519
   949.8000      8.0717      1.7402     -0.1094     55.1377     91.0961
   949.9000      8.0717      1.6501     -0.0723     60.6024     80.9718
   950.0000      8.1262      1.5695     -0.0498     65.4839     77.5239
   950.1000      8.1262      1.5193     -0.0738     68.5285     78.8692
   950.2000      8.1262      1.5285      0.0093     67.9693     79.3020
   950.3000      8.2095      1.6004      0.0815     63.6142     77.4659
   950.4000      8.2095      1.7093      0.1452     57.0119     76.6612
   950.5000      8.2769      1.8314      0.1484     49.6119     80.7682
   950.6000      8.2769      1.9604      0.1917     41.7938     89.0072
   950.7000      8.2769      2.0870      0.1866     34.1183     95.6563
   950.8000      8.2599      2.2031      0.1903     27.0845     96.4665
   950.9000      8.2599      2.3180      0.2420     20.1220     92.6661
   951.0000      8.1630      2.4329      0.2419     13.1554     88.3656
   951.1000      8.1630      2.5244      0.1948      7.6143     87.2897
   951.2000      8.1630      2.5720      0.1833      4.7299     90.2350
   951.3000      8.0849      2.5833      0.0802      4.0398     94.6099
   951.4000      8.0849      2.5890      0.0384      3.6992     98.7155
   951.5000      8.0620      2.6040      0.1095      2.7899    101.1863
   951.6000      8.0620      2.6131      0.1185      2.2347    101.6461
   951.7000      8.0620      2.6058      0.0854      2.6809    100.9389
   951.8000      8.0657      2.5939      0.0455      3.4012     99.9030
   951.9000      8.0657      2.5966      0.0469      3.2377    102.6262
   952.0000      8.0712      2.6159      0.0777      2.0645    110.1498
   952.1000      8.0712      2.6289      0.1018      1.2770    117.9564
   952.2000      8.0712      2.6176      0.0581      1.9665    124.1877
   952.3000      8.0719      2.5965      0.0656      3.2454    125.4809
   952.4000      8.0719      2.5883      0.0545      3.7400    121.0671
   952.5000      8.0697      2.5864      0.0603      3.8570    121.5832
   952.6000      8.0697      2.5734      0.0207      4.6437    129.7083
   952.7000      8.0697      2.5544      0.0888      5.7952    135.3043
   952.8000      8.0677      2.5446      0.0608      6.3886    135.0977
   952.9000      8.0677      2.5512      0.0607      5.9909    130.9858
   953.0000      8.0666      2.5628      0.1031      5.2834    124.8489
   953.1000      8.0666      2.5625      0.0729      5.3027    122.1097
   953.2000      8.0666      2.5528      0.0786      5.8917    126.0850
   953.3000      8.0654      2.5431      0.0539      6.4785    132.1053
   953.4000      8.0654      2.5331      0.0880      7.0828    137.6283
   953.5000      8.0629      2.5253      0.0788      7.5575    144.7953
   953.6000      8.0629      2.5255      0.0723      7.5451    148.6752
   953.7000      8.0629      2.5266      0.0587      7.4759    144.4525
   953.8000      8.0610      2.5190      0.0618      7.9403    137.6436
   953.9000      8.0610      2.5077      0.0675      8.6245    134.9126
   954.0000      8.0642      2.5036      0.0715      8.8711    134.9067
   954.1000      8.0642      2.5062      0.0995      8.7161    133.9207
   954.2000      8.0642      2.5047      0.0785      8.8077    134.9844
   954.3000      8.0708      2.4973      0.0750      9.2518    141.0339
   954.4000      8.0708      2.4902      0.0425      9.6819    151.0567
   954.5000      8.0766      2.4863      0.0705      9.9184    160.7924
   954.6000      8.0766      2.4867      0.0407      9.8949    164.7334
   954.7000      8.0766      2.4904      0.0688      9.6706    160.8072
   954.8000      8.0833      2.4915      0.0926      9.6037    153.8786
   954.9000      8.0833      2.4750      0.1126     10.6089    148.2637
   955.0000      8.0933      2.4192      0.0792     13.9900    142.6826
   955.1000      8.0933      2.3303     -0.0444     19.3788    138.2659
   955.2000      8.0933      2.2338      0.0002     25.2262    135.5525
   955.3000      8.1060      2.1353     -0.0289     31.1913    131.9649
   955.4000      8.1060      2.0434     -0.0313     36.7666    127.2405
   955.5000      8.1196      1.9799     -0.0791     40.6097    123.6247
   955.6000      8.1196      1.9559     -0.0602     42.0667    121.2738
   955.7000      8.1196      1.9664     -0.0605     41.4320    117.5656
   955.8000      8.1282      2.0086     -0.0523     38.8723    112.8419
   955.9000      8.1282      2.0797      0.0464     34.5654    108.9602
   956.0000      8.1262      2.1623      0.2085     29.5588    107.8721
   956.1000      8.1262      2.2450      0.2113     24.5437    109.8275
   956.2000      8.1262      2.3317      0.2280     19.2929    111.3637
   956.3000      8.1157      2.4157      0.1045     14.1990    111.6647
   956.4000      8.1157      2.4826      0.1278     10.1436    112.8179
   956.5000      8.1079      2.5219      0.0943      7.7614    115.3768
   956.6000      8.1079      2.5337      0.0883      7.0505    119.5438
   956.7000      8.1079      2.5287      0.0907      7.3521    123.6672
   956.8000      8.1056      2.5192      0.0625      7.9268    123.3005
   956.9000      8.1056      2.5098      0.0768      8.4980    118.6765
   957.0000      8.1052      2.4996      0.0597      9.1139    117.9667
   957.1000      8.1052      2.4899      0.0747      9.7035    124.1538
   957.2000      8.1052      2.4844      0.0131     10.0382    133.6825
   957.3000      8.1053      2.4887      0.0606      9.7751    143.3324
   957.4000      8.1053      2.5053      0.0519      8.7703    147.7937
   957.5000      8.1051      2.5310      0.0613      7.2145    145.1205
   957.6000      8.1051      2.5531      0.0693      5.8718    144.5633
   957.7000      8.1051      2.5547      0.1188      5.7781    151.9504
   957.8000      8.1051      2.5330      0.0677      7.0925    161.2785
   957.9000      8.1051      2.5075      0.0407      8.6336    167.7186
