~Version Information
VERS.                      2.0: CWLS Log ASCII Standard - VERSION 2.0
WRAP.                       NO: One line per depth step
~Well Information Block
STRT.FT               260.0000: 
STOP.FT              2611.5000: 
STEP.FT                 0.2500: 
NULL.                -999.2500: 
COMP.          Pioneer Natural Resources: COMPANY
WELL.           Costello 44-24: WELL
FLD.           Purgatoire River: FIELD
LOC.           327' FSL & 378' FEL: LOCATION
PROV.                 Colorado: PROVINCE
CNTY.               Las Animas: COUNTRY
SRVC.                Patterson: SERVICE COMPANY
DATE.          Mon Jul 11 00:49:32 2005: LOG DATE
UWI.           05 071 08413 00: UNIQUE WELL ID
~Curve Information Block
DEPT.FT            0 000 00 00: Depth
SN.Ohm-m                      : IEL Short Normal
SP.mV                         : IEL Spontaneous Potential
DIR.Ohm-m                     : IEL Induction Resistivity
GR.GAPI                       : Gamma Ray
~Parameter Information Block
~A  Depth        SN          SP         DIR          GR     
# ...
  2571.5000     24.6667    281.8360     20.4673     88.8123
  2571.7500     23.9498    281.7602     20.1402     92.3751
  2572.0000     23.2049    281.7202     19.9642     96.2050
  2572.2500     22.3749    281.7083     19.9175     97.8564
  2572.5000     21.5071    281.7253     19.9501     99.6188
  2572.7500     20.8118    281.7758     20.0012    100.9077
  2573.0000     20.5190    281.8548     20.0233    103.6999
  2573.2500     20.7228    281.9402     19.9977    106.0280
  2573.5000     21.3521    282.0030     19.9327    109.4493
  2573.7500     22.2509    282.0273     19.8485    111.3132
  2574.0000     23.3046    282.0144     19.7668    113.3788
  2574.2500     24.4476    281.9621     19.7123    114.4874
  2574.5000     25.5524    281.8428     19.7177    116.3579
  2574.7500     26.3885    281.6058     19.8193    117.9620
  2575.0000     26.7458    281.2048     20.0425    120.5849
  2575.2500     26.6368    280.6266     20.3880    122.0001
  2575.5000     26.3239    279.8968     20.8294    123.0063
  2575.7500     26.0701    279.0616     21.3191    122.7789
  2576.0000     25.9394    278.1641     21.7990    120.8045
  2576.2500     25.8558    277.2324     22.2109    118.1822
  2576.5000     25.7693    276.2873     22.5042    112.3013
  2576.7500     25.7742    275.3573     22.6406    107.5345
  2577.0000     26.0423    274.4846     22.6042    100.5553
  2577.2500     26.5992    273.7117     22.4166     96.9124
  2577.5000     27.3019    273.0567     22.1475     93.8764
  2577.7500     28.0206    272.4937     21.8995     93.5185
  2578.0000     28.6053    271.9595     21.7686     95.1238
  2578.2500     28.7811    271.3908     21.8025     97.3301
  2578.5000     28.3978    270.7628     21.9777    101.4927
  2578.7500     27.6822    270.0928     22.2053    103.9371
  2579.0000     27.0022    269.4146     22.3594    105.1061
  2579.2500     26.5221    268.7639     22.3171    103.4335
  2579.5000     26.2109    268.1868     21.9971     97.9498
  2579.7500     25.9965    267.7413     21.3839     94.0280
  2580.0000     25.8746    267.4762     20.5324     91.2021
  2580.2500     25.9643    267.4032     19.5504     92.4547
  2580.5000     26.2997    267.4861     18.5629     98.5954
  2580.7500     26.5570    267.6569     17.6763    104.4799
  2581.0000     26.2501    267.8478     16.9571    114.1913
  2581.2500     25.1824    268.0208     16.4270    120.4290
  2581.5000     23.5783    268.1759     16.0709    128.1405
  2581.7500     21.8309    268.3373     15.8513    131.5437
  2582.0000     20.2156    268.5295     15.7250    133.7145
  2582.2500     18.8556    268.7602     15.6563    133.6009
  2582.5000     17.7872    269.0195     15.6223    132.1120
  2582.7500     16.9955    269.2928     15.6117    130.5863
  2583.0000     16.4936    269.5770     15.6235    127.6398
  2583.2500     16.3553    269.8914     15.6660    125.3638
  2583.5000     16.6298    270.2675     15.7537    121.9744
  2583.7500     17.2753    270.7211     15.9025    119.9366
  2584.0000     18.1969    271.2276     16.1261    117.0413
  2584.2500     19.3017    271.7269     16.4357    114.9301
  2584.5000     20.5447    272.1517     16.8403    111.2365
  2584.7500     21.9760    272.4604     17.3434    108.5382
  2585.0000     23.6929    272.6537     17.9395    104.5235
  2585.2500     25.6368    272.7706     18.6135    102.1239
  2585.5000     27.4690    272.8633     19.3408     99.5586
  2585.7500     28.7919    272.9615     20.0860     98.8412
  2586.0000     29.4699    273.0495     20.8000     98.8803
  2586.2500     29.6320    273.0791     21.4231     98.9058
  2586.5000     29.4629    273.0070     21.8962     98.1288
  2586.7500     29.0580    272.8208     22.1739     97.4180
  2587.0000     28.4793    272.5337     22.2334     97.2502
  2587.2500     27.8754    272.1710     22.0802     97.9486
  2587.5000     27.3636    271.7698     21.7507     99.6949
  2587.7500     26.8599    271.3849     21.3049    101.1079
  2588.0000     26.2289    271.0726     20.8114    103.8634
  2588.2500     25.4841    270.8589     20.3329    106.3828
  2588.5000     24.7169    270.7246     19.9184    111.2880
  2588.7500     23.9742    270.6304     19.5968    115.1157
  2589.0000     23.2336    270.5583     19.3680    121.0432
  2589.2500     22.4298    270.5311     19.2001    124.5859
  2589.5000     21.5354    270.5963     19.0443    128.0946
  2589.7500     20.6031    270.7997     18.8668    128.5666
  2590.0000     19.7737    271.1624     18.6744    126.3265
  2590.2500     19.2532    271.6633     18.5111    123.6234
  2590.5000     19.1755    272.2345     18.4304    119.4401
  2590.7500     19.5295    272.7829     18.4658    116.8809
  2591.0000     20.2558    273.2304     18.6123    112.3824
  2591.2500     21.2778    273.5452     18.8239    107.9637
  2591.5000     22.4240    273.7426     19.0324     97.4739
  2591.7500     23.5306    273.8557     19.1852     86.9299
  2592.0000     24.5681    273.8970     19.2763     65.3715
  2592.2500     25.5028    273.8452     19.3373     48.7297
  2592.5000     26.1908    273.6661     19.3915     25.7223
  2592.7500     26.4829    273.3454     19.4180     14.4472
  2593.0000     26.3708    272.9029     19.3592      4.7417
  2593.2500     26.0231    272.3852     19.1647      1.8946
  2593.5000     25.6233    271.8484     18.8269      0.3635
  2593.7500     25.1770    271.3431     18.3809      0.0995
  2594.0000     24.5656    270.9076     17.8782      0.0087
  2594.2500     23.7567    270.5636     17.3663      0.0000
  2594.5000     22.8294    270.3118     16.8840   -999.2500
  2594.7500     21.8303    270.1266     16.4612   -999.2500
  2595.0000     20.7131    269.9569     16.1130   -999.2500
  2595.2500     19.4143    269.7454     15.8345   -999.2500
  2595.5000     18.0188    269.4581     15.6037   -999.2500
  2595.7500     16.8047    269.1022     15.3964   -999.2500
  2596.0000     16.0529    268.7098     15.2012   -999.2500
  2596.2500     15.8982    268.3009     15.0247   -999.2500
  2596.5000     16.2927    267.8677     14.8855   -999.2500
  2596.7500     17.0000    267.3989     14.8036   -999.2500
  2597.0000     17.7483    266.9152     14.7934   -999.2500
  2597.2500     18.4519    266.4761     14.8573   -999.2500
  2597.5000     19.2472    266.1449     14.9835   -999.2500
  2597.7500     20.2781    265.9453     15.1488   -999.2500
  2598.0000     21.4149    265.8505     15.3257   -999.2500
  2598.2500     22.3082    265.8132     15.4915   -999.2500
  2598.5000     22.7632    265.8006     15.4686   -999.2500
  2598.7500     22.8489    265.8057     15.5810   -999.2500
  2599.0000     22.6467    265.8358     15.6640   -999.2500
  2599.2500     22.1385    265.8999     15.7062   -999.2500
  2599.5000     21.3407    265.9974     15.6870   -999.2500
  2599.7500     20.3853    266.1118     15.5905   -999.2500
  2600.0000     19.4335    266.2174     15.4220   -999.2500
  2600.2500     18.5832    266.2976     15.2089   -999.2500
  2600.5000     17.8844    266.3542     14.9891   -999.2500
  2600.7500     17.3723    266.3965     14.8037   -999.2500
  2601.0000     17.0270    266.4236     14.7098   -999.2500
  2601.2500     16.7638    266.4204     14.8050   -999.2500
  2601.5000     16.5274    266.3652     15.2495   -999.2500
  2601.7500     16.3663    266.2378     16.2818   -999.2500
  2602.0000     16.3496    266.0271     18.5135   -999.2500
  2602.2500     16.4456    265.7503     21.9749   -999.2500
  2602.5000     16.5831    265.4634     27.5294   -999.2500
  2602.7500     16.7480    265.2386     35.7702   -999.2500
  2603.0000     16.9180    265.1219     46.5507   -999.2500
  2603.2500     17.0477    265.1065     58.0516   -999.2500
  2603.5000     17.1561    265.1409     67.2991   -999.2500
  2603.7500     17.2794    265.1657     72.6708   -999.2500
  2604.0000     17.3911    265.1561     74.9355   -999.2500
  2604.2500     17.4486    265.1376     75.7525   -999.2500
  2604.5000     17.4519    265.1590     76.4096   -999.2500
  2604.7500     17.4148    265.2521     77.6536   -999.2500
