~Version Information
VERS.                      2.0: CWLS Log ASCII Standard - VERSION 2.0
WRAP.                       NO: One line per depth step
~Well Information Block
STRT.FT               998.8000: 
STOP.FT              2235.5000: 
STEP.FT                 0.1000: 
NULL.                -999.2500: 
COMP.          Petrogulf Corporation: COMPANY
WELL.          Latiluppe 8-13R: WELL
FLD.           Purgatorie River: FIELD
LOC.           1495' FSL & 946' FWL: LOCATION
CNTY.               Las Animas: COUNTY
SRVC.                         : SERVICE COMPANY
DATE.          Wed Apr 21 10:46:16 2004: LOG DATE
UWI.           05 071 08035 00: UNIQUE WELL ID
STAT.                 Colorado: STATE
~Curve Information Block
DEPT.FT            0 000 00 00: Depth
DCAL.in                       : CDL Caliper
RHOB.g/cc                     : CDL Bulk Density
RHOC.g/cc                     : CDL Density Correction
DPOR.pu                       : CDL Density Porosity
NPOR.pu                       : Neutron Porosity
GR.GAPI                       : Gamma Ray
~Parameter Information Block
~A  Depth       DCAL        RHOB        RHOC        DPOR        NPOR         GR     
# ...
  1718.8000      7.7792      2.5238      0.0259      7.6474     16.7836    107.6904
  1718.9000      7.7792      2.5293      0.0451      7.3137     18.6715    111.6244
  1719.0000      7.7776      2.5377      0.0287      6.8083     20.4022    116.3450
  1719.1000      7.7776      2.5435      0.0270      6.4565     21.9322    119.0111
  1719.2000      7.7776      2.5416      0.0292      6.5676     23.0439    116.9974
  1719.3000      7.7819      2.5388      0.0046      6.7420     23.6994    112.6644
  1719.4000      7.7819      2.5444      0.0468      6.3977     24.1087    109.8140
  1719.5000      7.7733      2.5561      0.0518      5.6923     24.4189    111.5135
  1719.6000      7.7733      2.5705      0.0852      4.8202     24.5725    117.4464
  1719.7000      7.7733      2.5877      0.0860      3.7785     24.6700    121.2804
  1719.8000      7.7740      2.6036      0.0882      2.8122     24.9354    117.3089
  1719.9000      7.7740      2.6119      0.1100      2.3084     25.2497    108.9223
  1720.0000      7.7786      2.6055      0.1195      2.6940     25.4420    104.7187
  1720.1000      7.7786      2.5894      0.0464      3.6752     25.5782    105.9519
  1720.2000      7.7786      2.5818      0.0567      4.1322     25.6189    108.8810
  1720.3000      7.7743      2.5869      0.0593      3.8217     25.5052    113.7267
  1720.4000      7.7743      2.5908      0.0470      3.5867     25.4694    120.7917
  1720.5000      7.7749      2.5871      0.0269      3.8099     25.6982    124.9051
  1720.6000      7.7749      2.5819      0.0472      4.1271     25.9154    122.6583
  1720.7000      7.7749      2.5788      0.0267      4.3156     25.8907    118.9721
  1720.8000      7.7725      2.5765      0.0267      4.4518     25.8774    120.1853
  1720.9000      7.7725      2.5726      0.0354      4.6916     25.9323    125.5476
  1721.0000      7.7563      2.5693      0.0344      4.8887     25.8677    127.4992
  1721.1000      7.7563      2.5758      0.0452      4.4948     25.9028    124.6669
  1721.2000      7.7563      2.5950      0.0376      3.3331     26.1692    123.9600
  1721.3000      7.7755      2.6176      0.0693      1.9660     26.2405    126.6543
  1721.4000      7.7755      2.6303      0.0918      1.1940     25.8138    127.8647
  1721.5000      7.7749      2.6265      0.0734      1.4268     25.1605    123.9998
  1721.6000      7.7749      2.6097      0.0580      2.4424     24.5685    115.8348
  1721.7000      7.7749      2.5892      0.0300      3.6868     24.1097    110.8334
  1721.8000      7.7803      2.5760     -0.0010      4.4866     23.9323    113.2648
  1721.9000      7.7803      2.5744      0.0411      4.5839     24.2267    115.4801
  1722.0000      7.7769      2.5727      0.0336      4.6864     24.9705    112.0921
  1722.1000      7.7769      2.5607     -0.0043      5.4124     25.6603    107.2220
  1722.2000      7.7769      2.5447     -0.0097      6.3845     25.7765    104.7569
  1722.3000      7.7701      2.5377     -0.0290      6.8036     25.4489    106.1202
  1722.4000      7.7701      2.5494      0.0214      6.0962     24.8902    111.2484
  1722.5000      7.7788      2.5750      0.0384      4.5437     24.2573    117.3399
  1722.6000      7.7788      2.5963      0.0479      3.2525     23.9328    119.7637
  1722.7000      7.7788      2.6029      0.0498      2.8534     23.9830    115.3970
  1722.8000      7.7809      2.6037      0.0593      2.8055     24.1233    108.7613
  1722.9000      7.7809      2.6065      0.0614      2.6338     24.1948    103.6468
  1723.0000      7.7776      2.6033      0.0694      2.8312     24.3258     97.1538
  1723.1000      7.7776      2.5818      0.0326      4.1306     24.4210     90.4575
  1723.2000      7.7776      2.5498     -0.0005      6.0717     24.1395     87.8299
  1723.3000      7.7794      2.5307     -0.0003      7.2285     23.6472     89.8177
  1723.4000      7.7794      2.5309      0.0309      7.2188     23.3463     93.5262
  1723.5000      7.7783      2.5402      0.0205      6.6561     23.2108     95.0232
  1723.6000      7.7783      2.5509      0.0455      6.0057     23.1292     94.5700
  1723.7000      7.7783      2.5612      0.0509      5.3826     23.3143     95.9208
  1723.8000      7.7760      2.5769      0.0340      4.4325     23.7540     99.0011
  1723.9000      7.7760      2.6015      0.0658      2.9419     23.8017    100.9025
  1724.0000      7.7703      2.6248      0.1292      1.5278     23.2613    101.1192
  1724.1000      7.7703      2.6347      0.0851      0.9289     22.7636    100.3173
  1724.2000      7.7703      2.6274      0.0878      1.3676     22.5366     97.7544
  1724.3000      7.7757      2.6036      0.0632      2.8117     22.3771     94.4896
  1724.4000      7.7757      2.5747      0.0240      4.5666     22.4157     92.5206
  1724.5000      7.7761      2.5609      0.0156      5.4025     22.6637     93.6331
  1724.6000      7.7761      2.5668      0.0443      5.0447     22.8084     98.6832
  1724.7000      7.7761      2.5747      0.0353      4.5645     22.8060    107.0205
  1724.8000      7.7770      2.5727      0.0156      4.6829     22.9461    116.7205
  1724.9000      7.7770      2.5641      0.0575      5.2061     23.5183    123.5026
  1725.0000      7.7789      2.5534      0.0447      5.8565     24.3280    124.1168
  1725.1000      7.7789      2.5496     -0.0228      6.0829     24.7930    120.3428
  1725.2000      7.7789      2.5552      0.0705      5.7433     24.9030    117.2932
  1725.3000      7.7740      2.5586      0.0339      5.5423     25.1001    117.8939
  1725.4000      7.7740      2.5645      0.0193      5.1793     25.6387    119.7992
  1725.5000      7.7727      2.5884      0.0102      3.7330     26.2875    119.0869
  1725.6000      7.7727      2.6231      0.0985      1.6280     26.5783    116.2825
  1725.7000      7.7727      2.6486      0.0700      0.0857     26.6840    112.1860
  1725.8000      7.7776      2.6525      0.1089     -0.1503     27.0769    108.2409
  1725.9000      7.7776      2.6352      0.0870      0.8946     27.4146    107.5141
  1726.0000      7.7780      2.6129      0.0589      2.2502     27.0090    107.9755
  1726.1000      7.7780      2.5996      0.0414      3.0519     25.9000    106.8776
  1726.2000      7.7780      2.5905      0.0523      3.6061     24.7596    107.7355
  1726.3000      7.7752      2.5802      0.0489      4.2323     24.1729    111.6220
  1726.4000      7.7752      2.5736      0.0174      4.6276     24.0159    112.4175
  1726.5000      7.7738      2.5683      0.0582      4.9497     23.8350    107.2177
  1726.6000      7.7738      2.5606      0.0071      5.4172     23.6283    100.8980
  1726.7000      7.7738      2.5608      0.0097      5.4062     23.5928     98.6844
  1726.8000      7.7742      2.5676      0.0241      4.9951     23.6168    100.4681
  1726.9000      7.7742      2.5681      0.0277      4.9615     23.5069    104.4018
  1727.0000      7.7705      2.5676      0.0240      4.9925     23.2223    109.4044
  1727.1000      7.7705      2.5766      0.0369      4.4464     23.0498    111.6238
  1727.2000      7.7705      2.5911      0.0174      3.5694     23.2505    108.6197
  1727.3000      7.7784      2.6008      0.0539      2.9797     23.4325    103.9136
  1727.4000      7.7784      2.5998      0.0571      3.0410     23.2217    100.9145
  1727.5000      7.7772      2.5843      0.0707      3.9807     22.9261     98.7422
  1727.6000      7.7772      2.5595      0.0250      5.4843     23.0069     96.8670
  1727.7000      7.7772      2.5506     -0.0229      6.0246     23.3883     98.1072
  1727.8000      7.7777      2.5682      0.0675      4.9588     23.7519    102.0360
  1727.9000      7.7777      2.5884      0.0760      3.7349     24.0283    101.7663
  1728.0000      7.7748      2.5941      0.0719      3.3868     24.1859     96.9248
  1728.1000      7.7748      2.5920      0.0494      3.5168     24.1189     97.1638
  1728.2000      7.7748      2.5894      0.0666      3.6746     23.9516    104.5192
  1728.3000      7.7752      2.5857      0.0648      3.8958     23.8636    110.3520
