~Version Information
VERS.                      2.0: CWLS Log ASCII Standard - VERSION 2.0
WRAP.                       NO: One line per depth step
~Well Information Block
STRT.FT                -7.2500: 
STOP.FT              2610.0000: 
STEP.FT                 0.2500: 
NULL.                -999.2500: 
COMP.          Pioneer Natural Resources: COMPANY
WELL.              Wagner 13-9: WELL
FLD.           Purgatorie River: FIELD
LOC.           1819' FSL & 1111' FWL--: LOCATION
PROV.                       CO: PROVINCE
CNTY.               Las Animas: COUNTRY
SRVC.          Patterson Wireline: SERVICE COMPANY
DATE.          Wed May 18 09:08:26 2005: LOG DATE
UWI.           05 071 08302 00: UNIQUE WELL ID
~Curve Information Block
DEPT.FT            0 000 00 00: Depth
CCL.                          : Casing Collar Locator
TT3.usec                      : CBL 3' Travel Time
AMP3.mV                       : CBL 3' Amplitude
GR.GAPI                       : Gamma Ray
~Parameter Information Block
~A  Depth       CCL         TT3         AMP3         GR     
# ...
   863.7500      0.0000    824.1028      7.7270    101.7601
   864.0000      0.0000    823.2324      8.0238     98.5540
   864.2500      0.0000    821.4471      8.2146     98.2431
   864.5000      0.0000    818.9941      8.2918    101.7725
   864.7500      0.0000    816.7258      8.2734    108.3483
   865.0000      0.0000    816.1333      8.1927    115.0041
   865.2500      0.0000    818.0827      8.0862    118.2312
   865.5000      0.0000    821.9982      7.9782    116.6864
   865.7500      0.0000    826.6809      7.8699    112.0834
   866.0000      0.0000    831.3339      7.7430    107.5280
   866.2500      0.0000    835.5228      7.5730    105.5279
   866.5000      0.0000    838.8799      7.3482    107.2135
   866.7500      0.0000    841.4484      7.0899    112.2882
   867.0000      0.0000    843.9557      6.8597    119.0919
   867.2500      0.0000    847.2349      6.7371    125.0905
   867.5000      0.0000    851.4196      6.7759    128.1467
   867.7500      0.0000    855.6908      6.9763    127.9598
   868.0000      0.0000    858.7510      7.2932    126.2449
   868.2500      0.0000    859.8431      7.6624    125.2396
   868.5000      0.0000    859.5715      8.0233    125.9898
   868.7500      0.0000    859.5049      8.3295    127.8966
   869.0000      0.0000    860.6944      8.5513    129.2624
   869.2500      0.0000    862.6763      8.6774    128.0678
   869.5000      0.0000    863.9385      8.7136    123.1154
   869.7500      0.0000    863.1713      8.6719    115.3117
   870.0000      0.0000    860.3066      8.5624    107.6629
   870.2500      0.0000    856.8829      8.3970    103.4319
   870.5000      0.0000    855.1940      8.1961    103.9814
   870.7500      0.0000    856.4427      7.9821    108.0487
   871.0000      0.0000    859.7244      7.7665    112.8622
   871.2500      0.0000    863.0942      7.5509    116.3207
   871.5000      0.0000    865.3193      7.3486    118.4762
   871.7500      0.0000    866.3776      7.2000    120.9467
   872.0000      0.0000    866.7982      7.1534    125.0019
   872.2500      0.0000    867.0170      7.2239    130.3866
   872.5000      0.0000    867.2200      7.3770    135.5527
   872.7500      0.0000    867.4349      7.5596    138.6025
   873.0000      0.0000    867.6249      7.7386    138.3592
   873.2500      0.0000    867.7512      7.9047    135.2128
   873.5000      0.0000    867.7680      8.0482    131.0462
   873.7500      0.0000    867.5295      8.1472    127.9090
   874.0000      0.0000    866.6114      8.1833    126.5723
   874.2500      0.0000    864.2407      8.1617    126.4104
   874.5000      0.0000    859.6494      8.1081    126.4399
   874.7500      0.0000    852.8350      8.0495    126.2631
   875.0000      0.0000    845.0295      8.0016    126.2597
   875.2500      0.0000    838.1330      7.9717    127.0699
   875.5000      0.0000    833.5036      7.9652    128.6548
   875.7500      0.0000    831.3639      7.9839    129.8884
   876.0000      0.0000    831.3492      8.0183    129.4661
   876.2500      0.0000    833.3422      8.0428    127.2519
   876.5000      0.0000    837.4636      8.0234    124.5093
   876.7500      0.0000    843.1511      7.9345    122.9078
   877.0000      0.0000    848.5328      7.7743    123.1936
   877.2500      0.0000    851.3144      7.5677    124.3156
   877.5000      0.0000    850.6045      7.3540    123.7032
   877.7500      0.0000    847.6069      7.1708    118.8915
   878.0000      0.0000    844.3197      7.0448    109.5265
   878.2500      0.0000    842.0339      6.9863     98.1140
   878.5000      0.0000    841.4144      6.9829     88.5584
   878.7500      0.0000    843.2061      6.9963     83.4410
   879.0000      0.0000    847.7634      6.9796     82.4418
   879.2500      0.0000    853.9617      6.9126     83.3767
   879.5000      0.0000    859.3284      6.8204     84.6688
   879.7500      0.0000    861.5287      6.7553     86.5473
   880.0000      0.0000    859.8265      6.7571     89.8303
   880.2500      0.0000    855.5354      6.8263     94.1164
   880.5000      0.0000    851.1360      6.9201     97.6476
   880.7500      0.0000    848.3121      6.9778     98.8626
   881.0000      0.0000    846.5698      6.9635     97.8628
   881.2500      0.0000    844.2560      6.8960     96.4519
   881.5000      0.0000    840.9740      6.8373     96.8494
   881.7500      0.0000    838.3563      6.8479    100.0674
   882.0000      0.0000    838.2208      6.9483    105.1271
   882.2500      0.0000    840.3511      7.1135    109.7909
   882.5000      0.0000    842.3695      7.2963    112.2356
   882.7500      0.0000    841.8674      7.4521    112.2912
   883.0000      0.0000    838.6509      7.5409    111.2864
   883.2500      0.0000    834.9167      7.5209    110.8075
   883.5000      0.0000    833.4514      7.3610    111.5171
   883.7500      0.0000    835.7094      7.0757    112.9238
   884.0000      0.0000    840.9741      6.7384    114.1257
   884.2500      0.0000    846.7601      6.4459    114.7776
   884.5000      0.0000    850.4559      6.2643    115.4083
   884.7500      0.0000    851.3851      6.2028    116.9257
   885.0000      0.0000    851.2985      6.2264    119.7874
   885.2500      0.0000    852.4170      6.2923    123.6505
   885.5000      0.0000    855.0001      6.3806    127.7990
   885.7500      0.0000    857.1345      6.4952    131.4638
   886.0000      0.0000    856.8769      6.6376    133.3989
   886.2500      0.0000    854.3969      6.7916    131.8028
   886.5000      0.0000    851.9723      6.9342    125.7133
   886.7500      0.0000    851.8643      7.0530    116.5770
   887.0000      0.0000    854.1714      7.1493    107.6798
   887.2500      0.0000    856.8869      7.2338    101.6874
   887.5000      0.0000    857.9545      7.3211     99.0050
   887.7500      0.0000    856.9235      7.4260     98.4510
   888.0000      0.0000    854.5897      7.5531     98.9540
   888.2500      0.0000    851.6754      7.6860    100.3499
   888.5000      0.0000    848.5247      7.7897    102.8713
   888.7500      0.0000    845.8488      7.8319    106.2765
   889.0000      0.0000    844.8041      7.8081    109.4935
   889.2500      0.0000    845.9733      7.7462    111.1643
   889.5000      0.0000    848.6180      7.6869    110.7070
   889.7500      0.0000    851.0217      7.6567    108.6952
   890.0000      0.0000    851.6373      7.6543    105.9329
   890.2500      0.0000    850.4080      7.6551    102.3414
   890.5000      0.0000    849.0114      7.6258     97.1033
   890.7500      0.0000    849.1201      7.5412     89.9254
   891.0000      0.0000    850.2369      7.3960     82.1543
   891.2500      0.0000    849.9124      7.2063     76.5530
   891.5000      0.0000    846.4072      6.9980     75.5949
   891.7500      0.0000    840.7971      6.7893     79.8295
   892.0000      0.0000    836.2874      6.5908     88.1010
   892.2500      0.0000    835.6183      6.4240     98.8347
   892.5000      0.0000    838.8929      6.3298    110.3196
   892.7500      0.0000    843.4070      6.3477    120.1762
   893.0000      0.0000    845.6014      6.4829    125.9530
   893.2500      0.0000    843.7922      6.7001    126.8827
   893.5000      0.0000    839.4598      6.9463    124.6209
   893.7500      0.0000    835.9367      7.1792    121.9897
   894.0000      0.0000    835.6316      7.3781    121.1551
   894.2500      0.0000    838.1069      7.5374    122.7353
   894.5000      0.0000    840.5259      7.6546    125.9616
   894.7500      0.0000    840.1267      7.7255    129.5319
   895.0000      0.0000    836.6052      7.7484    132.6229
   895.2500      0.0000    832.2813      7.7282    135.0120
   895.5000      0.0000    830.2063      7.6775    136.1518
   895.7500      0.0000    832.1841      7.6138    134.9203
   896.0000      0.0000    837.9507      7.5530    130.9578
   896.2500      0.0000    845.5226      7.5014    125.6505
   896.5000      0.0000    852.4169      7.4572    121.1298
   896.7500      0.0000    857.0433      7.4208    118.7449
   897.0000      0.0000    859.2286      7.4011    118.7295
