~Version Information
VERS.                      2.0: CWLS Log ASCII Standard - VERSION 2.0
WRAP.                       NO: One line per depth step
~Well Information Block
STRT.FT                -7.0000: 
STOP.FT              2730.2500: 
STEP.FT                 0.2500: 
NULL.                -999.2500: 
COMP.          Pioneer Natural Resources: COMPANY
WELL.             Squeal 11-26: WELL
FLD.           Purgatorie River: FIELD
LOC.           1186' FNL & 152' FWL--: LOCATION
PROV.                       CO: PROVINCE
CNTY.               Las Animas: COUNTRY
SRVC.          Patterson Wireline: SERVICE COMPANY
DATE.          Tue Jul 26 11:59:46 2005: LOG DATE
UWI.           05 071 08404 00: UNIQUE WELL ID
~Curve Information Block
DEPT.FT            0 000 00 00: Depth
CCL.                          : Casing Collar Locator
TT3.usec                      : CBL 3' Travel Time
AMP3.mV                       : CBL 3' Amplitude
GR.GAPI                       : Gamma Ray
~Parameter Information Block
~A  Depth       CCL         TT3         AMP3         GR     
# ...
   897.5000      0.0000    900.5140      5.9924    130.5008
   897.7500      0.0000    846.2332      6.3594    113.6022
   898.0000      0.0000    805.0986      6.7205     95.2245
   898.2500      0.0000    782.0311      7.0314     79.2914
   898.5000      0.0000    773.5969      7.2978     68.7492
   898.7500      0.0000    775.3557      7.5902     64.7011
   899.0000      0.0000    785.3761      8.0170     66.6443
   899.2500      0.0000    804.2634      8.6590     73.1795
   899.5000      0.0000    832.7070      9.5052     82.4145
   899.7500      0.0000    868.6149     10.4429     92.0122
   900.0000      0.0000    907.5825     11.3192     99.3943
   900.2500      0.0000    946.2410     12.0242    102.4492
   900.5000      0.0000    982.5147     12.5380    100.4321
   900.7500      0.0000   1012.4980     12.9269     94.2223
   901.0000      0.0000   1031.1639     13.3089     85.6378
   901.2500      0.0000   1037.8590     13.7842     76.6215
   901.5000      0.0000   1038.7535     14.3332     69.0327
   901.7500      0.0000   1042.7758     14.7609     64.6363
   902.0000      0.0000   1054.7485     14.7909     64.4360
   902.2500      0.0000   1070.0353     14.2725     67.6931
   902.5000      0.0000   1074.9829     13.3045     72.2543
   902.7500      0.0000   1055.3904     12.1485     76.5925
   903.0000      0.0000   1007.8066     11.0381     81.5847
   903.2500      0.0000    943.5023     10.0745     89.8222
   903.5000      0.0000    880.8227      9.2562    102.8475
   903.7500      0.0000    832.7388      8.5478    119.0272
   904.0000      0.0000    801.0668      7.9156    134.2024
   904.2500      0.0000    780.7213      7.3365    144.4605
   904.5000      0.0000    767.0088      6.8070    148.3481
   904.7500      0.0000    758.4189      6.3463    146.9724
   905.0000      0.0000    754.7621      5.9804    142.6594
   905.2500      0.0000    755.3648      5.7233    137.5837
   905.5000      0.0000    760.3560      5.5788    133.0194
   905.7500      0.0000    772.8619      5.5478    129.2249
   906.0000      0.0000    797.3184      5.6192    125.7605
   906.2500      0.0000    834.3270      5.7558    122.0290
   906.5000      0.0000    879.2574      5.9024    117.8886
   906.7500      0.0000    926.8307      6.0142    113.7666
   907.0000      0.0000    972.8518      6.0751    110.0314
   907.2500      0.0000   1009.3722      6.0906    106.5707
   907.5000      0.0000   1024.3156      6.0721    103.3549
   907.7500      0.0000   1011.6932      6.0340    100.9290
   908.0000      0.0000    980.1660      5.9978     99.7676
   908.2500      0.0000    947.3597      5.9906     99.5013
   908.5000      0.0000    925.1468      6.0402     99.3205
   908.7500      0.0000    910.7316      6.1681     98.9225
   909.0000      0.0000    891.8299      6.3754     98.6309
   909.2500      0.0000    860.8246      6.6308     98.8640
   909.5000      0.0000    824.2078      6.8826     99.7852
   909.7500      0.0000    797.8521      7.0924    101.2171
   910.0000      0.0000    793.0111      7.2552    102.7226
   910.2500      0.0000    806.2361      7.3855    104.0357
   910.5000      0.0000    822.5958      7.4951    105.4132
   910.7500      0.0000    829.6334      7.5873    107.1242
   911.0000      0.0000    827.2463      7.6596    108.6936
   911.2500      0.0000    823.0721      7.7023    109.2675
   911.5000      0.0000    821.5693      7.6987    108.8891
   911.7500      0.0000    820.6815      7.6274    109.0740
   912.0000      0.0000    816.6168      7.4653    111.8965
   912.2500      0.0000    807.7275      7.1967    118.3006
   912.5000      0.0000    793.1193      6.8379    126.9395
   912.7500      0.0000    769.5560      6.4501    134.6185
   913.0000      0.0000    732.1857      6.1129    138.3916
   913.2500      0.0000    679.8672      5.8748    137.8425
   913.5000      0.0000    619.5191      5.7339    135.3512
   913.7500      0.0000    563.3867      5.6570    133.7926
   914.0000      0.0000    521.2717      5.6099    133.9098
   914.2500      0.0000    495.5732      5.5720    134.1900
   914.5000      0.0000    482.7157      5.5372    133.0690
   914.7500      0.0000    477.4299      5.5073    130.5590
   915.0000      0.0000    475.6083      5.4845    127.6329
   915.2500      0.0000    474.9189      5.4671    124.9855
   915.5000      0.0000    474.4075      5.4505    122.9598
   915.7500      0.0000    474.1826      5.4310    121.8749
   916.0000      0.0000    475.5609      5.4079    121.6067
   916.2500      0.0000    481.5190      5.3854    121.3049
   916.5000      0.0000    496.4451      5.3727    120.1972
   916.7500      0.0000    523.9818      5.3769    118.4373
   917.0000      0.0000    563.4733      5.3933    116.7696
   917.2500      0.0000    608.4734      5.4054    115.6118
   917.5000      0.0000    650.0883      5.3996    114.8422
   917.7500      0.0000    682.5011      5.3756    114.3194
   918.0000      0.0000    705.0510      5.3434    113.9538
   918.2500      0.0000    719.6568      5.3187    113.1350
   918.5000      0.0000    727.5980      5.3215    110.8156
   918.7500      0.0000    728.8108      5.3713    106.7046
   919.0000      0.0000    723.2134      5.4710    101.9152
   919.2500      0.0000    712.3234      5.5954     97.9866
   919.5000      0.0000    699.8649      5.7003     95.6003
   919.7500      0.0000    690.4413      5.7510     94.6165
   920.0000      0.0000    686.7465      5.7462     94.7673
   920.2500      0.0000    687.6258      5.7136     95.6581
   920.5000      0.0000    689.0477      5.6841     96.5086
   920.7500      0.0000    687.2869      5.6741     96.5028
   921.0000      0.0000    681.1778      5.6885     95.2051
   921.2500      0.0000    671.6216      5.7290     92.4043
   921.5000      0.0000    659.9787      5.7885     87.9093
   921.7500      0.0000    647.3103      5.8418     81.8785
   922.0000      0.0000    634.0294      5.8523     75.2966
   922.2500      0.0000    619.4583      5.7955     69.8143
   922.5000      0.0000    602.2148      5.6784     66.7300
   922.7500      0.0000    581.4362      5.5359     65.8820
   923.0000      0.0000    557.6667      5.4098     65.5897
   923.2500      0.0000    532.9718      5.3298     63.9053
   923.5000      0.0000    510.4053      5.3063     60.0764
   923.7500      0.0000    492.8578      5.3306     55.0056
   924.0000      0.0000    481.8881      5.3784     50.5613
   924.2500      0.0000    477.3051      5.4205     48.4271
   924.5000      0.0000    477.5201      5.4365     49.2078
   924.7500      0.0000    480.2875      5.4227     52.1288
   925.0000      0.0000    483.8234      5.3893     55.4041
   925.2500      0.0000    488.0929      5.3505     57.2606
   925.5000      0.0000    495.4116      5.3188     57.0905
   925.7500      0.0000    509.5655      5.3061     55.6774
   926.0000      0.0000    533.2919      5.3261     54.2311
   926.2500      0.0000    565.2079      5.3819     53.4820
   926.5000      0.0000    598.8885      5.4435     53.7657
   926.7500      0.0000    626.5084      5.4500     55.1973
   927.0000      0.0000    644.8324      5.3595     57.1610
   927.2500      0.0000    657.6333      5.1973     58.1826
   927.5000      0.0000    671.2988      5.0377     56.9986
   927.7500      0.0000    687.8524      4.9365     53.6998
   928.0000      0.0000    702.7948      4.8977     49.7211
   928.2500     -2.0000    709.3400      4.8991     46.8665
   928.5000      0.0000    704.2343      4.9311     46.1903
   928.7500      0.0000    691.3008      5.0123     47.4506
   929.0000      0.0000    680.3159      5.1764     49.4387
   929.2500      0.0000    679.9540      5.4322     50.7707
   929.5000      0.0000    690.6204      5.7210     50.5595
   929.7500      0.0000    705.4706      5.9353     48.8737
   930.0000      0.0000    717.9384      6.0088     46.8053
   930.2500      0.0000    726.6166      5.9692     45.8738
   930.5000      0.0000    733.8935      5.8898     47.2195
   930.7500      0.0000    742.3905      5.8186     51.4218
