~Version Information
VERS.                      2.0: CWLS Log ASCII Standard - VERSION 2.0
WRAP.                       NO: One line per depth step
~Well Information Block
STRT.FT                -4.7500: 
STOP.FT              2809.5000: 
STEP.FT                 0.2500: 
NULL.                -999.2500: 
COMP.          Pioneer Natural Resources: COMPANY
WELL.              Lynch 43-30: WELL
FLD.           Purgatorie River: FIELD
LOC.           1438' FSL & 429' FEL--: LOCATION
PROV.                       CO: PROVINCE
CNTY.               Las Animas: COUNTRY
SRVC.                         : SERVICE COMPANY
DATE.          Sat Oct 30 09:52:34 2004: LOG DATE
UWI.          005 071 08170   : UNIQUE WELL ID
~Curve Information Block
DEPT.FT            0 000 00 00: Depth
GR.GAPI                       : Gamma Ray
CCL.                          : Casing Collar Locator
TT3.usec                      : CBL 3' Travel Time
AMP3.mV                       : CBL 3' Amplitude
~Parameter Information Block
~A  Depth        GR         CCL         TT3         AMP3    
# ...
  2038.7500    165.6251      0.0000    549.9441      5.6237
  2039.0000    161.6228      0.0000    547.5666      5.5251
  2039.2500    157.3108      0.0000    544.8412      5.4239
  2039.5000    156.4944      0.0000    541.9890      5.3221
  2039.7500    160.6723      0.0000    538.1680      5.2314
  2040.0000    167.9504      0.0000    531.6203      5.1691
  2040.2500    174.5835      0.0000    521.3395      5.1390
  2040.5000    177.6396      0.0000    508.4714      5.1221
  2040.7500    176.6360      0.0000    495.8245      5.0916
  2041.0000    173.3299      0.0000    486.2510      5.0329
  2041.2500    170.3175      0.0000    481.7136      4.9449
  2041.5000    169.2797      0.0000    483.7792      4.8272
  2041.7500    169.9516      0.0000    494.3397      4.6737
  2042.0000    170.9458      0.0000    514.3793      4.4831
  2042.2500    171.7500      0.0000    540.6707      4.2770
  2042.5000    173.2684      0.0000    564.5386      4.1002
  2042.7500    176.0235      0.0000    577.2312      3.9958
  2043.0000    178.5773      0.0000    578.6812      3.9761
  2043.2500    178.4549      0.0000    579.5969      4.0139
  2043.5000    174.2476      0.0000    592.6057      4.0635
  2043.7500    166.3629      0.0000    621.0947      4.0900
  2044.0000    156.4813      0.0000    656.9916      4.0812
  2044.2500    147.0570      0.0000    688.0076      4.0397
  2044.5000    140.7735      0.0000    706.1274      3.9738
  2044.7500    139.3746      0.0000    711.0897      3.8977
  2045.0000    142.5565      0.0000    708.4958      3.8322
  2045.2500    148.0441      0.0000    705.3395      3.7974
  2045.5000    152.9841      0.0000    706.3361      3.8031
  2045.7500    155.5987      0.0000    712.6608      3.8444
  2046.0000    155.8044      0.0000    722.4849      3.9072
  2046.2500    154.5349      0.0000    732.5120      3.9797
  2046.5000    152.8021      0.0000    740.0450      4.0563
  2046.7500    151.4007      0.0000    744.3266      4.1292
  2047.0000    150.9256      0.0000    746.1656      4.1811
  2047.2500    151.6422      0.0000    746.7082      4.1930
  2047.5000    153.2897      0.0000    746.6879      4.1592
  2047.7500    154.8806      0.0000    746.4341      4.0880
  2048.0000    154.8718      0.0000    746.1108      3.9912
  2048.2500    152.3064      0.0000    745.8322      3.8850
  2048.5000    148.0525      0.0000    745.6580      3.7965
  2048.7500    144.1887      0.0000    745.5413      3.7512
  2049.0000    141.8645      0.0000    745.2592      3.7483
  2049.2500    140.3729      0.0000    744.3314      3.7625
  2049.5000    138.5176      0.0000    742.0980      3.7705
  2049.7500    136.1277      0.0000    738.2460      3.7685
  2050.0000    133.9622      0.0000    733.6248      3.7645
  2050.2500    132.7482      0.0000    730.3377      3.7637
  2050.5000    132.6480      0.0000    730.3438      3.7641
  2050.7500    133.4318      0.0000    733.7142      3.7600
  2051.0000    134.9814      0.0000    738.5949      3.7512
  2051.2500    137.3233      0.0000    742.8993      3.7519
  2051.5000    139.9982      0.0000    745.6997      3.7832
  2051.7500    141.9063      0.0000    747.1553      3.8514
  2052.0000    142.2672      0.0000    747.7096      3.9369
  2052.2500    141.2675      0.0000    747.5275      4.0063
  2052.5000    139.3042      0.0000    746.2650      4.0342
  2052.7500    136.1750      0.0000    742.9962      4.0109
  2053.0000    131.6016      0.0000    736.4757      3.9412
  2053.2500    126.2444      0.0000    725.9512      3.8439
  2053.5000    121.8084      0.0000    712.0953      3.7537
  2053.7500    120.1041      0.0000    697.1868      3.7107
  2054.0000    121.7858      0.0000    684.1005      3.7367
  2054.2500    125.6791      0.0000    674.6863      3.8184
  2054.5000    129.4032      0.0000    669.0329      3.9153
  2054.7500    131.0697      0.0000    666.6773      3.9886
  2055.0000    130.5541      0.0000    668.4379      4.0238
  2055.2500    129.0168      0.0000    676.0668      4.0291
  2055.5000    127.6084      0.0000    689.6780      4.0169
  2055.7500    127.0126      0.0000    706.3195      3.9889
  2056.0000    127.5833      0.0000    721.5466      3.9390
  2056.2500    128.9987      0.0000    731.9937      3.8656
  2056.5000    129.9962      0.0000    736.5624      3.7758
  2056.7500    129.1700      0.0000    736.2789      3.6756
  2057.0000    126.2921      0.0000    733.8777      3.5622
  2057.2500    122.8455      0.0000    732.9220      3.4326
  2057.5000    121.2976      0.0000    735.7144      3.3035
  2057.7500    123.4349      0.0000    741.2299      3.2179
  2058.0000    128.7643      0.0000    745.7698      3.2118
  2058.2500    134.4735      0.0000    746.4972      3.2585
  2058.5000    137.4610      0.0000    744.2421      3.2633
  2058.7500    136.7264      0.0000    742.6276      3.1431
  2059.0000    133.7877      0.0000    744.8658      2.9061
  2059.2500    130.9759      0.0000    751.5372      2.6384
  2059.5000    129.7490      2.0000    760.6996      2.4292
  2059.7500    130.5547      0.0000    769.3422      2.3191
  2060.0000    133.4901      0.0000    775.2435      2.3027
  2060.2500    138.4035      0.0000    778.1697      2.3554
  2060.5000    144.4662      0.0000    778.9832      2.4529
  2060.7500    150.1557      0.0000    777.3937      2.5708
  2061.0000    153.8345      0.0000    771.9506      2.6798
  2061.2500    154.3296      0.0000    762.9203      2.7636
  2061.5000    151.4322      0.0000    753.3580      2.8357
  2061.7500    146.2434      0.0000    746.0237      2.9208
  2062.0000    140.5099      0.0000    740.6600      3.0267
  2062.2500    134.8889      0.0000    735.3200      3.1494
  2062.5000    128.2286      0.0000    729.0220      3.2915
  2062.7500    119.4460      0.0000    721.7720      3.4569
  2063.0000    110.1994      0.0000    712.6705      3.6330
  2063.2500    104.8309      0.0000    699.9739      3.7952
  2063.5000    106.9034      0.0000    684.0498      3.9331
  2063.7500    115.7623      0.0000    669.3249      4.0618
  2064.0000    126.6751      0.0000    661.8531      4.2044
  2064.2500    134.0498      0.0000    664.0329      4.3656
  2064.5000    134.5515      0.0000    671.5893      4.5260
  2064.7500    128.1539      0.0000    676.3969      4.6601
  2065.0000    117.3171      0.0000    673.1352      4.7540
  2065.2500    105.3570      0.0000    663.4117      4.8091
  2065.5000     95.0104      0.0000    653.8140      4.8358
  2065.7500     87.7425      0.0000    650.7928      4.8555
  2066.0000     83.8757      0.0000    656.8144      4.9031
  2066.2500     83.1591      0.0000    669.0880      5.0144
  2066.5000     84.9663      0.0000    680.9632      5.2003
  2066.7500     87.8579      0.0000    686.1941      5.4288
  2067.0000     89.6900      0.0000    683.4166      5.6360
  2067.2500     89.2041      0.0000    676.4655      5.7647
  2067.5000     87.3753      0.0000    670.5409      5.8006
  2067.7500     86.2898      0.0000    668.7339      5.7711
  2068.0000     86.7597      0.0000    671.4773      5.7110
  2068.2500     87.7084      0.0000    677.2562      5.6407
  2068.5000     87.8151      0.0000    682.9197      5.5777
  2068.7500     87.1800      0.0000    684.1403      5.5546
  2069.0000     87.4292      0.0000    677.4152      5.6094
  2069.2500     90.6370      0.0000    663.4686      5.7553
  2069.5000     97.8208      0.0000    648.9009      5.9584
  2069.7500    107.5746      0.0000    641.9498      6.1482
  2070.0000    116.1703      0.0000    644.1281      6.2580
  2070.2500    120.1694      0.0000    647.3959      6.2650
  2070.5000    119.6833      0.0000    642.3164      6.1971
  2070.7500    118.4986      0.0000    628.9353      6.1019
  2071.0000    120.3998      0.0000    618.0176      6.0112
  2071.2500    125.7787      0.0000    621.1193      5.9324
  2071.5000    132.2990      0.0000    639.7018      5.8669
  2071.7500    138.0863      0.0000    663.3473      5.8267
  2072.0000    143.0712      0.0000    677.8173      5.8256
