~Version Information
 VERS.                                  2.0 : CWLS LAS VERSION
 WRAP.                                   NO : WRAPING MODE
 SWARE .                 MController 2.5.0E : SOFTWARE VERSION
~Well Information
 WELL.                       Parklane 43-34 : WELL
 COMP.             Evergreen Operating Corp : COMPANY
 FLD.                      Purgatorie River : FIELD
 LOC.                NE/SE Sec 34 T32S R66W : LOCATION
 DATE.                          10/04-06/04 : DATE(S) LOGGED
 SRVC.       Blanco Geological Services LLC : SERVICE COMPANY
 STAT.                                   CO : STATE
 CNTY.                           Las Animas : COUNTY
 CTRY.                                  USA : COUNTRY
 API.                       05-071-08162-00 : API NUMBER
 STRT.FT                             467.00 : START DEPTH
 STOP.FT                            2245.00 : STOP DEPTH
 STEP.FT                               1.00 : DEPTH INCREMENT
 NULL.                                -9999 : NULL VALUE
~Curve information
 DEPTH.FT                                   :
 ROP.MIN/FT                                 :
 GAS.UNITS                                  :
~ASCII Log data
# ...
     2067.00        0.333        727.6 
     2068.00        0.300        692.4 
     2069.00        0.300        671.4 
     2070.00        0.333        649.2 
     2071.00        0.333        619.7 
     2072.00        0.367        582.9 
     2073.00        0.300        538.1 
     2074.00        0.333        504.8 
     2075.00        0.300        475.9 
     2076.00        0.350        457.2 
     2077.00        0.300        443.2 
     2078.00        0.300        440.0 
     2079.00        0.267        111.5 
     2080.00        0.333        110.5 
     2081.00        0.267        109.4 
     2082.00        0.300        108.2 
     2083.00        0.300        106.7 
     2084.00        0.300        104.4 
     2085.00        0.300         99.9 
     2086.00        0.300         93.3 
     2087.00        0.317         96.1 
     2088.00        0.233         97.8 
     2089.00        0.267         98.1 
     2090.00        0.233         94.2 
     2091.00        0.233         78.5 
     2092.00        0.233         57.0 
     2093.00        0.267         42.4 
     2094.00        0.300         50.2 
     2095.00        0.233         81.6 
     2096.00        3.150        356.9 
     2097.00        0.567        194.2 
     2098.00        0.533        241.2 
     2099.00        0.517        250.2 
     2100.00        0.467        248.7 
     2101.00        0.433        235.3 
     2102.00        0.267        218.4 
     2103.00        0.200        209.5 
     2104.00        0.233        203.9 
     2105.00        0.200        197.8 
     2106.00        0.233        193.3 
     2107.00        0.200        188.4 
     2108.00        0.200        184.8 
     2109.00        0.200        181.4 
     2110.00        0.233        178.2 
     2111.00        0.200        174.7 
     2112.00        0.250        172.1 
     2113.00        0.200        169.2 
     2114.00        0.267        170.2 
     2115.00        0.200        175.5 
     2116.00        0.200        175.2 
     2117.00        0.200        172.1 
     2118.00        0.200        168.0 
     2119.00        0.200        161.9 
     2120.00        0.200        148.9 
     2121.00        0.233        130.0 
     2122.00        0.200        111.1 
     2123.00        0.167        102.7 
     2124.00        0.200        108.4 
     2125.00        0.167        120.8 
     2126.00        3.350        288.9 
     2127.00        0.550        232.4 
     2128.00        0.400        178.4 
     2129.00        0.467        155.9 
     2130.00        0.400        142.8 
     2131.00        0.433        131.3 
     2132.00        0.400        110.5 
     2133.00        0.433         89.3 
     2134.00        0.400         74.2 
     2135.00        0.417         66.8 
     2136.00        0.500         63.6 
     2137.00        0.500         64.6 
     2138.00        0.400         64.4 
     2139.00        0.333         62.6 
     2140.00        0.333         60.5 
     2141.00        0.333         58.7 
     2142.00        0.300         57.3 
     2143.00        0.267         56.1 
     2144.00        0.283         55.3 
     2145.00        0.233         54.0 
     2146.00        0.367         52.9 
     2147.00        0.367         51.5 
     2148.00        0.300         50.0 
     2149.00        0.300         49.4 
     2150.00        0.333         53.3 
     2151.00        0.367         53.5 
     2152.00        0.367         49.2 
     2153.00        0.367         36.4 
     2154.00        0.417         23.9 
     2155.00        0.467         24.7 
     2156.00        3.283        292.7 
     2157.00        0.500        293.4 
     2158.00        0.367        276.6 
     2159.00        0.400        255.5 
     2160.00        0.267        234.4 
     2161.00        0.333        219.0 
     2162.00        0.300        196.5 
     2163.00        0.500        178.9 
     2164.00        0.517        152.0 
     2165.00        0.667        127.7 
     2166.00        0.500        112.6 
     2167.00        0.500        112.3 
     2168.00        0.533        112.7 
     2169.00        0.500        113.7 
     2170.00        0.517        113.8 
     2171.00        0.667        113.2 
     2172.00        0.600        112.6 
     2173.00        0.500        114.6 
     2174.00        0.533        114.9 
     2175.00        0.700        113.0 
     2176.00        0.550        116.6 
     2177.00        0.500        138.9 
     2178.00        0.500        157.3 
     2179.00        0.200        158.7 
     2180.00        0.233        158.2 
     2181.00        0.233        152.2 
     2182.00        0.267        135.5 
     2183.00        0.200        104.7 
     2184.00        0.267         82.6 
     2185.00        0.233         64.1 
     2186.00        2.750        305.3 
     2187.00        0.267        302.4 
     2188.00        0.267        290.3 
     2189.00        0.267        271.2 
     2190.00        0.250        248.2 
     2191.00        0.233        225.6 
     2192.00        0.233        209.4 
     2193.00        0.233        192.5 
     2194.00        0.233        179.8 
     2195.00        0.233        170.1 
     2196.00        0.200        162.3 
     2197.00        0.233        157.2 
     2198.00        0.200        151.8 
     2199.00        0.200        148.1 
     2200.00        0.233        144.4 
     2201.00        0.233        140.3 
     2202.00        0.200        136.3 
     2203.00        0.300        132.9 
     2204.00        0.217        128.1 
     2205.00        0.233        125.6 
     2206.00        0.233        129.9 
     2207.00        0.200        135.6 
     2208.00        0.233        139.0 
     2209.00        0.200        139.0 
     2210.00        0.267        133.0 
     2211.00        0.233        109.9 
     2212.00        0.233         85.5 
     2213.00        0.233         63.2 
     2214.00        0.233         49.0 
     2215.00        0.233         42.3 
     2216.00        3.150        345.5 
     2217.00        0.367        336.4 
     2218.00        0.367        308.6 
     2219.00        0.417        268.3 
     2220.00        0.300        220.1 
     2221.00        0.333        195.5 
     2222.00        0.333        174.9 
     2223.00        0.333        161.5 
     2224.00        0.300        149.4 
     2225.00        0.300        138.9 
     2226.00        0.300        126.1 
     2227.00        0.333        112.8 
     2228.00        0.300        100.2 
     2229.00        0.333         91.1 
     2230.00        0.350         82.3 
     2231.00        0.367         74.6 
     2232.00        0.367         75.2 
     2233.00        0.400         74.2 
     2234.00        0.367         77.8 
     2235.00        0.367         85.0 
     2236.00        0.333         87.9 
     2237.00        0.333         87.7 
     2238.00        0.333         81.9 
     2239.00        0.350         72.0 
     2240.00        0.333         62.7 
     2241.00        0.433         58.3 
     2242.00        0.500         60.2 
     2243.00        0.567         65.0 
     2244.00        0.667         74.5 
     2245.00        0.817         77.1 
