~Version Information
 VERS.                                  2.0 : CWLS LAS VERSION
 WRAP.                                   NO : WRAPING MODE
 SWARE .                 MController 2.5.0J : SOFTWARE VERSION
~Well Information
 WELL.                       Beacon 11-18TR : WELL
 COMP.        Pioneer Natural Resources Inc : COMPANY
 FLD.                      Purgatoire River : FIELD
 LOC.                NW/NW Sec 18 T32S R66W : LOCATION
 DATE.                           1/15-16/05 : DATE(S) LOGGED
 SRVC.       Blanco Geological Services LLC : SERVICE COMPANY
 STAT.                                   CO : STATE
 CNTY.                           Las Animas : COUNTY
 CTRY.                                  USA : COUNTRY
 API.                          05-071-08251 : API NUMBER
 STRT.FT                             283.00 : START DEPTH
 STOP.FT                            2753.00 : STOP DEPTH
 STEP.FT                               1.00 : DEPTH INCREMENT
 NULL.                                -9999 : NULL VALUE
~Curve information
 DEPTH.FT                                   :
 ROP.MIN/FT                                 :
 GAS.UNITS                                  :
~ASCII Log data
# ...
      1883.0         0.23         81.3 
      1884.0         0.30         89.0 
      1885.0         0.30         93.8 
      1886.0         0.20         94.0 
      1887.0         0.30         93.2 
      1888.0         0.30         86.8 
      1889.0         0.30         76.3 
      1890.0         0.33         68.0 
      1891.0         0.37         57.8 
      1892.0         0.27         50.3 
      1893.0         0.33         47.2 
      1894.0         0.30         44.5 
      1895.0         0.30         44.1 
      1896.0         0.35         43.6 
      1897.0         0.27         42.3 
      1898.0         0.23         41.4 
      1899.0         0.27         39.7 
      1900.0         0.23         38.5 
      1901.0         0.23         37.5 
      1902.0         0.23         36.3 
      1903.0         0.23         36.0 
      1904.0         0.27         36.0 
      1905.0         0.20         46.8 
      1906.0         0.23         40.2 
      1907.0         0.13         37.6 
      1908.0         0.20         36.2 
      1909.0         0.13         35.8 
      1910.0         0.15         36.8 
      1911.0         0.17         40.3 
      1912.0         0.17         43.1 
      1913.0         0.30         57.0 
      1914.0         0.20         71.8 
      1915.0         0.17         83.9 
      1916.0         0.62        107.8 
      1917.0         0.27        107.9 
      1918.0         0.17        105.8 
      1919.0         0.17        102.0 
      1920.0         0.20         97.6 
      1921.0         0.27         93.0 
      1922.0         0.23         85.9 
      1923.0         0.20         79.3 
      1924.0         0.27         73.9 
      1925.0         0.23         67.8 
      1926.0         0.20         63.4 
      1927.0         0.27         60.3 
      1928.0         0.33         57.6 
      1929.0         0.25         55.3 
      1930.0         0.23         54.4 
      1931.0         0.30         54.0 
      1932.0         0.27         53.4 
      1933.0         0.23         52.6 
      1934.0         0.30         51.4 
      1935.0         0.27         49.8 
      1936.0         0.23         49.4 
      1937.0         0.13         40.0 
      1938.0         0.23         38.9 
      1939.0         0.13         38.2 
      1940.0         0.17         40.0 
      1941.0         0.23         45.2 
      1942.0         0.22         51.1 
      1943.0         0.27         60.2 
      1944.0         0.27         68.7 
      1945.0         0.27         76.2 
      1946.0         0.23         82.4 
      1947.0         0.28         88.0 
      1948.0         0.30         88.8 
      1949.0         0.27         88.0 
      1950.0         0.37         84.2 
      1951.0         0.40         76.4 
      1952.0         0.30         66.4 
      1953.0         0.23         60.6 
      1954.0         0.23         56.8 
      1955.0         0.27         54.2 
      1956.0         0.23         54.7 
      1957.0         0.20         55.6 
      1958.0         0.22         56.8 
      1959.0         0.20         57.3 
      1960.0         0.23         57.3 
      1961.0         0.20         57.1 
      1962.0         0.23         56.4 
      1963.0         0.20         55.2 
      1964.0         0.20         54.0 
      1965.0         0.27         52.9 
      1966.0         0.20         52.0 
      1967.0         0.30         50.8 
      1968.0         0.27         49.4 
      1969.0         0.33         44.0 
      1970.0         0.35         39.6 
      1971.0         0.23         36.5 
      1972.0         0.27         39.0 
      1973.0         0.23         43.6 
      1974.0         0.20         50.6 
      1975.0         0.20         58.3 
      1976.0         0.30         72.2 
      1977.0         0.42         89.1 
      1978.0         0.33         94.6 
      1979.0         0.33         96.0 
      1980.0         0.33         95.8 
      1981.0         0.30         95.4 
      1982.0         0.30         94.0 
      1983.0         0.30         90.3 
      1984.0         0.27         84.6 
      1985.0         0.30         79.1 
      1986.0         0.23         73.3 
      1987.0         0.25         70.2 
      1988.0         0.27         67.8 
      1989.0         0.27         65.7 
      1990.0         0.30         64.4 
      1991.0         0.27         63.0 
      1992.0         0.27         61.2 
      1993.0         0.23         59.5 
      1994.0         0.20         58.1 
      1995.0         0.27         56.8 
      1996.0         0.20         54.9 
      1997.0         0.17         36.6 
      1998.0         0.13         36.5 
      1999.0         0.28         40.7 
      2000.0         0.20         46.8 
      2001.0         0.23         54.6 
      2002.0         0.27         65.4 
      2003.0         0.23         75.4 
      2004.0         0.23         86.5 
      2005.0         0.23         95.5 
      2006.0         0.23        102.8 
      2007.0         0.27        106.0 
      2008.0         0.30        105.9 
      2009.0         0.43        101.6 
      2010.0         0.30         88.5 
      2011.0         0.17         79.4 
      2012.0         0.23         74.7 
      2013.0         0.32         68.9 
      2014.0         0.23         62.2 
      2015.0         0.23         59.1 
      2016.0         0.27         57.2 
      2017.0         0.40         55.7 
      2018.0         0.53         54.3 
      2019.0         0.43         51.9 
      2020.0         0.23         48.5 
      2021.0         0.23         46.3 
      2022.0         0.27         44.6 
      2023.0         0.22         43.7 
      2024.0         0.27         43.4 
      2025.0         0.27         44.0 
      2026.0         0.27         45.9 
      2027.0         0.27         48.6 
      2028.0         0.27         55.6 
      2029.0         0.30         44.1 
      2030.0         0.30         49.9 
      2031.0         0.30         60.2 
      2032.0         0.27         74.6 
      2033.0         0.27         89.9 
      2034.0         0.27        101.7 
      2035.0         0.25        110.0 
      2036.0         0.17        115.2 
      2037.0         0.40        121.2 
      2038.0         0.30        121.2 
      2039.0         0.38        117.5 
      2040.0         0.23        104.7 
      2041.0         0.20         95.6 
      2042.0         0.27         88.7 
      2043.0         0.30         79.3 
      2044.0         0.33         71.6 
      2045.0         0.30         64.4 
      2046.0         0.30         60.4 
      2047.0         0.27         58.6 
      2048.0         0.27         57.3 
      2049.0         0.27         56.3 
      2050.0         0.23         54.8 
      2051.0         0.28         53.3 
      2052.0         0.20         52.3 
      2053.0         0.23         52.4 
      2054.0         0.23         52.2 
      2055.0         0.27         57.2 
      2056.0         0.23         44.4 
      2057.0         0.23         41.2 
      2058.0         0.20         39.9 
      2059.0         0.20         42.8 
      2060.0         0.13         45.3 
      2061.0         0.20         52.2 
      2062.0         0.17         58.1 
      2063.0         0.13         64.8 
      2064.0         0.23         77.3 
      2065.0         0.27         93.4 
      2066.0         0.32        112.1 
      2067.0         0.30        125.3 
      2068.0         0.33        127.9 
      2069.0         0.40        125.8 
      2070.0         0.42        111.3 
      2071.0         0.57         93.3 
      2072.0         0.23         74.6 
      2073.0         0.30         69.2 
      2074.0         0.23         64.8 
      2075.0         0.47         62.7 
      2076.0         0.23         59.3 
      2077.0         0.20         58.0 
      2078.0         0.17         57.0 
      2079.0         0.20         56.2 
      2080.0         0.20         55.1 
      2081.0         0.23         54.2 
      2082.0         0.22         53.0 
