~Version Information
 VERS.                                  2.0 : CWLS LAS VERSION
 WRAP.                                   NO : WRAPING MODE
 SWARE .                 MController 2.5.0J : SOFTWARE VERSION
~Well Information
 WELL.              Cock-A-Doodle-Doo 44-27 : WELL
 COMP.      Pioneer Natural Resources, Inc. : COMPANY
 FLD.                      Purgatoire River : FIELD
 LOC.                SE/SE Sec.27 T32S R67W : LOCATION
 DATE.                              6/30/05 : DATE(S) LOGGED
 SRVC.       BLANCO Geological Services LLC : SERVICE COMPANY
 STAT.                                   CO : STATE
 CNTY.                           Las Animas : COUNTY
 CTRY.                                  USA : COUNTRY
 API.                             071 08429 : API NUMBER
 STRT.FT                             394.00 : START DEPTH
 STOP.FT                            2540.00 : STOP DEPTH
 STEP.FT                               1.00 : DEPTH INCREMENT
 NULL.                                -9999 : NULL VALUE
~Curve information
 DEPTH.FT                                   :
 ROP.MIN/FT                                 :
 GAS.UNITS                                  :
~ASCII Log data
       394.0     -9999.00          0.9 
       395.0         0.12          0.9 
       396.0         0.12          1.1 
       397.0         0.15          0.9 
       398.0         0.10          1.1 
       399.0         0.23          0.9 
       400.0         0.23          0.9 
       401.0         0.20          0.7 
       402.0         0.22          0.8 
       403.0         0.17          0.6 
       404.0         0.17          0.7 
       405.0         0.20          0.1 
       406.0         0.13         -0.2 
       407.0         0.20         -0.4 
       408.0         0.20         -0.7 
       409.0         0.23         -0.5 
       410.0         0.23         -0.2 
       411.0         0.20          0.1 
       412.0         0.20          0.3 
       413.0         0.17          0.7 
       414.0         0.20          0.8 
       415.0         0.20          0.9 
       416.0         1.18          1.1 
       417.0         0.40          1.1 
       418.0         0.30          1.0 
       419.0         0.27          1.0 
       420.0         0.20          0.8 
       421.0         0.20          0.7 
       422.0         0.17          0.7 
       423.0         0.17          0.8 
       424.0         0.20          0.4 
       425.0         0.23          0.1 
       426.0         0.20         -0.3 
       427.0         0.17         -0.5 
       428.0         0.17         -0.7 
       429.0         0.17         -0.5 
       430.0         0.25         -0.4 
       431.0         0.23         -1.0 
       432.0         0.20         -0.9 
       433.0         0.23         -0.9 
       434.0         0.23         -0.6 
       435.0         0.23          0.1 
       436.0         0.20          0.3 
       437.0         0.27          0.8 
       438.0         0.20          0.7 
       439.0         0.30          0.8 
       440.0         0.23          1.9 
       441.0         0.23          2.2 
       442.0         0.17          2.3 
       443.0         0.27          1.2 
       444.0         0.28          1.4 
       445.0         0.20          1.5 
       446.0         1.93          1.9 
       447.0         0.33          1.2 
       448.0         0.23          1.4 
       449.0         0.20          1.4 
       450.0         0.23          1.5 
       451.0         0.25          1.6 
       452.0         0.23          2.0 
       453.0         0.23          1.8 
       454.0         0.20          2.0 
       455.0         0.20          1.8 
       456.0         0.23          1.8 
       457.0         0.20          1.7 
       458.0         0.23          1.7 
       459.0         0.20          1.4 
       460.0         0.20          1.1 
       461.0         0.23          0.7 
       462.0         0.20          0.8 
       463.0         0.20          0.6 
       464.0         0.23          0.6 
       465.0         0.20          0.4 
       466.0         0.22          0.4 
       467.0         0.23          0.5 
       468.0         0.20          0.5 
       469.0         0.20          0.5 
       470.0         0.23          0.5 
       471.0         0.23          0.4 
       472.0         0.20          0.4 
       473.0         0.23          0.4 
       474.0         0.23          0.6 
       475.0         0.20          0.8 
       476.0         1.30          1.1 
       477.0         0.25          1.1 
       478.0         0.30          1.5 
       479.0         0.33          1.7 
       480.0         0.23          1.4 
       481.0         0.17          1.5 
       482.0         0.23          1.1 
       483.0         0.20          1.2 
       484.0         0.27          1.1 
       485.0         0.23          0.9 
       486.0         0.20          1.1 
       487.0         0.23          1.0 
       488.0         0.20          0.7 
       489.0         0.23          1.0 
       490.0         0.17          1.1 
       491.0         0.25          1.0 
       492.0         0.23          0.9 
       493.0         0.23          0.8 
       494.0         0.20          1.0 
       495.0         0.17          0.7 
       496.0         0.20          0.8 
       497.0         0.17          0.7 
       498.0         0.23          0.5 
       499.0         0.20          0.5 
       500.0         0.17          0.5 
       501.0         0.20          0.4 
       502.0         0.20          0.4 
       503.0         0.27          0.3 
       504.0         0.27          0.4 
       505.0         0.23          0.2 
       506.0         1.25          0.2 
       507.0         0.23          0.1 
       508.0         0.43          0.5 
       509.0         0.33          0.8 
       510.0         0.23          1.2 
       511.0         0.23          1.1 
       512.0         0.23          1.1 
       513.0         0.23          1.0 
       514.0         0.27          1.1 
       515.0         0.28          1.2 
       516.0         0.20          1.0 
       517.0         0.20          0.9 
       518.0         0.17          0.7 
       519.0         0.20          0.8 
       520.0         0.20          0.6 
       521.0         0.20          0.4 
       522.0         0.23          0.4 
       523.0         0.20          0.2 
       524.0         0.17          0.1 
       525.0         0.20          0.1 
       526.0         0.17          0.1 
       527.0         0.20          0.3 
       528.0         0.17          0.2 
       529.0         0.20          0.3 
       530.0         0.20          0.3 
       531.0         0.20          0.2 
       532.0         0.18          0.2 
       533.0         0.27          0.4 
       534.0         0.33          0.7 
       535.0         0.23          1.2 
       536.0         1.63          2.6 
       537.0         0.33          1.4 
       538.0         0.23          1.3 
       539.0         0.32          1.4 
       540.0         0.13          1.3 
       541.0         0.20          1.5 
       542.0         0.23          1.6 
       543.0         0.20          1.7 
       544.0         0.23          1.7 
       545.0         0.23          1.8 
       546.0         0.20          2.2 
       547.0         0.20          2.4 
       548.0         0.27          2.6 
       549.0         0.23          3.2 
       550.0         0.27          4.1 
       551.0         0.20          4.5 
       552.0         0.20          5.3 
       553.0         0.23          5.9 
       554.0         0.25          7.0 
       555.0         0.17          7.2 
       556.0         0.20          7.6 
       557.0         0.17          8.2 
       558.0         0.17          8.8 
       559.0         0.17          8.8 
       560.0         0.17          9.4 
       561.0         0.20          9.7 
       562.0         0.20          9.7 
       563.0         0.17          9.7 
       564.0         0.17          9.6 
       565.0         0.23          9.8 
       566.0         1.20          9.8 
       567.0         0.12          6.1 
       568.0         0.27          5.2 
       569.0         0.23          4.1 
       570.0         0.20          3.4 
       571.0         0.17          3.0 
       572.0         0.17          2.7 
       573.0         0.17          2.8 
       574.0         0.17          3.1 
       575.0         0.17          4.4 
       576.0         0.20          5.7 
       577.0         0.20          8.1 
       578.0         0.13          9.2 
       579.0         0.23         10.9 
       580.0         0.17         12.0 
       581.0         0.13         12.6 
       582.0         0.20         12.5 
       583.0         0.20         12.2 
       584.0         0.23         11.9 
       585.0         0.25         12.2 
       586.0         0.17         11.3 
       587.0         0.20         10.6 
       588.0         0.23         10.1 
       589.0         0.20          9.5 
       590.0         0.20          9.7 
       591.0         0.30         11.1 
       592.0         0.13         12.5 
       593.0         0.20         14.3 
