~Version Information
VERS.                      2.0: CWLS Log ASCII Standard - VERSION 2.0
WRAP.                       NO: One line per depth step
~Well Information Block
STRT.FT                -9.2500: 
STOP.FT              2685.7500: 
STEP.FT                 0.2500: 
NULL.                -999.2500: 
COMP.          Pioneer Natural Resources: COMPANY
WELL.          Beacon 11-18 Tr: WELL
FLD.           Purgatorie River: FIELD
LOC.           409' FNL & 203' FWL--: LOCATION
PROV.                       CO: PROVINCE
CNTY.               Las Animas: COUNTRY
SRVC.                         : SERVICE COMPANY
DATE.          Fri Jan 21 09:45:44 2005: LOG DATE
UWI.        005 071 08251  : UNIQUE WELL ID
~Curve Information Block
DEPT.FT            0 000 00 00: Depth
CCL.                          : Casing Collar Locator
TT3.usec                      : CBL 3' Travel Time
AMP3.mV                       : CBL 3' Amplitude
GR.GAPI                       : Gamma Ray
~Parameter Information Block
~A  Depth       CCL         TT3         AMP3         GR     
# ...
  2637.2500      0.0000    599.1975      5.0829    140.9005
  2637.5000      0.0000    571.8650      5.3245    137.2976
  2637.7500      0.0000    530.9634      5.3030    140.0166
  2638.0000      0.0000    491.9343      5.0483    144.7740
  2638.2500      0.0000    470.5659      4.6741    146.0275
  2638.5000      0.0000    474.6209      4.3446    140.5137
  2638.7500      0.0000    499.4493      4.2014    128.9390
  2639.0000      0.0000    528.5888      4.2808    114.6389
  2639.2500      0.0000    541.6516      4.4882    100.8971
  2639.5000      0.0000    528.5401      4.6575     89.3196
  2639.7500      0.0000    498.6771      4.6643     80.2073
  2640.0000      0.0000    474.4100      4.5203     74.1308
  2640.2500      0.0000    474.2455      4.3789     72.6709
  2640.5000      0.0000    501.5728      4.4268     77.0369
  2640.7500      0.0000    545.8372      4.7260     86.2572
  2641.0000      0.0000    590.9061      5.1434     97.6683
  2641.2500      0.0000    623.8181      5.4373    109.1693
  2641.5000      0.0000    640.5936      5.4342    120.3942
  2641.7500      0.0000    646.5184      5.1460    131.9019
  2642.0000      0.0000    649.6796      4.7305    143.9391
  2642.2500      0.0000    651.9857      4.3500    155.7679
  2642.5000      0.0000    646.3726      4.0741    165.4793
  2642.7500      0.0000    623.8501      3.9013    170.5861
  2643.0000      0.0000    583.5778      3.8237    169.7936
  2643.2500      0.0000    535.9438      3.8394    164.7195
  2643.5000      0.0000    496.1179      3.9128    159.1746
  2643.7500      0.0000    474.9657      3.9645    156.1184
  2644.0000      0.0000    475.3669      3.9411    155.5326
  2644.2500      0.0000    494.3581      3.8898    155.1676
  2644.5000      0.0000    526.0489      3.9173    152.7527
  2644.7500      0.0000    563.3854      4.0633    147.6192
  2645.0000      0.0000    600.2669      4.2600    140.9982
  2645.2500      0.0000    633.4744      4.4315    135.2617
  2645.5000      0.0000    662.4832      4.5811    132.7174
  2645.7500      0.0000    687.7294      4.7421    134.4720
  2646.0000      0.0000    709.2320      4.8849    139.7805
  2646.2500      0.0000    726.3679      4.9321    146.2570
  2646.5000      0.0000    738.5773      4.8623    151.0306
  2646.7500      0.0000    746.1224      4.7369    152.2787
  2647.0000      0.0000    750.2796      4.6109    150.2088
  2647.2500      0.0000    752.4741      4.4756    146.8815
  2647.5000      0.0000    752.6605      4.3207    144.8888
  2647.7500      0.0000    748.5567      4.1966    145.6910
  2648.0000      0.0000    737.1097      4.1596    148.7546
  2648.2500      0.0000    717.5908      4.1819    152.1674
  2648.5000      0.0000    693.6476      4.1621    154.1444
  2648.7500      0.0000    671.2846      4.0212    153.8063
  2649.0000      0.0000    654.0255      3.7814    150.5943
  2649.2500      0.0000    641.3470      3.5592    143.8443
  2649.5000      0.0000    632.4498      3.4666    133.6725
  2649.7500      0.0000    628.4620      3.5089    121.8220
  2650.0000      0.0000    627.8968      3.6083    110.8322
  2650.2500      0.0000    622.2583      3.7165    102.2658
  2650.5000      0.0000    601.1262      3.8488     95.9516
  2650.7500      0.0000    564.0944      4.0136     90.8184
  2651.0000      0.0000    526.7570      4.1798     86.3325
  2651.2500      0.0000    511.6431      4.3265     83.2938
  2651.5000      0.0000    530.1990      4.4774     83.2098
  2651.7500      0.0000    573.1275      4.6613     86.5743
  2652.0000      0.0000    618.8807      4.8536     91.7912
  2652.2500      0.0000    650.3854      4.9797     96.1902
  2652.5000      0.0000    663.5436      4.9846     98.1575
  2652.7500      0.0000    663.7643      4.8918     98.0807
  2653.0000      0.0000    658.8350      4.7891     97.7002
  2653.2500      0.0000    653.8569      4.7687     99.1487
  2653.5000      0.0000    648.2672      4.8702    104.0222
  2653.7500      0.0000    636.0180      5.0495    112.2647
  2654.0000      0.0000    610.5953      5.2088    121.8781
  2654.2500      0.0000    571.6772      5.2737    130.2327
  2654.5000      0.0000    526.9087      5.2411    135.7287
  2654.7500      0.0000    486.8315      5.1600    138.2056
  2655.0000      0.0000    457.6908      5.0807    138.2673
  2655.2500      0.0000    438.6965      5.0121    136.5194
  2655.5000      0.0000    425.5327      4.9173    133.2951
  2655.7500      0.0000    415.2896      4.7567    128.9082
  2656.0000      0.0000    407.6307      4.5439    123.9684
  2656.2500      0.0000    402.9163      4.3542    119.3576
  2656.5000      0.0000    401.0344      4.2685    116.1466
  2656.7500      0.0000    401.8975      4.3078    115.5086
  2657.0000      0.0000    405.8449      4.4247    118.2284
  2657.2500      0.0000    412.6827      4.5441    123.8508
  2657.5000      0.0000    420.3643      4.6037    130.4115
  2657.7500      0.0000    425.5135      4.5794    135.4884
  2658.0000      0.0000    426.0907      4.4981    138.0932
  2658.2500      0.0000    423.2087      4.4243    139.5191
  2658.5000      0.0000    419.7513      4.4156    141.7092
  2658.7500      0.0000    417.7309      4.4827    144.5451
  2659.0000      0.0000    417.3843      4.5985    145.5082
  2659.2500      0.0000    418.0282      4.7320    142.6598
  2659.5000      0.0000    418.9533      4.8553    137.4477
  2659.7500      0.0000    419.6487      4.9316    133.8309
  2660.0000      0.0000    419.7309      4.9276    134.7641
  2660.2500      0.0000    418.9439      4.8434    139.8852
  2660.5000      0.0000    417.2435      4.7158    146.3174
  2660.7500      0.0000    414.8646      4.5903    151.0499
  2661.0000      0.0000    412.2154      4.4987    152.4560
  2661.2500      0.0000    409.6444      4.4577    150.3787
  2661.5000      0.0000    407.2805      4.4694    145.9616
  2661.7500      0.0000    405.0781      4.5200    141.5590
  2662.0000      0.0000    402.9760      4.5833    139.6715
  2662.2500      0.0000    401.0018      4.6359    140.9802
  2662.5000      0.0000    399.2552      4.6621    143.6383
  2662.7500      0.0000    397.8109      4.6451    145.0242
  2663.0000      0.0000    396.6310      4.5687    144.1825
  2663.2500      0.0000    395.5779      4.4427    142.5429
  2663.5000      0.0000    394.5214      4.3146    142.6277
  2663.7500      0.0000    393.4232      4.2391    145.9651
  2664.0000      0.0000    392.3076      4.2347    151.5071
  2664.2500      0.0000    391.1588      4.2711    155.6503
  2664.5000      0.0000    389.8586      4.3015    154.6988
  2664.7500      0.0000    388.2136      4.3049    148.3339
  2665.0000      0.0000    386.0427      4.2963    140.2855
  2665.2500      0.0000    383.2601      4.2995    134.7497
  2665.5000      0.0000    379.9135      4.3253    132.2892
  2665.7500      0.0000    376.1629      4.3815    129.4202
  2666.0000      0.0000    372.2416      4.4760    121.8141
  2666.2500      0.0000    368.4630      4.5921    108.0739
  2666.5000      0.0000    365.5006      4.6801     91.0090
  2666.7500      0.0000    365.1132      4.7009     75.4498
  2667.0000      0.0000    371.2376      4.6626     64.8443
  2667.2500      0.0000    390.2239      4.5981     59.8596
  2667.5000      0.0000    427.9712      4.5252     59.4018
  2667.7500      0.0000    484.0362      4.4506     61.9046
  2668.0000      0.0000    548.2805      4.3898     65.6684
  2668.2500      0.0000    605.6057      4.3538     69.0166
  2668.5000      0.0000    645.1619      4.3231     70.9609
  2668.7500      0.0000    664.2791      4.2664     71.7082
  2669.0000      0.0000    665.0674      4.1876     72.3317
  2669.2500      0.0000    651.3234      4.1246     73.9767
  2669.5000      0.0000    629.2742      4.0902     77.4187
  2669.7500      0.0000    606.5223      4.0476     83.0550
  2670.0000      0.0000    586.4931      3.9640     90.7342
  2670.2500      0.0000    566.0693      3.8678     99.2648
  2670.5000      0.0000    541.1300      3.8278    106.3550
