~Version Information
VERS.                      2.0: CWLS Log ASCII Standard - VERSION 2.0
WRAP.                       NO: One line per depth step
~Well Information Block
STRT.FT               780.0000: 
STOP.FT              1557.5000: 
STEP.FT                 0.1000: 
NULL.                -999.2500: 
COMP.          Pioneer Natural Resources: COMPANY
WELL.          Bunner's 13-26 Tr: WELL
FLD.           Purgatoire River: FIELD
LOC.           1843' FSL & 456' FWL----: LOCATION
PROV.                 Colorado: PROVINCE
CNTY.               Las Animas: COUNTRY
SRVC.                Patterson: SERVICE COMPANY
DATE.          Tue Mar 29 07:41:16 2005: LOG DATE
UWI.           05 071 08331 00: UNIQUE WELL ID
~Curve Information Block
DEPT.FT            0 000 00 00: Depth
DCAL.in                       : CDL Caliper
RHOB.g/cc                     : CDL Bulk Density
RHOC.g/cc                     : CDL Density Correction
DPOR.pu                       : CDL Density Porosity
NPOR.pu                       : Neutron Porosity
GR.GAPI                       : Gamma Ray
~Parameter Information Block
~A  Depth       DCAL        RHOB        RHOC        DPOR        NPOR         GR     
# ...
   981.6000      7.9306      2.6529      0.0093     -0.1760     25.1864     68.8538
   981.7000      7.9306      2.6444      0.0062      0.3375     25.3096     65.9178
   981.8000      7.9323      2.6593      0.0489     -0.5652     25.4951     62.7584
   981.9000      7.9323      2.6633      0.0498     -0.8044     25.4938     62.1509
   982.0000      7.9309      2.6459      0.0243      0.2458     25.1665     62.6405
   982.1000      7.9309      2.6171      0.0457      1.9961     24.3722     62.9870
   982.2000      7.9309      2.5908      0.0081      3.5870     23.3760     65.6679
   982.3000      7.9308      2.5852      0.0197      3.9281     22.6559     69.6737
   982.4000      7.9308      2.6008      0.0767      2.9846     22.3106     71.3458
   982.5000      7.9312      2.6167      0.0774      2.0172     22.3848     71.1227
   982.6000      7.9312      2.6206      0.0469      1.7818     22.8145     71.5865
   982.7000      7.9312      2.6215      0.0559      1.7270     23.1071     74.2286
   982.8000      7.9311      2.6283      0.0556      1.3144     23.0609     76.9748
   982.9000      7.9311      2.6323      0.0749      1.0709     22.8771     75.6523
   983.0000      7.9310      2.6276      0.0670      1.3552     22.6049     70.7672
   983.1000      7.9310      2.6243      0.0891      1.5567     22.5601     67.5665
   983.2000      7.9310      2.6302      0.0890      1.1980     23.2807     68.2588
   983.3000      7.9320      2.6475      0.0913      0.1524     24.4941     69.1848
   983.4000      7.9320      2.6773      0.0639     -1.6527     25.4893     66.3356
   983.5000      7.9330      2.7138      0.1180     -3.8648     26.1147     60.7233
   983.6000      7.9330      2.7438      0.1029     -5.6871     26.6140     57.7917
   983.7000      7.9330      2.7568      0.1259     -6.4734     27.1010     60.1482
   983.8000      7.9336      2.7494      0.0998     -6.0249     27.4542     64.6037
   983.9000      7.9336      2.7308      0.0877     -4.9000     27.4460     66.5820
   984.0000      7.9354      2.7153      0.0705     -3.9598     27.1923     63.7213
   984.1000      7.9354      2.7098      0.0343     -3.6270     26.8748     60.4321
   984.2000      7.9354      2.7169     -0.0017     -4.0525     26.3204     61.6148
   984.3000      7.9407      2.7297      0.0288     -4.8326     25.5316     63.3985
   984.4000      7.9407      2.7308      0.0321     -4.8958     24.8010     61.0015
   984.5000      7.9509      2.7140      0.0195     -3.8791     24.0745     56.7233
   984.6000      7.9509      2.6903      0.0615     -2.4399     23.1920     56.6623
   984.7000      7.9509      2.6736      0.0379     -1.4326     22.3149     64.8465
   984.8000      7.9584      2.6716      0.0763     -1.3102     21.4958     76.1280
   984.9000      7.9584      2.6776      0.0801     -1.6705     20.7593     79.9141
   985.0000      7.9605      2.6809      0.0658     -1.8728     20.2984     76.9506
   985.1000      7.9605      2.6733      0.1096     -1.4125     20.2876     76.4817
   985.2000      7.9605      2.6527      0.0757     -0.1654     20.7468     78.0647
   985.3000      7.9600      2.6436     -0.0160      0.3878     21.4479     76.0627
   985.4000      7.9600      2.6675      0.0609     -1.0623     22.1343     73.0076
   985.5000      7.9594      2.6977      0.0835     -2.8906     22.5808     73.5493
   985.6000      7.9594      2.6959      0.0821     -2.7814     22.7865     73.7897
   985.7000      7.9594      2.6687     -0.0108     -1.1345     22.8505     70.4722
   985.8000      7.9597      2.6546      0.0163     -0.2768     22.6250     66.6583
   985.9000      7.9597      2.6659      0.0452     -0.9663     22.2330     64.2064
   986.0000      7.9597      2.6865      0.0660     -2.2139     21.9789     62.7546
   986.1000      7.9597      2.7060      0.0501     -3.3913     21.9138     61.6831
   986.2000      7.9597      2.7229      0.0459     -4.4158     21.9309     60.9120
   986.3000      7.9598      2.7331      0.0765     -5.0365     22.2110     59.5789
   986.4000      7.9598      2.7359      0.0397     -5.2033     23.0058     56.4038
   986.5000      7.9609      2.7405      0.0326     -5.4855     24.0443     52.0892
   986.6000      7.9609      2.7479      0.0625     -5.9339     24.7530     48.9676
   986.7000      7.9609      2.7479      0.0666     -5.9336     24.9725     47.1098
   986.8000      7.9612      2.7406      0.0589     -5.4922     24.9429     46.0916
   986.9000      7.9612      2.7335      0.0556     -5.0608     24.7822     48.0065
   987.0000      7.9593      2.7263      0.0733     -4.6242     24.4930     53.5261
   987.1000      7.9593      2.7201      0.0481     -4.2503     24.0857     56.6265
   987.2000      7.9593      2.7242      0.0969     -4.4945     23.6984     53.2221
   987.3000      7.9575      2.7359      0.1004     -5.2089     23.5186     49.3117
   987.4000      7.9575      2.7461      0.0901     -5.8240     23.7593     50.4487
   987.5000      7.9596      2.7519      0.0827     -6.1759     24.2492     53.9817
   987.6000      7.9596      2.7489      0.0916     -5.9931     24.3599     55.9408
   987.7000      7.9596      2.7322      0.0563     -4.9831     24.0658     56.8296
   987.8000      7.9678      2.7044      0.0616     -3.2983     23.7432     57.8050
   987.9000      7.9678      2.6727      0.0819     -1.3755     23.4983     58.7184
   988.0000      7.9786      2.6516      0.0203     -0.0943     23.4803     61.2801
   988.1000      7.9786      2.6483      0.0560      0.1038     23.5368     65.3728
   988.2000      7.9786      2.6443      0.0653      0.3453     23.2786     67.0878
   988.3000      7.9844      2.6204      0.0635      1.7945     22.8460     67.2754
   988.4000      7.9844      2.5893      0.0203      3.6793     22.5050     69.9860
   988.5000      7.9854      2.5781      0.0311      4.3602     22.2897     72.9333
   988.6000      7.9854      2.5859      0.0425      3.8831     22.2673     73.0671
   988.7000      7.9854      2.5932      0.0204      3.4399     22.3898     72.9586
   988.8000      7.9849      2.5914      0.0405      3.5521     22.3610     72.6504
   988.9000      7.9849      2.5850      0.0657      3.9385     22.2336     70.0396
   989.0000      7.9858      2.5792      0.0764      4.2904     22.0531     67.8622
   989.1000      7.9858      2.5745      0.0474      4.5788     21.4758     70.0038
   989.2000      7.9858      2.5775      0.0442      4.3927     20.7997     75.2390
   989.3000      7.9865      2.5965      0.0579      3.2410     20.5586     78.8695
   989.4000      7.9865      2.6240      0.0985      1.5776     20.6522     77.7789
   989.5000      7.9861      2.6382      0.1343      0.7138     20.8404     71.9734
   989.6000      7.9861      2.6371      0.0845      0.7822     20.9179     66.2868
   989.7000      7.9861      2.6440      0.0827      0.3607     20.8832     65.4818
   989.8000      7.9860      2.6622      0.1284     -0.7379     20.9762     67.3928
   989.9000      7.9860      2.6713      0.1039     -1.2906     21.4731     68.9065
   990.0000      7.9861      2.6654      0.0645     -0.9337     22.0025     70.4445
   990.1000      7.9861      2.6550      0.0594     -0.3056     21.7389     71.1001
   990.2000      7.9861      2.6519      0.0593     -0.1163     20.7126     69.0437
   990.3000      7.9860      2.6612      0.0518     -0.6762     19.9143     64.9128
   990.4000      7.9860      2.6768      0.0797     -1.6264     20.1424     62.1644
   990.5000      7.9854      2.6863      0.0909     -2.1974     20.9814     62.3702
   990.6000      7.9854      2.6825      0.0875     -1.9675     21.6283     63.2714
   990.7000      7.9854      2.6769      0.0636     -1.6332     22.1370     62.9968
   990.8000      7.9854      2.6906      0.0781     -2.4612     22.6475     62.0688
   990.9000      7.9854      2.7205      0.1405     -4.2728     22.8404     59.3026
   991.0000      7.9889      2.7437      0.1126     -5.6796     22.7151     53.4759
   991.1000      7.9889      2.7483      0.1251     -5.9590     22.8357     49.3350
