~Version Information
VERS.                      2.0: CWLS Log ASCII Standard - VERSION 2.0
WRAP.                       NO: One line per depth step
~Well Information Block
STRT.FT               630.0000: 
STOP.FT              1155.5000: 
STEP.FT                 0.1000: 
NULL.                -999.2500: 
COMP.          Pioneer Natural Resources: COMPANY
WELL.          Drewmeister 34-34: WELL
FLD.           Purgatoire River: FIELD
LOC.           958' FSL & 1857' FEL: LOCATION
STAT.                 Colorado: State
CNTY.               Las Animas: COUNTY
CTRY. USA : Country
SECT. 34 : Section
TOWN. 32S : Township
RANG. 65W : Range
SRVC.                Patterson: SERVICE COMPANY
DATE.          Tue Oct 04 08:23:16 2005: LOG DATE
API.           05 071 08131 00: UNIQUE WELL ID
~Curve Information Block
DEPT.FT            0 000 00 00: Depth
DCAL.in                       : CDL Caliper
RHOB.g/cc                     : CDL Bulk Density
RHOC.g/cc                     : CDL Density Correction
DPOR.pu                       : CDL Density Porosity
GR.GAPI                       : Gamma Ray
NPOR.pu                       : Neutron Porosity
~Parameter Information Block
~A  Depth       DCAL        RHOB        RHOC        DPOR         GR         NPOR    
# ...
   937.2000      8.0166      2.4701      0.1030     10.9035    115.4591     27.8019
   937.3000      8.0179      2.4953      0.1096      9.3781    112.4273     28.4034
   937.4000      8.0179      2.5127      0.0822      8.3222    109.8190     28.6369
   937.5000      8.0191      2.5347      0.1158      6.9884    107.3995     28.6811
   937.6000      8.0191      2.5644      0.1360      5.1876    104.9992     28.4705
   937.7000      8.0191      2.5926      0.1774      3.4785    104.7785     28.0983
   937.8000      8.0197      2.6085      0.1771      2.5140    106.7248     27.5835
   937.9000      8.0197      2.6092      0.1349      2.4702    110.1556     26.7664
   938.0000      8.0199      2.6015      0.1388      2.9404    113.6674     25.8757
   938.1000      8.0199      2.5980      0.0713      3.1538    114.8420     25.0350
   938.2000      8.0199      2.6010      0.1109      2.9680    116.8457     24.1726
   938.3000      8.0195      2.5871      0.0832      3.8131    120.5502     22.8846
   938.4000      8.0195      2.5361      0.0443      6.9025    119.0889     21.0443
   938.5000      8.0188      2.4626     -0.0326     11.3570    112.4624     19.5097
   938.6000      8.0188      2.3956     -0.0241     15.4160    104.9576     18.6764
   938.7000      8.0188      2.3405     -0.0144     18.7581     96.3404     18.2974
   938.8000      8.0186      2.2836     -0.0139     22.2038     87.3394     18.4471
   938.9000      8.0186      2.2253     -0.1153     25.7398     80.2183     19.0938
   939.0000      8.0194      2.1867     -0.1166     28.0759     77.8647     19.8287
   939.1000      8.0194      2.1805     -0.0675     28.4575     81.8905     20.2505
   939.2000      8.0194      2.1958     -0.0229     27.5253     88.2864     20.1599
   939.3000      8.0205      2.2171      0.0642     26.2361     92.1036     19.5766
   939.4000      8.0205      2.2316      0.1811     25.3581     93.5489     18.8578
   939.5000      8.0213      2.2299      0.2168     25.4630     95.4092     18.6443
   939.6000      8.0213      2.2139      0.1674     26.4298     96.6406     18.7537
   939.7000      8.0213      2.1874      0.1439     28.0363     94.7442     18.2108
   939.8000      8.0222      2.1420      0.1238     30.7905     89.6319     17.2963
   939.9000      8.0222      2.0812      0.0530     34.4756     82.0883     17.0763
   940.0000      8.0241      2.0293      0.0797     37.6198     77.8202     17.5795
   940.1000      8.0241      1.9981      0.1071     39.5092     80.6286     18.1698
   940.2000      8.0241      1.9899      0.0905     40.0065     84.4453     18.7951
   940.3000      8.0280      2.0129      0.1288     38.6149     85.0774     19.7137
   940.4000      8.0280      2.0628      0.1998     35.5909     83.7585     20.6094
   940.5000      8.0315      2.1246      0.2207     31.8426     82.1238     21.2802
   940.6000      8.0315      2.1871      0.2607     28.0566     79.5421     22.2953
   940.7000      8.0315      2.2373      0.2683     25.0104     75.8678     23.9785
   940.8000      8.0312      2.2668      0.2626     23.2232     75.4416     25.7742
   940.9000      8.0312      2.2816      0.2135     22.3288     79.8709     26.8762
   941.0000      8.0157      2.3028      0.1183     21.0395     85.6398     27.1418
   941.1000      8.0157      2.3477      0.1225     18.3189     92.2923     27.0308
   941.2000      8.0157      2.4046      0.1446     14.8711    100.4668     26.9994
   941.3000      7.9764      2.4534      0.0620     11.9162    108.4230     27.2302
   941.4000      7.9764      2.4905      0.0813      9.6686    112.9147     27.7563
   941.5000      7.9350      2.5157      0.0901      8.1416    110.1039     28.3694
   941.6000      7.9350      2.5278      0.1120      7.4064    102.2265     28.7697
   941.7000      7.9350      2.5263      0.1057      7.4983     95.7353     28.7181
   941.8000      7.9153      2.5095      0.0741      8.5172     95.0363     28.1184
   941.9000      7.9153      2.4844      0.0176     10.0350    101.6562     27.5585
   942.0000      7.9104      2.4635      0.0243     11.3040    111.0109     27.4775
   942.1000      7.9104      2.4537     -0.0318     11.8996    117.0450     27.1860
   942.2000      7.9104      2.4567     -0.0056     11.7161    119.4376     26.6752
   942.3000      7.9096      2.4666      0.0116     11.1134    121.6977     26.6413
   942.4000      7.9096      2.4780      0.0095     10.4218    124.4381     26.9142
   942.5000      7.9101      2.4875      0.0221      9.8509    127.1388     27.0131
   942.6000      7.9101      2.4857      0.0333      9.9555    131.2930     26.7841
   942.7000      7.9101      2.4706      0.0129     10.8710    137.4704     26.2521
   942.8000      7.9108      2.4608      0.0175     11.4672    142.8452     25.8012
   942.9000      7.9108      2.4757      0.0305     10.5622    142.8288     25.9545
   943.0000      7.9117      2.5058      0.0547      8.7418    138.7348     26.4224
   943.1000      7.9117      2.5197      0.0833      7.8986    134.8971     26.4352
   943.2000      7.9117      2.5088      0.0365      8.5549    130.2970     26.0398
   943.3000      7.9113      2.4972      0.0056      9.2584    126.3093     25.5894
   943.4000      7.9113      2.4944      0.0498      9.4314    125.7930     25.2240
   943.5000      7.9096      2.4878      0.0285      9.8327    124.1209     25.0364
   943.6000      7.9096      2.4692      0.0348     10.9599    120.5517     24.8927
   943.7000      7.9096      2.4314      0.0041     13.2481    119.1299     24.7861
   943.8000      7.9096      2.3670     -0.0255     17.1545    118.0135     24.9697
   943.9000      7.9096      2.2761     -0.0398     22.6618    115.4359     25.4499
   944.0000      7.9110      2.1799     -0.1216     28.4932    114.7472     26.1252
   944.1000      7.9110      2.1135     -0.0933     32.5147    118.8179     27.1291
   944.2000      7.9110      2.0906     -0.1038     33.9023    126.5519     28.0827
   944.3000      7.9124      2.1034     -0.0685     33.1276    136.1423     28.6361
   944.4000      7.9124      2.1357      0.0052     31.1667    145.8734     29.4564
   944.5000      7.9130      2.1792      0.0347     28.5332    151.7805     30.5198
   944.6000      7.9130      2.2471      0.0670     24.4193    151.1740     30.9698
   944.7000      7.9130      2.3442      0.2066     18.5328    145.8148     30.7845
   944.8000      7.9126      2.4410      0.2856     12.6679    139.5512     30.4106
   944.9000      7.9126      2.5103      0.2793      8.4640    135.6109     29.9422
   945.0000      7.9117      2.5579      0.2026      5.5804    130.8180     29.3667
   945.1000      7.9117      2.5972      0.1965      3.2014    122.1109     28.4587
   945.2000      7.9117      2.6283      0.1966      1.3142    117.6997     27.4164
   945.3000      7.9109      2.6481      0.1657      0.1123    120.1173     27.2483
   945.4000      7.9109      2.6601      0.1370     -0.6138    121.9450     27.6605
   945.5000      7.9102      2.6627      0.1657     -0.7726    124.4337     27.4361
   945.6000      7.9102      2.6437      0.1537      0.3789    131.9344     26.6497
   945.7000      7.9102      2.6033      0.0701      2.8304    139.7456     26.2104
   945.8000      7.9097      2.5561      0.0408      5.6930    143.9018     26.4307
   945.9000      7.9097      2.5131      0.0163      8.2991    149.4417     26.6425
   946.0000      7.9097      2.4799      0.0167     10.3068    157.6204     26.3566
   946.1000      7.9097      2.4627     -0.0382     11.3500    159.5668     26.0022
   946.2000      7.9097      2.4695     -0.0120     10.9412    155.8144     26.0336
   946.3000      7.9099      2.4922      0.0135      9.5642    153.8717     26.4271
   946.4000      7.9099      2.5122      0.0162      8.3516    153.6308     26.8808
   946.5000      7.9094      2.5285     -0.0060      7.3636    155.1208     27.2827
   946.6000      7.9094      2.5468      0.0213      6.2548    157.3768     27.6629
   946.7000      7.9094      2.5590      0.0632      5.5177    157.1963     27.9261
