~Version Information
 VERS.                                  2.0 : CWLS LAS VERSION
 WRAP.                                   NO : WRAPING MODE
 SWARE .                 MController 2.5.0N : SOFTWARE VERSION
~Well Information
 WELL.                          Bobsy 34-11 : WELL
 COMP.    Pioneer Natural Resources USA Inc : COMPANY
 FLD.                      Purgatoire River : FIELD
 LOC.                SW/SE Sec 11 T32S R66W : LOCATION
 DATE.                               4/7/05 : DATE(S) LOGGED
 SRVC.       Blanco Geological Services LLC : SERVICE COMPANY
 STAT.                                   CO : STATE
 CNTY.                           Las Animas : COUNTY
 CTRY.                                  USA : COUNTRY
 API.                       05-071-08330-00 : API NUMBER
 STRT.FT                             842.00 : START DEPTH
 STOP.FT                            2345.00 : STOP DEPTH
 STEP.FT                               1.00 : DEPTH INCREMENT
 NULL.                                -9999 : NULL VALUE
~Curve information
 DEPTH.FT                                   :
 ROP.MIN/FT                                 :
 GAS.UNITS                                  :
~ASCII Log data
# ...
      1242.0         0.20         95.5 
      1243.0         0.27         94.4 
      1244.0         0.20         93.2 
      1245.0         0.27         91.2 
      1246.0         0.27         90.1 
      1247.0         0.27         89.0 
      1248.0         0.27         89.5 
      1249.0         0.27         92.5 
      1250.0         0.23         89.5 
      1251.0         0.20         82.4 
      1252.0         0.17         76.7 
      1253.0         0.23         74.1 
      1254.0         0.23         73.2 
      1255.0         0.22         70.0 
      1256.0         2.23        252.1 
      1257.0         0.37        313.1 
      1258.0         0.33        316.0 
      1259.0         0.28        294.0 
      1260.0         0.23        241.8 
      1261.0         0.23        200.4 
      1262.0         0.23        167.1 
      1263.0         0.20        141.3 
      1264.0         0.50        126.2 
      1265.0         0.57        109.6 
      1266.0         0.30        100.0 
      1267.0         0.20         95.0 
      1268.0         0.30         91.3 
      1269.0         0.17         86.7 
      1270.0         0.27         83.8 
      1271.0         0.28         79.5 
      1272.0         0.17         78.0 
      1273.0         0.20         77.5 
      1274.0         0.23         76.8 
      1275.0         0.23         76.6 
      1276.0         0.27         76.4 
      1277.0         0.27         75.7 
      1278.0         0.27         74.1 
      1279.0         0.23         76.3 
      1280.0         0.23         79.7 
      1281.0         0.23         78.5 
      1282.0         0.27         74.6 
      1283.0         0.30         70.2 
      1284.0         0.23         67.5 
      1285.0         0.18         65.7 
      1286.0         2.03        154.5 
      1287.0         0.33        199.3 
      1288.0         0.30        202.3 
      1289.0         0.23        190.5 
      1290.0         0.23        165.6 
      1291.0         0.18        140.9 
      1292.0         0.13        122.2 
      1293.0         0.13        112.4 
      1294.0         0.27        104.2 
      1295.0         0.30         94.6 
      1296.0         0.27         90.4 
      1297.0         0.30         87.7 
      1298.0         0.23         84.7 
      1299.0         0.30         82.1 
      1300.0         0.30         77.9 
      1301.0         0.23         73.1 
      1302.0         0.27         69.8 
      1303.0         0.23         67.1 
      1304.0         0.25         64.9 
      1305.0         0.27         63.1 
      1306.0         0.23         61.5 
      1307.0         0.20         60.4 
      1308.0         0.23         63.1 
      1309.0         0.23         63.5 
      1310.0         0.27         61.0 
      1311.0         0.23         57.0 
      1312.0         0.23         54.1 
      1313.0         0.23         52.5 
      1314.0         0.23         51.8 
      1315.0         0.27         48.9 
      1316.0         1.52        121.2 
      1317.0         0.47        202.7 
      1318.0         0.33        215.5 
      1319.0         0.27        212.5 
      1320.0         0.27        188.0 
      1321.0         0.27        156.2 
      1322.0         0.27        129.5 
      1323.0         0.27        110.3 
      1324.0         0.27        100.8 
      1325.0         0.28         97.2 
      1326.0         0.20         94.6 
      1327.0         0.17         90.5 
      1328.0         0.20         85.9 
      1329.0         0.20         80.8 
      1330.0         0.17         76.4 
      1331.0         0.23         73.3 
      1332.0         0.40         69.9 
      1333.0         0.43         66.8 
      1334.0         0.30         64.0 
      1335.0         0.27         63.8 
      1336.0         0.17         64.0 
      1337.0         0.17         67.1 
      1338.0         0.17         67.4 
      1339.0         0.18         66.3 
      1340.0         0.17         63.6 
      1341.0         0.17         62.4 
      1342.0         0.17         62.2 
      1343.0         0.23         62.5 
      1344.0         0.20         62.4 
      1345.0         0.17         60.7 
      1346.0         2.65        274.5 
      1347.0         0.27        275.5 
      1348.0         0.27        260.0 
      1349.0         0.17        221.9 
      1350.0         0.13        196.5 
      1351.0         0.20        176.3 
      1352.0         0.23        155.0 
      1353.0         0.20        133.0 
      1354.0         0.23        119.6 
      1355.0         0.17        109.1 
      1356.0         0.17        102.1 
      1357.0         0.20         96.8 
      1358.0         0.30         92.1 
      1359.0         0.27         87.9 
      1360.0         0.28         83.9 
      1361.0         0.23         81.6 
      1362.0         0.23         80.2 
      1363.0         0.23         80.9 
      1364.0         0.27         81.1 
      1365.0         0.23         80.8 
      1366.0         0.23         79.7 
      1367.0         0.20         77.8 
      1368.0         0.23         76.4 
      1369.0         0.27         78.0 
      1370.0         0.23         79.2 
      1371.0         0.23         75.4 
      1372.0         0.20         70.5 
      1373.0         0.20         68.0 
      1374.0         0.18         66.2 
      1375.0         0.17         64.7 
      1376.0         1.63         62.0 
      1377.0         0.40         98.2 
      1378.0         0.40        152.5 
      1379.0         0.33        186.2 
      1380.0         0.17        189.2 
      1381.0         0.18        187.1 
      1382.0         0.17        176.9 
      1383.0         0.27        163.6 
      1384.0         0.27        140.8 
      1385.0         0.17        120.8 
      1386.0         0.17        110.9 
      1387.0         0.20        103.1 
      1388.0         0.23         97.4 
      1389.0         0.37         94.6 
      1390.0         0.30         92.0 
      1391.0         0.30         90.9 
      1392.0         0.17         88.5 
      1393.0         0.13         86.5 
      1394.0         0.13         84.3 
      1395.0         0.17         81.9 
      1396.0         0.17         79.7 
      1397.0         0.22         78.1 
      1398.0         0.23         75.6 
      1399.0         0.27         73.3 
      1400.0         0.27         73.4 
      1401.0         0.23         74.4 
      1402.0         0.20         73.0 
      1403.0         0.23         69.7 
      1404.0         0.23         67.0 
      1405.0         0.23         64.8 
      1406.0         1.95         77.5 
      1407.0         0.40        118.1 
      1408.0         0.37        159.7 
      1409.0         0.27        168.5 
      1410.0         0.30        168.3 
      1411.0         0.27        154.6 
      1412.0         0.30        132.8 
      1413.0         0.23        109.7 
      1414.0         0.30         95.7 
      1415.0         0.20         85.0 
      1416.0         0.22         81.1 
      1417.0         0.17         79.4 
      1418.0         0.23         77.5 
      1419.0         0.20         75.4 
      1420.0         0.33         74.4 
      1421.0         0.23         72.9 
      1422.0         0.27         71.5 
      1423.0         0.27         69.6 
      1424.0         0.27         66.1 
      1425.0         0.10         65.2 
      1426.0         0.23         64.7 
      1427.0         0.27         65.4 
      1428.0         0.20         68.1 
      1429.0         0.20         68.2 
      1430.0         0.23         66.7 
      1431.0         0.25         64.0 
      1432.0         0.10         61.7 
      1433.0         0.17         61.2 
      1434.0         0.23         59.8 
      1435.0         0.33         56.5 
      1436.0         1.93        106.2 
      1437.0         0.38        151.6 
      1438.0         0.27        164.1 
      1439.0         0.27        163.5 
      1440.0         0.23        152.3 
      1441.0         0.13        134.9 
