~Version Information
VERS.                      2.0: CWLS Log ASCII Standard - VERSION 2.0
WRAP.                       NO: One line per depth step
~Well Information Block
STRT.FT               784.0000: 
STOP.FT              1035.0000: 
STEP.FT                 0.2500: 
NULL.                -999.2500: 
COMP.          Pioneer Natural Resources: COMPANY
WELL.          Run-Away-Train 43-26: WELL
FLD.           Purgatoire River: FIELD
LOC.           1693' FSL & 1195' FEL: LOCATION
PROV.                 Colorado: PROVINCE
CNTY.               Las Animas: COUNTRY
SRVC.                Patterson: SERVICE COMPANY
DATE.          Tue Apr 05 19:22:37 2005: LOG DATE
UWI.           05 071 08188 00: UNIQUE WELL ID
~Curve Information Block
DEPT.FT            0 000 00 00: Depth
SN.Ohm-m                      : IEL Short Normal
SP.mV                         : IEL Spontaneous Potential
DIR.Ohm-m                     : IEL Induction Resistivity
GR.GAPI                       : Gamma Ray
~Parameter Information Block
~A  Depth        SN          SP         DIR          GR     
# ...
  1018.5000     21.2528    -50.8009     17.2453   -999.2500
  1018.7500     20.8959    -51.3397     17.0131   -999.2500
  1019.0000     20.5923    -51.9039     16.5966   -999.2500
  1019.2500     20.2662    -52.4727     16.0677   -999.2500
  1019.5000     19.9330    -53.0365     15.5262   -999.2500
  1019.7500     19.6861    -53.6251     15.0582   -999.2500
  1020.0000     19.5641    -54.2920     14.7033   -999.2500
  1020.2500     19.4872    -55.0722     14.4466   -999.2500
  1020.5000     19.3484    -55.9482     14.2394   -999.2500
  1020.7500     19.1104    -56.8492     14.0361   -999.2500
  1021.0000     18.8004    -57.6821     13.8227   -999.2500
  1021.2500     18.4658    -58.3726     13.6162   -999.2500
  1021.5000     18.1491    -58.8965     13.4450   -999.2500
  1021.7500     17.8814    -59.2849     13.3298   -999.2500
  1022.0000     17.6976    -59.6096     13.2247   -999.2500
  1022.2500     17.6190    -59.9534     13.2356   -999.2500
  1022.5000     17.6209    -60.3722     13.2986   -999.2500
  1022.7500     17.6729    -60.8663     13.3994   -999.2500
  1023.0000     17.7723    -61.3836     13.5201   -999.2500
  1023.2500     17.9036    -61.8517     13.6397   -999.2500
  1023.5000     18.0137    -62.2175     13.7377   -999.2500
  1023.7500     18.0534    -62.4688     13.7997   -999.2500
  1024.0000     18.0306    -62.6365     13.8268   -999.2500
  1024.2500     17.9957    -62.7780     13.8423   -999.2500
  1024.5000     17.9583    -62.9514     13.9004   -999.2500
  1024.7500     17.8581    -63.1916     14.1014   -999.2500
  1025.0000     17.6412    -63.5002     14.6155   -999.2500
  1025.2500     17.3269    -63.8464     15.7138   -999.2500
  1025.5000     16.9797    -64.1791     17.9356   -999.2500
  1025.7500     16.6436    -64.4478     21.7837   -999.2500
  1026.0000     16.3094    -64.6276     28.5151   -999.2500
  1026.2500     15.9392    -64.7271     39.9941   -999.2500
  1026.5000     15.5197    -64.7756     58.5634   -999.2500
  1026.7500     15.0759    -64.8041     85.0490   -999.2500
  1027.0000     14.6393    -64.8355    114.8661   -999.2500
  1027.2500     14.2276    -64.8853    139.0793   -999.2500
  1027.5000     13.8503    -64.9678    153.5758   -999.2500
  1027.7500     13.5167    -65.1020    161.6436   -999.2500
  1028.0000     13.2438    -65.3081    168.3454   -999.2500
  1028.2500     13.0581    -65.5972    177.6404   -999.2500
  1028.5000     12.9589    -65.9631 100000.0000   -999.2500
  1028.7500     12.8895    -66.3857 100000.0000   -999.2500
  1029.0000     12.8233    -66.8364 100000.0000   -999.2500
  1029.2500     12.8464    -67.2794 100000.0000   -999.2500
  1029.5000     13.0523    -67.6750 100000.0000   -999.2500
  1029.7500     13.4205    -67.9882 100000.0000   -999.2500
  1030.0000     13.8606    -68.1922 100000.0000   -999.2500
  1030.2500     14.3077    -68.2105 100000.0000   -999.2500
  1030.5000     14.7460    -67.7480 100000.0000   -999.2500
  1030.7500     15.1832    -66.0255 100000.0000   -999.2500
  1031.0000     15.6155    -61.6976 100000.0000   -999.2500
  1031.2500     15.9237    -53.4680 100000.0000   -999.2500
  1031.5000     15.6058    -41.3936 100000.0000   -999.2500
  1031.7500     13.6756    -27.6530 100000.0000   -999.2500
  1032.0000      9.5292    -15.5004 100000.0000   -999.2500
  1032.2500      4.2612     -7.1389 100000.0000   -999.2500
  1032.5000      0.0414     -2.6611 100000.0000   -999.2500
  1032.7500     -2.1192     -0.7942 100000.0000   -999.2500
  1033.0000     -2.8286     -0.1880 100000.0000   -999.2500
  1033.2500     -2.9781     -0.0348 100000.0000   -999.2500
  1033.5000     -2.9983     -0.0046 100000.0000   -999.2500
  1033.7500   -999.2500   -999.2500 100000.0000   -999.2500
  1034.0000   -999.2500   -999.2500 100000.0000   -999.2500
  1034.2500   -999.2500   -999.2500 100000.0000   -999.2500
  1034.5000   -999.2500   -999.2500 100000.0000   -999.2500
  1034.7500   -999.2500   -999.2500 100000.0000   -999.2500
  1035.0000   -999.2500   -999.2500 100000.0000   -999.2500
