~Version Information
VERS.                      2.0: CWLS Log ASCII Standard - VERSION 2.0
WRAP.                       NO: One line per depth step
~Well Information Block
STRT.FT               -14.0000: 
STOP.FT              2531.7500: 
STEP.FT                 0.2500: 
NULL.                -999.2500: 
COMP.          Petrogulf Corporation: COMPANY
WELL.            Lavedure 7-44: WELL
FLD.           Purgatorie River: FIELD
LOC.           969' FSL & 501' FEL--: LOCATION
PROV.                       CO: PROVINCE
CNTY.               Las Animas: COUNTRY
SRVC.          Patterson Wireline: SERVICE COMPANY
DATE.          Wed Dec 10 09:23:08 2003: LOG DATE
UWI.                          : UNIQUE WELL ID
~Curve Information Block
DEPT.FT            0 000 00 00: Depth
CCL.                          : Casing Collar Locator
TT3.usec                      : CBL 3' Travel Time
AMP3.mV                       : CBL 3' Amplitude
GR.GAPI                       : Gamma Ray
~Parameter Information Block
~A  Depth       CCL         TT3         AMP3         GR     
# ...
   823.5000      0.0000    266.9561     55.0428     49.3710
   823.7500      0.0000    266.9604     54.9557     48.4512
   824.0000      0.0000    266.9609     54.8469     47.7553
   824.2500      0.0000    266.9597     54.7314     47.2180
   824.5000      0.0000    266.9605     54.6321     47.2550
   824.7500      0.0000    266.9634     54.5900     48.2280
   825.0000      0.0000    266.9636     54.6412     49.6192
   825.2500      0.0000    266.9565     54.7849     50.2453
   825.5000      0.0000    266.9434     54.9774     49.5382
   825.7500      0.0000    266.9298     55.1591     48.2117
   826.0000      0.0000    266.9198     55.2953     47.3543
   826.2500      0.0000    266.9118     55.3972     47.0815
   826.5000      0.0000    266.9021     55.5040     46.4171
   826.7500      0.0000    266.8887     55.6367     44.5355
   827.0000      0.0000    266.8724     55.7744     41.8326
   827.2500      0.0000    266.8524     55.8820     39.6427
   827.5000      0.0000    266.8262     55.9544     39.0651
   827.7500      0.0000    266.7944     56.0244     40.1306
   828.0000      0.0000    266.7631     56.1319     41.9218
   828.2500      0.0000    266.7398     56.2901     43.3992
   828.5000      0.0000    266.7283     56.4818     44.1058
   828.7500      0.0000    266.7273     56.6814     44.0920
   829.0000      0.0000    266.7306     56.8737     43.4437
   829.2500      0.0000    266.7292     57.0556     42.2775
   829.5000      0.0000    266.7180     57.2267     41.1170
   829.7500      0.0000    266.7010     57.3766     40.8360
   830.0000      0.0000    266.6875     57.4811     42.1358
   830.2500      0.0000    266.6829     57.5206     45.1018
   830.5000      0.0000    266.6831     57.5100     49.0256
   830.7500      0.0000    266.6786     57.4972     52.4975
   831.0000      0.0000    266.6629     57.5201     54.0005
   831.2500      0.0000    266.6394     57.5785     52.9717
   831.5000      0.0000    266.6191     57.6530     50.3884
   831.7500      0.0000    266.6125     57.7214     47.9759
   832.0000      0.0000    266.6218     57.7498     46.6481
   832.2500      0.0000    266.6407     57.6979     45.8419
   832.5000      0.0000    266.6603     57.5626     44.3915
   832.7500      0.0000    266.6757     57.4041     41.9358
   833.0000      0.0000    266.6895     57.3069     39.4948
   833.2500      0.0000    266.7119     57.3183     38.6843
   833.5000      0.0000    266.7491     57.4296     40.2594
   833.7500      0.0000    266.7855     57.5961     43.3551
   834.0000      0.0000    266.7862     57.7665     46.2244
   834.2500      0.0000    266.7322     57.9118     47.7045
   834.5000      0.0000    266.6455     58.0491     47.9344
   834.7500      0.0000    266.5694     58.2208     47.8136
   835.0000      0.0000    266.5295     58.4346     47.9785
   835.2500      0.0000    266.5232     58.6399     48.3145
   835.5000      0.0000    266.5362     58.7792     48.2971
   835.7500      0.0000    266.5575     58.8472     47.5879
   836.0000      0.0000    266.5786     58.8778     46.2322
   836.2500      0.0000    266.5926     58.8901     44.5435
   836.5000      0.0000    266.5991     58.8769     43.0727
   836.7500      0.0000    266.6039     58.8359     42.5282
   837.0000      0.0000    266.6098     58.7864     43.3676
   837.2500      0.0000    266.6111     58.7536     45.3688
   837.5000      0.0000    266.6021     58.7458     47.7812
   837.7500      0.0000    266.5855     58.7550     49.8963
   838.0000      0.0000    266.5711     58.7769     51.4244
   838.2500      0.0000    266.5673     58.8215     52.4799
   838.5000      0.0000    266.5752     58.8859     53.3165
   838.7500      0.0000    266.5900     58.9197     54.0310
   839.0000      0.0000    266.6115     58.8318     54.5628
   839.2500      0.0000    266.6606     58.5128     54.9819
   839.5000      0.0000    266.8301     57.8193     55.5060
   839.7500      0.0000    267.3987     56.5616     56.0312
   840.0000      0.0000    268.9809     54.5598     55.9277
   840.2500      0.0000    272.5068     51.7339     54.6974
   840.5000      0.0000    278.7330     48.1847     52.7204
   840.7500      0.0000    287.3976     44.2943     50.9168
   841.0000      0.0000    296.8632     40.7339     49.6713
   841.2500      0.0000    304.9563     38.1547     48.5142
   841.5000      0.0000    310.3551     36.7612     47.0621
   841.7500      0.0000    313.1448     36.2652     45.8614
   842.0000      0.0000    314.1923     36.2424     45.8495
   842.2500      1.7831    314.2401     36.4299     47.1544
   842.5000      0.0000    313.4847     36.7647     48.9711
   842.7500      0.0000    311.7163     37.3306     50.6357
   843.0000      0.0000    308.7891     38.2811     52.2918
   843.2500      0.0000    304.9641     39.7000     54.2995
   843.5000      0.0000    300.6080     41.5461     56.3978
   843.7500      0.0000    295.5675     43.7913     57.8134
   844.0000      0.0000    289.3772     46.4400     57.9879
   844.2500      0.0000    282.3156     49.2783     56.9652
   844.5000      0.0000    275.7196     51.8016     55.1911
   844.7500      0.0000    270.9263     53.5867     53.1498
   845.0000      0.0000    268.2468     54.6158     51.2567
   845.2500      0.0000    267.0920     55.1650     49.9832
   845.5000      0.0000    266.7054     55.5178     49.8034
   845.7500      0.0000    266.6028     55.8369     50.8789
   846.0000      0.0000    266.5758     56.1806     52.9930
   846.2500      0.0000    266.5610     56.5302     55.9592
   846.5000      0.0000    266.5461     56.8135     59.8834
   846.7500      0.0000    266.5337     56.9510     64.8082
   847.0000      0.0000    266.5292     56.9003     70.2915
   847.2500      0.0000    266.5345     56.6763     75.5120
   847.5000      0.0000    266.5470     56.3519     79.6497
   847.7500      0.0000    266.5602     56.0315     82.0778
   848.0000      0.0000    266.5664     55.7871     82.5036
   848.2500      0.0000    266.5623     55.6246     81.3635
   848.5000      0.0000    266.5515     55.5258     80.0184
   848.7500      0.0000    266.5385     55.5004     80.1223
   849.0000      0.0000    266.5230     55.5696     82.6196
   849.2500      0.0000    266.4991     55.7097     87.3512
   849.5000      0.0000    266.4611     55.8424     93.3664
   849.7500      0.0000    266.4120     55.8917     99.3125
   850.0000      0.0000    266.3693     55.8424    103.7061
   850.2500      0.0000    266.3597     55.7438    105.3961
   850.5000      0.0000    266.3974     55.6643    104.2016
   850.7500      0.0000    266.4681     55.6414    101.2102
   851.0000      0.0000    266.5412     55.6674     98.2831
   851.2500      0.0000    266.5945     55.7127     97.0224
   851.5000      0.0000    266.6263     55.7608     97.9875
   851.7500      0.0000    266.6459     55.8242    100.6103
   852.0000      0.0000    266.6601     55.9152    103.6227
   852.2500      0.0000    266.6666     56.0053    105.7068
   852.5000      0.0000    266.6616     56.0358    106.2906
   852.7500      0.0000    266.6492     55.9798    106.1263
   853.0000      0.0000    266.6411     55.8816    106.9024
   853.2500      0.0000    266.6444     55.8252    109.6840
   853.5000      0.0000    266.6544     55.8651    113.3945
   853.7500      0.0000    266.6609     55.9872    115.1119
   854.0000      0.0000    266.6594     56.1229    112.4311
   854.2500      0.0000    266.6534     56.2019    105.7382
   854.5000      0.0000    266.6476     56.2007     98.0063
   854.7500      0.0000    266.6447     56.1465     92.4008
   855.0000      0.0000    266.6461     56.0773     90.1791
   855.2500      0.0000    266.6505     56.0022     90.4471
   855.5000      0.0000    266.6532     55.9049     91.2960
   855.7500      0.0000    266.6476     55.7716     91.3868
   856.0000      0.0000    266.6317     55.6090     91.0576
   856.2500      0.0000    266.6089     55.4506     91.8231
   856.5000      0.0000    266.5843     55.3509     94.3943
   856.7500      0.0000    266.5621     55.3549     97.3572
