~Version Information
VERS.                      2.0: CWLS Log ASCII Standard - VERSION 2.0
WRAP.                       NO: One line per depth step
~Well Information Block
STRT.FT                -7.7500: 
STOP.FT              1383.2500: 
STEP.FT                 0.2500: 
NULL.                -999.2500: 
COMP.          Petrogulf Corporation: COMPANY
WELL.          Great Plains 22-22R: WELL
FLD.           Purgatoire River: FIELD
LOC.           2042' FNL & 1657' FWL SENW 22 33S 67W ----: LOCATION
PROV.                 Colorado: PROVINCE
CNTY.               Las Animas: COUNTRY
SRVC.                         : SERVICE COMPANY
DATE.          Thu Sep 22 14:55:58 2005: LOG DATE
UWI.             07108028     : UNIQUE WELL ID
~Curve Information Block
DEPT.FT            0 000 00 00: Depth
CCL.                          : Casing Collar Locator
TT3.usec                      : CBL 3' Travel Time
AMP3.mV                       : CBL 3' Amplitude
GR.GAPI                       : Gamma Ray
~Parameter Information Block
~A  Depth       CCL         TT3         AMP3         GR     
# ...
  1097.7500      0.0000    303.2346     27.5025    139.3564
  1098.0000      0.0000    309.5388     25.6207    151.3374
  1098.2500      0.0000    324.7485     23.7298    161.4822
  1098.5000      0.0000    355.9957     21.8195    168.8343
  1098.7500      0.0000    408.8420     19.8779    172.8184
  1099.0000      0.0000    480.7581     17.9475    173.6019
  1099.2500      0.0000    558.0307     16.1559    172.6487
  1099.5000      0.0000    621.8062     14.6633    172.2744
  1099.7500      0.0000    659.1885     13.5417    174.2087
  1100.0000      0.0000    668.8356     12.6803    178.3111
  1100.2500      0.0000    657.6829     11.8198    182.5332
  1100.5000      0.0000    634.8200     10.7275    184.2591
  1100.7500      0.0000    607.9200      9.3869    181.9120
  1101.0000      0.0000    582.3143      8.0209    175.6346
  1101.2500      0.0000    561.8539      6.9094    167.0502
  1101.5000      0.0000    551.0473      6.1711    158.5708
  1101.7500      0.0000    555.3025      5.7194    152.2949
  1102.0000     -2.0000    576.3968      5.3957    148.9632
  1102.2500      2.0000    608.0018      5.1120    148.1125
  1102.5000      2.0000    638.7057      4.8816    149.1165
  1102.7500      0.0000    660.5758      4.7785    151.4707
  1103.0000      0.0000    673.6701      4.8976    154.2398
  1103.2500      0.0000    682.3463      5.3159    156.3536
  1103.5000      0.0000    688.6647      6.0260    157.9061
  1103.7500      0.0000    690.1295      6.8892    160.4265
  1104.0000      0.0000    682.9605      7.6885    165.1406
  1104.2500      0.0000    666.5090      8.2582    171.0642
  1104.5000      0.0000    645.1614      8.5644    175.1723
  1104.7500      0.0000    627.1716      8.6732    174.5703
  1105.0000      0.0000    620.1118      8.6594    168.5453
  1105.2500      0.0000    624.9487      8.5549    158.7113
  1105.5000      0.0000    635.6251      8.3666    147.7176
  1105.7500      0.0000    645.9456      8.1113    138.0349
  1106.0000      0.0000    654.4615      7.8199    131.0908
  1106.2500      0.0000    661.5600      7.5254    126.7263
  1106.5000      0.0000    665.2106      7.2675    123.8388
  1106.7500      0.0000    661.0878      7.1038    121.8177
  1107.0000      0.0000    644.5352      7.0943    120.7447
  1107.2500      0.0000    612.2715      7.2655    120.2531
  1107.5000      0.0000    565.5416      7.5907    119.3213
  1107.7500      0.0000    513.2999      8.0038    117.5404
  1108.0000      0.0000    469.9952      8.4248    115.6698
  1108.2500      0.0000    447.3405      8.7824    114.4443
  1108.5000      0.0000    446.9455      9.0365    113.5692
  1108.7500      0.0000    460.0551      9.1931    112.4357
  1109.0000      0.0000    473.9622      9.2906    111.1208
  1109.2500      0.0000    479.8303      9.3693    109.9744
  1109.5000      0.0000    476.9790      9.4556    108.7217
  1109.7500      0.0000    471.1325      9.5690    106.7117
  1110.0000      0.0000    467.6552      9.7284    103.9513
  1110.2500      0.0000    465.6415      9.9426    101.4471
  1110.5000      0.0000    459.8530     10.1944    100.3859
  1110.7500      0.0000    448.9066     10.4411    101.2101
  1111.0000      0.0000    439.8936     10.6393    103.6713
  1111.2500      0.0000    444.2312     10.7783    107.4573
  1111.5000      0.0000    469.5254     10.8884    112.2628
  1111.7500      0.0000    514.0128     11.0132    117.4120
  1112.0000      0.0000    566.7047     11.1667    122.0874
  1112.2500      0.0000    613.6264     11.3136    125.9309
  1112.5000      0.0000    646.0364     11.3875    128.9937
  1112.7500      0.0000    663.6812     11.3309    131.2486
  1113.0000      0.0000    671.4208     11.1236    132.6612
  1113.2500      0.0000    674.2294     10.7884    133.6449
  1113.5000      0.0000    674.9825     10.3781    134.9662
  1113.7500      0.0000    674.6547      9.9509    136.9926
  1114.0000      0.0000    672.7909      9.5496    139.3098
  1114.2500      0.0000    667.3327      9.1995    141.4184
  1114.5000      0.0000    654.6722      8.9231    143.6790
  1114.7500      0.0000    631.4407      8.7403    147.0392
  1115.0000      0.0000    598.1657      8.6540    151.5989
  1115.2500      0.0000    561.6978      8.6425    155.9568
  1115.5000      0.0000    533.0877      8.6737    158.5401
  1115.7500      0.0000    522.0892      8.7300    159.4118
  1116.0000      0.0000    532.5667      8.8248    160.2230
  1116.2500      0.0000    560.8812      8.9985    162.3079
  1116.5000      0.0000    597.3306      9.2895    165.3091
  1116.7500      0.0000    630.8040      9.6970    167.8162
  1117.0000      0.0000    654.4127     10.1714    168.7932
  1117.2500      0.0000    667.5751     10.6427    167.7695
  1117.5000      0.0000    673.5100     11.0647    164.2272
  1117.7500      0.0000    675.7252     11.4403    158.0415
  1118.0000      0.0000    676.4933     11.8125    150.5114
  1118.2500      0.0000    677.0472     12.2324    143.6299
  1118.5000      0.0000    678.1993     12.7324    137.9867
  1118.7500      0.0000    680.6766     13.3332    132.2612
  1119.0000      0.0000    684.6278     14.0650    125.0704
  1119.2500      0.0000    688.0535     14.9614    116.7441
  1119.5000      0.0000    684.9660     16.0222    109.1624
  1119.7500      0.0000    665.6008     17.1964    104.4070
  1120.0000      0.0000    621.5980     18.4068    103.6939
  1120.2500      0.0000    554.9807     19.5720    106.8015
  1120.5000      0.0000    483.2429     20.5932    111.9914
  1120.7500      0.0000    432.2004     21.3453    117.0933
  1121.0000      0.0000    420.0396     21.7122    121.1611
  1121.2500      0.0000    446.8958     21.6313    124.5626
  1121.5000      0.0000    498.8020     21.1014    127.3059
  1121.7500      0.0000    559.0829     20.1709    128.2489
  1122.0000      0.0000    614.8762     18.9352    126.6165
  1122.2500      0.0000    657.2018     17.5143    123.5921
  1122.5000      0.0000    681.3478     16.0002    121.5018
  1122.7500      0.0000    688.6658     14.4411    121.5682
  1123.0000      0.0000    685.4618     12.8929    122.9765
  1123.2500      0.0000    678.9758     11.4620    123.9464
  1123.5000      0.0000    674.2078     10.2829    123.4044
  1123.7500      0.0000    673.3331      9.4603    121.9154
  1124.0000      0.0000    676.4377      9.0159    121.3229
  1124.2500      0.0000    682.0630      8.8579    123.1961
  1124.5000      0.0000    687.7229      8.8180    127.1935
  1124.7500      0.0000    690.8911      8.7529    131.0663
  1125.0000      0.0000    690.2748      8.6219    132.6098
  1125.2500      0.0000    686.2996      8.4752    131.6714
  1125.5000      0.0000    680.6247      8.3885    130.1032
  1125.7500      0.0000    675.2352      8.4131    129.7918
  1126.0000      0.0000    671.5402      8.5577    131.0560
  1126.2500      0.0000    669.8481      8.7962    132.8606
  1126.5000      0.0000    669.4402      9.0890    133.7674
  1126.7500      0.0000    668.9921      9.3937    132.4788
  1127.0000      0.0000    667.0279      9.6567    128.4791
  1127.2500      0.0000    662.6205      9.8169    122.6869
  1127.5000      0.0000    656.4267      9.8404    116.8250
  1127.7500      0.0000    651.0448      9.7630    111.9187
  1128.0000      0.0000    649.3728      9.6973    108.0335
  1128.2500      0.0000    651.9792      9.7777    105.4473
  1128.5000      0.0000    656.6050     10.0742    105.2977
  1128.7500      0.0000    660.6462     10.5406    108.8062
  1129.0000      0.0000    663.4318     11.0429    116.1453
  1129.2500      0.0000    665.7357     11.4393    126.1764
  1129.5000      0.0000    668.0208     11.6439    137.1699
  1129.7500      0.0000    669.9398     11.6360    147.7135
  1130.0000      0.0000    671.0821     11.4335    157.0580
  1130.2500      0.0000    671.4727     11.0700    164.7036
  1130.5000      0.0000    671.3485     10.5924    169.7907
  1130.7500      0.0000    670.7482     10.0636    171.1107
  1131.0000      0.0000    669.2725      9.5527    167.9072
