~Version Information
VERS.                      2.0: CWLS Log ASCII Standard - VERSION 2.0
WRAP.                       NO: One line per depth step
~Well Information Block
STRT.FT                -2.5000: 
STOP.FT              2329.5000: 
STEP.FT                 0.2500: 
NULL.                -999.2500: 
COMP.          Pioneer Natural Resources: COMPANY
WELL.              Whinny 42-2: WELL
FLD.           Purgatorie River: FIELD
LOC.           1836' FNL & 466' FEL--: LOCATION
PROV.                       CO: PROVINCE
CNTY.               Las Animas: COUNTRY
SRVC.          Patterson Wireline: SERVICE COMPANY
DATE.          Mon Aug 29 13:18:04 2005: LOG DATE
UWI.           05 071 08406 00: UNIQUE WELL ID
~Curve Information Block
DEPT.FT            0 000 00 00: Depth
CCL.                          : Casing Collar Locator
TT3.usec                      : CBL 3' Travel Time
AMP3.mV                       : CBL 3' Amplitude
GR.GAPI                       : Gamma Ray
~Parameter Information Block
~A  Depth       CCL         TT3         AMP3         GR     
    -2.5000   -999.2500   -999.2500   -999.2500     76.7061
    -2.2500   -999.2500   -999.2500   -999.2500     76.7894
    -2.0000   -999.2500   -999.2500   -999.2500     80.5528
    -1.7500   -999.2500   -999.2500   -999.2500     86.3953
    -1.5000   -999.2500   -999.2500   -999.2500     91.3539
    -1.2500   -999.2500   -999.2500   -999.2500     93.5501
    -1.0000   -999.2500   -999.2500   -999.2500     93.2163
    -0.7500   -999.2500   -999.2500   -999.2500     91.8391
    -0.5000   -999.2500   -999.2500   -999.2500     90.6489
    -0.2500   -999.2500   -999.2500   -999.2500     89.8018
     0.0000   -999.2500   -999.2500   -999.2500     88.6778
     0.2500   -999.2500   -999.2500   -999.2500     85.2458
     0.5000   -999.2500   -999.2500   -999.2500     85.3558
     0.7500   -999.2500   -999.2500   -999.2500     88.3396
     1.0000   -999.2500   -999.2500   -999.2500     93.3270
     1.2500   -999.2500   -999.2500   -999.2500     97.7703
     1.5000   -999.2500   -999.2500   -999.2500     99.3119
     1.7500   -999.2500   -999.2500   -999.2500     97.4759
     2.0000   -999.2500   -999.2500   -999.2500     93.8279
     2.2500   -999.2500   1149.0000      0.4918     90.5289
     2.5000   -999.2500   1149.0000      0.4814     88.5223
     2.7500   -999.2500   1149.0000      0.4799     87.0814
     3.0000   -999.2500   1149.0000      0.4857     85.1768
     3.2500   -999.2500   1149.0000      0.4957     82.8875
     3.5000   -999.2500   1149.0000      0.5066     81.0046
     3.7500   -999.2500   1149.0000      0.5164     79.4106
     4.0000   -999.2500   1149.0000      0.5240     76.6662
     4.2500   -999.2500   1149.0000      0.5291     71.6734
     4.5000   -999.2500   1149.0000      0.5315     65.3222
     4.7500   -999.2500   1149.0000      0.5300     59.9218
     5.0000   -999.2500   1149.0000      0.5231     57.1045
     5.2500   -999.2500   1149.0000      0.5119     56.4906
     5.5000   -999.2500   1149.0000      0.5004     56.1814
     5.7500   -999.2500   1149.0000      0.4941     54.3158
     6.0000   -999.2500   1149.0000      0.4955     50.2956
     6.2500   -999.2500   1149.0000      0.5034     44.9179
     6.5000   -999.2500   1149.0000      0.5134     39.6729
     6.7500   -999.2500   1149.0000      0.5216     35.8731
     7.0000   -999.2500   1149.0000      0.5270     34.0791
     7.2500   -999.2500   1149.0000      0.5299     34.0770
     7.5000   -999.2500   1149.0000      0.5301     35.4097
     7.7500      0.0000   1149.0000      0.5258     37.9755
     8.0000      0.0000   1149.0000      0.5157     42.0373
     8.2500      0.0000   1149.0000      0.5017     47.5866
     8.5000      0.0000   1149.0000      0.4882     53.8583
     8.7500      0.0000   1149.0000      0.4789     59.5838
     9.0000      0.0000   1149.0000      0.4748     63.6016
     9.2500      0.0000   1149.0000      0.4761     65.1803
     9.5000      0.0000   1149.0000      0.4822     64.0494
     9.7500      0.0000   1149.0000      0.4897     60.5618
    10.0000      0.0000   1149.0000      0.4941     55.9817
    10.2500      0.0000   1149.0000      0.4940     52.2552
    10.5000      0.0000   1149.0000      0.4906     51.0378
    10.7500      0.0000   1149.0000      0.4860     52.7912
    11.0000      0.0000   1149.0000      0.4820     56.7666
    11.2500      0.0000   1149.0000      0.4811     61.7120
    11.5000      0.0000   1149.0000      0.4860     66.6553
    11.7500      0.0000   1149.0000      0.4968     71.2299
    12.0000      0.0000   1149.0000      0.5090     75.4083
    12.2500      0.0000   1149.0000      0.5158     79.2512
    12.5000      0.0000   1149.0000      0.5131     83.0691
    12.7500      0.0000   1149.0000      0.5025     87.3131
    13.0000      0.0000   1149.0000      0.4887     91.8211
    13.2500      0.0000   1149.0000      0.4759     95.4028
    13.5000      0.0000   1149.0000      0.4669     96.6589
    13.7500      0.0000   1149.0000      0.4649     95.3113
    14.0000      0.0000   1149.0000      0.4726     92.4532
    14.2500      0.0000   1149.0000      0.4901     89.3905
    14.5000      0.0000   1149.0000      0.5243     86.5796
    14.7500      0.0000   1149.0000      0.6257     83.8687
    15.0000      0.0000   1149.0000      0.9549     81.2904
    15.2500      0.0000   1148.9406      1.8355     79.2141
    15.5000      0.0000   1148.5530      3.6888     78.0988
    15.7500      0.0000   1146.5848      6.8020     78.3610
    16.0000      0.0000   1138.8005     11.0931     79.9659
    16.2500      0.0000   1114.8220     16.1693     81.8750
    16.5000      0.0000   1057.2979     21.6697     82.4846
    16.7500      0.0000    949.8207     27.4676     81.0228
    17.0000      0.0000    793.4257     33.4578     78.2135
    17.2500      0.0000    616.1787     39.2487     75.4336
    17.5000      0.0000    459.7201     44.2281     73.6336
    17.7500      0.0000    352.1454     47.9488     73.2994
    18.0000      0.0000    294.5274     50.3796     74.9573
    18.2500      0.0000    270.4814     51.8158     78.9183
    18.5000      0.0000    262.6574     52.6355     84.2330
    18.7500      0.0000    260.6673     53.1330     88.4939
    19.0000      0.0000    260.2653     53.4808     89.4181
    19.2500      0.0000    260.1929     53.7671     86.7131
    19.5000      0.0000    260.1782     54.0390     82.3936
    19.7500      0.0000    260.1599     54.3200     79.5515
    20.0000      0.0000    260.1375     54.6117     80.5070
    20.2500      0.0000    260.1121     54.9009     85.3195
    20.5000      0.0000    260.0866     55.1717     91.7837
    20.7500      0.0000    260.0641     55.4146     97.1834
    21.0000      0.0000    260.0464     55.6291    100.2288
    21.2500      0.0000    260.0334     55.8208    101.3961
    21.5000      0.0000    260.0242     55.9945    101.7954
    21.7500      0.0000    260.0191     56.1487    102.1482
    22.0000      0.0000    260.0192     56.2785    102.7251
    22.2500      0.0000    260.0242     56.3813    103.7922
    22.5000      0.0000    260.0321     56.4583    105.7680
    22.7500      0.0000    260.0411     56.5132    108.7248
    23.0000      0.0000    260.0504     56.5504    111.7587
    23.2500      0.0000    260.0591     56.5738    113.3136
    23.5000      0.0000    260.0660     56.5862    112.4486
    23.7500      0.0000    260.0704     56.5924    109.6295
    24.0000      0.0000    260.0725     56.6004    106.2246
    24.2500      0.0000    260.0724     56.6189    103.4531
    24.5000      0.0000    260.0697     56.6539    101.7856
    24.7500      0.0000    260.0637     56.7073    100.8205
    25.0000      0.0000    260.0547     56.7767     99.3678
    25.2500      0.0000    260.0446     56.8557     96.1560
    25.5000      0.0000    260.0362     56.9372     91.1182
    25.7500      0.0000    260.0325     57.0164     85.9215
    26.0000      0.0000    260.0353     57.0910     82.7557
    26.2500      0.0000    260.0444     57.1551     82.5299
    26.5000      0.0000    260.0574     57.1943     84.3527
    26.7500      0.0000    260.0710     57.1927     86.5172
    27.0000      0.0000    260.0826     57.1466     87.7336
    27.2500      0.0000    260.0913     57.0716     87.7108
    27.5000      0.0000    260.0967     56.9953     87.0298
    27.7500      0.0000    260.0977     56.9420     86.4129
    28.0000      0.0000    260.0935     56.9213     85.8258
    28.2500      0.0000    260.0847     56.9267     84.4877
    28.5000      0.0000    260.0738     56.9432     82.0450
    28.7500      0.0000    260.0631     56.9589     79.3502
    29.0000      0.0000    260.0542     56.9713     77.7007
    29.2500      0.0000    260.0479     56.9847     77.6851
    29.5000      0.0000    260.0448     57.0036     79.0611
    29.7500      0.0000    260.0441     57.0302     81.2874
    30.0000      0.0000    260.0449     57.0647     83.7676
    30.2500      0.0000    260.0472     57.1052     85.9695
    30.5000      0.0000    260.0517     57.1468     87.5759
    30.7500      0.0000    260.0607     57.1771     88.2913
