~Version Information
VERS.                      2.0: CWLS Log ASCII Standard - VERSION 2.0
WRAP.                       NO: One line per depth step
~Well Information Block
STRT.FT                 1.5000: 
STOP.FT              1895.2500: 
STEP.FT                 0.2500: 
NULL.                -999.2500: 
COMP.          Petrogulf Corporation: COMPANY
WELL.             State 16-32R: WELL
FLD.           Purgatorie River: FIELD
LOC.           1849' FNL & 1677' FEL: LOCATION
CNTY.               Las Animas: COUNTY
SRVC.                         : SERVICE COMPANY
DATE.          Thu May 20 08:40:19 2004: LOG DATE
UWI.           05 071 08033 00: UNIQUE WELL ID
STAT.                 Colorado: STATE
~Curve Information Block
DEPT.FT            0 000 00 00: Depth
GR.GAPI                       : Gamma Ray
CCL.                          : Casing Collar Locator
TT3.usec                      : CBL 3' Travel Time
AMP3.mV                       : CBL 3' Amplitude
~Parameter Information Block
~A  Depth        GR         CCL         TT3         AMP3    
     1.5000   -999.2500   -999.2500   -999.2500   -999.2500
     1.7500   -999.2500   -999.2500   -999.2500   -999.2500
     2.0000   -999.2500   -999.2500   -999.2500   -999.2500
     2.2500   -999.2500   -999.2500   -999.2500   -999.2500
     2.5000   -999.2500   -999.2500   -999.2500   -999.2500
     2.7500   -999.2500   -999.2500   -999.2500   -999.2500
     3.0000   -999.2500   -999.2500    724.0000      0.1589
     3.2500   -999.2500   -999.2500    724.0000      0.1537
     3.5000   -999.2500   -999.2500    724.0000      0.1563
     3.7500   -999.2500   -999.2500    724.0000      0.1625
     4.0000   -999.2500   -999.2500    724.0000      0.1570
     4.2500   -999.2500   -999.2500    724.0000      0.1402
     4.5000   -999.2500   -999.2500    724.0000      0.1198
     4.7500   -999.2500   -999.2500    724.0000      0.1004
     5.0000   -999.2500   -999.2500    724.0000      0.0885
     5.2500   -999.2500   -999.2500    724.0000      0.0861
     5.5000   -999.2500   -999.2500    723.9609      0.1057
     5.7500   -999.2500   -999.2500    723.5104      0.2157
     6.0000   -999.2500   -999.2500    720.1821      0.7068
     6.2500   -999.2500   -999.2500    704.4145      2.5981
     6.5000   -999.2500   -999.2500    656.5208      7.8974
     6.7500   -999.2500   -999.2500    563.2471     17.7777
     7.0000   -999.2500   -999.2500    446.7780     29.6558
     7.2500   -999.2500   -999.2500    353.5320     38.6868
     7.5000   -999.2500   -999.2500    305.6752     42.8555
     7.7500   -999.2500   -999.2500    289.9415     43.7919
     8.0000   -999.2500   -999.2500    286.6133     43.5696
     8.2500   -999.2500   -999.2500    286.0919     43.0215
     8.5000   -999.2500   -999.2500    285.9276     42.1508
     8.7500   -999.2500   -999.2500    285.8069     40.9132
     9.0000   -999.2500      0.0000    285.7360     39.5867
     9.2500   -999.2500      0.0000    285.7180     38.6090
     9.5000   -999.2500      0.0000    285.7229     38.2066
     9.7500   -999.2500      0.0000    285.7200     38.2471
    10.0000   -999.2500      0.0000    285.6976     38.4525
    10.2500   -999.2500      0.0000    285.6508     38.6225
    10.5000   -999.2500      0.0000    285.5665     38.6060
    10.7500   -999.2500      0.0000    285.4389     38.2517
    11.0000   -999.2500      0.0000    285.3148     37.4415
    11.2500   -999.2500      0.0000    285.2718     36.1428
    11.5000   -999.2500      0.0000    285.3251     34.5195
    11.7500   -999.2500      0.0000    285.4181     32.9795
    12.0000   -999.2500      0.0000    285.5124     31.9243
    12.2500   -999.2500      0.0000    285.6341     31.3830
    12.5000   -999.2500      0.0000    285.8633     30.9987
    12.7500   -999.2500      0.0000    286.5606     30.3860
    13.0000   -999.2500      0.0000    290.1378     29.3750
    13.2500   -999.2500      0.0000    306.1120     27.9560
    13.5000   -999.2500      0.0000    354.0822     26.2310
    13.7500     57.9823      0.0000    446.8657     24.4471
    14.0000     54.6988      0.0000    559.8387     22.9438
    14.2500     52.6730      0.0000    637.1740     22.0764
    14.5000     52.1350      0.0000    637.1503     22.1542
    14.7500     52.6652      0.0000    559.7538     23.2657
    15.0000     53.6723      0.0000    446.6938     25.0731
    15.2500     54.7129      0.0000    353.8279     26.9041
    15.5000     55.3879      0.0000    305.8530     28.1372
    15.7500     55.2619      0.0000    290.0186     28.5210
    16.0000     54.1573      0.0000    286.7243     28.2032
    16.2500     52.4963      0.0000    286.3735     27.5817
    16.5000     51.2196      0.0000    286.4407     27.1153
    16.7500     51.2958      0.0000    286.5013     27.1306
    17.0000     53.2317      0.0000    286.4936     27.7832
    17.2500     56.9522      0.0000    286.4110     29.0572
    17.5000     61.9288      0.0000    286.2715     30.6550
    17.7500     67.3830      0.0000    286.1433     32.1241
    18.0000     72.6895      0.0000    286.0839     33.2234
    18.2500     77.8901      0.0000    286.0709     34.0552
    18.5000     83.6064      0.0000    286.0605     34.8516
    18.7500     90.0551      0.0000    286.0617     35.7221
    19.0000     96.2429      0.0000    286.0913     36.6343
    19.2500    100.6300      0.0000    286.1111     37.5582
    19.5000    102.7963      0.0000    286.0806     38.5087
    19.7500    104.1357      0.0000    286.0207     39.5102
    20.0000    106.3625      0.0000    285.9670     40.5700
    20.2500    109.2584      0.0000    285.9160     41.5712
    20.5000    110.5377      0.0000    285.8559     42.2289
    20.7500    108.4130      0.0000    285.8027     42.2991
    21.0000    103.7638      0.0000    285.7773     41.8250
    21.2500     99.1591      0.0000    285.7860     41.1429
    21.5000     96.1834      0.0000    285.8344     40.6397
    21.7500     94.5662      0.0000    285.9249     40.4897
    22.0000     93.7835      0.0000    286.0257     40.5893
    22.2500     94.4675      0.0000    286.0756     40.6778
    22.5000     97.6648      0.0000    286.0566     40.5005
    22.7500    103.1708      0.0000    286.0262     39.9724
    23.0000    109.2061      0.0000    286.0235     39.2656
    23.2500    113.7239      0.0000    285.9935     38.6415
    23.5000    115.8556      0.0000    285.8638     38.2106
    23.7500    116.3488      0.0000    285.6586     37.8922
    24.0000    116.9050      0.0000    285.5047     37.4622
    24.2500    118.8023      0.0000    285.5353     36.6787
    24.5000    121.7377      0.0000    285.7817     35.4367
    24.7500    124.0440      0.0000    286.1414     33.8107
    25.0000    124.0790      0.0000    286.4379     32.1154
    25.2500    121.2304      0.0000    286.5538     30.7459
    25.5000    115.7977      0.0000    286.5346     29.8028
    25.7500    108.5904      0.0000    286.5132     29.1783
    26.0000    100.8842      0.0000    286.5520     28.8742
    26.2500     94.3200      0.0000    286.6118     28.8811
    26.5000     90.4306      0.0000    286.6291     29.0598
    26.7500     90.0584      0.0000    286.5859     29.3089
    27.0000     93.0273      0.0000    286.5366     29.4971
    27.2500     98.3288      0.0000    286.5627     29.3832
    27.5000    104.6556      0.0000    286.6666     28.9682
    27.7500    110.6293      0.0000    286.7476     28.7091
    28.0000    114.7354      0.0000    286.7281     29.0305
    28.2500    115.8495      0.0000    286.6487     29.7605
    28.5000    114.1989      0.0000    286.5926     30.3856
    28.7500    111.2958      0.0000    286.5801     30.6866
    29.0000    108.6215      0.0000    286.5981     30.7067
    29.2500    106.7015      0.0000    286.6574     30.4370
    29.5000    105.4299      0.0000    286.7359     29.9989
    29.7500    104.6838      0.0000    286.7646     29.6833
    30.0000    104.4358      0.0000    286.7396     29.5642
    30.2500    104.6540      0.0000    286.7307     29.5143
    30.5000    105.2830      0.0000    286.7615     29.5365
    30.7500    106.0080      0.0000    286.7880     29.7401
    31.0000    105.9908      0.0000    286.7809     30.1405
    31.2500    104.4834      0.0000    286.7626     30.6634
    31.5000    102.1799      0.0000    286.7622     31.2843
    31.7500    101.3349      0.0000    286.7785     32.0503
    32.0000    103.6414      0.0000    286.7965     32.9423
    32.2500    108.2134      0.0000    286.7972     33.8594
    32.5000    112.4100      0.0000    286.7656     34.6767
    32.7500    114.5718      0.0000    286.7335     35.2239
    33.0000    115.3166      0.0000    286.7555     35.4000
    33.2500    116.0559      0.0000    286.8255     35.2817
    33.5000    116.8646      0.0000    286.8903     34.9787
    33.7500    116.3364      0.0000    286.9336     34.5422
    34.0000    113.1711      0.0000    286.9825     34.0655
    34.2500    107.2675      0.0000    287.0492     33.6890
    34.5000     99.6032      0.0000    287.1011     33.4112
    34.7500     91.8271      0.0000    287.0862     33.0293
