~Version Information
VERS.                      2.0: CWLS Log ASCII Standard - VERSION 2.0
WRAP.                       NO: One line per depth step
~Well Information Block
STRT.FT               768.0000: 
STOP.FT              2635.5000: 
STEP.FT                 0.1000: 
NULL.                -999.2500: 
COMP.          Pioneer Natural Resources: COMPANY
WELL.               Zink 44-10: WELL
FLD.           Purgatoire River: FIELD
LOC.           548' FSL & 473' FEL: LOCATION
PROV.                 Colorado: PROVINCE
CNTY.               Las Animas: COUNTRY
SRVC.                Patterson: SERVICE COMPANY
DATE.          Tue May 31 07:05:25 2005: LOG DATE
UWI.           05 071 08380 00: UNIQUE WELL ID
~Curve Information Block
DEPT.FT            0 000 00 00: Depth
DCAL.in                       : CDL Caliper
RHOB.g/cc                     : CDL Bulk Density
RHOC.g/cc                     : CDL Density Correction
DPOR.pu                       : CDL Density Porosity
GR.GAPI                       : Gamma Ray
NPOR.pu                       : Neutron Porosity
~Parameter Information Block
~A  Depth       DCAL        RHOB        RHOC        DPOR         GR         NPOR    
# ...
  1142.4000      8.2232      2.5692      0.1312      4.8972    161.1502     27.5835
  1142.5000      8.2268      2.5480      0.0835      6.1799    171.1301     27.1959
  1142.6000      8.2268      2.5065      0.0276      8.6967    173.5665     26.7479
  1142.7000      8.2268      2.4802      0.0015     10.2904    169.9058     26.5505
  1142.8000      8.2530      2.4867      0.0589      9.8985    163.4795     26.5067
  1142.9000      8.2530      2.5133      0.0957      8.2853    160.2698     26.5634
  1143.0000      8.2310      2.5345      0.1233      6.9986    162.8629     26.8378
  1143.1000      8.2310      2.5446      0.0998      6.3903    167.2816     27.2434
  1143.2000      8.2310      2.5593      0.0834      5.4961    170.8935     27.5330
  1143.3000      8.2378      2.5902      0.1174      3.6267    172.9188     27.5892
  1143.4000      8.2378      2.6315      0.1958      1.1198    173.4922     27.6532
  1143.5000      8.3654      2.6614      0.2860     -0.6931    174.3307     28.0966
  1143.6000      8.3654      2.6579      0.2455     -0.4776    173.5465     28.8403
  1143.7000      8.3654      2.6282      0.1749      1.3207    169.9496     29.3712
  1143.8000      8.4926      2.5987      0.1028      3.1075    165.3540     29.3138
  1143.9000      8.4926      2.5779      0.1106      4.3677    158.3412     28.9104
  1144.0000      8.2995      2.5572      0.0735      5.6259    151.5517     28.6577
  1144.1000      8.2995      2.5310      0.0461      7.2133    149.8286     28.7852
  1144.2000      8.2995      2.5020      0.0175      8.9695    151.8049     29.0272
  1144.3000      8.2241      2.4769      0.0031     10.4923    151.5413     28.9261
  1144.4000      8.2241      2.4637     -0.0055     11.2910    146.8522     28.7089
  1144.5000      8.1992      2.4658     -0.0073     11.1636    142.0974     28.6575
  1144.6000      8.1992      2.4769     -0.0098     10.4880    143.1953     28.2671
  1144.7000      8.1992      2.4845      0.0330     10.0278    149.2817     27.4550
  1144.8000      8.1965      2.4719      0.0550     10.7920    151.6989     26.7929
  1144.9000      8.1965      2.4325      0.0318     13.1847    148.3572     26.2444
  1145.0000      8.1999      2.3738      0.0452     16.7366    147.6708     25.1786
  1145.1000      8.1999      2.3115     -0.0125     20.5163    152.5818     23.3117
  1145.2000      8.1999      2.2596     -0.0177     23.6610    156.1040     21.2452
  1145.3000      8.2315      2.1966      0.0342     27.4802    154.7322     19.6614
  1145.4000      8.2315      2.0899     -0.0455     33.9469    150.9788     18.4622
  1145.5000      8.2707      1.9671     -0.0456     41.3888    145.0403     17.5456
  1145.6000      8.2707      1.8740     -0.0490     47.0322    137.7896     17.2795
  1145.7000      8.2707      1.7956      0.0712     51.7802    131.5202     17.5877
  1145.8000      8.3397      1.7011      0.0687     57.5110    127.9022     17.8423
  1145.9000      8.3397      1.6303     -0.0015     61.8013    126.8457     18.0482
  1146.0000      8.3078      1.6439      0.1322     60.9729    125.0717     18.7300
  1146.1000      8.3078      1.7302      0.2981     55.7461    123.0431     19.7701
  1146.2000      8.3078      1.8402      0.3826     49.0786    123.6385     20.6336
  1146.3000      8.3382      1.9586      0.4108     41.9046    124.2974     21.1595
  1146.4000      8.3382      2.0851      0.4331     34.2342    123.0995     21.5685
  1146.5000      8.4937      2.1998      0.4378     27.2870    121.3422     22.0670
  1146.6000      8.4937      2.2841      0.4018     22.1771    119.8095     22.5072
  1146.7000      8.4937      2.3351      0.3620     19.0853    122.6059     22.5679
  1146.8000      8.4656      2.3423      0.3117     18.6491    129.6646     22.1817
  1146.9000      8.4656      2.2922      0.2945     21.6878    132.0607     21.4013
  1147.0000      8.2933      2.1935      0.1238     27.6666    125.5677     20.3845
  1147.1000      8.2933      2.0738      0.0831     34.9204    113.7084     19.2997
  1147.2000      8.2933      1.9472      0.0525     42.5930    105.2668     18.1833
  1147.3000      8.2633      1.8134     -0.0321     50.7037    105.7204     17.0040
  1147.4000      8.2633      1.6736     -0.0140     59.1761    109.2656     15.9143
  1147.5000      8.2833      1.5426     -0.0636     67.1169    109.5774     15.2595
  1147.6000      8.2833      1.4636     -0.1095     71.9021    107.1019     14.9172
  1147.7000      8.2833      1.4655      0.0136     71.7850    103.0680     14.3203
  1147.8000      8.4104      1.5136      0.1977     68.8702     97.0251     13.3549
  1147.9000      8.4104      1.5562      0.2347     66.2884     91.3295     12.6026
  1148.0000      8.6437      1.5790      0.3172     64.9092     88.8736     12.6626
  1148.1000      8.6437      1.5871      0.3505     64.4160     87.5280     13.3858
  1148.2000      8.6437      1.5836      0.3689     64.6274     82.7430     14.1701
  1148.3000      8.7038      1.5694      0.3078     65.4934     75.1899     14.7799
  1148.4000      8.7038      1.5456      0.2515     66.9354     69.3297     15.1789
  1148.5000      8.5476      1.5158      0.1579     68.7382     64.7613     15.4139
  1148.6000      8.5476      1.4944      0.0762     70.0375     61.5728     15.7780
  1148.7000      8.5476      1.5046      0.0757     69.4155     63.5000     16.4175
  1148.8000      8.5318      1.5522      0.1954     66.5315     69.0524     17.2909
  1148.9000      8.5318      1.6142      0.2354     62.7754     73.5812     18.0704
  1149.0000      8.5193      1.6648      0.2548     59.7064     78.3594     18.2108
  1149.1000      8.5193      1.6934      0.2461     57.9738     83.6982     17.7402
  1149.2000      8.5193      1.6947      0.2387     57.8945     85.5544     17.3151
  1149.3000      8.5427      1.6669      0.2001     59.5840     83.5860     17.0757
  1149.4000      8.5427      1.6299      0.0905     61.8255     81.9466     16.6842
  1149.5000      8.5079      1.6082      0.0798     63.1405     81.4797     16.1867
  1149.6000      8.5079      1.5915      0.1108     64.1497     78.9680     15.7788
  1149.7000      8.5079      1.5578      0.0819     66.1930     75.6852     15.6083
  1149.8000      8.4650      1.5083      0.0535     69.1953     75.3717     15.6473
  1149.9000      8.4650      1.4556      0.0783     72.3863     75.8124     15.7871
  1150.0000      8.4428      1.4200      0.0952     74.5430     74.2002     16.1518
  1150.1000      8.4428      1.4355      0.0963     73.6075     73.6808     17.0330
  1150.2000      8.4428      1.5249      0.1988     68.1890     77.4515     18.6012
  1150.3000      8.5433      1.6717      0.2449     59.2923     84.5230     20.3267
  1150.4000      8.5433      1.8266      0.2827     49.9052     90.9146     21.4203
  1150.5000      8.8148      1.9571      0.2658     41.9937     92.8317     22.3014
  1150.6000      8.8148      2.0819      0.2389     34.4328     93.3467     23.8322
  1150.7000      8.8148      2.2169      0.3113     26.2510     99.2284     25.5852
  1150.8000      8.6235      2.3325      0.3318     19.2436    109.4408     26.6850
  1150.9000      8.6235      2.4044      0.2857     14.8821    117.8151     27.5159
  1151.0000      8.6211      2.4465      0.1529     12.3318    123.3251     28.8059
  1151.1000      8.6211      2.4759      0.0836     10.5517    126.2003     30.2641
  1151.2000      8.6211      2.4904      0.0915      9.6756    124.6134     31.2529
  1151.3000      8.5627      2.4839      0.0354     10.0657    120.6205     31.5945
  1151.4000      8.5627      2.4672      0.0343     11.0813    118.6708     31.3765
  1151.5000      8.2598      2.4643      0.0036     11.2524    120.4956     31.0376
  1151.6000      8.2598      2.4807      0.0619     10.2598    125.0117     30.6893
  1151.7000      8.2598      2.4867      0.1213      9.8983    128.9725     29.8807
  1151.8000      8.2191      2.4685      0.0439     10.9983    129.7793     28.8565
  1151.9000      8.2191      2.4545      0.0106     11.8492    131.1587     28.0028
