~Version Information
VERS.                      2.0: CWLS Log ASCII Standard - VERSION 2.0
WRAP.                       NO: One line per depth step
~Well Information Block
STRT.FT               481.5000: 
STOP.FT              2033.5000: 
STEP.FT                 0.2500: 
NULL.                -999.2500: 
COMP.          Petrogulf Corporation: COMPANY
WELL.            Montoya 7-12R: WELL
FLD.           Purgatorie River: FIELD
LOC.           1769' FNL & 658' FWL: LOCATION
CNTY.               Las Animas: COUNTY
SRVC.                         : SERVICE COMPANY
DATE.          Sat Nov 20 02:31:05 2004: LOG DATE
UWI.           05 071 08240 00: UNIQUE WELL ID
STAT.                 Colorado: STATE
~Curve Information Block
DEPT.FT            0 000 00 00: Depth
SP.mV                         : DIL Spontaneous Potential
RILD.Ohm-m                    : DIL Deep Resistivity
RILM.Ohm-m                    : DIL Medium Resistivity
RLL3.Ohm-m                    : DIL Shallow Resistivity
GR.GAPI                       : Gamma Ray
~Parameter Information Block
~A  Depth        SP         RILD        RILM        RLL3         GR     
# ...
   509.5000   2000.0000      7.4586 100000.0000   2000.0000     69.3239
   509.7500   2000.0000      7.4916 100000.0000   2000.0000     67.8025
   510.0000   2000.0000      7.5209 100000.0000   2000.0000     66.4374
   510.2500   2000.0000      7.5441 100000.0000   2000.0000     66.3534
   510.5000   2000.0000      7.5594 100000.0000   2000.0000     67.4351
   510.7500   2000.0000      7.5658 100000.0000   2000.0000     68.8467
   511.0000   2000.0000      7.5633 100000.0000   2000.0000     71.5147
   511.2500   2000.0000      7.5529 100000.0000   2000.0000     73.1274
   511.5000   2000.0000      7.5361 100000.0000   2000.0000     74.5130
   511.7500   2000.0000      7.5150 100000.0000   2000.0000     74.8548
   512.0000   2000.0000      7.4918 100000.0000   2000.0000     75.6124
   512.2500   2000.0000      7.4684 100000.0000   2000.0000     76.9042
   512.5000   2000.0000      7.4464 100000.0000   2000.0000     80.1969
   512.7500   2000.0000      7.4270 100000.0000   2000.0000     82.9500
   513.0000   2000.0000      7.4109 100000.0000   2000.0000     87.2094
   513.2500   2000.0000      7.3985 100000.0000   2000.0000     89.8389
   513.5000   2000.0000      7.3896 100000.0000   2000.0000     92.9785
   513.7500   2000.0000      7.3838 100000.0000   2000.0000     94.0914
   514.0000   2000.0000      7.3801 100000.0000   2000.0000     93.4899
   514.2500   2000.0000      7.3770 100000.0000   2000.0000     91.5630
   514.5000   2000.0000      7.3726 100000.0000   2000.0000     87.7597
   514.7500   2000.0000      7.3647 100000.0000   2000.0000     85.8384
   515.0000   2000.0000      7.3513 100000.0000   2000.0000     85.0605
   515.2500   2000.0000      7.3314 100000.0000   2000.0000     85.6511
   515.5000   2000.0000      7.3049 100000.0000   2000.0000     86.7127
   515.7500   2000.0000      7.2733 100000.0000   2000.0000     86.7604
   516.0000   2000.0000      7.2388 100000.0000   2000.0000     85.3559
   516.2500   2000.0000      7.2045 100000.0000   2000.0000     83.6906
   516.5000   2000.0000      7.1725 100000.0000   2000.0000     81.0564
   516.7500   2000.0000      7.1446 100000.0000   2000.0000     79.6286
   517.0000   2000.0000      7.1211 100000.0000   2000.0000     77.8016
   517.2500   2000.0000      7.1016 100000.0000   2000.0000     76.3200
   517.5000   2000.0000      7.0855 100000.0000   2000.0000     73.3483
   517.7500   2000.0000      7.0725 100000.0000   2000.0000     71.3045
   518.0000   2000.0000      7.0629 100000.0000   2000.0000     69.3707
   518.2500   2000.0000      7.0580 100000.0000   2000.0000     69.1552
   518.5000   2000.0000      7.0592 100000.0000   2000.0000     69.8526
   518.7500   2000.0000      7.0681 100000.0000   2000.0000     70.3185
   519.0000   2000.0000      7.0856 100000.0000   2000.0000     70.2400
   519.2500   2000.0000      7.1119 100000.0000   2000.0000     69.7708
   519.5000   2000.0000      7.1466 100000.0000   2000.0000     69.4807
   519.7500   2000.0000      7.1890 100000.0000   2000.0000     70.1909
   520.0000   2000.0000      7.2382 100000.0000   2000.0000     72.7021
   520.2500   2000.0000      7.2935 100000.0000   2000.0000     74.6963
   520.5000   2000.0000      7.3533 100000.0000   2000.0000     76.6205
   520.7500   2000.0000      7.4151 100000.0000   2000.0000     76.5300
   521.0000   2000.0000      7.4739 100000.0000   2000.0000     74.0095
   521.2500   2000.0000      7.5223 100000.0000   2000.0000     70.9824
   521.5000   2000.0000      7.5516 100000.0000   2000.0000     65.3643
   521.7500   2000.0000      7.5538 100000.0000   2000.0000     61.6037
   522.0000   2000.0000      7.5240 100000.0000   2000.0000     56.9976
   522.2500   2000.0000      7.4639 100000.0000   2000.0000     54.9467
   522.5000   2000.0000      7.3825 100000.0000   2000.0000     53.4453
   522.7500   2000.0000      7.2957 100000.0000   2000.0000     53.3943
   523.0000   2000.0000      7.2226 100000.0000   2000.0000     54.6670
   523.2500   2000.0000      7.1824 100000.0000   2000.0000     56.5104
   523.5000   2000.0000      7.1893 100000.0000   2000.0000     61.1389
   523.7500   2000.0000      7.2500 100000.0000   2000.0000     65.6118
   524.0000   2000.0000      7.3605 100000.0000   2000.0000     73.9410
   524.2500   2000.0000      7.5040 100000.0000   2000.0000     79.8315
   524.5000   2000.0000      7.6513 100000.0000   2000.0000     87.8042
   524.7500   2000.0000      7.7642 100000.0000   2000.0000     92.1377
   525.0000   2000.0000      7.8058 100000.0000   2000.0000     97.2837
   525.2500   2000.0000      7.7537 100000.0000   2000.0000    100.1163
   525.5000   2000.0000      7.6083 100000.0000   2000.0000    103.9698
   525.7500   2000.0000      7.3914 100000.0000   2000.0000    106.4309
   526.0000   2000.0000      7.1340 100000.0000   2000.0000    109.9846
   526.2500   2000.0000      6.8627 100000.0000   2000.0000    112.2651
   526.5000   2000.0000      6.5930 100000.0000   2000.0000    115.9152
   526.7500   2000.0000      6.3289 100000.0000   2000.0000    118.9433
   527.0000   2000.0000      6.0685 100000.0000   2000.0000    124.9657
   527.2500   2000.0000      5.8125 100000.0000   2000.0000    129.7933
   527.5000   2000.0000      5.5703 100000.0000   2000.0000    136.7577
   527.7500   2000.0000      5.3609 100000.0000   2000.0000    139.8654
   528.0000   2000.0000      5.2116 100000.0000   2000.0000    140.2531
   528.2500   2000.0000      5.1541 100000.0000   2000.0000    137.5139
   528.5000   2000.0000      5.2240 100000.0000   2000.0000    130.8756
   528.7500   2000.0000      5.4655 100000.0000   2000.0000    126.4546
   529.0000   2000.0000      5.9409     49.2639   2000.0000    121.6808
   529.2500   2000.0000      6.7487     22.1997   2000.0000    119.9492
   529.5000   2000.0000      8.0565     15.7903   2000.0000    119.3650
   529.7500   2000.0000     10.1650     13.3137   2000.0000    120.2563
   530.0000   2000.0000     13.6364     12.3432   2000.0000    123.0147
   530.2500   2000.0000     19.5586     12.1698   2000.0000    125.0670
   530.5000   2000.0000     30.0011     12.5077   2000.0000    127.1226
   530.7500   2000.0000     48.0750     13.1998   2000.0000    127.5677
   531.0000   2000.0000     73.0721     14.1167   2000.0000    127.4833
   531.2500   2000.0000     86.4494     15.1121   2000.0000    127.3703
   531.5000   2000.0000     73.3027     16.0132   2000.0000    127.1169
   531.7500   2000.0000     52.9907     16.6466   2000.0000    126.5792
   532.0000   2000.0000     38.3008     16.8901   2000.0000    125.0360
   532.2500   2000.0000     29.2135     16.7185   2000.0000    123.8463
   532.5000   2000.0000     23.6568     16.2065   2000.0000    122.7147
   532.7500   2000.0000     20.1938     15.4853   2000.0000    122.7204
   533.0000   2000.0000     17.9962     14.6896   2000.0000    123.8089
   533.2500   2000.0000     16.5894     13.9236   2000.0000    124.9676
   533.5000   2000.0000     15.6891     13.2524   2000.0000    126.7730
   533.7500   2000.0000     15.1158     12.7087   2000.0000    127.8277
   534.0000   2000.0000     14.7525     12.3031   2000.0000    129.3640
   534.2500   2000.0000     14.5207     12.0338   2000.0000    130.6087
   534.5000   2000.0000     14.3678     11.8944   2000.0000    132.7492
   534.7500   2000.0000     14.2610     11.8754   2000.0000    133.9092
   535.0000   2000.0000     14.1821     11.9651   2000.0000    134.6326
   535.2500   2000.0000     14.1234     12.1493   2000.0000    134.6947
   535.5000   2000.0000     14.0830     12.4106   2000.0000    135.4519
   535.7500   2000.0000     14.0612     12.7278   2000.0000    137.0262
   536.0000   2000.0000     14.0586     13.0762   2000.0000    141.1981
   536.2500   2000.0000     14.0743     13.4286   2000.0000    144.9969
   536.5000   2000.0000     14.1044     13.7582   2000.0000    151.8250
   536.7500   2000.0000     14.1446     14.0417   2000.0000    156.8701
   537.0000   2000.0000     14.1914     14.2633   2000.0000    164.6057
   537.2500   2000.0000     14.2435     14.4154   2000.0000    169.4236
