~Version Information
VERS.                      2.0: CWLS Log ASCII Standard - VERSION 2.0
WRAP.                       NO: One line per depth step
~Well Information Block
STRT.FT               858.7000: 
STOP.FT              2478.2000: 
STEP.FT                 0.1000: 
NULL.                -999.2500: 
COMP.          Petrogulf Corporation: COMPANY
WELL.           Torcom 17-33 V: WELL
FLD.           Purgatoire River: FIELD
LOC.           1544' FSL & 1746' FEL: LOCATION
PROV.                 Colorado: PROVINCE
CNTY.               Las Animas: COUNTRY
SRVC.                Patterson: SERVICE COMPANY
DATE.          Wed Dec 03 09:22:08 2003: LOG DATE
UWI.                          : UNIQUE WELL ID
~Curve Information Block
DEPT.FT            0 000 00 00: Depth
DCAL.in                       : CDL Caliper
RHOB.g/cc                     : CDL Bulk Density
RHOC.g/cc                     : CDL Density Correction
DPOR.pu                       : CDL Density Porosity
GR.GAPI                       : Gamma Ray
NPOR.pu                       : Neutron Porosity
~Parameter Information Block
~A  Depth       DCAL        RHOB        RHOC        DPOR         GR         NPOR    
# ...
  1828.3000      8.1180      2.5831      0.1171      4.0549    110.3653     23.7524
  1828.4000      8.1180      2.5846      0.1452      3.9611    124.6064     24.7550
  1828.5000      8.1077      2.5742      0.0670      4.5919    143.7168     25.2450
  1828.6000      8.1077      2.5721      0.1100      4.7210    161.4144     25.1414
  1828.7000      8.1077      2.6016      0.1495      2.9334    173.5590     24.8829
  1828.8000      8.1293      2.6474      0.2630      0.1563    178.0389     24.8090
  1828.9000      8.1293      2.6610      0.3266     -0.6677    176.0848     25.0676
  1829.0000      8.1811      2.6269      0.2220      1.4025    170.6470     25.5760
  1829.1000      8.1811      2.5848      0.1726      3.9531    166.3911     25.8991
  1829.2000      8.1811      2.5676      0.1333      4.9931    166.1909     25.5616
  1829.3000      8.2238      2.5700      0.1289      4.8456    169.0379     24.9308
  1829.4000      8.2238      2.5768      0.1357      4.4379    171.0102     24.6286
  1829.5000      8.1762      2.5869      0.1583      3.8228    170.1487     24.6552
  1829.6000      8.1762      2.6068      0.1993      2.6156    170.2763     24.9564
  1829.7000      8.1762      2.6328      0.2100      1.0403    172.6770     25.4356
  1829.8000      8.1069      2.6567      0.2506     -0.4036    173.8713     25.9631
  1829.9000      8.1069      2.6726      0.2627     -1.3692    173.8164     26.4063
  1830.0000      8.1122      2.6843      0.2032     -2.0783    175.5745     26.5073
  1830.1000      8.1122      2.6996      0.1929     -3.0035    177.2529     26.3663
  1830.2000      8.1122      2.7049      0.2418     -3.3285    174.7319     26.5200
  1830.3000      8.0997      2.6808      0.1918     -1.8670    168.9962     26.8803
  1830.4000      8.0997      2.6332      0.1623      1.0198    163.1145     26.5094
  1830.5000      8.1148      2.5818      0.0992      4.1363    158.0910     25.3635
  1830.6000      8.1148      2.5362      0.1211      6.8985    154.6473     24.3738
  1830.7000      8.1148      2.5008      0.0374      9.0441    153.7903     23.9999
  1830.8000      8.0994      2.4930      0.0290      9.5178    156.4372     24.1221
  1830.9000      8.0994      2.5247     -0.0232      7.5914    161.7795     24.3979
  1831.0000      8.1058      2.5671      0.1316      5.0242    167.6802     24.5400
  1831.1000      8.1058      2.5659      0.1445      5.0959    173.5819     24.4969
  1831.2000      8.1058      2.5043      0.0884      8.8306    177.8579     24.4818
  1831.3000      8.1135      2.4166      0.0342     14.1467    177.4671     24.6962
  1831.4000      8.1135      2.3447      0.0874     18.5053    172.5085     25.0532
  1831.5000      8.0883      2.3170      0.0669     20.1845    167.6538     25.1547
  1831.6000      8.0883      2.3438      0.1108     18.5561    165.3707     24.7614
  1831.7000      8.0883      2.4095      0.1640     14.5741    162.4580     24.1439
  1831.8000      8.0055      2.4897      0.2309      9.7175    158.9302     23.4253
  1831.9000      8.0055      2.5647      0.2816      5.1698    155.3699     22.7285
  1832.0000      7.9792      2.6142      0.3651      2.1667    149.5984     22.5139
  1832.1000      7.9792      2.6337      0.3264      0.9885    144.5426     22.8520
  1832.2000      7.9792      2.6428      0.3460      0.4343    147.7648     23.1973
  1832.3000      7.9842      2.6465      0.3395      0.2116    158.7945     23.2208
  1832.4000      7.9842      2.6260      0.3280      1.4567    166.1021     23.3535
  1832.5000      8.0941      2.5800      0.2319      4.2434    165.5460     23.9413
  1832.6000      8.0941      2.5319      0.1397      7.1595    164.0498     24.5944
  1832.7000      8.0941      2.4971      0.1128      9.2664    165.2188     25.0278
  1832.8000      8.2148      2.4781      0.1465     10.4195    167.4830     25.2871
  1832.9000      8.2148      2.4719      0.1992     10.7943    168.9993     25.2429
  1833.0000      8.2666      2.4837      0.1600     10.0793    167.9745     25.1833
  1833.1000      8.2666      2.5199      0.3018      7.8861    165.5792     25.4284
  1833.2000      8.2666      2.5642      0.2622      5.2013    162.8566     25.4615
  1833.3000      8.2126      2.6013      0.2736      2.9500    156.8511     24.9014
  1833.4000      8.2126      2.6235      0.3267      1.6050    149.0537     24.1375
  1833.5000      8.2173      2.6350      0.2523      0.9087    142.2739     23.4538
  1833.6000      8.2173      2.6620      0.2747     -0.7274    133.0569     22.7318
  1833.7000      8.2173      2.7030      0.3423     -3.2145    121.4892     21.4811
  1833.8000      8.2540      2.7206      0.3440     -4.2775    112.4969     19.3234
  1833.9000      8.2540      2.7063      0.2135     -3.4104    107.2254     16.8784
  1834.0000      8.1510      2.6886      0.2208     -2.3398    101.4684     15.1819
  1834.1000      8.1510      2.6783      0.1789     -1.7126     91.4656     14.2179
  1834.2000      8.1510      2.6639      0.1229     -0.8395     79.8073     13.2131
  1834.3000      8.1297      2.6297      0.1194      1.2284     69.9055     11.9381
  1834.4000      8.1297      2.5725      0.0477      4.6992     62.6398     10.8752
  1834.5000      8.1161      2.5251     -0.0107      7.5690     58.5277     10.2307
  1834.6000      8.1161      2.5220      0.0066      7.7565     57.3739      9.9018
  1834.7000      8.1161      2.5462      0.0391      6.2933     57.1646      9.9944
  1834.8000      8.1440      2.5617      0.0510      5.3516     55.4830     10.1377
  1834.9000      8.1440      2.5616      0.0621      5.3565     53.1217      9.9090
  1835.0000      8.1706      2.5412      0.1494      6.5953     52.1493      9.6289
  1835.1000      8.1706      2.4936      0.0412      9.4773     50.9110      9.6459
  1835.2000      8.1706      2.4498     -0.0246     12.1345     47.7780      9.9406
  1835.3000      8.1797      2.4415     -0.0269     12.6363     45.3121     10.3407
  1835.4000      8.1797      2.4539      0.0170     11.8858     44.8571     10.6715
  1835.5000      8.2105      2.4597      0.0218     11.5318     45.8037     10.9004
  1835.6000      8.2105      2.4553      0.0647     11.7987     47.6242     10.9928
  1835.7000      8.2105      2.4397      0.1007     12.7436     49.1522     10.9070
  1835.8000      8.2069      2.4126      0.0254     14.3881     50.8949     10.5122
  1835.9000      8.2069      2.3946      0.0248     15.4800     54.8092      9.8312
  1836.0000      8.1991      2.4042     -0.0016     14.8949     61.0295      9.3098
  1836.1000      8.1991      2.4324      0.0644     13.1880     65.6440      9.2540
  1836.2000      8.1991      2.4527      0.0967     11.9569     63.2822      9.5900
  1836.3000      8.1893      2.4625      0.0150     11.3649     57.0172      9.9307
  1836.4000      8.1893      2.4776      0.0645     10.4463     55.4614     10.0131
  1836.5000      8.1600      2.4903      0.0950      9.6794     58.7720      9.9306
  1836.6000      8.1600      2.4895      0.0558      9.7252     58.9636      9.7242
  1836.7000      8.1600      2.4887      0.0784      9.7758     54.4968      9.7823
  1836.8000      8.1510      2.4941      0.1199      9.4474     52.2829     10.5521
  1836.9000      8.1510      2.4955      0.0884      9.3607     57.4896     11.6903
  1837.0000      8.1481      2.4883      0.0838      9.7995     65.9074     12.6729
  1837.1000      8.1481      2.4732      0.0446     10.7172     68.1346     13.2471
  1837.2000      8.1481      2.4607      0.0342     11.4736     61.8134     12.9357
  1837.3000      8.1820      2.4721      0.0123     10.7839     52.9842     12.1328
  1837.4000      8.1820      2.5054      0.1081      8.7642     46.2797     12.1445
  1837.5000      8.2284      2.5293      0.1221      7.3180     42.2507     13.1148
  1837.6000      8.2284      2.5308      0.1092      7.2249     43.8831     14.0937
  1837.7000      8.2284      2.5268      0.0994      7.4669     53.7158     14.8882
  1837.8000      8.1814      2.5214      0.1773      7.7939     65.1314     15.6856
