~Version Information
VERS.                      2.0: CWLS Log ASCII Standard - VERSION 2.0
WRAP.                       NO: One line per depth step
~Well Information Block
STRT.FT                -8.2500: 
STOP.FT              1119.7500: 
STEP.FT                 0.2500: 
NULL.                -999.2500: 
COMP.          Pioneer Natural Resources: COMPANY
WELL.             Linda T 32-3: WELL
FLD.           Purgatorie River: FIELD
LOC.           1350' FNL & 2290' FEL------: LOCATION
PROV.                       CO: PROVINCE
CNTY.               Las Animas: COUNTRY
SRVC.                         : SERVICE COMPANY
DATE.          Thu Feb 10 08:20:40 2005: LOG DATE
UWI.          005 071 08215   : UNIQUE WELL ID
~Curve Information Block
DEPT.FT            0 000 00 00: Depth
CCL.                          : Casing Collar Locator
TT3.usec                      : CBL 3' Travel Time
AMP3.mV                       : CBL 3' Amplitude
GR.GAPI                       : Gamma Ray
~Parameter Information Block
~A  Depth       CCL         TT3         AMP3         GR     
# ...
   594.7500      0.0000    743.9105      6.2247     59.1339
   595.0000      0.0000    743.6266      6.0747     58.9105
   595.2500      0.0000    743.4384      5.9761     56.8368
   595.5000      0.0000    743.3803      5.9382     53.5903
   595.7500      0.0000    743.4183      5.9420     50.8162
   596.0000      0.0000    743.4521      5.9611     49.7043
   596.2500      0.0000    743.3554      5.9823     50.0825
   596.5000      0.0000    743.0610      6.0068     51.0995
   596.7500      0.0000    742.6140      6.0418     52.2892
   597.0000      0.0000    742.1303      6.0950     53.5729
   597.2500      0.0000    741.7132      6.1723     54.6904
   597.5000      0.0000    741.4196      6.2721     55.2183
   597.7500      0.0000    741.2812      6.3784     55.0371
   598.0000      0.0000    741.3177      6.4643     54.4824
   598.2500      0.0000    741.5136      6.5030     54.0026
   598.5000      0.0000    741.7944      6.4797     53.7061
   598.7500      0.0000    742.0570      6.3976     53.2237
   599.0000      0.0000    742.2360      6.2790     52.0592
   599.2500      0.0000    742.3304      6.1583     50.1891
   599.5000      0.0000    742.3732      6.0653     48.3418
   599.7500      0.0000    742.3995      6.0113     47.4621
   600.0000      0.0000    742.4354      5.9921     47.7371
   600.2500      0.0000    742.4865      6.0038     48.2940
   600.5000      0.0000    742.5303      6.0471     48.0703
   600.7500      0.0000    742.5270      6.1132     46.8847
   601.0000      0.0000    742.4341      6.1715     45.4201
   601.2500      0.0000    742.2146      6.1806     44.3552
   601.5000      0.0000    741.8631      6.1175     43.9495
   601.7500      0.0000    741.4455      5.9944     44.2894
   602.0000      0.0000    741.0985      5.8500     45.3719
   602.2500      0.0000    740.9469      5.7240     46.9288
   602.5000      0.0000    740.9792      5.6376     48.5409
   602.7500      0.0000    741.0104      5.5959     49.9300
   603.0000      0.0000    740.8277      5.5999     50.9254
   603.2500      0.0000    740.4103      5.6495     51.2172
   603.5000      0.0000    739.9712      5.7349     50.4534
   603.7500      0.0000    739.7502      5.8318     48.7401
   604.0000      0.0000    739.7945      5.9096     46.9464
   604.2500      0.0000    739.9678      5.9454     46.3505
   604.5000      0.0000    740.1465      5.9369     47.8544
   604.7500      0.0000    740.3735      5.9040     51.4044
   605.0000      0.0000    740.8279      5.8757     56.0430
   605.2500      0.0000    741.6628      5.8710     60.5587
   605.5000      0.0000    742.8549      5.8916     64.2070
   605.7500      0.0000    744.1765      5.9271     66.8449
   606.0000      0.0000    745.3190      5.9655     68.4404
   606.2500      0.0000    746.0699      6.0011     68.7001
   606.5000      0.0000    746.4001      6.0371     67.5640
   606.7500      0.0000    746.4136      6.0781     66.1058
   607.0000      0.0000    746.2255      6.1214     66.3484
   607.2500      0.0000    745.8342      6.1571     69.5805
   607.5000      0.0000    745.0302      6.1784     74.9724
   607.7500      0.0000    743.3488      6.1906     80.2825
   608.0000      0.0000    740.1478      6.2074     83.8617
   608.2500      0.0000    735.0266      6.2394     85.6818
   608.5000      0.0000    728.6473      6.2851     86.6291
   608.7500      0.0000    723.2661      6.3318     87.4883
   609.0000      0.0000    721.9791      6.3641     88.9873
   609.2500      0.0000    726.8589      6.3732     92.2414
   609.5000      0.0000    737.5541      6.3596     98.0044
   609.7500      0.0000    751.5204      6.3313    105.0809
   610.0000      0.0000    765.3713      6.2991    110.2692
   610.2500      0.0000    776.1407      6.2746    110.5709
   610.5000      0.0000    781.8751      6.2650    105.4517
   610.7500      0.0000    781.7070      6.2646     97.0224
   611.0000      0.0000    775.7166      6.2563     88.3681
   611.2500      0.0000    764.7900      6.2258     81.5451
   611.5000      0.0000    750.5891      6.1720     76.7011
   611.7500      0.0000    735.4845      6.1029     72.8535
   612.0000      0.0000    722.0832      6.0261     69.2818
   612.2500      0.0000    712.3077      5.9451     66.1090
   612.5000      0.0000    706.6960      5.8638     63.8984
   612.7500      0.0000    704.6055      5.7881     62.9026
   613.0000      0.0000    705.0321      5.7204     62.6514
   613.2500      0.0000    707.0621      5.6526     62.2881
   613.5000      0.0000    709.7606      5.5712     61.3164
   613.7500      0.0000    712.2629      5.4699     59.8214
   614.0000      0.0000    714.3167      5.3551     58.0342
   614.2500      0.0000    716.3970      5.2492     55.9592
   614.5000      0.0000    718.8226      5.1872     53.5004
   614.7500      0.0000    720.6965      5.1876     50.8779
   615.0000      0.0000    719.6161      5.2096     48.9101
   615.2500      0.0000    712.9371      5.1686     48.7665
   615.5000      0.0000    700.7725      5.0257     51.1850
   615.7500      0.0000    688.2110      4.8415     55.8361
   616.0000      0.0000    682.6329      4.7131     61.5297
   616.2500      0.0000    687.1638      4.6803     67.1036
   616.5000      2.0000    697.8245      4.7137     72.0110
   616.7500      2.0000    708.1504      4.7710     76.1211
   617.0000      0.0000    715.2858      4.8433     79.3981
   617.2500      0.0000    720.7581      4.9553     82.2572
   617.5000      0.0000    726.6438      5.1263     86.0382
   617.7500      0.0000    732.1772      5.3285     92.1736
   618.0000      0.0000    734.2210      5.4934    100.2880
   618.2500      0.0000    730.7249      5.5790    107.6135
   618.5000      0.0000    723.1002      5.6175    110.9137
   618.7500      0.0000    714.9912      5.6779    108.9302
   619.0000      0.0000    709.4031      5.7987    102.8990
   619.2500      0.0000    707.5627      5.9708     95.2445
   619.5000      0.0000    709.8137      6.1647     88.1058
   619.7500      0.0000    716.4182      6.3520     82.5186
   620.0000      0.0000    726.9221      6.5121     78.1054
   620.2500      0.0000    738.9850      6.6342     73.4558
   620.5000      0.0000    748.6407      6.7172     67.3732
   620.7500      0.0000    752.4255      6.7699     60.1732
   621.0000      0.0000    749.4165      6.8105     53.7277
   621.2500      0.0000    741.3013      6.8604     50.1194
   621.5000      0.0000    731.0579      6.9322     50.1392
   621.7500      0.0000    721.8704      7.0273     52.9883
   622.0000      0.0000    716.4833      7.1407     57.1476
   622.2500      0.0000    716.3401      7.2590     61.2125
   622.5000      0.0000    720.7650      7.3622     64.0747
   622.7500      0.0000    727.1208      7.4378     65.1403
   623.0000      0.0000    732.2808      7.4923     64.7830
   623.2500      0.0000    734.5616      7.5416     64.1568
   623.5000      0.0000    734.6055      7.5935     64.2391
   623.7500      0.0000    734.4187      7.6476     65.3071
   624.0000      0.0000    735.4562      7.7006     67.3384
   624.2500      0.0000    737.6059      7.7436     70.4854
   624.5000      0.0000    739.8419      7.7560     74.8905
   624.7500      0.0000    741.4354      7.7176     80.0463
   625.0000      0.0000    742.4171      7.6265     84.3968
   625.2500      0.0000    743.2642      7.4955     85.9070
   625.5000      0.0000    744.5091      7.3358     83.5429
   625.7500      0.0000    746.5098      7.1551     78.4502
   626.0000      0.0000    749.1409      6.9666     73.3722
   626.2500      0.0000    751.5004      6.7898     70.3845
   626.5000      0.0000    752.2520      6.6461     69.2577
   626.7500      0.0000    750.6254      6.5592     68.5432
   627.0000      0.0000    746.9548      6.5463     68.0189
   627.2500      0.0000    742.0613      6.6044     69.2325
   627.5000      0.0000    736.5884      6.7121     73.6748
   627.7500      0.0000    731.4319      6.8486     81.2775
   628.0000      0.0000    728.3730      7.0015     90.6617
