~Version Information
 VERS.                                  2.0 : CWLS LAS VERSION
 WRAP.                                   NO : WRAPING MODE
 SWARE .                 MController 2.5.0J : SOFTWARE VERSION
~Well Information
 WELL.                       Montoya 01-41V : WELL
 COMP.                Petrogulf Corporation : COMPANY
 FLD.                      Purgatoire River : FIELD
 LOC.                NE/NE Sec 01 T33S R68W : LOCATION
 DATE.                             08/21/05 : DATE(S) LOGGED
 SRVC.       BLANCO Geological Services LLC : SERVICE COMPANY
 STAT.                                   CO : STATE
 CNTY.                           Las Animas : COUNTY
 CTRY.                                  USA : COUNTRY
 API.                       05-071-08144-00 : API NUMBER
 STRT.FT                             719.00 : START DEPTH
 STOP.FT                            2945.00 : STOP DEPTH
 STEP.FT                               1.00 : DEPTH INCREMENT
 NULL.                                -9999 : NULL VALUE
~Curve information
 DEPTH.FT                                   :
 ROP.MIN/FT                                 :
 GAS.UNITS                                  :
~ASCII Log data
       719.0     -9999.00         10.8 
       720.0         0.10         10.8 
       721.0         0.15         10.5 
       722.0         0.17         11.0 
       723.0         0.17         11.0 
       724.0         0.13         11.1 
       725.0         0.27         10.7 
       726.0         0.07         10.7 
       727.0         0.10         11.2 
       728.0         0.07         11.2 
       729.0         0.10         11.2 
       730.0         0.07         10.7 
       731.0         0.38         10.6 
       732.0         0.10         10.6 
       733.0         0.07         10.8 
       734.0         0.10         10.9 
       735.0         0.07         10.9 
       736.0         0.10         10.9 
       737.0         0.23         10.8 
       738.0         0.17         11.5 
       739.0         0.07         11.5 
       740.0         0.13         11.5 
       741.0         0.07         10.6 
       742.0         0.13         11.6 
       743.0         0.07         10.9 
       744.0         0.13          8.6 
       745.0         0.07          7.8 
       746.0         4.32        108.8 
       747.0         0.33          2.3 
       748.0         0.20          1.0 
       749.0         0.17          0.0 
       750.0         0.17          0.0 
       751.0         0.20          0.2 
       752.0         0.17          0.0 
       753.0         0.20          0.5 
       754.0         0.18          0.5 
       755.0         0.23          0.5 
       756.0         0.33          0.9 
       757.0         0.23          1.5 
       758.0         0.23          1.3 
       759.0         0.23          1.6 
       760.0         0.27          2.4 
       761.0         0.25          2.1 
       762.0         0.27          1.7 
       763.0         0.20          2.3 
       764.0         0.23          2.2 
       765.0         0.17          2.2 
       766.0         0.20          2.2 
       767.0         0.20          2.3 
       768.0         0.20          2.5 
       769.0         0.20          2.5 
       770.0         0.20          2.3 
       771.0         0.22          2.2 
       772.0         0.17          2.2 
       773.0         0.23          2.0 
       774.0         0.27          1.9 
       775.0         0.27          2.0 
       776.0         2.25          3.1 
       777.0         0.27          3.0 
       778.0         0.17          2.9 
       779.0         0.37          2.8 
       780.0         0.27          3.0 
       781.0         0.23          2.9 
       782.0         0.27          3.2 
       783.0         0.23          3.1 
       784.0         0.27          2.8 
       785.0         0.28          2.9 
       786.0         0.23          2.9 
       787.0         0.20          2.8 
       788.0         0.20          2.9 
       789.0         0.17          2.7 
       790.0         0.20          2.7 
       791.0         0.17          2.7 
       792.0         0.17          2.8 
       793.0         0.17          2.8 
       794.0         0.17          2.7 
       795.0         0.17          2.7 
       796.0         0.17          2.8 
       797.0         0.17          2.3 
       798.0         0.17          2.3 
       799.0         0.20          2.4 
       800.0         0.23          1.9 
       801.0         0.23          2.0 
       802.0         0.22          2.2 
       803.0         0.23          2.1 
       804.0         0.23          2.1 
       805.0         0.20          2.3 
       806.0         2.13          3.5 
       807.0         0.30          3.0 
       808.0         0.22          2.7 
       809.0         0.23          2.7 
       810.0         0.23          3.1 
       811.0         0.20          3.1 
       812.0         0.23          2.9 
       813.0         0.30          3.1 
       814.0         0.30          2.9 
       815.0         0.30          2.8 
       816.0         0.27          3.1 
       817.0         0.30          3.0 
       818.0         0.30          3.2 
       819.0         0.27          3.8 
       820.0         0.27          3.8 
       821.0         0.32          3.7 
       822.0         0.23          3.4 
       823.0         0.23          3.8 
       824.0         0.33          3.3 
       825.0         0.27          3.0 
       826.0         0.27          3.1 
       827.0         0.37          4.2 
       828.0         0.40          9.1 
       829.0         0.40         24.3 
       830.0         0.20         25.7 
       831.0         0.17         25.3 
       832.0         0.17         19.2 
       833.0         0.22         15.6 
       834.0         0.13         11.8 
       835.0         0.27          9.6 
       836.0         0.90          6.9 
       837.0         0.40          5.1 
       838.0         0.33          4.2 
       839.0         0.27          4.3 
       840.0         0.27          4.5 
       841.0         0.23          4.3 
       842.0         0.20          4.3 
       843.0         0.13          4.6 
       844.0         0.22          3.9 
       845.0         0.17          3.3 
       846.0         0.13          3.5 
       847.0         0.20          3.3 
       848.0         0.13          3.8 
       849.0         0.13          4.1 
       850.0         0.13          4.1 
       851.0         0.13          3.5 
       852.0         0.17          3.5 
       853.0         0.17          3.5 
       854.0         0.17          3.0 
       855.0         0.13          3.1 
       856.0         0.17          5.0 
       857.0         0.17          5.0 
       858.0         0.17          6.5 
       859.0         0.17          9.2 
       860.0         0.13         13.1 
       861.0         0.13         13.1 
       862.0         0.10         18.7 
       863.0         0.17         21.9 
       864.0         0.18         20.7 
       865.0         0.20         14.8 
       866.0         1.63         13.6 
       867.0         0.38          5.2 
       868.0         0.20          4.3 
       869.0         0.17          4.5 
       870.0         0.17          4.5 
       871.0         0.17          5.0 
       872.0         0.13          4.3 
       873.0         0.13          3.9 
       874.0         0.20          4.0 
       875.0         0.17          4.0 
       876.0         0.17          4.0 
       877.0         0.13          3.7 
       878.0         0.20          4.1 
       879.0         0.17          3.9 
       880.0         0.23          4.0 
       881.0         0.13          4.0 
       882.0         0.20          3.3 
       883.0         0.17          3.4 
       884.0         0.17          3.0 
       885.0         0.17          4.7 
       886.0         0.18          4.7 
       887.0         0.17          7.4 
       888.0         0.17          8.7 
       889.0         0.20         12.2 
       890.0         0.17         21.5 
       891.0         0.17         23.1 
       892.0         0.17         18.6 
       893.0         0.17         18.6 
       894.0         0.17         16.1 
       895.0         0.13         11.4 
       896.0         1.52          9.7 
       897.0         0.33          5.4 
       898.0         0.27          4.7 
       899.0         0.27          4.9 
       900.0         0.30          4.6 
       901.0         0.43          4.8 
       902.0         0.37          5.2 
       903.0         0.30          4.9 
       904.0         0.20          5.3 
       905.0         0.17          5.0 
       906.0         0.17          5.0 
       907.0         0.17          5.0 
       908.0         0.17          5.1 
       909.0         0.17          5.4 
       910.0         0.18          5.4 
       911.0         0.17          5.1 
       912.0         0.17          5.1 
       913.0         0.23          4.8 
       914.0         0.30          5.2 
       915.0         0.23          4.1 
       916.0         0.27          4.2 
       917.0         0.20          4.6 
       918.0         0.23          4.6 
