~Version Information
VERS.                      2.0: CWLS Log ASCII Standard - VERSION 2.0
WRAP.                       NO: One line per depth step
~Well Information Block
STRT.FT               -12.2500: 
STOP.FT              2595.7500: 
STEP.FT                 0.2500: 
NULL.                -999.2500: 
COMP.          Petrogulf Corporation: COMPANY
WELL.            Montoya 1-44V: WELL
FLD.           Purgatoire River: FIELD
LOC.           753' FSL & 990' FEL--: LOCATION
PROV.                       CO: PROVINCE
CNTY.               Las Aniams: COUNTRY
SRVC.          Patterson Wireline: SERVICE COMPANY
DATE.          Mon Jun 13 11:58:10 2005: LOG DATE
UWI.           05 071 08142 00: UNIQUE WELL ID
~Curve Information Block
DEPT.FT            0 000 00 00: Depth
CCL.                          : Casing Collar Locator
TT3.usec                      : CBL 3' Travel Time
AMP3.mV                       : CBL 3' Amplitude
GR.GAPI                       : Gamma Ray
~Parameter Information Block
~A  Depth       CCL         TT3         AMP3         GR     
# ...
  2567.2500      0.0000    346.0160     12.4249     60.3093
  2567.5000      0.0000    346.3206     12.3471     61.7690
  2567.7500      0.0000    349.2440     12.1384     62.6073
  2568.0000      0.0000    357.7123     11.8019     63.1107
  2568.2500      0.0000    375.0191     11.3170     63.5650
  2568.5000      0.0000    401.2565     10.6917     63.4606
  2568.7500      0.0000    430.5223     10.0062     61.9885
  2569.0000      0.0000    455.1659      9.4052     59.3347
  2569.2500      0.0000    475.8029      9.0303     57.0315
  2569.5000      0.0000    503.8083      8.9352     56.9220
  2569.7500      0.0000    548.4604      9.0676     59.8839
  2570.0000      0.0000    601.6102      9.3495     65.3040
  2570.2500      0.0000    639.0228      9.7609     71.3944
  2570.5000      0.0000    639.3068     10.3189     76.0216
  2570.7500      0.0000    603.0144     10.9874     77.6668
  2571.0000      0.0000    554.6388     11.6497     76.0845
  2571.2500      0.0000    523.9707     12.1786     72.2332
  2571.5000      0.0000    521.4677     12.5048     67.4149
  2571.7500      0.0000    531.4610     12.6220     62.4162
  2572.0000      0.0000    532.1044     12.5591     57.6107
  2572.2500      0.0000    520.8310     12.3559     53.5272
  2572.5000      0.0000    515.7640     12.0389     50.6389
  2572.7500      0.0000    532.6906     11.6091     48.7773
  2573.0000      0.0000    567.6304     11.0725     47.5347
  2573.2500      0.0000    604.1088     10.4831     47.1076
  2573.5000      0.0000    630.0081      9.9312     48.0019
  2573.7500      0.0000    642.7416      9.4868     50.0380
  2574.0000      0.0000    644.6975      9.1827     52.4939
  2574.2500      0.0000    640.5801      9.0448     55.4250
  2574.5000      0.0000    636.5168      9.0866     60.1035
  2574.7500      0.0000    637.2445      9.2667     67.6163
  2575.0000      0.0000    641.9951      9.4967     77.2944
  2575.2500      0.0000    641.4876      9.7168     86.8589
  2575.5000      0.0000    622.3419      9.9476     93.8023
  2575.7500      0.0000    581.2807     10.2438     96.3996
  2576.0000      0.0000    534.8762     10.6050     94.1246
  2576.2500      0.0000    508.8897     10.9518     88.0566
  2576.5000      0.0000    516.2352     11.2047     80.8002
  2576.7500      0.0000    548.8046     11.3787     75.1904
  2577.0000      0.0000    590.3074     11.5784     72.5455
  2577.2500      0.0000    630.0771     11.8838     72.1419
  2577.5000      0.0000    662.4572     12.2440     72.4117
  2577.7500      0.0000    682.3842     12.4873     72.5288
  2578.0000      0.0000    689.7447     12.4362     72.7012
  2578.2500      0.0000    692.8931     12.0352     73.1454
  2578.5000      0.0000    699.8749     11.3987     73.2734
  2578.7500      0.0000    707.6667     10.7449     72.1679
  2579.0000      0.0000    704.1165     10.2592     69.6067
  2579.2500      0.0000    680.3175      9.9983     66.3316
  2579.5000      0.0000    641.0735      9.9053     63.3811
  2579.7500      0.0000    603.3927      9.8919     61.3620
  2580.0000      0.0000    581.5416      9.9049     60.3135
  2580.2500      0.0000    573.8774      9.9530     60.0359
  2580.5000      0.0000    569.8867     10.0965     60.4393
  2580.7500      0.0000    567.9608     10.4030     61.6692
  2581.0000      0.0000    576.4733     10.8983     63.9795
  2581.2500      0.0000    596.4474     11.5473     67.3187
  2581.5000      0.0000    612.7578     12.2487     70.5912
  2581.7500      0.0000    606.6591     12.8394     71.1650
  2582.0000      0.0000    574.7800     13.1426     65.8615
  2582.2500      0.0000    535.9426     13.0418     53.5609
  2582.5000      0.0000    519.3029     12.5201     36.9820
  2582.7500      0.0000    541.8864     11.6458     21.1547
  2583.0000      0.0000    595.1544     10.5323      9.8566
  2583.2500      0.0000    653.9778      9.3024      3.6966
  2583.5000      0.0000    697.9573      8.0777      1.1064
  2583.7500      0.0000    722.9586      6.9867      0.2625
  2584.0000      0.0000    735.4674      6.1604      0.0487
  2584.2500      0.0000    741.8693      5.6836      0.0064
  2584.5000      0.0000    744.6377      5.5359      0.0000
  2584.7500      0.0000    744.8361      5.5885   -999.2500
  2585.0000      0.0000    744.7771      5.6843   -999.2500
  2585.2500      0.0000    747.9319      5.7428   -999.2500
  2585.5000      0.0000    757.6105      5.7988   -999.2500
  2585.7500      0.0000    775.3672      5.9356   -999.2500
  2586.0000      0.0000    798.4275      6.1805   -999.2500
  2586.2500      0.0000    816.9849      6.4706   -999.2500
  2586.5000      0.0000    816.1053      6.7128   -999.2500
  2586.7500      0.0000    782.8819      6.8258   -999.2500
  2587.0000      0.0000    710.9778      6.6981   -999.2500
  2587.2500      0.0000    599.7192      6.1761   -999.2500
  2587.5000      0.0000    456.5826      5.1927   -999.2500
  2587.7500      0.0000    303.2111      3.9155   -999.2500
  2588.0000      0.0000    170.1660      2.6901   -999.2500
  2588.2500      0.0000     78.7379      1.8000   -999.2500
  2588.5000      0.0000     29.5183      1.3048   -999.2500
  2588.7500      0.0000      8.8545      1.0926   -999.2500
  2589.0000      0.0000      2.1073      1.0222   -999.2500
  2589.2500      0.0000      0.3921      1.0042   -999.2500
  2589.5000      0.0000      0.0528      1.0006   -999.2500
  2589.7500      0.0000   -999.2500   -999.2500   -999.2500
  2590.0000      0.0000   -999.2500   -999.2500   -999.2500
  2590.2500      0.0000   -999.2500   -999.2500   -999.2500
  2590.5000      0.0000   -999.2500   -999.2500   -999.2500
  2590.7500      0.0000   -999.2500   -999.2500   -999.2500
  2591.0000      0.0000   -999.2500   -999.2500   -999.2500
  2591.2500      0.0000   -999.2500   -999.2500   -999.2500
  2591.5000      0.0000   -999.2500   -999.2500   -999.2500
  2591.7500      0.0000   -999.2500   -999.2500   -999.2500
  2592.0000      0.0000   -999.2500   -999.2500   -999.2500
  2592.2500      0.0000   -999.2500   -999.2500   -999.2500
  2592.5000      0.0000   -999.2500   -999.2500   -999.2500
  2592.7500      0.0000   -999.2500   -999.2500   -999.2500
  2593.0000      0.0000   -999.2500   -999.2500   -999.2500
  2593.2500      0.0000   -999.2500   -999.2500   -999.2500
  2593.5000      0.0000   -999.2500   -999.2500   -999.2500
  2593.7500      0.0000   -999.2500   -999.2500   -999.2500
  2594.0000      0.0000   -999.2500   -999.2500   -999.2500
  2594.2500      0.0000   -999.2500   -999.2500   -999.2500
  2594.5000      0.0000   -999.2500   -999.2500   -999.2500
  2594.7500      0.0000   -999.2500   -999.2500   -999.2500
  2595.0000      0.0000   -999.2500   -999.2500   -999.2500
  2595.2500      0.0000   -999.2500   -999.2500   -999.2500
  2595.5000   -999.2500   -999.2500   -999.2500   -999.2500
  2595.7500   -999.2500   -999.2500   -999.2500   -999.2500
