~Version Information
VERS.                      2.0: CWLS Log ASCII Standard - VERSION 2.0
WRAP.                       NO: One line per depth step
~Well Information Block
STRT.FT                -7.5000: 
STOP.FT              1545.0000: 
STEP.FT                 0.2500: 
NULL.                -999.2500: 
COMP.          Pioneer Natural Resources: COMPANY
WELL.          Kristin 22-23 Tr: WELL
FLD.           Purgatorie River: FIELD
LOC.           2273' FNL & 2029' FWL--: LOCATION
PROV.                       CO: PROVINCE
CNTY.               Las Animas: COUNTRY
SRVC.                         : SERVICE COMPANY
DATE.          Tue Jan 25 11:16:36 2005: LOG DATE
UWI.           071-08259      : UNIQUE WELL ID
~Curve Information Block
DEPT.FT            0 000 00 00: Depth
CCL.                          : Casing Collar Locator
TT3.usec                      : CBL 3' Travel Time
AMP3.mV                       : CBL 3' Amplitude
GR.GAPI                       : Gamma Ray
~Parameter Information Block
~A  Depth       CCL         TT3         AMP3         GR     
# ...
  1399.5000      0.0000    534.9107      4.8950    164.0538
  1399.7500      0.0000    534.8107      4.9598    156.9370
  1400.0000      0.0000    533.2743      5.0673    152.9978
  1400.2500      0.0000    529.5131      5.1105    152.6949
  1400.5000      0.0000    524.2750      5.0345    154.4984
  1400.7500      0.0000    520.8279      4.8858    156.2598
  1401.0000      0.0000    524.2967      4.7743    156.4769
  1401.2500      0.0000    539.1467      4.7851    154.9838
  1401.5000      0.0000    566.3105      4.9135    152.8215
  1401.7500      0.0000    602.0516      5.0687    151.1931
  1402.0000      0.0000    639.5812      5.1423    150.2942
  1402.2500      0.0000    672.4223      5.0911    149.3654
  1402.5000      0.0000    697.0048      4.9678    148.0583
  1402.7500      0.0000    712.7884      4.8740    147.5152
  1403.0000      0.0000    720.5333      4.8772    149.6615
  1403.2500      0.0000    720.3893      4.9590    155.3246
  1403.5000      0.0000    711.0244      5.0305    163.1732
  1403.7500      0.0000    690.7006      4.9983    170.2023
  1404.0000      0.0000    660.5208      4.8371    172.9994
  1404.2500      0.0000    627.1578      4.6172    169.5145
  1404.5000      0.0000    601.1921      4.4624    160.6360
  1404.7500      0.0000    591.4446      4.4687    149.7008
  1405.0000      0.0000    599.5098      4.6429    139.9094
  1405.2500      0.0000    617.5671      4.9018    132.4811
  1405.5000      0.0000    631.4826      5.1221    127.2900
  1405.7500      0.0000    629.8824      5.2039    124.3685
  1406.0000      0.0000    613.2421      5.1141    124.2328
  1406.2500      0.0000    593.6462      4.8961    127.0285
  1406.5000      0.0000    585.1798      4.6507    131.6844
  1406.7500      0.0000    594.6879      4.4930    136.0755
  1407.0000      0.0000    619.5325      4.4944    138.4261
  1407.2500      0.0000    650.9962      4.6430    138.8448
  1407.5000      0.0000    679.6083      4.8528    139.2975
  1407.7500      0.0000    699.4562      5.0138    141.6974
  1408.0000      0.0000    709.3919      5.0478    145.7294
  1408.2500      0.0000    711.0376      4.9396    148.6865
  1408.5000      0.0000    705.6536      4.7356    147.8829
  1408.7500      0.0000    692.8839      4.5174    143.4229
  1409.0000      0.0000    672.8144      4.3688    138.1957
  1409.2500      0.0000    648.6345      4.3493    135.0553
  1409.5000      0.0000    625.5920      4.4783    134.5853
  1409.7500      0.0000    607.0711      4.7247    135.6348
  1410.0000      0.0000    592.9592      5.0150    137.0670
  1410.2500      0.0000    581.9290      5.2629    138.4980
  1410.5000      0.0000    573.9128      5.4048    140.0083
  1410.7500      0.0000    570.0546      5.4119    141.9610
  1411.0000      0.0000    571.4960      5.2823    144.9860
  1411.2500      0.0000    578.9805      5.0348    149.3372
  1411.5000      0.0000    593.3187      4.7090    153.8556
  1411.7500      0.0000    615.3864      4.3613    156.0603
  1412.0000      0.0000    644.5282      4.0515    153.9720
  1412.2500      0.0000    676.5341      3.8292    147.9670
  1412.5000      0.0000    704.2993      3.7229    140.3596
  1412.7500      0.0000    721.9855      3.7327    132.8093
  1413.0000      0.0000    728.7972      3.8308    124.4796
  1413.2500      0.0000    728.5200      3.9725    113.5540
  1413.5000      0.0000    725.9186      4.1125    100.5816
  1413.7500      0.0000    723.9824      4.2124     89.2413
  1414.0000      0.0000    723.7512      4.2441     83.2716
  1414.2500      0.0000    725.3986      4.1987     83.2566
  1414.5000      0.0000    728.7361      4.0962     86.7218
  1414.7500      0.0000    732.8080      3.9814     90.6595
  1415.0000      0.0000    735.4582      3.9101     93.4736
  1415.2500      0.0000    733.8832      3.9321     94.9122
  1415.5000      0.0000    725.6469      4.0725     94.9347
  1415.7500      0.0000    709.5706      4.3168     93.2903
  1416.0000      0.0000    687.5313      4.6096     90.3076
  1416.2500      0.0000    666.6422      4.8756     87.4944
  1416.5000      0.0000    656.9850      5.0485     86.6780
  1416.7500      0.0000    663.5543      5.0913     88.5370
  1417.0000      0.0000    681.3530      5.0102     92.2770
  1417.2500      0.0000    700.6089      4.8566     96.5986
  1417.5000      0.0000    714.8910      4.7039    100.8872
  1417.7500      0.0000    722.4531      4.6032    105.8899
  1418.0000      0.0000    722.6277      4.5602    113.3647
  1418.2500      2.0000    714.4560      4.5519    124.4597
  1418.5000      0.0000    699.2300      4.5547    138.0810
  1418.7500      0.0000    682.9672      4.5612    151.1223
  1419.0000      0.0000    674.2464      4.5810    160.2944
  1419.2500      0.0000    677.8398      4.6271    163.4459
  1419.5000      0.0000    690.4380      4.6991    159.8642
  1419.7500      0.0000    703.5717      4.7861    150.6628
  1420.0000      0.0000    710.4858      4.8824    138.8890
  1420.2500      0.0000    710.0136      4.9864    128.1052
  1420.5000      0.0000    705.2302      5.0865    120.4249
  1420.7500      0.0000    700.1080      5.1618    116.2744
  1421.0000      0.0000    697.4851      5.1988    115.4681
  1421.2500      0.0000    698.4990      5.1994    117.2024
  1421.5000      0.0000    702.4896      5.1727    119.2340
  1421.7500      0.0000    707.5485      5.1287    118.7346
  1422.0000      0.0000    711.8503      5.0807    114.7719
  1422.2500      0.0000    714.6982      5.0458    109.3201
  1422.5000      0.0000    716.3824      5.0371    105.2625
  1422.7500      0.0000    717.4292      5.0572    103.7071
  1423.0000      0.0000    718.1482      5.0992    103.5499
  1423.2500      0.0000    718.6755      5.1537    103.1856
  1423.5000      0.0000    719.1441      5.2125    102.1895
  1423.7500      0.0000    719.7119      5.2696    101.7004
  1424.0000      0.0000    720.4481      5.3225    103.4331
  1424.2500      0.0000    721.2432      5.3748    107.7722
  1424.5000      0.0000    721.8637      5.4335    112.6572
  1424.7500      0.0000    722.1019      5.5043    115.0722
  1425.0000      0.0000    721.8865      5.5864    113.8480
  1425.2500      0.0000    721.2762      5.6712    110.5488
  1425.5000      0.0000    720.3635      5.7478    107.6634
  1425.7500      0.0000    718.8818      5.8115    106.3064
  1426.0000      0.0000    715.2815      5.8697    105.5894
  1426.2500      0.0000    705.3920      5.9407    103.8680
  1426.5000      0.0000    682.1654      6.0446    100.4270
  1426.7500      0.0000    639.3095      6.1915     95.9691
  1427.0000      0.0000    578.8781      6.3738     91.6808
  1427.2500      0.0000    516.4122      6.5649     88.2593
  1427.5000      0.0000    475.6910      6.7216     86.0918
  1427.7500      0.0000    474.5201      6.7906     85.9467
  1428.0000      0.0000    512.8984      6.7304     88.8592
  1428.2500      0.0000    573.3773      6.5413     95.0719
  1428.5000      0.0000    632.9871      6.2748    103.1594
  1428.7500      0.0000    676.6041      6.0100    110.5298
  1429.0000      0.0000    701.5875      5.8150    115.2698
  1429.2500      0.0000    713.1350      5.7233    117.5302
  1429.5000      0.0000    717.5999      5.7295    118.9236
  1429.7500      0.0000    719.1633      5.7948    120.7788
  1430.0000      0.0000    719.8005      5.8634    123.1935
  1430.2500      0.0000    720.2563      5.8962    125.2917
  1430.5000      0.0000    720.7576      5.8908    125.7867
  1430.7500      0.0000    721.2966      5.8654    123.6314
  1431.0000      0.0000    721.6456      5.8319    118.9773
  1431.2500      0.0000    721.2890      5.7938    113.6994
  1431.5000      0.0000    719.3980      5.7600    110.6804
  1431.7500      0.0000    715.2322      5.7486    112.2518
  1432.0000      0.0000    708.9219      5.7805    118.6905
  1432.2500      0.0000    701.6543      5.8675    127.5263
  1432.5000      0.0000    694.5886      5.9929    134.6747
  1432.7500      0.0000    687.6616      6.0983    137.2450
