~Version Information
VERS.                      2.0: CWLS Log ASCII Standard - VERSION 2.0
WRAP.                       NO: One line per depth step
~Well Information Block
STRT.FT               430.0000: 
STOP.FT              1910.2500: 
STEP.FT                 0.2500: 
NULL.                -999.2500: 
COMP.          Pioneer Natural Resources: COMPANY
WELL.          Formula 23-11 Tr: WELL
FLD.           Purgatoire River: FIELD
LOC.           1976' FSL & 1935' FWL--: LOCATION
PROV.                 Colorado: PROVINCE
CNTY.               Las Animas: COUNTRY
SRVC.                Patterson: SERVICE COMPANY
DATE.          Fri Jun 10 22:41:39 2005: LOG DATE
UWI.           05 071 08399 00: UNIQUE WELL ID
~Curve Information Block
DEPT.FT            0 000 00 00: Depth
SN.Ohm-m                      : IEL Short Normal
SP.mV                         : IEL Spontaneous Potential
DIR.Ohm-m                     : IEL Induction Resistivity
GR.GAPI                       : Gamma Ray
~Parameter Information Block
~A  Depth        SN          SP         DIR          GR     
# ...
  1770.0000     29.6084     95.0649     23.7093     78.2293
  1770.2500     32.4816     96.6756     25.5312     82.6223
  1770.5000     34.6802     98.3357     27.1863     91.6309
  1770.7500     36.0623     99.9945     28.4089     97.5199
  1771.0000     36.7135    101.5995     29.0017    103.9922
  1771.2500     36.7969    103.1027     28.9441    106.2881
  1771.5000     36.4357    104.4667     28.3919    107.4596
  1771.7500     35.6912    105.6702     27.5703    107.5376
  1772.0000     34.5949    106.7092     26.6590    107.2748
  1772.2500     33.1753    107.5968     25.7386    106.6324
  1772.5000     31.4672    108.3593     24.7970    104.6172
  1772.7500     29.5210    109.0313     23.7673    102.9921
  1773.0000     27.4198    109.6495     22.5785    101.7802
  1773.2500     25.2851    110.2469     21.2033    102.6807
  1773.5000     23.2481    110.8479     19.6792    107.2159
  1773.7500     21.3970    111.4641     18.0921    112.2421
  1774.0000     19.7398    112.0944     16.5375    122.0014
  1774.2500     18.2195    112.7253     15.0884    129.1692
  1774.5000     16.7704    113.3344     13.7848    139.0681
  1774.7500     15.3675    113.8944     12.6394    144.1841
  1775.0000     14.0374    114.3782     11.6484    149.1791
  1775.2500     12.8339    114.7630     10.8006    151.1898
  1775.5000     11.8071    115.0337     10.0832    153.5233
  1775.7500     10.9839    115.1856      9.4833    154.9910
  1776.0000     10.3623    115.2243      8.9887    156.4588
  1776.2500      9.9168    115.1646      8.5870    156.3543
  1776.5000      9.6100    115.0276      8.2654    154.5698
  1776.7500      9.4043    114.8369      8.0107    153.0406
  1777.0000      9.2678    114.6143      7.8113    151.6263
  1777.2500      9.1761    114.3774      7.6581    151.5744
  1777.5000      9.1117    114.1375      7.5455    152.7655
  1777.7500      9.0646    113.8995      7.4706    154.4723
  1778.0000      9.0322    113.6633      7.4325    158.6255
  1778.2500      9.0144    113.4250      7.4298    162.1582
  1778.5000      9.0086    113.1778      7.4609    166.9098
  1778.7500      9.0080    112.9133      7.5225    168.3592
  1779.0000      9.0023    112.6214      7.6102    166.2452
  1779.2500      8.9837    112.2903      7.7193    161.9441
  1779.5000      8.9560    111.9059      7.8461    152.8092
  1779.7500      8.9451    111.4535      7.9893    146.3415
  1780.0000      8.9936    110.9198      8.1495    138.1340
  1780.2500      9.1358    110.2958      8.3271    134.3145
  1780.5000      9.3701    109.5825      8.5192    130.9618
  1780.7500      9.6480    108.7977      8.7160    129.6856
  1781.0000      9.8926    107.9823      8.8991    128.0602
  1781.2500     10.0377    107.2028      9.0441    126.9121
  1781.5000     10.0618    106.5459      9.1282    125.6328
  1781.7500      9.9937    106.1029      9.1401    125.7938
  1782.0000      9.8888    105.9451      9.0845    128.4853
  1782.2500      9.7963    106.0962      8.9793    131.6611
  1782.5000      9.7359    106.5122      8.8468    136.7943
  1782.7500      9.6925    107.0779      8.7046    139.5449
  1783.0000      9.6330    107.6264      8.5613    142.4221
  1783.2500      9.5314    107.9758      8.4183    143.9776
  1783.5000      9.3837    107.9740      8.2743    146.6264
  1783.7500      9.2057    107.5341      8.1317    148.8820
  1784.0000      9.0225    106.6506      7.9984    153.0871
  1784.2500      8.8605    105.3900      7.8871    156.1953
  1784.5000      8.7445    103.8642      7.8123    160.1277
  1784.7500      8.7018    102.1954      7.7881    161.1244
  1785.0000      8.7663    100.4878      7.8276    158.2131
  1785.2500      8.9753     98.8108      7.9413    152.9089
  1785.5000      9.3563     97.1983      8.1374    141.3353
  1785.7500      9.9120     95.6573      8.4212    132.9700
  1786.0000     10.6143     94.1825      8.7952    122.3399
  1786.2500     11.4126     92.7685      9.2589    117.3720
  1786.5000     12.2564     91.4180      9.8087    112.8473
  1786.7500     13.1219     90.1437     10.4381    111.0506
  1787.0000     14.0324     88.9652     11.1385    108.8556
  1787.2500     15.0536     87.9038     11.9019    107.1581
  1787.5000     16.2528     86.9767     12.7210    103.8480
  1787.7500     17.6341     86.1924     13.5835    101.2753
  1788.0000     19.0905     85.5481     14.4592     97.4444
  1788.2500     20.4195     85.0314     15.2876     95.0460
  1788.5000     21.4092     84.6232     15.9805     91.3111
  1788.7500     21.9445     84.3014     16.4496     88.4972
  1789.0000     22.0626     84.0450     16.6516     84.2572
  1789.2500     21.9205     83.8358     16.6160     82.3778
  1789.5000     21.7049     83.6591     16.4344     83.1208
  1789.7500     21.5440     83.5035     16.2197     86.7711
  1790.0000     21.4624     83.3596     16.0661     96.4313
  1790.2500     21.3925     83.2203     16.0268    104.2468
  1790.5000     21.2299     83.0818     16.1095    114.7722
  1790.7500     20.8964     82.9449     16.2796    119.3928
  1791.0000     20.3703     82.8169     16.4674    121.5635
  1791.2500     19.6720     82.7122     16.5844    120.1503
  1791.5000     18.8364     82.6508     16.5498    115.2207
  1791.7500     17.9077     82.6555     16.3222    111.0282
  1792.0000     16.9558     82.7469     15.9145    105.0751
  1792.2500     16.0786     82.9383     15.3795    102.4471
  1792.5000     15.3629     83.2319     14.7765    102.1389
  1792.7500     14.8257     83.6165     14.1438    104.5465
  1793.0000     14.3909     84.0693     13.4900    110.7403
  1793.2500     13.9279     84.5598     12.8059    115.2569
  1793.5000     13.3293     85.0560     12.0844    120.3926
  1793.7500     12.5720     85.5305     11.3349    121.9582
  1794.0000     11.7231     85.9659     10.5851    122.0380
  1794.2500     10.8947     86.3563      9.8723    122.0502
  1794.5000     10.1816     86.7061      9.2314    124.9695
  1794.7500      9.6232     87.0261      8.6872    129.5667
  1795.0000      9.2032     87.3278      8.2518    138.9733
  1795.2500      8.8729     87.6183      7.9247    145.1806
  1795.5000      8.5798     87.8976      7.6947    152.1419
  1795.7500      8.2917     88.1581      7.5430    154.9357
  1796.0000      8.0063     88.3870      7.4468    156.8358
  1796.2500      7.7461     88.5709      7.3833    156.6509
  1796.5000      7.5416     88.6995      7.3342    153.8681
  1796.7500      7.4162     88.7692      7.2884    150.4373
  1797.0000      7.3768     88.7826      7.2426    144.1351
  1797.2500      7.4101     88.7480      7.1982    140.2419
  1797.5000      7.4858     88.6757      7.1579    136.6581
  1797.7500      7.5688     88.5747      7.1226    136.4711
  1798.0000      7.6316     88.4515      7.0911    139.6531
  1798.2500      7.6567     88.3085      7.0596    143.4614
  1798.5000      7.6341     88.1462      7.0224    149.7126
  1798.7500      7.5618     87.9649      6.9726    152.9745
  1799.0000      7.4466     87.7673      6.9040    155.2219
  1799.2500      7.2999     87.5592      6.8140    155.0270
  1799.5000      7.1322     87.3500      6.7051    153.3763
  1799.7500      6.9511     87.1504      6.5853    152.2227
  1800.0000      6.7617     86.9700      6.4659    151.4734
  1800.2500      6.5672     86.8144      6.3581    151.8353
  1800.5000      6.3691     86.6826      6.2694    153.3118
  1800.7500      6.1711     86.5653      6.2025    154.4975
  1801.0000      5.9829     86.4450      6.1557    156.1206
  1801.2500      5.8195     86.2978      6.1249    157.1800
  1801.5000      5.6953     86.0976      6.1054    159.1602
  1801.7500      5.6181     85.8218      6.0933    160.7983
  1802.0000      5.5909     85.4574      6.0857    163.2339
  1802.2500      5.6150     85.0053      6.0812    164.4097
  1802.5000      5.6902     84.4822      6.0801    165.0829
  1802.7500      5.8108     83.9176      6.0837    164.8935
  1803.0000      5.9653     83.3473      6.0943    164.4337
  1803.2500      6.1378     82.8049      6.1140    164.6381
