~Version Information
VERS.                      2.0: CWLS Log ASCII Standard - VERSION 2.0
WRAP.                       NO: One line per depth step
~Well Information Block
STRT.FT               970.5000: 
STOP.FT              2720.0000: 
STEP.FT                 0.1000: 
NULL.                -999.2500: 
COMP.          Petrogulf Corporation: COMPANY
WELL.             Burson 8-31V: WELL
FLD.           Purgatorie River: FIELD
LOC.           1113' FNL & 2152' FEL: LOCATION
CNTY.               Las Animas: COUNTY
SRVC.                         : SERVICE COMPANY
DATE.          Wed Nov 12 14:59:14 2003: LOG DATE
UWI.                          : UNIQUE WELL ID
STAT.                 Colorado: STATE
~Curve Information Block
DEPT.FT            0 000 00 00: Depth
DCAL.in                       : CDL Caliper
DPOR.pu                       : CDL Density Porosity
NEU.NAPI                      : Neutron
NPOR.pu                       : Neutron Porosity
RHOB.g/cc                     : CDL Bulk Density
RHOC.g/cc                     : CDL Density Correction
GR.GAPI                       : Gamma Ray
~Parameter Information Block
~A  Depth       DCAL        DPOR        NEU         NPOR        RHOB        RHOC         GR     
# ...
  1566.9000      8.0629     25.9717   1052.9919     26.0596      2.2215      0.0170    164.8467
  1567.0000      8.0831     26.5685   1070.6373     25.1037      2.2116      0.0463    154.5097
  1567.1000      8.0831     25.6212   1079.5873     24.6221      2.2273      0.0006    154.5097
  1567.2000      8.0831     22.8402   1084.7654     24.3444      2.2731      0.0510    154.5097
  1567.3000      8.1490     19.1708   1091.0237     24.0099      2.3337      0.0782    141.0793
  1567.4000      8.1490     15.4314   1091.8716     23.9646      2.3954      0.0980    141.0793
  1567.5000      8.1922     12.1244   1080.0753     24.5959      2.4499      0.0885    148.8320
  1567.6000      8.1922     10.2559   1057.3108     25.8249      2.4808      0.1694    148.8320
  1567.7000      8.1922      9.9743   1036.0923     26.9822      2.4854      0.1109    148.8320
  1567.8000      8.1835     10.1057   1027.2275     27.4687      2.4833      0.1717    155.4481
  1567.9000      8.1835     10.5720   1027.5626     27.4503      2.4756      0.2212    155.4481
  1568.0000      8.1571     12.2073   1022.8907     27.7074      2.4486      0.1348    161.8478
  1568.1000      8.1571     14.6388   1008.8519     28.4824      2.4085      0.0725    161.8478
  1568.2000      8.1571     16.1357    996.2442     29.1816      2.3838     -0.0460    161.8478
  1568.3000      8.1912     15.2504    986.7886     29.7077      2.3984      0.0600    143.5632
  1568.4000      8.1912     12.9890    977.2972     30.2371      2.4357      0.1089    143.5632
  1568.5000      8.1082     10.9855    972.1115     30.5270      2.4687      0.0782    155.0768
  1568.6000      8.1082      9.0267    976.5770     30.2774      2.5011      0.0892    155.0768
  1568.7000      8.1082      6.8387    985.5844     29.7748      2.5372      0.1596    155.0768
  1568.8000      8.0424      4.7252    986.1345     29.7441      2.5720      0.1683    155.4618
  1568.9000      8.0424      2.9415    981.7914     29.9863      2.6015      0.1963    155.4618
  1569.0000      8.0327      2.0146    988.1870     29.6298      2.6168      0.1880    146.0204
  1569.1000      8.0327      1.8855   1008.1025     28.5239      2.6189      0.1251    146.0204
  1569.2000      8.0327      2.0249   1032.8962     27.1574      2.6166      0.0732    146.0204
  1569.3000      8.0383      2.5369   1048.6674     26.2950      2.6081      0.0472    146.2425
  1569.4000      8.0383      3.5169   1052.6821     26.0764      2.5920      0.0459    146.2425
  1569.5000      8.0526      4.1354   1056.3231     25.8785      2.5818     -0.0025    142.5281
  1569.6000      8.0526      3.7009   1062.5553     25.5405      2.5889      0.0743    142.5281
  1569.7000      8.0526      2.5927   1066.7938     25.3112      2.6072      0.0216    142.5281
  1569.8000      8.0312      1.8114   1072.4280     25.0072      2.6201      0.1029    151.8654
  1569.9000      8.0312      2.2678   1081.0498     24.5436      2.6126      0.0709    151.8654
  1570.0000      8.0226      3.7137   1084.3983     24.3641      2.5887      0.0171    160.5727
  1570.1000      8.0226      5.7209   1081.6487     24.5114      2.5556      0.0238    160.5727
  1570.2000      8.0226      8.1881   1080.2180     24.5882      2.5149      0.0151    160.5727
  1570.3000      8.0514     10.2826   1080.8046     24.5567      2.4803     -0.0218    156.8852
  1570.4000      8.0514     11.0292   1080.4493     24.5758      2.4680     -0.0289    156.8852
  1570.5000      8.0674     11.2475   1081.9073     24.4976      2.4644      0.0655    146.5141
  1570.6000      8.0674     12.4031   1086.1683     24.2693      2.4453      0.0292    146.5141
  1570.7000      8.0674     13.8320   1093.2229     23.8926      2.4218      0.0041    146.5141
  1570.8000      8.0486     14.5406   1094.5552     23.8216      2.4101      0.0152    142.5738
  1570.9000      8.0486     15.5824   1079.6655     24.6179      2.3929      0.0998    142.5738
  1571.0000      8.0445     17.2048   1059.9708     25.6806      2.3661      0.0472    149.1214
  1571.1000      8.0445     16.9699   1054.8835     25.9567      2.3700      0.0108    149.1214
  1571.2000      8.0445     14.1331   1067.0800     25.2958      2.4168      0.1751    149.1214
  1571.3000      8.0520     11.3391   1085.9148     24.2829      2.4629      0.2050    166.2799
  1571.4000      8.0520      9.9541   1101.2769     23.4643      2.4858      0.2061    166.2799
  1571.5000      8.0766      8.8055   1110.4196     22.9806      2.5047      0.1751    142.5673
  1571.6000      8.0766      7.3091   1119.0750     22.5252      2.5294      0.3118    142.5673
  1571.7000      8.0766      5.8902   1133.6414     21.7645      2.5528      0.2268    142.5673
  1571.8000      8.0388      4.3347   1153.9244     20.7179      2.5785      0.2615    151.1463
  1571.9000      8.0388      2.7178   1174.7241     19.6611      2.6052      0.2977    151.1463
  1572.0000      8.0630      2.0864   1194.2489     18.6853      2.6156      0.2697    141.4737
  1572.1000      8.0630      3.2549   1214.9435     17.6693      2.5963      0.2272    141.4737
  1572.2000      8.0630      5.8345   1240.9529     16.4210      2.5537      0.1922    141.4737
  1572.3000      8.2190      8.4290   1275.1998     14.8297      2.5109      0.1700    151.1063
  1572.4000      8.2190     10.4020   1307.5527     13.3856      2.4784      0.1206    151.1063
  1572.5000      8.1999     12.3639   1318.8341     12.8965      2.4460      0.1150    147.9314
  1572.6000      8.1999     15.1932   1306.8945     13.4144      2.3993      0.1189    147.9314
  1572.7000      8.1999     19.5723   1286.8057     14.3048      2.3271      0.1010    147.9314
  1572.8000      8.1202     25.1296   1265.4528     15.2762      2.2354     -0.0104    143.7333
  1572.9000      8.1202     31.0458   1239.7090     16.4799      2.1377      0.0333    143.7333
  1573.0000      8.0923     36.9341   1210.9561     17.8635      2.0406      0.0084    155.7617
  1573.1000      8.0923     41.7888   1182.3660     19.2772      1.9605      0.0291    155.7617
  1573.2000      8.0923     44.8667   1145.4958     21.1510      1.9097     -0.0078    155.7617
  1573.3000      8.1465     47.2379   1099.3827     23.5649      1.8706      0.0122    126.2217
  1573.4000      8.1465     50.5988   1056.5457     25.8664      1.8151      0.0627    126.2217
  1573.5000      8.1444     53.5880   1023.0617     27.6980      1.7658     -0.0384    123.0033
  1573.6000      8.1444     51.6570   1005.9785     28.6415      1.7977     -0.0003    123.0033
  1573.7000      8.1444     43.6434   1009.2650     28.4596      1.9299      0.3836    123.0033
  1573.8000      8.1869     32.7805   1023.3611     27.6815      2.1091      0.4061    120.0907
  1573.9000      8.1869     21.7628   1041.0953     26.7084      2.2909      0.4704    120.0907
  1574.0000      8.2158     13.3977   1059.6715     25.6968      2.4289      0.4843    144.0281
  1574.1000      8.2158      9.5893   1071.7894     25.0416      2.4918      0.3126    144.0281
  1574.2000      8.2158      8.4544   1073.7434     24.9363      2.5105      0.2692    144.0281
  1574.3000      8.2351      8.1294   1066.3611     25.3346      2.5159      0.3234    149.8480
  1574.4000      8.2351      9.0248   1049.1014     26.2714      2.5011      0.2883    149.8480
  1574.5000      8.1265     10.7157   1026.4098     27.5137      2.4732      0.1460    147.3744
  1574.6000      8.1265     12.0009    999.1033     29.0228      2.4520      0.1254    147.3744
  1574.7000      8.1265     12.8686    963.8836     30.9876      2.4377      0.0174    147.3744
  1574.8000      8.1430     13.5285    929.4057     32.9257      2.4268      0.0479    148.9611
  1574.9000      8.1430     14.0533    905.4478     34.2781      2.4181      0.0314    148.9611
  1575.0000      8.1147     14.6181    887.9284     35.2686      2.4088      0.0623    132.1740
  1575.1000      8.1147     14.5081    873.7220     36.0723      2.4106      0.0100    132.1740
  1575.2000      8.1147     12.0066    864.3550     36.6022      2.4519      0.0835    132.1740
