~Version Information
 VERS.                                  2.0 : CWLS LAS VERSION
 WRAP.                                   NO : WRAPING MODE
 SWARE .                 MController 2.5.0J : SOFTWARE VERSION
~Well Information
 WELL.                         State 16-24R : WELL
 COMP.                Petrogulf Corporation : COMPANY
 FLD.                      Purgatoire River : FIELD
 LOC.                SE/SW Sec 16 T33S R67W : LOCATION
 DATE.                            8/9-11/05 : DATE(S) LOGGED
 SRVC.       BLANCO Geological Services LLC : SERVICE COMPANY
 STAT.                                   CO : STATE
 CNTY.                           Las Animas : COUNTY
 CTRY.                                  USA : COUNTRY
 API.                       05-071-08312-00 : API NUMBER
 STRT.FT                              27.00 : START DEPTH
 STOP.FT                            1870.00 : STOP DEPTH
 STEP.FT                               1.00 : DEPTH INCREMENT
 NULL.                                -9999 : NULL VALUE
~Curve information
 DEPTH.FT                                   :
 ROP.MIN/FT                                 :
 GAS.UNITS                                  :
~ASCII Log data
# ...
       227.0         0.27         12.7 
       228.0         0.27         13.0 
       229.0         0.27         12.8 
       230.0         0.23         13.1 
       231.0         0.23         13.1 
       232.0         0.27         13.0 
       233.0         0.23         12.5 
       234.0         0.23         12.5 
       235.0         0.27         12.6 
       236.0         1.28         13.3 
       237.0         0.27         12.8 
       238.0         0.27         12.6 
       239.0         0.33         12.8 
       240.0         0.27         12.9 
       241.0         0.27         12.5 
       242.0         0.27         12.8 
       243.0         0.23         12.8 
       244.0         0.27         12.7 
       245.0         0.23         12.8 
       246.0         0.28         12.8 
       247.0         0.27         12.5 
       248.0         0.23         12.6 
       249.0         0.30         12.9 
       250.0         0.27         12.8 
       251.0         0.27         12.7 
       252.0         0.30         13.1 
       253.0         0.27         12.3 
       254.0         0.27         12.8 
       255.0         0.30         12.9 
       256.0         0.27         12.6 
       257.0         0.30         12.7 
       258.0         0.25         12.9 
       259.0         0.27         12.8 
       260.0         0.17         12.8 
       261.0         0.17         12.8 
       262.0         0.20         12.7 
       263.0         0.27         12.7 
       264.0         0.20         12.6 
       265.0         0.27         12.8 
       266.0         2.15         13.1 
       267.0         0.43         12.8 
       268.0         0.37         12.7 
       269.0         0.33         12.7 
       270.0         0.30         12.6 
       271.0         0.27         12.7 
       272.0         0.27         12.6 
       273.0         0.27         12.5 
       274.0         0.27         12.2 
       275.0         0.23         12.5 
       276.0         0.28         12.3 
       277.0         0.23         12.3 
       278.0         0.27         12.0 
       279.0         0.27         12.3 
       280.0         0.23         11.6 
       281.0         0.20         12.3 
       282.0         0.17         11.6 
       283.0         0.23         12.2 
       284.0         0.23         11.6 
       285.0         0.27         12.2 
       286.0         0.27         12.2 
       287.0         0.30         12.0 
       288.0         0.27         11.9 
       289.0         0.32         12.2 
       290.0         0.23         11.8 
       291.0         0.30         12.0 
       292.0         0.27         12.5 
       293.0         0.27         12.4 
       294.0         0.27         12.4 
       295.0         0.17         12.6 
       296.0         1.07         12.7 
       297.0         0.37         12.4 
       298.0         0.37         12.7 
       299.0         0.32         13.0 
       300.0         0.30         12.9 
       301.0         0.30         12.9 
       302.0         0.30         12.8 
       303.0         0.27         12.6 
       304.0         0.23         12.9 
       305.0         0.27         12.8 
       306.0         0.23         12.6 
       307.0         0.23         12.6 
       308.0         0.27         12.8 
       309.0         0.27         12.6 
       310.0         0.37         12.7 
       311.0         0.42         12.7 
       312.0         0.27         12.7 
       313.0         0.30         12.5 
       314.0         0.40         12.4 
       315.0         0.40         12.1 
       316.0         0.30         11.9 
       317.0         0.27         12.4 
       318.0         0.33         12.6 
       319.0         0.37         12.5 
       320.0         0.32         12.4 
       321.0         0.30         12.2 
       322.0         0.30         12.2 
       323.0         0.30         12.4 
       324.0         0.27         12.5 
       325.0         0.27         12.6 
       326.0         1.50         12.7 
       327.0         0.35         12.5 
       328.0         0.30         12.5 
       329.0         0.30         12.4 
       330.0         0.30         12.9 
       331.0         0.37         12.6 
       332.0         0.33         12.9 
       333.0         0.30         13.0 
       334.0         0.40         12.9 
       335.0         0.30         12.9 
       336.0         0.30         12.6 
       337.0         0.35         12.4 
       338.0         0.30         11.5 
       339.0         0.33         11.9 
       340.0         0.33         11.8 
       341.0         0.33         11.7 
       342.0         0.30         12.1 
       343.0         0.30         10.9 
       344.0         0.30         10.7 
       345.0         0.27         10.2 
       346.0         0.30         10.4 
       347.0         0.30         11.0 
       348.0         0.28         11.0 
       349.0         0.27         10.6 
       350.0         0.23         11.1 
       351.0         0.20         10.9 
       352.0         0.23         11.0 
       353.0         0.30         11.1 
       354.0         0.23         11.1 
       355.0         0.27         11.2 
       356.0         1.68         12.4 
       357.0         0.23         12.2 
       358.0         0.20         12.5 
       359.0         0.13         12.3 
       360.0         0.23         12.4 
       361.0         0.17         12.4 
       362.0         0.20         12.8 
       363.0         0.23         12.9 
       364.0         0.17         13.0 
       365.0         0.17         12.2 
       366.0         0.13         12.3 
       367.0         0.17         12.7 
       368.0         0.17         12.8 
       369.0         0.20         11.9 
       370.0         0.13         12.2 
       371.0         0.13         12.2 
       372.0         0.10         12.4 
       373.0         0.13         12.2 
       374.0         0.13         11.5 
       375.0         0.13         11.6 
       376.0         0.18         11.5 
       377.0         0.30         11.9 
       378.0         0.27         12.2 
       379.0         0.37         12.3 
       380.0         0.40         12.1 
       381.0         0.20         12.1 
       382.0         0.27         12.0 
       383.0         0.23         12.1 
       384.0         0.27         12.3 
       385.0         0.27         12.3 
       386.0         1.58         12.7 
       387.0         0.27         11.8 
       388.0         0.37         12.1 
       389.0         0.37         12.1 
       390.0         0.30         11.7 
       391.0         0.27         12.0 
       392.0         0.23         12.3 
       393.0         0.30         12.3 
       394.0         0.30         12.3 
       395.0         0.32         12.0 
       396.0         0.30         12.2 
       397.0         0.47         12.5 
       398.0         0.47         12.4 
       399.0         0.43         12.4 
       400.0         0.33         12.4 
       401.0         0.30         11.9 
       402.0         0.37         12.6 
       403.0         0.30         12.2 
       404.0         0.32         12.4 
       405.0         0.27         12.6 
       406.0         0.23         12.8 
       407.0         0.20         12.5 
       408.0         0.13         12.2 
       409.0         0.17         12.5 
       410.0         0.17         12.1 
       411.0         0.13         12.5 
       412.0         0.13         12.4 
       413.0         0.17         12.0 
       414.0         0.13         11.7 
       415.0         0.17         12.2 
       416.0         1.88         12.8 
       417.0         0.13         11.4 
       418.0         0.17         11.3 
       419.0         0.17         11.7 
       420.0         0.23         11.7 
       421.0         0.27         11.3 
       422.0         0.30         11.8 
       423.0         0.30         12.0 
       424.0         0.27         12.0 
       425.0         0.30         11.8 
       426.0         0.27         11.8 
