~Version Information
VERS.                      2.0: CWLS Log ASCII Standard - VERSION 2.0
WRAP.                       NO: One line per depth step
~Well Information Block
STRT.FT               700.0000: 
STOP.FT              1869.5000: 
STEP.FT                 0.1000: 
NULL.                -999.2500: 
COMP.          Petrogulf Corporation: COMPANY
WELL.             State 16-24R: WELL
FLD.           Purgatorie River: FIELD
LOC.           541' FSL & 2371' FWL: LOCATION
PROV.                 Colorado: PROVINCE
CNTY.               Las Animas: COUNTRY
SRVC.                Patterson: SERVICE COMPANY
DATE.          Fri Aug 12 09:07:22 2005: LOG DATE
UWI.                071-08312 : UNIQUE WELL ID
~Curve Information Block
DEPT.FT            0 000 00 00: Depth
DCAL.in                       : CDL Caliper
RHOB.g/cc                     : CDL Bulk Density
RHOC.g/cc                     : CDL Density Correction
DPOR.pu                       : CDL Density Porosity
GR.GAPI                       : Gamma Ray
NPOR.pu                       : Neutron Porosity
~Parameter Information Block
~A  Depth       DCAL        RHOB        RHOC        DPOR         GR         NPOR    
# ...
  1304.8000      8.0909      2.4169      0.0537     14.1300     93.1607     29.6298
  1304.9000      8.0909      2.4376      0.0345     12.8736     98.3923     29.3761
  1305.0000      8.0624      2.4513      0.0393     12.0451    103.1513     29.2158
  1305.1000      8.0624      2.4629      0.0356     11.3406    105.2411     29.1185
  1305.2000      8.0624      2.4742      0.0313     10.6522    104.0123     28.7899
  1305.3000      8.0843      2.4892      0.0261      9.7480    101.6995     28.2419
  1305.4000      8.0843      2.5075      0.0928      8.6366    101.4019     27.8098
  1305.5000      8.1131      2.5206      0.0814      7.8403    104.6900     27.5542
  1305.6000      8.1131      2.5276      0.0367      7.4179    109.1576     27.3566
  1305.7000      8.1131      2.5312      0.0644      7.1990    111.0513     27.1993
  1305.8000      8.1071      2.5261      0.0587      7.5118    110.3758     26.8861
  1305.9000      8.1071      2.5185      0.0057      7.9667    109.8978     26.4804
  1306.0000      8.1261      2.5227      0.0204      7.7137    110.5113     26.4009
  1306.1000      8.1261      2.5316      0.0563      7.1764    110.5484     26.3986
  1306.2000      8.1261      2.5323      0.0310      7.1314    108.7675     25.8947
  1306.3000      8.0947      2.5326      0.0038      7.1152    105.1658     24.9885
  1306.4000      8.0947      2.5391      0.0521      6.7217    101.4752     24.2485
  1306.5000      8.0500      2.5432      0.0179      6.4752     99.2917     23.9288
  1306.6000      8.0500      2.5425     -0.0086      6.5137     97.8278     23.7451
  1306.7000      8.0500      2.5388      0.0419      6.7414     97.1376     23.3863
  1306.8000      7.9963      2.5316      0.0182      7.1751     98.6466     23.3482
  1306.9000      7.9963      2.5268      0.0495      7.4643    101.8366     24.1168
  1307.0000      7.9872      2.5241      0.0416      7.6286    105.0969     25.0299
  1307.1000      7.9872      2.5203      0.0423      7.8630    107.7339     25.5017
  1307.2000      7.9872      2.5211      0.0329      7.8120    109.4275     25.7918
  1307.3000      7.9931      2.5313      0.0593      7.1919    109.2287     26.0489
  1307.4000      7.9931      2.5453      0.0546      6.3480    108.8610     25.8850
  1307.5000      7.9682      2.5545      0.1051      5.7866    111.7277     25.4379
  1307.6000      7.9682      2.5572      0.0825      5.6266    117.8860     25.2226
  1307.7000      7.9682      2.5574      0.0772      5.6132    124.0347     25.4507
  1307.8000      7.9941      2.5551      0.0959      5.7486    125.8524     26.0418
  1307.9000      7.9941      2.5520      0.0554      5.9374    122.4249     26.4434
  1308.0000      8.0080      2.5535      0.0784      5.8490    117.6684     26.3084
  1308.1000      8.0080      2.5540      0.0690      5.8192    115.4270     26.2001
  1308.2000      8.0080      2.5485      0.0491      6.1487    115.2601     26.4360
  1308.3000      8.0269      2.5465      0.0504      6.2698    114.9052     26.5599
  1308.4000      8.0269      2.5520      0.1075      5.9401    114.7583     26.5812
  1308.5000      8.0473      2.5541      0.1038      5.8099    116.4104     26.9237
  1308.6000      8.0473      2.5503      0.0592      6.0442    118.9154     27.4795
  1308.7000      8.0473      2.5431      0.1008      6.4814    120.1226     27.9321
  1308.8000      8.0658      2.5307      0.0698      7.2318    120.4097     28.1978
  1308.9000      8.0658      2.5194      0.0556      7.9175    121.5514     28.2279
  1309.0000      8.0558      2.5147      0.0830      8.1990    122.9908     27.9442
  1309.1000      8.0558      2.5140      0.0837      8.2432    122.6545     27.5674
  1309.2000      8.0558      2.5176      0.0468      8.0231    121.6955     27.4541
  1309.3000      8.0715      2.5266      0.0909      7.4813    122.4722     27.4665
  1309.4000      8.0715      2.5349      0.0821      6.9765    125.2952     27.4454
  1309.5000      8.0944      2.5346      0.1069      6.9913    129.1808     27.7687
  1309.6000      8.0944      2.5209      0.0982      7.8237    132.0897     28.6065
  1309.7000      8.0944      2.4979      0.0762      9.2201    132.1835     29.2763
  1309.8000      8.0746      2.4797      0.0180     10.3196    128.2384     29.2515
  1309.9000      8.0746      2.4789      0.0630     10.3717    121.4404     28.9764
  1310.0000      8.0505      2.4910      0.0473      9.6337    116.1501     29.1936
  1310.1000      8.0505      2.5041      0.0598      8.8437    115.6554     29.9037
  1310.2000      8.0505      2.5117      0.0645      8.3832    119.2104     30.3823
  1310.3000      8.0720      2.5123      0.0568      8.3453    123.8761     30.2957
  1310.4000      8.0720      2.4987      0.0876      9.1699    127.1253     29.8549
  1310.5000      8.0686      2.4634      0.0647     11.3105    127.1511     29.5675
  1310.6000      8.0686      2.4191      0.0298     13.9911    124.1765     30.0038
  1310.7000      8.0686      2.3895     -0.0111     15.7883    120.9312     30.9491
  1310.8000      8.0916      2.3817      0.0439     16.2621    118.3831     31.5937
  1310.9000      8.0916      2.3815      0.0327     16.2730    116.3991     31.4588
  1311.0000      8.0803      2.3727      0.0620     16.8042    117.6147     30.8408
  1311.1000      8.0803      2.3526      0.0600     18.0226    123.5607     30.4716
  1311.2000      8.0803      2.3323      0.0272     19.2557    131.6998     30.7585
  1311.3000      8.0670      2.3152      0.0912     20.2885    137.5329     31.6446
  1311.4000      8.0670      2.2909      0.1061     21.7657    137.6854     32.5165
  1311.5000      8.0742      2.2626      0.1033     23.4786    131.7442     32.6637
  1311.6000      8.0742      2.2478      0.0780     24.3763    123.1915     32.0571
  1311.7000      8.0742      2.2527      0.0807     24.0813    117.9799     31.1868
  1311.8000      8.0576      2.2711      0.0989     22.9644    118.0234     30.4430
  1311.9000      8.0576      2.2963      0.0757     21.4349    119.5430     29.9183
  1312.0000      8.0772      2.3226      0.1323     19.8438    119.5153     29.4072
  1312.1000      8.0772      2.3479      0.0980     18.3090    117.0077     28.9828
  1312.2000      8.0772      2.3804      0.1235     16.3373    111.5117     28.9419
  1312.3000      8.0912      2.4253      0.1189     13.6164    105.9268     29.1066
  1312.4000      8.0912      2.4732      0.1214     10.7167    104.0687     29.1252
  1312.5000      8.0986      2.5056      0.1124      8.7534    105.9496     28.9741
  1312.6000      8.0986      2.5148      0.0986      8.1959    109.7373     28.6054
  1312.7000      8.0986      2.5089      0.0731      8.5523    111.8932     27.8129
  1312.8000      8.1019      2.4979      0.0724      9.2162    111.0307     26.7882
  1312.9000      8.1019      2.4902      0.0373      9.6842    111.4178     25.9800
  1313.0000      8.0849      2.4930      0.0419      9.5136    113.1984     25.5691
  1313.1000      8.0849      2.5056      0.0677      8.7507    113.6009     25.5585
  1313.2000      8.0849      2.5250      0.0535      7.5755    112.0186     25.6936
  1313.3000      8.0947      2.5547      0.0732      5.7753    107.4235     25.5402
  1313.4000      8.0947      2.5875      0.1140      3.7898    101.6681     25.0625
  1313.5000      8.0810      2.6064      0.1182      2.6409     96.3221     24.4599
  1313.6000      8.0810      2.6123      0.0857      2.2867     90.2878     23.9084
  1313.7000      8.0810      2.6152      0.1195      2.1101     84.0519     23.3962
  1313.8000      8.0625      2.6147      0.0836      2.1393     80.4380     22.7731
  1313.9000      8.0625      2.6103      0.0754      2.4047     79.4443     22.0298
  1314.0000      8.0059      2.6103      0.0649      2.4036     78.7622     21.3201
  1314.1000      8.0059      2.6238      0.0414      1.5880     78.7560     20.8061
  1314.2000      8.0059      2.6470      0.0976      0.1811     79.2842     20.4872
  1314.3000      7.9813      2.6592      0.1089     -0.5580     78.0044     20.2686
