~Version Information
VERS.                      2.0: CWLS Log ASCII Standard - VERSION 2.0
WRAP.                       NO: One line per depth step
~Well Information Block
STRT.FT                -9.7500: 
STOP.FT              2566.5000: 
STEP.FT                 0.2500: 
NULL.                -999.2500: 
COMP.          Petrogulf Corporation: COMPANY
WELL.             Valejo 8-12V: WELL
FLD.           Purgatorie River: FIELD
LOC.           1510' FNL & 1460' FWL: LOCATION
CNTY.               Las Animas: COUNTY
SRVC.                         : SERVICE COMPANY
DATE.          Tue Nov 18 14:36:15 2003: LOG DATE
UWI.                          : UNIQUE WELL ID
STAT.                 Colorado: STATE
~Curve Information Block
DEPT.FT            0 000 00 00: Depth
CCL.                          : Casing Collar Locator
TT3.usec                      : CBL 3' Travel Time
AMP3.mV                       : CBL 3' Amplitude
GR.GAPI                       : Gamma Ray
~Parameter Information Block
~A  Depth       CCL         TT3         AMP3         GR     
# ...
  2368.7500      0.0000    717.1123      2.8431     67.9901
  2369.0000      0.0000    724.7814      2.8509     62.7498
  2369.2500      0.0000    733.9364      2.8461     57.5885
  2369.5000      0.0000    740.6949      2.7943     53.7640
  2369.7500      0.0000    741.8663      2.7064     51.7211
  2370.0000      0.0000    736.1189      2.6301     50.6880
  2370.2500      0.0000    724.3013      2.6058     49.4288
  2370.5000      0.0000    709.9622      2.6354     47.5332
  2370.7500      0.0000    698.4941      2.6899     45.5967
  2371.0000      0.0000    694.2919      2.7334     44.1476
  2371.2500      0.0000    698.6310      2.7335     42.9672
  2371.5000      0.0000    709.8710      2.6662     41.7457
  2371.7500      0.0000    724.2000      2.5307     41.1245
  2372.0000      2.0000    735.9184      2.3661     42.7856
  2372.2500      2.0000    739.1982      2.2451     48.4799
  2372.5000      0.0000    731.7725      2.2261     58.8085
  2372.7500      0.0000    717.0704      2.2998     72.5923
  2373.0000      0.0000    701.7818      2.3925     87.2203
  2373.2500      0.0000    690.9141      2.4280     99.8102
  2373.5000      0.0000    684.9701      2.3915    108.5478
  2373.7500      0.0000    681.1299      2.3400    113.4036
  2374.0000      0.0000    676.5011      2.3485    115.6865
  2374.2500      0.0000    670.4651      2.4364    116.7108
  2374.5000      0.0000    664.5213      2.5434    116.9126
  2374.7500      0.0000    660.5623      2.5794    116.4271
  2375.0000      0.0000    659.8311      2.4990    116.1206
  2375.2500      0.0000    663.2750      2.3353    117.1334
  2375.5000      0.0000    671.5529      2.1707    119.2684
  2375.7500      0.0000    683.3295      2.0715    120.7475
  2376.0000      0.0000    693.8947      2.0474    120.0144
  2376.2500      0.0000    697.6649      2.0685    117.1644
  2376.5000      0.0000    693.5927      2.1128    113.3316
  2376.7500      0.0000    687.1269      2.1835    109.4420
  2377.0000      0.0000    685.4082      2.2832    106.0039
  2377.2500      0.0000    691.1565      2.3885    103.3624
  2377.5000      0.0000    702.1075      2.4588    101.3283
  2377.7500      0.0000    714.9065      2.4651     98.7747
  2378.0000      0.0000    727.0308      2.4077     94.3829
  2378.2500      0.0000    735.2501      2.3206     88.1072
  2378.5000      0.0000    735.6443      2.2571     81.6011
  2378.7500      0.0000    726.9214      2.2551     76.8989
  2379.0000      0.0000    712.2077      2.3072     74.7472
  2379.2500      0.0000    696.7805      2.3760     74.3465
  2379.5000      0.0000    685.2886      2.4377     74.6328
  2379.7500      0.0000    681.1638      2.4933     75.6311
  2380.0000      0.0000    686.0627      2.5383     78.5702
  2380.2500      0.0000    697.6533      2.5526     84.6821
  2380.5000      0.0000    708.9963      2.5329     93.9142
  2380.7500      0.0000    712.9178      2.5101    104.7633
  2381.0000      0.0000    707.9700      2.5152    114.9092
  2381.2500      0.0000    699.0593      2.5367    121.7059
  2381.5000      0.0000    692.1547      2.5255    122.7681
  2381.7500      0.0000    689.8759      2.4436    117.2156
  2382.0000      0.0000    692.1487      2.3048    106.8135
  2382.2500      0.0000    698.6008      2.1662     95.4958
  2382.5000      0.0000    708.2621      2.0771     87.2352
  2382.7500      0.0000    717.7532      2.0453     84.0607
  2383.0000      0.0000    722.2726      2.0501     85.5788
  2383.2500      0.0000    719.5540      2.0721     89.7346
  2383.5000      0.0000    712.1525      2.1016     94.2050
  2383.7500      0.0000    705.4948      2.1341     97.8545
  2384.0000      0.0000    704.2731      2.1689    101.0896
  2384.2500      0.0000    710.2167      2.2019    104.6839
  2384.5000      0.0000    721.3557      2.2141    108.5136
  2384.7500      0.0000    732.4308      2.1817    111.5783
  2385.0000      0.0000    737.3118      2.1072    112.9700
  2385.2500      0.0000    732.8661      2.0312    112.5173
  2385.5000      0.0000    720.9974      2.0006    110.5147
  2385.7500      0.0000    706.7764      2.0231    107.2291
  2386.0000      0.0000    694.8068      2.0593    103.0446
  2386.2500      0.0000    687.3246      2.0677     98.7654
  2386.5000      0.0000    684.4662      2.0511     95.1269
  2386.7500      0.0000    684.8947      2.0521     91.9922
  2387.0000      0.0000    686.2243      2.1060     88.5756
  2387.2500      0.0000    685.9840      2.2091     84.6431
  2387.5000      0.0000    683.0558      2.3296     81.0207
  2387.7500      0.0000    678.5695      2.4336     78.7305
  2388.0000      0.0000    675.3781      2.4928     78.1550
  2388.2500      0.0000    676.2397      2.4886     79.3067
  2388.5000      0.0000    682.2717      2.4294     82.2327
  2388.7500      0.0000    693.1998      2.3538     86.6122
  2389.0000      0.0000    708.4322      2.2975     91.2955
  2389.2500      0.0000    726.7738      2.2677     94.7718
  2389.5000      0.0000    745.1508      2.2560     96.1070
  2389.7500      0.0000    758.7734      2.2606     95.2683
  2390.0000      0.0000    763.1479      2.2850     92.7385
  2390.2500      0.0000    756.1423      2.3297     89.2122
  2390.5000      0.0000    739.2209      2.3933     85.6766
  2390.7500      0.0000    717.6821      2.4726     83.3119
  2391.0000      0.0000    698.7466      2.5613     82.9084
  2391.2500      0.0000    687.5532      2.6542     84.3435
  2391.5000      0.0000    684.2192      2.7445     86.5435
  2391.7500      0.0000    684.9213      2.8143     87.8180
  2392.0000      0.0000    685.7622      2.8386     86.6132
  2392.2500      0.0000    685.7682      2.8097     82.5773
  2392.5000      0.0000    686.8544      2.7516     76.8980
  2392.7500      0.0000    691.3484      2.6989     71.2305
  2393.0000      0.0000    699.2932      2.6644     66.3278
  2393.2500      0.0000    707.6926      2.6340     61.9771
  2393.5000      0.0000    712.2451      2.5914     58.0709
  2393.7500      0.0000    710.1957      2.5374     55.2646
  2394.0000      0.0000    702.4489      2.4796     54.3546
  2394.2500      0.0000    693.7663      2.4184     55.3087
  2394.5000      0.0000    690.7493      2.3528     57.3491
  2394.7500      0.0000    698.3743      2.2945     60.1061
  2395.0000      0.0000    716.7072      2.2670     64.2933
  2395.2500      0.0000    739.6444      2.2909     70.7860
  2395.5000      0.0000    757.2842      2.3667     79.0056
  2395.7500      0.0000    761.6048      2.4696     86.5542
  2396.0000      0.0000    751.5987      2.5637     90.6507
  2396.2500      0.0000    733.4131      2.6235     89.9931
  2396.5000      0.0000    715.3591      2.6431     85.5266
  2396.7500      0.0000    702.4473      2.6351     79.7166
  2397.0000      0.0000    694.6740      2.6224     75.0342
  2397.2500      0.0000    689.0876      2.6255     72.7966
  2397.5000      0.0000    682.9955      2.6511     73.0749
  2397.7500      0.0000    675.9590      2.6854     75.3831
  2398.0000      0.0000    669.6364      2.6991     79.2077
  2398.2500      0.0000    666.0931      2.6671     83.8846
  2398.5000      0.0000    666.2211      2.5901     88.4010
  2398.7500      0.0000    669.4082      2.4927     91.8969
  2399.0000     -2.0000    674.2362      2.4006     94.3964
  2399.2500     -2.0000    679.2280      2.3307     96.6036
  2399.5000      0.0000    682.9521      2.2969     98.8231
  2399.7500      0.0000    683.8464      2.3026    100.3982
  2400.0000      0.0000    680.6958      2.3340    100.3106
  2400.2500      0.0000    673.6936      2.3795     98.0946
  2400.5000      0.0000    664.8193      2.4489     94.1673
  2400.7500      0.0000    656.7627      2.5487     89.5214
  2401.0000      0.0000    651.2806      2.6527     85.1584
  2401.2500      0.0000    648.4893      2.7214     81.7792
  2401.5000      0.0000    647.4587      2.7417     79.9442
  2401.7500      0.0000    647.2000      2.7273     80.0824
  2402.0000      0.0000    647.1904      2.6849     81.9130
