~Version Information
VERS.                      2.0: CWLS Log ASCII Standard - VERSION 2.0
WRAP.                       NO: One line per depth step
~Well Information Block
STRT.FT               521.6000: 
STOP.FT              1490.2000: 
STEP.FT                 0.1000: 
NULL.                -999.2500: 
COMP.          Petrogulf Corporation: COMPANY
WELL.          Robinson 15-11R: WELL
FLD.           Purgatorie River: FIELD
LOC.           324' FNL & 570' FWL: LOCATION
CNTY.               Las Animas: COUNTY
SRVC.                         : SERVICE COMPANY
DATE.          Sat Nov 06 22:43:15 2004: LOG DATE
UWI.           05 071 08029 00: UNIQUE WELL ID
STAT.                 Colorado: STATE
~Curve Information Block
DEPT.FT            0 000 00 00: Depth
DCAL.in                       : CDL Caliper
RHOB.g/cc                     : CDL Bulk Density
RHOC.g/cc                     : CDL Density Correction
DPOR.pu                       : CDL Density Porosity
GR.GAPI                       : Gamma Ray
NPOR.pu                       : Neutron Porosity
~Parameter Information Block
~A  Depth       DCAL        RHOB        RHOC        DPOR         GR         NPOR    
# ...
   800.0000      8.1129      1.6499      0.0483     60.6131     81.9985     15.1428
   800.1000      8.1129      1.7452      0.1205     54.8372     74.0917     16.1001
   800.2000      8.1129      1.8694      0.2163     47.3064     75.4911     17.2256
   800.3000      8.1312      1.9932      0.2522     39.8071     80.1695     18.4159
   800.4000      8.1312      2.0964      0.2581     33.5511     81.4841     19.4288
   800.5000      8.1504      2.1753      0.2599     28.7669     82.1637     20.4052
   800.6000      8.1504      2.2271      0.2688     25.6322     86.5196     21.4544
   800.7000      8.1504      2.2456      0.1696     24.5098     92.6774     22.1759
   800.8000      8.1185      2.2388      0.0567     24.9237     97.7626     22.4407
   800.9000      8.1185      2.2242      0.0546     25.8081    102.1265     22.7761
   801.0000      8.0122      2.2094      0.0124     26.7009    104.0738     23.6196
   801.1000      8.0122      2.1902      0.0660     27.8683    103.8602     24.5057
   801.2000      8.0122      2.1591      0.0617     29.7536    105.6199     24.5087
   801.3000      8.0065      2.1253      0.0564     31.8021    109.2356     23.7154
   801.4000      8.0065      2.1128      0.0531     32.5588    111.6732     22.9467
   801.5000      8.0174      2.1365      0.0400     31.1191    112.3712     22.7115
   801.6000      8.0174      2.1911      0.0880     27.8136    114.4378     23.0825
   801.7000      8.0174      2.2525      0.1267     24.0923    117.7741     23.6639
   801.8000      8.0510      2.2944      0.1001     21.5490    119.1838     24.0289
   801.9000      8.0510      2.3085      0.1274     20.6977    119.2404     24.1002
   802.0000      8.0425      2.3096      0.1147     20.6328    120.4123     23.8706
   802.1000      8.0425      2.3246      0.1365     19.7221    123.1712     23.6330
   802.2000      8.0425      2.3565      0.1402     17.7851    124.5803     23.7458
   802.3000      8.0300      2.3824      0.0971     16.2194    125.0189     24.0872
   802.4000      8.0300      2.3981      0.0333     15.2648    127.1725     24.3679
   802.5000      7.9897      2.4208      0.0757     13.8898    124.8073     24.5790
   802.6000      7.9897      2.4486      0.1419     12.2063    114.7832     24.8554
   802.7000      7.9897      2.4701      0.1339     10.9025    105.4434     25.1252
   802.8000      7.9931      2.4959      0.1001      9.3376    103.2459     25.4044
   802.9000      7.9931      2.5367      0.2002      6.8656    105.9346     25.6729
   803.0000      7.9671      2.5783      0.1931      4.3461    108.1429     25.7665
   803.1000      7.9671      2.6064      0.2145      2.6407    108.6056     25.6724
   803.2000      7.9671      2.6153      0.2556      2.1016    109.5176     25.5134
   803.3000      7.9796      2.6031      0.1627      2.8398    111.7242     25.4453
   803.4000      7.9796      2.5833      0.1319      4.0450    114.5862     25.3272
   803.5000      8.0216      2.5731      0.0975      4.6612    115.5769     25.0246
   803.6000      8.0216      2.5800      0.1032      4.2452    114.3089     24.7979
   803.7000      8.0216      2.6027      0.0494      2.8650    114.1811     24.8842
   803.8000      8.0255      2.6324      0.0868      1.0679    115.5426     25.0460
   803.9000      8.0255      2.6569      0.1355     -0.4179    117.4596     25.0022
   804.0000      7.9971      2.6703      0.1470     -1.2300    119.1846     24.8094
   804.1000      7.9971      2.6730      0.1597     -1.3942    120.2360     24.6795
   804.2000      7.9971      2.6742      0.1611     -1.4666    122.6663     24.6325
   804.3000      7.9503      2.6728      0.2016     -1.3811    125.4234     24.3520
   804.4000      7.9503      2.6538      0.1232     -0.2305    124.7311     23.7183
   804.5000      7.9902      2.6208      0.1142      1.7687    122.9235     23.0757
   804.6000      7.9902      2.5902      0.0802      3.6230    125.2493     22.7566
   804.7000      7.9902      2.5696      0.0734      4.8747    129.0333     22.7041
   804.8000      8.0779      2.5532      0.0930      5.8691    127.9540     22.7167
   804.9000      8.0779      2.5340      0.0608      7.0315    122.8737     22.7629
   805.0000      8.0574      2.5159      0.0787      8.1265    122.0901     23.0158
   805.1000      8.0574      2.5075      0.0527      8.6362    128.0403     23.4861
   805.2000      8.0574      2.5123      0.0548      8.3437    133.0480     23.7716
   805.3000      8.0704      2.5238      0.0944      7.6465    133.5423     23.9028
   805.4000      8.0704      2.5390      0.0845      6.7246    132.6678     24.2063
   805.5000      8.0512      2.5626      0.1116      5.2989    131.7229     24.5230
   805.6000      8.0512      2.5828      0.1724      4.0754    130.3714     24.7913
   805.7000      8.0512      2.5886      0.1365      3.7222    132.4012     25.1466
   805.8000      7.9650      2.5990      0.1417      3.0896    141.1353     25.4368
   805.9000      7.9650      2.6212      0.2376      1.7475    150.3208     25.6537
   806.0000      7.9411      2.6285      0.1709      1.3039    149.9125     25.8729
   806.1000      7.9411      2.6100      0.1322      2.4249    139.5392     25.9805
   806.2000      7.9411      2.5830      0.0926      4.0587    127.8720     25.9698
   806.3000      7.9157      2.5585      0.1066      5.5441    123.9517     26.1562
   806.4000      7.9157      2.5313      0.0718      7.1962    130.1207     26.6870
   806.5000      7.9202      2.5016      0.0507      8.9926    137.3984     27.2862
   806.6000      7.9202      2.4829      0.0565     10.1263    138.8615     28.0038
   806.7000      7.9202      2.4873      0.0012      9.8616    139.3332     29.1865
   806.8000      7.9103      2.5139      0.0819      8.2465    143.2017     30.5122
   806.9000      7.9103      2.5563      0.0399      5.6798    144.9864     31.3618
   807.0000      7.9191      2.6068      0.0918      2.6160    141.0658     31.8543
   807.1000      7.9191      2.6430      0.1158      0.4258    137.0042     32.2973
   807.2000      7.9191      2.6418      0.1062      0.4971    135.9433     32.4446
   807.3000      7.9323      2.6166      0.0916      2.0221    135.1360     31.9211
   807.4000      7.9323      2.6056      0.0842      2.6915    130.8017     30.8028
   807.5000      7.9567      2.6149      0.1357      2.1247    121.8142     29.8402
   807.6000      7.9567      2.6074      0.1354      2.5838    113.3383     29.3568
   807.7000      7.9567      2.5632      0.0570      5.2622    110.3369     29.0687
   807.8000      7.8293      2.5101     -0.0051      8.4775    113.8148     28.8239
   807.9000      7.8293      2.4866     -0.0474      9.9048    120.8396     28.4647
   808.0000      7.8450      2.5034     -0.0362      8.8826    126.1824     27.9151
   808.1000      7.8450      2.5328      0.1112      7.1031    129.6109     27.3443
   808.2000      7.8450      2.5466      0.0508      6.2677    132.6762     26.5867
   808.3000      7.8320      2.5593      0.1014      5.4957    136.4313     25.5973
   808.4000      7.8320      2.5932      0.1299      3.4400    140.8489     24.9361
   808.5000      7.8627      2.6355      0.1856      0.8796    140.8946     24.8701
   808.6000      7.8627      2.6579      0.1696     -0.4797    135.9603     24.9539
   808.7000      7.8627      2.6533      0.1724     -0.2004    130.0256     24.8475
   808.8000      7.8710      2.6276      0.1384      1.3579    125.3269     24.5352
   808.9000      7.8710      2.5924      0.0600      3.4926    124.5308     24.3066
   809.0000      7.8896      2.5642      0.0680      5.1998    130.2215     24.5467
   809.1000      7.8896      2.5468      0.0389      6.2518    140.3092     25.1953
   809.2000      7.8896      2.5377      0.0250      6.8043    147.5221     26.0002
   809.3000      7.8990      2.5326      0.0538      7.1147    146.8788     26.7474
   809.4000      7.8990      2.5213      0.0564      7.8011    142.6719     27.3284
   809.5000      7.8629      2.5021      0.0575      8.9658    140.7195     28.0157
