~Version Information
VERS.                      2.0: CWLS Log ASCII Standard - VERSION 2.0
WRAP.                       NO: One line per depth step
~Well Information Block
STRT.FT               238.0000: 
STOP.FT              1377.0000: 
STEP.FT                 0.1000: 
NULL.                -999.2500: 
COMP.          Pioneer Natural Resources: COMPANY
WELL.             Raptor 44-26: WELL
FLD.           Purgatoire River: FIELD
LOC.           180' FSL & 812' FEL: LOCATION
PROV.                 Colorado: PROVINCE
CNTY.               Las Animas: COUNTRY
SRVC.                Patterson: SERVICE COMPANY
DATE.          Tue Mar 22 15:28:33 2005: LOG DATE
UWI.           05 071 08187 00: UNIQUE WELL ID
~Curve Information Block
DEPT.FT            0 000 00 00: Depth
DCAL.in                       : CDL Caliper
RHOB.g/cc                     : CDL Bulk Density
RHOC.g/cc                     : CDL Density Correction
DPOR.pu                       : CDL Density Porosity
GR.GAPI                       : Gamma Ray
NPOR.pu                       : Neutron Porosity
~Parameter Information Block
~A  Depth       DCAL        RHOB        RHOC        DPOR         GR         NPOR    
# ...
   612.4000      7.8044      2.5209      0.2098      7.8217    146.0211     28.2067
   612.5000      7.9245      2.5194      0.1988      7.9135    146.4048     28.5708
   612.6000      7.9245      2.5054      0.0673      8.7640    151.1192     28.5582
   612.7000      7.9245      2.4961      0.0255      9.3294    154.4731     28.1085
   612.8000      7.9464      2.5020      0.0784      8.9694    155.3686     27.3746
   612.9000      7.9464      2.5066      0.0770      8.6892    156.3455     26.5199
   613.0000      7.9093      2.4809      0.0942     10.2472    155.5226     25.7667
   613.1000      7.9093      2.4084      0.0562     14.6415    151.9917     25.1375
   613.2000      7.9093      2.3005      0.0366     21.1833    147.9875     24.6010
   613.3000      7.9313      2.1894     -0.0255     27.9143    144.3171     24.4854
   613.4000      7.9313      2.1130     -0.0738     32.5475    143.6955     24.9664
   613.5000      7.9431      2.0901     -0.0584     33.9336    148.5923     25.7874
   613.6000      7.9431      2.1001     -0.0231     33.3283    156.2903     26.3264
   613.7000      7.9431      2.1145      0.0250     32.4517    161.8512     26.2861
   613.8000      7.9657      2.1376      0.0678     31.0543    163.0194     26.2995
   613.9000      7.9657      2.1901      0.1492     27.8740    162.9792     26.6760
   614.0000      7.9998      2.2754      0.2489     22.7036    162.3681     27.0560
   614.1000      7.9998      2.3690      0.2815     17.0278    160.2756     27.2582
   614.2000      7.9998      2.4324      0.2900     13.1883    158.1709     27.4861
   614.3000      7.9894      2.4442      0.1382     12.4714    155.0840     27.8838
   614.4000      7.9894      2.4270      0.0160     13.5168    150.0927     28.4244
   614.5000      7.9576      2.4193      0.0974     13.9802    146.9682     29.1160
   614.6000      7.9576      2.4363      0.0876     12.9511    152.6915     29.6750
   614.7000      7.9576      2.4742      0.0951     10.6539    164.6739     29.8946
   614.8000      7.9451      2.5151      0.1827      8.1787    174.2272     30.0365
   614.9000      7.9451      2.5368      0.1602      6.8585    178.0594     30.1663
   615.0000      7.9827      2.5369      0.1091      6.8573    174.9119     30.2063
   615.1000      7.9827      2.5250      0.1164      7.5728    167.9716     30.2495
   615.2000      7.9827      2.5154      0.1111      8.1552    162.4574     30.1807
   615.3000      7.9941      2.5298      0.0383      7.2866    158.0950     29.8957
   615.4000      7.9941      2.5659      0.1456      5.0949    151.0786     29.5230
   615.5000      8.0358      2.5825      0.1601      4.0908    142.1602     29.1544
   615.6000      8.0358      2.5575      0.0929      5.6039    136.5713     28.8501
   615.7000      8.0358      2.5181     -0.0124      7.9949    136.4294     28.6149
   615.8000      8.0164      2.4907     -0.0154      9.6547    140.2593     28.4678
   615.9000      8.0164      2.4780     -0.0501     10.4270    145.3162     28.3342
   616.0000      7.9926      2.4763      0.0028     10.5243    148.5185     27.9741
   616.1000      7.9926      2.4814     -0.0233     10.2168    149.9850     27.4131
   616.2000      7.9926      2.4927      0.0149      9.5326    151.0304     27.0227
   616.3000      7.9925      2.5069      0.0410      8.6744    149.9600     26.9917
   616.4000      7.9925      2.5090      0.1330      8.5425    146.6198     27.1866
   616.5000      7.9878      2.4908      0.0528      9.6475    145.5103     27.5311
   616.6000      7.9878      2.4687      0.0596     10.9890    149.1024     28.0288
   616.7000      7.9878      2.4605      0.0419     11.4830    154.3190     28.3654
   616.8000      7.9858      2.4676      0.0339     11.0567    158.5105     28.2195
   616.9000      7.9858      2.4805      0.0101     10.2729    161.1945     28.0070
   617.0000      7.9880      2.4858      0.0727      9.9542    162.4262     28.1034
   617.1000      7.9880      2.4809      0.0273     10.2496    162.1477     28.3308
   617.2000      7.9880      2.4801      0.0425     10.2949    160.1439     28.7720
   617.3000      7.9753      2.4919      0.0825      9.5836    157.7820     29.5264
   617.4000      7.9753      2.5131      0.1243      8.2981    158.9213     30.2583
   617.5000      7.9516      2.5317      0.1848      7.1667    165.3437     30.4707
   617.6000      7.9516      2.5334      0.1140      7.0656    173.3096     30.2336
   617.7000      7.9516      2.5278      0.0467      7.4087    176.0540     30.1983
   617.8000      7.9585      2.5360      0.0612      6.9088    172.8524     30.6050
   617.9000      7.9585      2.5534      0.0697      5.8571    169.7273     31.1099
   618.0000      7.9848      2.5616      0.0919      5.3588    169.2290     31.3851
   618.1000      7.9848      2.5606      0.0835      5.4176    168.1189     31.3853
   618.2000      7.9848      2.5651      0.0338      5.1464    164.2209     31.1861
   618.3000      7.9433      2.5792      0.0686      4.2889    161.1545     31.1183
   618.4000      7.9433      2.5950      0.0170      3.3313    162.0467     31.3465
   618.5000      7.9424      2.6039      0.0726      2.7919    161.5886     31.5588
   618.6000      7.9424      2.6019      0.0271      2.9128    155.6500     31.4551
   618.7000      7.9424      2.5983      0.0475      3.1345    148.4503     30.9738
   618.8000      7.9561      2.5948      0.1098      3.3484    146.0004     30.3594
   618.9000      7.9561      2.5820      0.0489      4.1235    149.3775     29.9193
   619.0000      7.9206      2.5560      0.0359      5.6994    155.4573     29.7385
   619.1000      7.9206      2.5184      0.0334      7.9729    161.4897     29.6431
   619.2000      7.9206      2.4857     -0.0235      9.9562    166.9132     29.4698
   619.3000      7.9036      2.4810     -0.0076     10.2414    170.5240     29.1805
   619.4000      7.9036      2.5068      0.0293      8.6814    172.5956     28.8785
   619.5000      7.8879      2.5415      0.0485      6.5774    172.5102     28.8038
   619.6000      7.8879      2.5649      0.0539      5.1582    167.4301     28.9288
   619.7000      7.8879      2.5713      0.0976      4.7677    160.4118     29.0680
   619.8000      7.8859      2.5607      0.1136      5.4125    154.7677     29.1544
   619.9000      7.8859      2.5450      0.0906      6.3633    151.3830     29.0906
   620.0000      7.8778      2.5420      0.1637      6.5476    152.7076     28.9721
   620.1000      7.8778      2.5506      0.1457      6.0262    155.9201     28.9748
   620.2000      7.8778      2.5608      0.1294      5.4043    153.9028     29.0237
   620.3000      7.8709      2.5680      0.1403      4.9683    148.0103     29.1961
   620.4000      7.8709      2.5751      0.1133      4.5419    147.8551     29.6559
   620.5000      7.8535      2.5916      0.1307      3.5417    154.7794     30.1563
   620.6000      7.8535      2.6149      0.1195      2.1290    161.7415     30.3426
   620.7000      7.8535      2.6245      0.1680      1.5433    164.2533     30.1546
   620.8000      7.8400      2.6152      0.0868      2.1116    161.1840     29.7098
   620.9000      7.8400      2.6059      0.1118      2.6710    154.9103     29.2801
   621.0000      7.8590      2.5998      0.1573      3.0431    150.2998     29.2116
   621.1000      7.8590      2.5832      0.0677      4.0460    149.8959     29.5602
   621.2000      7.8590      2.5618      0.0158      5.3456    150.9512     29.9287
   621.3000      7.8567      2.5550      0.0144      5.7556    151.0981     29.9154
   621.4000      7.8567      2.5676      0.0721      4.9953    150.5382     29.4938
   621.5000      7.8559      2.5877      0.0796      3.7782    149.2666     28.9186
   621.6000      7.8559      2.6047      0.1159      2.7480    148.0885     28.5312
   621.7000      7.8559      2.6097      0.1605      2.4455    147.8869     28.3790
   621.8000      7.8745      2.5981      0.1394      3.1469    148.7411     28.1584
   621.9000      7.8745      2.5737      0.1156      4.6247    148.6035     27.9783
