~Version Information
VERS.                      2.0: CWLS Log ASCII Standard - VERSION 2.0
WRAP.                       NO: One line per depth step
~Well Information Block
STRT.FT               -19.2500: 
STOP.FT              2421.5000: 
STEP.FT                 0.2500: 
NULL.                -999.2500: 
COMP.          Petrogulf Corporation: COMPANY
WELL.           Montoya 13-41V: WELL
FLD.           Purgatorie River: FIELD
LOC.           449' FNL & 891' FEL: LOCATION
CNTY.               Las Animas: COUNTY
SRVC.                         : SERVICE COMPANY
DATE.          Mon Sep 13 13:48:36 2004: LOG DATE
UWI.                       N/A: UNIQUE WELL ID
STAT.                 Colorado: STATE
~Curve Information Block
DEPT.FT            0 000 00 00: Depth
TT3.usec                      : CBL 3' Travel Time
AMP3.mV                       : CBL 3' Amplitude
GR.GAPI                       : Gamma Ray
CCL.                          : Casing Collar Locator
~Parameter Information Block
~A  Depth       TT3         AMP3         GR         CCL     
# ...
   617.2500    312.0000     83.3817     49.5356      0.0000
   617.5000    312.0000     83.3984     50.2842      0.0000
   617.7500    312.0000     83.4276     51.2595      0.0000
   618.0000    312.0000     83.4508     52.0335      0.0000
   618.2500    312.0000     83.4632     51.8201      0.0000
   618.5000    312.0000     83.4689     50.3864      0.0000
   618.7500    312.0000     83.4653     48.4816      0.0000
   619.0000    312.0000     83.4441     47.1766      0.0000
   619.2500    311.9974     83.3809     46.9264      0.0000
   619.5000    311.9712     83.1270     47.4352      0.0000
   619.7500    311.7915     82.1555     48.3461      0.0000
   620.0000    311.0464     79.4898     49.7862      0.0000
   620.2500    309.2774     74.6180     52.0137      0.0000
   620.5000    307.2961     68.9756     54.6358      0.0000
   620.7500    307.5627     65.0533     56.5307      0.0000
   621.0000    310.9964     63.2954     56.6203      0.0000
   621.2500    315.1237     62.3010     54.5833      0.0000
   621.5000    317.6016     61.6468     50.8839      0.0000
   621.7500    318.5403     61.7737     46.4263      0.0000
   622.0000    318.8473     62.5569     42.2246     -3.3310
   622.2500    318.9559     63.3658     39.0187      3.9078
   622.5000    318.9797     63.6008     36.8621      0.0000
   622.7500    318.9277     62.7533     35.1906      0.0000
   623.0000    318.7073     60.6633     33.5553      0.0000
   623.2500    318.1360     58.8397     32.2720      0.0000
   623.5000    317.0871     60.1634     32.2142      0.0000
   623.7500    315.6389     65.1064     34.0075      0.0000
   624.0000    314.0388     70.8715     37.3988      0.0000
   624.2500    312.6109     75.4076     41.2899      0.0000
   624.5000    311.6435     78.6086     44.4125      0.0000
   624.7500    311.1823     80.7066     46.1241      0.0000
   625.0000    311.0351     81.9271     46.6532      0.0000
   625.2500    311.0045     82.5564     46.7279      0.0000
   625.5000    311.0004     82.8184     47.0366      0.0000
   625.7500    311.0000     82.8857     47.8654      0.0000
   626.0000    311.0000     82.8761     49.0575      0.0000
   626.2500    311.0000     82.8501     50.2263      0.0000
   626.5000    311.0000     82.8312     50.9179      0.0000
   626.7500    311.0000     82.8225     50.6893      0.0000
   627.0000    311.0000     82.8183     49.3481      0.0000
   627.2500    311.0000     82.8126     47.1877      0.0000
   627.5000    311.0000     82.8020     44.8399      0.0000
   627.7500    311.0000     82.7881     42.9688      0.0000
   628.0000    311.0000     82.7754     42.1319      0.0000
   628.2500    311.0000     82.7664     42.5497      0.0000
   628.5000    311.0000     82.7563     43.7050      0.0000
   628.7500    311.0000     82.7262     44.4619      0.0000
   629.0000    311.0000     82.6524     43.9874      0.0000
   629.2500    311.0000     82.5323     42.5691      0.0000
   629.5000    311.0000     82.4000     41.3826      0.0000
   629.7500    311.0000     82.3198     41.5071      0.0000
   630.0000    311.0000     82.3444     43.2348      0.0000
   630.2500    311.0000     82.4453     46.1574      0.0000
   630.5000    311.0000     82.5104     49.5462      0.0000
   630.7500    311.0000     82.4361     52.5360      0.0000
   631.0000    310.9999     82.2096     54.2982      0.0000
   631.2500    310.9989     81.9140     54.4918      0.0000
   631.5000    310.9913     81.6555     53.7107      0.0000
   631.7500    310.9554     81.4704     53.3114      0.0000
   632.0000    310.8471     81.3075     54.5209      0.0000
   632.2500    310.6416     81.1174     57.5942      0.0000
   632.5000    310.4106     80.9372     61.8375      0.0000
   632.7500    310.2994     80.8560     66.4475      0.0000
   633.0000    310.3670     80.9054     71.2750      0.0000
   633.2500    310.4876     80.9973     76.6679      0.0000
   633.5000    310.4800     80.9832     82.5462      0.0000
   633.7500    310.3224     80.7919     87.9044      0.0000
   634.0000    310.1453     80.4928     91.5123      0.0000
   634.2500    310.0436     80.2211     93.0601      0.0000
   634.5000    310.0086     80.0632     93.3414      0.0000
   634.7500    310.0012     80.0121     93.3653      0.0000
   635.0000    310.0012     79.9966     93.5413      0.0000
   635.2500    310.0087     79.9447     93.7040      0.0000
   635.5000    310.0447     79.8501     93.5875      0.0000
   635.7500    310.1541     79.7639     93.0609      0.0000
   636.0000    310.3670     79.7087     91.9899      0.0000
   636.2500    310.6330     79.6301     90.0946      0.0000
   636.5000    310.8459     79.4570     87.2438      0.0000
   636.7500    310.9553     79.2039     84.1575      0.0000
   637.0000    310.9913     78.9675     82.5513      0.0000
   637.2500    310.9989     78.8046     84.0339      0.0000
   637.5000    310.9999     78.6845     88.6309      0.0000
   637.7500    311.0000     78.5544     94.5561      0.0000
   638.0000    311.0000     78.3692     99.6008      0.0000
   638.2500    311.0000     78.0976    102.8102      0.0000
   638.5000    311.0000     77.7571    104.7667      0.0000
   638.7500    311.0000     77.4042    106.4463      0.0000
   639.0000    311.0000     77.0855    108.1280      0.0000
   639.2500    310.9999     76.8118    109.3009      0.0000
   639.5000    310.9989     76.5531    109.1224      0.0000
   639.7500    310.9913     76.2656    106.9063      0.0000
   640.0000    310.9553     75.9382    102.5390      0.0000
   640.2500    310.8459     75.5909     96.6244      0.0000
   640.5000    310.6331     75.2221     90.2303      0.0000
   640.7500    310.3680     74.7947     84.5426      0.0000
   641.0000    310.1617     74.2839     80.6649      0.0000
   641.2500    310.0807     73.6944     79.4388      0.0000
   641.5000    310.1180     73.0298     81.1813      0.0000
   641.7500    310.2141     72.2980     85.5159      0.0000
   642.0000    310.2661     71.5634     91.3728      0.0000
   642.2500    310.2141     70.9379     97.2199      0.0000
   642.5000    310.1180     70.4570    101.5547      0.0000
   642.7500    310.0796     70.0101    103.4201      0.0000
   643.0000    310.1529     69.4573    102.5687      0.0000
   643.2500    310.3233     68.7782     99.3616      0.0000
   643.5000    310.4790     68.0731     94.7622      0.0000
   643.7500    310.4790     67.4523     90.2553      0.0000
   644.0000    310.3234     66.9612     87.2016      0.0000
   644.2500    310.1541     66.6052     85.9114      0.0000
   644.5000    310.0883     66.3697     85.5469      0.0000
   644.7500    310.1627     66.1843     85.1352      0.0000
   645.0000    310.3681     65.9607     84.4479      0.0000
   645.2500    310.6331     65.6753     83.8108      0.0000
   645.5000    310.8459     65.3605     83.4245      0.0000
   645.7500    310.9553     65.0507     83.1810      0.0000
   646.0000    310.9913     64.7787     82.9804      0.0000
   646.2500    310.9989     64.5970     82.9507      0.0000
   646.5000    310.9999     64.5358     83.3352      0.0000
   646.7500    311.0000     64.5330     84.3522      0.0000
   647.0000    311.0000     64.4914     86.2451      0.0000
   647.2500    311.0000     64.3979     89.3129      0.0000
   647.5000    311.0000     64.2869     93.6083      0.0000
   647.7500    311.0000     64.1553     98.5507      0.0000
   648.0000    311.0000     63.9868    103.0800      0.0000
   648.2500    311.0000     63.8042    106.2470      0.0000
   648.5000    311.0000     63.6708    107.6441      0.0000
   648.7500    311.0000     63.6382    107.4769      0.0000
   649.0000    311.0000     63.7141    106.2725      0.0000
   649.2500    311.0000     63.8733    104.3881      0.0000
   649.5000    311.0000     64.0634    101.9654      0.0000
   649.7500    311.0000     64.2079     99.4921      0.0000
   650.0000    311.0000     64.2316     98.0116      0.0000
   650.2500    311.0000     64.1179     98.4374      0.0000
   650.5000    311.0000     63.8952    100.7183      0.0000
