~Version Information
VERS.                      2.0: CWLS Log ASCII Standard - VERSION 2.0
WRAP.                       NO: One line per depth step
~Well Information Block
STRT.FT                -6.0000: 
STOP.FT              2490.5000: 
STEP.FT                 0.2500: 
NULL.                -999.2500: 
COMP.          Pioneer Natural Resources: COMPANY
WELL.          Aztec Federal 41-15: WELL
FLD.           Purgatorie River: FIELD
LOC.           706' FNL & 1253' FEL--: LOCATION
CNTY.               Las Animas: COUNTY
SRVC.          Superior Well Services: SERVICE COMPANY
DATE.          Wed May 28 14-18-16 2008: LOG DATE
UWI.           05 071 08342 00: UNIQUE WELL ID
STAT.                       CO: STATE
~Curve Information Block
DEPT.FT            0 000 00 00: Depth
GR.GAPI                       : Gamma Ray
CCL.                          : Casing Collar Locator
AMP3FT.mV                     : AMP3FT Amplitude
TT3FT.usec                    : 3FT Travel Time
AMP5FT.mV                     : AMP5FT Amplitude
~Parameter Information Block
~A  Depth        GR         CCL        AMP3FT      TT3FT       AMP5FT   
# ...
  2290.0000    105.5286      0.0000      2.5326    642.0000      2.0761
  2290.2500    107.1752      0.0000      2.5381    642.0000      2.0672
  2290.5000    108.5205      0.0000      2.5256    642.0000      2.0539
  2290.7500    108.9223      0.0000      2.5201    642.0000      2.0482
  2291.0000    108.4650      0.0000      2.5342    642.0000      2.0622
  2291.2500    107.7718      0.0000      2.5589    642.0000      2.0925
  2291.5000    107.3904      0.0000      2.5753    642.0000      2.1197
  2291.7500    107.2453      0.0000      2.5709    642.0000      2.1238
  2292.0000    106.8941      0.0000      2.5454    642.0000      2.0998
  2292.2500    106.2573      0.0000      2.5088    642.0000      2.0591
  2292.5000    105.4834      0.0000      2.4740    642.0000      2.0182
  2292.7500    104.2229      0.0000      2.4495    642.0000      1.9883
  2293.0000    101.9152      0.0000      2.4348    642.0000      1.9712
  2293.2500     98.8708      0.0000      2.4259    642.0000      1.9594
  2293.5000     96.2048      0.0000      2.4239    642.0000      1.9434
  2293.7500     94.4633      0.0000      2.4365    642.0000      1.9230
  2294.0000     92.9993      0.0000      2.4697    642.0000      1.9102
  2294.2500     90.9923      0.0000      2.5166    642.0000      1.9169
  2294.5000     88.6368      0.0000      2.5571    642.0000      1.9430
  2294.7500     87.0680      0.0000      2.5704    642.0000      1.9795
  2295.0000     87.3516      0.0000      2.5511    642.0000      2.0209
  2295.2500     89.6688      0.0000      2.5126    642.0000      2.0668
  2295.5000     93.3617      0.0000      2.4776    642.0000      2.1146
  2295.7500     97.4548      0.0000      2.4643    642.0000      2.1539
  2296.0000    100.9222      0.0000      2.4803    642.0000      2.1753
  2296.2500    102.9291      0.0000      2.5252    642.0000      2.1815
  2296.5000    103.5387      0.0000      2.5952    642.0000      2.1873
  2296.7500    104.1112      0.0000      2.6835    642.0000      2.2036
  2297.0000    106.4056      0.0000      2.7776    642.0000      2.2225
  2297.2500    111.0707      0.0000      2.8611    642.0000      2.2216
  2297.5000    116.9911      0.0000      2.9185    642.0000      2.1849
  2297.7500    121.8835      0.0000      2.9410    642.0000      2.1194
  2298.0000    123.6301      0.0000      2.9301    642.0000      2.0495
  2298.2500    121.5261      0.0000      2.9004    642.0000      1.9975
  2298.5000    116.5623      0.0000      2.8740    642.0000      1.9685
  2298.7500    110.6189      0.0000      2.8655    642.0000      1.9521
  2299.0000    105.3476      0.0000      2.8717    642.0000      1.9363
  2299.2500    101.4330      0.0000      2.8779    642.0000      1.9188
  2299.5000     98.5320      0.0000      2.8714    642.0000      1.9076
  2299.7500     95.8616      0.0000      2.8460    642.0000      1.9093
  2300.0000     92.8722      0.0000      2.7967    642.0000      1.9194
  2300.2500     89.4075      0.0000      2.7199    641.9888      1.9246
  2300.5000     85.6675      0.0000      2.6209    641.9161      1.9174
  2300.7500     82.3435      0.0000      2.5172    641.5461      1.9055
  2301.0000     80.5017      0.0000      2.4291    640.0825      1.9059
  2301.2500     80.8309      0.0000      2.3666    635.5703      1.9271
  2301.5000     82.9481      0.0000      2.3275    624.7421      1.9625
  2301.7500     85.5696      0.0000      2.3051    604.5176      1.9999
  2302.0000     87.3616      0.0000      2.2962    575.2479      2.0369
  2302.2500     87.7365      0.0000      2.3012    542.9468      2.0796
  2302.5000     87.1262      0.0000      2.3175    517.4617      2.1291
  2302.7500     86.4107      0.0000      2.3363    507.5748      2.1742
  2303.0000     85.8369      0.0000      2.3450    516.8378      2.2002
  2303.2500     84.6934      0.0000      2.3365    542.0402      2.2019
  2303.5000     82.2568      0.0000      2.3167    574.4496      2.1865
  2303.7500     78.7287      0.0000      2.3011    604.0133      2.1632
  2304.0000     74.9334      0.0000      2.3035    624.5012      2.1360
  2304.2500     71.3724      0.0000      2.3252    635.4813      2.1059
  2304.5000     67.9890      0.0000      2.3548    640.0568      2.0749
  2304.7500     64.7965      0.0000      2.3768    641.5403      2.0431
  2305.0000     62.3326      0.0000      2.3865    641.9150      2.0061
  2305.2500     61.3850      0.0000      2.3950    641.9887      1.9623
  2305.5000     62.6598      0.0000      2.4182    642.0000      1.9191
  2305.7500     66.6931      0.0000      2.4549    642.0000      1.8847
  2306.0000     73.4268      0.0000      2.4838    642.0000      1.8589
  2306.2500     81.5603      0.0000      2.4829    641.9889      1.8359
  2306.5000     88.7837      0.0000      2.4521    641.9159      1.8152
  2306.7500     93.1094     -1.1816      2.4123    641.5443      1.8024
  2307.0000     94.0970      0.0000      2.3849    640.0705      1.8025
  2307.2500     92.8062      1.1548      2.3749    635.5139      1.8176
  2307.5000     90.6064      0.0000      2.3718    624.5244      1.8479
  2307.7500     88.1663      0.0000      2.3636    603.8425      1.8932
  2308.0000     85.7041      0.0000      2.3478    573.4490      1.9485
  2308.2500     83.8106      0.0000      2.3336    538.6508      2.0010
  2308.5000     83.2770      0.0000      2.3348    508.1364      2.0351
  2308.7500     83.9965      0.0000      2.3621    489.4481      2.0433
  2309.0000     84.7674      0.0000      2.4212    486.0397      2.0329
  2309.2500     84.5405      0.0000      2.5096    496.4805      2.0192
  2309.5000     83.3688      0.0000      2.6112    513.7693      2.0106
  2309.7500     81.9367      0.0000      2.6976    526.5327      2.0039
  2310.0000     80.7372      0.0000      2.7441    525.3445      1.9921
  2310.2500     79.8696      0.0000      2.7476    510.0071      1.9756
  2310.5000     79.1664      0.0000      2.7280    489.3335      1.9642
  2310.7500     78.3971      0.0000      2.7109    473.5891      1.9725
  2311.0000     77.5853      0.0000      2.7080    468.7192      2.0105
  2311.2500     77.0867      0.0000      2.7152    476.8662      2.0739
  2311.5000     77.2615      0.0000      2.7230    498.4484      2.1433
  2311.7500     78.2507      0.0000      2.7236    531.1421      2.1957
  2312.0000     80.1426      0.0000      2.7134    568.1984      2.2168
  2312.2500     83.0866      0.0000      2.6913    600.7601      2.2049
  2312.5000     87.0331      0.0000      2.6568    623.0546      2.1674
  2312.7500     91.3768      0.0000      2.6099    634.9517      2.1189
  2313.0000     94.8799      0.0000      2.5537    639.8997      2.0747
  2313.2500     96.0810      0.0000      2.4935    641.5033      2.0413
  2313.5000     94.1212      0.0000      2.4289    641.9082      2.0130
  2313.7500     89.3982      0.0000      2.3533    641.9879      1.9810
  2314.0000     83.3676      0.0000      2.2646    642.0000      1.9433
  2314.2500     77.6297      0.0000      2.1747    642.0000      1.9055
  2314.5000     73.1253      0.0000      2.1033    642.0000      1.8749
  2314.7500     69.8913      0.0000      2.0642    642.0000      1.8567
  2315.0000     67.2138      0.0000      2.0586    642.0000      1.8506
  2315.2500     64.2306      0.0000      2.0775    642.0000      1.8480
  2315.5000     60.9503      0.0000      2.1081    642.0000      1.8376
  2315.7500     58.7148      0.0000      2.1402    642.0000      1.8179
  2316.0000     59.2655      0.0000      2.1709    642.0000      1.8005
  2316.2500     63.3324      0.0000      2.2043    642.0000      1.7966
  2316.5000     70.2311      0.0000      2.2485    642.0000      1.8025
  2316.7500     78.4097      0.0000      2.3096    642.0000      1.8054
  2317.0000     86.2517      0.0000      2.3856    642.0000      1.7987
  2317.2500     92.9032      0.0000      2.4656    642.0000      1.7872
  2317.5000     98.5192      0.0000      2.5362    642.0000      1.7769
  2317.7500    103.2628      0.0000      2.5875    642.0000      1.7678
