~Version Information
 VERS.                                  2.0 : CWLS LAS VERSION
 WRAP.                                   NO : WRAPING MODE
 SWARE .                 MController 2.5.0J : SOFTWARE VERSION
~Well Information
 WELL.                         Squeal 11-26 : WELL
 COMP.    Pioneer Natural Resources USA Inc : COMPANY
 FLD.                      Purgatoire River : FIELD
 LOC.                NW/NW Sec 26 T32S R67W : LOCATION
 DATE.                         6/13-14/2005 : DATE(S) LOGGED
 SRVC.       Blanco Geological Services LLC : SERVICE COMPANY
 STAT.                                   CO : STATE
 CNTY.                           Las Animas : COUNTY
 CTRY.                                  USA : COUNTRY
 API.                       05-071-08404-00 : API NUMBER
 STRT.FT                             285.00 : START DEPTH
 STOP.FT                            2760.00 : STOP DEPTH
 STEP.FT                               1.00 : DEPTH INCREMENT
 NULL.                                -9999 : NULL VALUE
~Curve information
 DEPTH.FT                                   :
 ROP.MIN/FT                                 :
 GAS.UNITS                                  :
~ASCII Log data
# ...
      1085.0         0.33         12.7 
      1086.0         0.37         14.7 
      1087.0         0.13         15.7 
      1088.0         0.13         17.1 
      1089.0         0.10         17.8 
      1090.0         0.13         19.2 
      1091.0         0.27         19.5 
      1092.0         0.57         18.3 
      1093.0         0.58         14.9 
      1094.0         0.57         13.0 
      1095.0         0.57         13.3 
      1096.0         0.27         12.9 
      1097.0         0.17         13.2 
      1098.0         0.13         13.3 
      1099.0         0.33         13.3 
      1100.0         0.47         13.2 
      1101.0         0.48         13.1 
      1102.0         0.40         13.0 
      1103.0         0.43         12.9 
      1104.0         0.33         13.1 
      1105.0         0.37         13.0 
      1106.0         0.37         13.1 
      1107.0         0.33         13.5 
      1108.0         0.50         13.1 
      1109.0         0.33         13.0 
      1110.0        11.63         48.0 
      1111.0         0.57         24.2 
      1112.0         0.53         12.9 
      1113.0         0.53         12.1 
      1114.0         0.48         12.2 
      1115.0         0.37         12.2 
      1116.0         0.40         12.4 
      1117.0         0.53         12.1 
      1118.0         0.93         12.9 
      1119.0         0.80         12.7 
      1120.0         0.78         12.9 
      1121.0         0.53         13.1 
      1122.0         0.43         12.3 
      1123.0         0.60         12.3 
      1124.0         0.33         12.6 
      1125.0         0.30         12.4 
      1126.0         0.53         12.7 
      1127.0         0.52         12.4 
      1128.0         0.37         12.8 
      1129.0         0.27         12.5 
      1130.0         0.33         12.9 
      1131.0         1.13         12.9 
      1132.0         1.32         13.0 
      1133.0         0.63         12.9 
      1134.0         0.90         13.0 
      1135.0         0.70         13.3 
      1136.0         0.47         12.7 
      1137.0         0.42         12.8 
      1138.0         0.53         12.6 
      1139.0         0.70         12.7 
      1140.0         8.78         39.1 
      1141.0         0.27         18.3 
      1142.0         0.27         18.4 
      1143.0         0.37         17.2 
      1144.0         0.53         14.8 
      1145.0         0.50         12.9 
      1146.0         0.63         12.9 
      1147.0         0.68         13.1 
      1148.0         0.60         13.3 
      1149.0         0.67         13.1 
      1150.0         0.40         12.9 
      1151.0         0.30         13.5 
      1152.0         0.17         13.5 
      1153.0         0.27         13.5 
      1154.0         0.30         13.6 
      1155.0         0.52         13.6 
      1156.0         0.33         13.4 
      1157.0         0.37         13.0 
      1158.0         0.30         12.8 
      1159.0         0.50         12.9 
      1160.0         0.43         13.1 
      1161.0         0.27         13.0 
      1162.0         0.57         13.2 
      1163.0         0.43         13.0 
      1164.0         0.28         12.7 
      1165.0         0.30         13.0 
      1166.0         0.30         12.8 
      1167.0         0.37         12.9 
      1168.0         0.37         12.8 
      1169.0         0.43         12.8 
      1170.0         9.42         27.3 
      1171.0         0.40         13.1 
      1172.0         0.57         12.7 
      1173.0         0.40         12.7 
      1174.0         0.27         13.2 
      1175.0         0.28         13.6 
      1176.0         0.33         13.8 
      1177.0         0.43         13.8 
      1178.0         0.47         13.0 
      1179.0         0.53         12.5 
      1180.0         0.50         12.5 
      1181.0         0.23         15.9 
      1182.0         0.07         17.0 
      1183.0         0.10         19.0 
      1184.0         0.23         22.6 
      1185.0         0.27         23.0 
      1186.0         0.25         20.6 
      1187.0         0.23         18.1 
      1188.0         0.17         16.3 
      1189.0         0.13         15.1 
      1190.0         0.13         16.3 
      1191.0         0.10         19.5 
      1192.0         0.07         21.9 
      1193.0         0.10         25.8 
      1194.0         0.13         30.6 
      1195.0         0.10         34.3 
      1196.0         0.10         37.8 
      1197.0         0.10         42.2 
      1198.0         0.13         47.5 
      1199.0         0.10         51.0 
      1200.0         6.80         56.8 
      1201.0         0.83         15.2 
      1202.0         0.47         12.1 
      1203.0         0.52         12.3 
      1204.0         0.33         12.0 
      1205.0         0.33         12.1 
      1206.0         0.47         11.8 
      1207.0         0.20         12.1 
      1208.0         0.13         11.8 
      1209.0         0.23         12.7 
      1210.0         0.27         13.9 
      1211.0         0.33         13.8 
      1212.0         0.20         13.8 
      1213.0         0.20         13.1 
      1214.0         0.20         13.8 
      1215.0         0.25         15.0 
      1216.0         0.43         15.2 
      1217.0         0.60         14.7 
      1218.0         0.37         13.6 
      1219.0         0.60         13.5 
      1220.0         0.87         12.5 
      1221.0         0.68         12.6 
      1222.0         0.73         12.6 
      1223.0         0.57         12.9 
      1224.0         0.53         12.8 
      1225.0         0.47         13.0 
      1226.0         0.37         12.7 
      1227.0         0.27         12.6 
      1228.0         0.38         12.5 
      1229.0         0.60         12.5 
      1230.0        13.17         47.8 
      1231.0         0.90         11.8 
      1232.0         0.53         12.3 
      1233.0         0.43         13.7 
      1234.0         0.43         14.7 
      1235.0         0.33         13.7 
      1236.0         0.35         12.8 
      1237.0         0.37         12.1 
      1238.0         0.40         12.0 
      1239.0         0.43         11.8 
      1240.0         0.33         11.6 
      1241.0         0.37         12.3 
      1242.0         0.23         11.9 
      1243.0         0.20         12.2 
      1244.0         0.23         12.5 
      1245.0         0.30         12.9 
      1246.0         0.62         13.3 
      1247.0         1.20         12.3 
      1248.0         1.23         12.2 
      1249.0         0.62         12.7 
      1250.0         0.17         13.0 
      1251.0         0.13         13.6 
      1252.0         0.10         14.3 
      1253.0         0.13         15.0 
      1254.0         0.13         15.6 
      1255.0         0.20         16.4 
      1256.0         0.27         16.0 
      1257.0         0.23         15.5 
      1258.0         0.27         15.2 
      1259.0         0.47         15.0 
      1260.0         9.18         57.5 
      1261.0         0.40         11.3 
      1262.0         0.33         11.3 
      1263.0         0.33         12.3 
      1264.0         0.30         14.8 
      1265.0         0.27         17.1 
      1266.0         0.23         17.5 
      1267.0         0.28         16.8 
      1268.0         0.33         15.6 
      1269.0         0.27         14.2 
      1270.0         0.47         13.4 
      1271.0         0.50         12.8 
      1272.0         0.33         12.5 
      1273.0         0.77         12.5 
      1274.0         0.62         12.5 
      1275.0         0.83         12.2 
      1276.0         0.63         13.9 
      1277.0         0.67         15.2 
      1278.0         0.53         17.1 
      1279.0         0.37         19.8 
      1280.0         0.38         21.9 
      1281.0         0.33         21.9 
      1282.0         0.37         20.6 
      1283.0         0.37         17.8 
      1284.0         0.40         14.5 
