~Version Information
 VERS.                                  2.0 : CWLS LAS VERSION
 WRAP.                                   NO : WRAPING MODE
 SWARE .                 MController 2.5.0E : SOFTWARE VERSION
~Well Information
 WELL.                      Latiluppe 8-13R : WELL
 COMP.                Petrogulf Corporation : COMPANY
 FLD.                      Purgatorie River : FIELD
 LOC.                 NW/SW Sec 8 T33S R67W : LOCATION
 DATE.                              4/20/04 : DATE(S) LOGGED
 SRVC.       Blanco Geological Services LLC : SERVICE COMPANY
 STAT.                                   CO : STATE
 CNTY.                           Las Animas : COUNTY
 CTRY.                                  USA : COUNTRY
 API.                       05-071-08035-00 : API NUMBER
 STRT.FT                            1036.00 : START DEPTH
 STOP.FT                            2246.00 : STOP DEPTH
 STEP.FT                               1.00 : DEPTH INCREMENT
 NULL.                                -9999 : NULL VALUE
~Curve information
 DEPTH.FT                                   :
 ROP.MIN/FT                                 :
 GAS.UNITS                                  :
~ASCII Log data
# ...
     1636.00        0.233          6.3 
     1637.00        0.267          6.1 
     1638.00        0.233          6.1 
     1639.00        0.267          6.8 
     1640.00        0.283          6.7 
     1641.00        0.267          6.7 
     1642.00        0.267          7.0 
     1643.00        0.233          7.8 
     1644.00        0.300          8.9 
     1645.00        4.650         34.1 
     1646.00        0.433          9.2 
     1647.00        0.333          9.4 
     1648.00        0.383          9.5 
     1649.00        0.300          8.3 
     1650.00        0.267          6.7 
     1651.00        0.400          5.9 
     1652.00        0.400          4.5 
     1653.00        0.333          4.2 
     1654.00        0.300          4.0 
     1655.00        0.300          3.9 
     1656.00        0.333          3.9 
     1657.00        0.300          4.5 
     1658.00        0.350          4.8 
     1659.00        0.333          4.9 
     1660.00        0.300          5.2 
     1661.00        0.267          5.1 
     1662.00        0.267          5.3 
     1663.00        0.300          5.4 
     1664.00        0.233          5.6 
     1665.00        0.233          5.6 
     1666.00        0.267          5.4 
     1667.00        0.233          5.6 
     1668.00        0.233          5.7 
     1669.00        0.300          5.8 
     1670.00        0.250          5.6 
     1671.00        0.267          5.5 
     1672.00        0.233          5.0 
     1673.00        0.233          4.3 
     1674.00        0.233          4.8 
     1675.00        3.050          5.0 
     1676.00        0.800          2.7 
     1677.00        0.533          2.4 
     1678.00        0.400          2.0 
     1679.00        0.300          2.4 
     1680.00        0.267          2.0 
     1681.00        0.233          2.3 
     1682.00        0.483          2.1 
     1683.00        0.500          2.2 
     1684.00        0.300          1.6 
     1685.00        0.233          1.6 
     1686.00        0.267          1.9 
     1687.00        0.267          2.0 
     1688.00        0.233          1.9 
     1689.00        0.200          1.6 
     1690.00        0.233          1.7 
     1691.00        0.233          1.8 
     1692.00        0.200          2.3 
     1693.00        0.250          2.2 
     1694.00        0.267          2.0 
     1695.00        0.267          2.1 
     1696.00        0.200          1.6 
     1697.00        0.433          2.0 
     1698.00        0.267          2.0 
     1699.00        0.300          2.0 
     1700.00        0.267          1.8 
     1701.00        0.267          1.7 
     1702.00        0.300          1.9 
     1703.00        0.267          2.0 
     1704.00        0.300          2.0 
     1705.00        2.983          2.2 
     1706.00        0.683          1.8 
     1707.00        0.367          2.0 
     1708.00        0.200          1.9 
     1709.00        0.233          1.5 
     1710.00        0.300          1.6 
     1711.00        0.267          1.8 
     1712.00        0.267          1.6 
     1713.00        0.300          1.4 
     1714.00        0.333          1.7 
     1715.00        0.267          1.5 
     1716.00        0.233          1.5 
     1717.00        0.133          1.3 
     1718.00        0.267          1.4 
     1719.00        0.317          1.2 
     1720.00        0.233          1.6 
     1721.00        0.300          1.7 
     1722.00        0.267          1.4 
     1723.00        0.267          1.7 
     1724.00        0.300          1.2 
     1725.00        0.300          1.4 
     1726.00        0.267          1.4 
     1727.00        0.300          1.5 
     1728.00        0.267          1.3 
     1729.00        0.233          1.7 
     1730.00        0.300          1.4 
     1731.00        0.283          1.6 
     1732.00        0.267          1.6 
     1733.00        0.300          1.5 
     1734.00        0.267          1.7 
     1735.00        2.783          1.8 
     1736.00        0.633          1.3 
     1737.00        0.533          1.3 
     1738.00        0.367          1.1 
     1739.00        0.300          0.9 
     1740.00        0.367          1.3 
     1741.00        0.300          1.1 
     1742.00        0.383          1.2 
     1743.00        0.300          1.0 
     1744.00        0.367          1.1 
     1745.00        0.300          0.8 
     1746.00        0.333          0.8 
     1747.00        0.300          1.1 
     1748.00        0.267          1.2 
     1749.00        0.267          0.9 
     1750.00        0.233          1.3 
     1751.00        0.267          1.0 
     1752.00        0.300          1.1 
     1753.00        0.200          1.1 
     1754.00        0.283          1.1 
     1755.00        0.233          1.3 
     1756.00        0.433          1.4 
     1757.00        0.367          1.1 
     1758.00        0.233          1.3 
     1759.00        0.233          1.2 
     1760.00        0.300          1.5 
     1761.00        0.233          1.7 
     1762.00        0.267          1.3 
     1763.00        0.267          1.4 
     1764.00        0.267          1.4 
     1765.00        2.983          2.3 
     1766.00        0.300          1.4 
     1767.00        0.233          1.0 
     1768.00        0.283          1.1 
     1769.00        0.333          1.0 
     1770.00        0.433          1.5 
     1771.00        0.267          1.4 
     1772.00        0.233          1.2 
     1773.00        0.233          1.0 
     1774.00        0.233          0.7 
     1775.00        0.233          1.2 
     1776.00        0.200          0.8 
     1777.00        0.300          0.9 
     1778.00        0.300          0.7 
     1779.00        0.300          1.2 
     1780.00        0.283          0.6 
     1781.00        0.267          1.3 
     1782.00        0.200          1.0 
     1783.00        0.233          1.1 
     1784.00        0.200          1.0 
     1785.00        0.200          1.0 
     1786.00        0.200          1.0 
     1787.00        0.233          1.0 
     1788.00        0.233          1.1 
     1789.00        0.300          1.2 
     1790.00        0.200          1.1 
     1791.00        0.233          1.4 
     1792.00        0.200          1.4 
     1793.00        0.200          1.3 
     1794.00        0.233          1.1 
     1795.00        2.883          1.4 
     1796.00        0.333          1.0 
     1797.00        0.350          1.0 
     1798.00        0.400          1.1 
     1799.00        0.300          1.0 
     1800.00        0.233          1.2 
     1801.00        0.367          1.0 
     1802.00        0.533          1.2 
     1803.00        0.233          1.1 
     1804.00        0.267          1.2 
     1805.00        0.267          1.3 
     1806.00        0.233          1.1 
     1807.00        0.333          1.1 
     1808.00        0.483          1.1 
     1809.00        0.233          1.1 
     1810.00        0.267          1.0 
     1811.00        0.333          1.0 
     1812.00        0.400          0.9 
     1813.00        0.333          1.0 
     1814.00        0.367          1.1 
     1815.00        0.233          0.9 
     1816.00        0.267          0.9 
     1817.00        0.267          1.1 
     1818.00        0.267          1.0 
     1819.00        0.283          0.8 
     1820.00        0.267          1.1 
     1821.00        0.233          1.5 
     1822.00        0.233          1.2 
     1823.00        0.267          1.5 
     1824.00        0.267          1.6 
     1825.00        2.850          2.1 
     1826.00        0.500          1.6 
     1827.00        0.300          2.0 
     1828.00        0.233          1.2 
     1829.00        0.267          1.2 
     1830.00        0.267          1.1 
     1831.00        0.300          1.2 
     1832.00        0.367          1.4 
     1833.00        0.417          1.1 
     1834.00        0.367          1.1 
     1835.00        0.300          0.9 
