~Version Information
VERS.                      2.0: CWLS Log ASCII Standard - VERSION 2.0
WRAP.                       NO: One line per depth step
~Well Information Block
STRT.FT                -7.0000: 
STOP.FT              1329.7500: 
STEP.FT                 0.2500: 
NULL.                -999.2500: 
COMP.          Pioneer Natural Resources: COMPANY
WELL.             Raptor 44-26: WELL
FLD.           Purgatorie River: FIELD
LOC.           180' FSL & 812' FEL--: LOCATION
PROV.                       CO: PROVINCE
CNTY.               Las Animas: COUNTRY
SRVC.          Patterson Wireline: SERVICE COMPANY
DATE.          Wed Mar 30 12:38:23 2005: LOG DATE
UWI.           05 071 08187 00: UNIQUE WELL ID
~Curve Information Block
DEPT.FT            0 000 00 00: Depth
CCL.                          : Casing Collar Locator
TT3.usec                      : CBL 3' Travel Time
AMP3.mV                       : CBL 3' Amplitude
GR.GAPI                       : Gamma Ray
~Parameter Information Block
MINATTN.db/ft           0.8000: Minimum Attenuation
~A  Depth       CCL         TT3         AMP3         GR     
# ...
   261.0000      0.0000    876.3212      5.6217    100.6645
   261.2500      0.0000    873.9443      5.6661    105.3356
   261.5000      0.0000    869.4166      5.7461    107.7701
   261.7500      0.0000    862.8374      5.8395    108.4240
   262.0000      0.0000    855.5876      5.9253    108.5057
   262.2500      0.0000    849.5278      5.9918    108.8907
   262.5000      0.0000    845.7367      6.0331    109.5390
   262.7500      0.0000    843.9933      6.0434    110.0599
   263.0000      0.0000    843.3983      6.0166    110.4727
   263.2500      0.0000    843.2484      5.9520    111.1083
   263.5000      0.0000    843.3272      5.8607    111.9708
   263.7500      0.0000    843.6406      5.7636    112.6223
   264.0000      0.0000    844.1051      5.6782    112.7481
   264.2500      0.0000    844.4927      5.6104    112.5272
   264.5000      0.0000    844.5675      5.5556    112.2836
   264.7500      0.0000    844.2375      5.5037    112.1030
   265.0000      0.0000    843.6015      5.4451    112.2065
   265.2500      0.0000    842.8881      5.3785    113.3840
   265.5000      0.0000    842.3466      5.3125    116.2799
   265.7500      0.0000    842.1533      5.2590    120.0407
   266.0000      0.0000    842.3574      5.2249    122.2575
   266.2500      0.0000    842.8748      5.2133    120.8398
   266.5000      0.0000    843.5432      5.2258    116.0180
   266.7500      0.0000    844.2161      5.2631    110.3781
   267.0000      0.0000    844.8256      5.3237    107.1390
   267.2500      0.0000    845.3686      5.4034    108.5227
   267.5000      0.0000    845.8459      5.4927    114.9354
   267.7500      0.0000    846.2231      5.5780    124.5518
   268.0000      0.0000    846.4539      5.6505    133.7028
   268.2500      0.0000    846.5380      5.7136    138.8581
   268.5000      0.0000    846.5424      5.7803    139.1431
   268.7500      0.0000    846.5619      5.8630    136.8853
   269.0000      0.0000    846.6534      5.9670    135.3838
   269.2500      0.0000    846.8010      6.0873    136.0376
   269.5000      0.0000    846.9383      6.2103    137.7103
   269.7500      0.0000    847.0159      6.3201    138.6274
   270.0000      0.0000    847.0441      6.4050    138.4152
   270.2500      0.0000    847.0595      6.4590    138.0983
   270.5000      0.0000    847.0638      6.4819    138.4603
   270.7500      0.0000    847.0233      6.4808    139.0338
   271.0000      0.0000    846.9224      6.4698    138.9823
   271.2500      0.0000    846.7913      6.4644    138.5356
   271.5000      0.0000    846.6810      6.4741    138.9035
   271.7500      0.0000    846.6316      6.5002    140.7858
   272.0000      0.0000    846.6674      6.5341    143.3576
   272.2500      0.0000    846.7960      6.5618    144.6913
   272.5000      0.0000    846.9920      6.5735    143.1229
   272.7500      0.0000    847.1810      6.5697    138.4864
   273.0000      0.0000    847.2565      6.5553    132.2182
   273.2500      0.0000    847.1325      6.5313    126.1865
   273.5000      0.0000    846.7982      6.4981    121.4445
   273.7500      0.0000    846.3322      6.4600    118.0638
   274.0000      0.0000    845.8583      6.4231    115.8503
   274.2500      0.0000    845.4802      6.3913    114.7870
   274.5000      0.0000    845.2468      6.3656    114.6878
   274.7500      0.0000    845.1685      6.3452    114.6971
   275.0000      0.0000    845.2494      6.3270    113.5655
   275.2500      0.0000    845.4896      6.3044    110.7561
   275.5000      0.0000    845.8578      6.2631    107.2181
   275.7500      0.0000    846.2839      6.1820    104.6705
   276.0000      0.0000    846.7083      6.0473    104.1096
   276.2500      0.0000    847.1161      5.8643    105.2851
   276.5000      0.0000    847.6341      5.6536    107.3133
   276.7500      0.0000    848.7745      5.4422    109.1950
   277.0000      0.0000    851.8425      5.2610    110.0730
   277.2500      0.0000    858.8544      5.1315    109.8056
   277.5000      0.0000    871.3607      5.0525    109.2680
   277.7500      0.0000    889.0438      5.0150    109.4414
   278.0000      0.0000    909.8414      5.0194    110.1975
   278.2500      0.0000    931.5214      5.0586    110.5564
   278.5000      0.0000    952.8032      5.0985    110.2827
   278.7500      2.0000    973.7721      5.1021    110.6405
   279.0000      2.0000    995.7701      5.0655    113.1279
   279.2500      0.0000   1019.0592      5.0301    117.7354
   279.5000      0.0000   1039.0018      5.0674    122.8721
   279.7500      0.0000   1046.1033      5.2432    126.8996
   280.0000      0.0000   1032.3108      5.5611    129.3611
   280.2500      0.0000    998.3434      5.9433    130.6280
   280.5000      0.0000    954.9400      6.2960    130.8061
   280.7500      0.0000    916.4329      6.5861    129.4412
   281.0000      0.0000    892.0543      6.8361    126.1469
   281.2500      0.0000    881.9637      7.0657    121.1224
   281.5000      0.0000    880.0992      7.2701    114.9976
   281.7500      0.0000    879.6022      7.4397    108.3970
   282.0000      0.0000    876.2587      7.5737    101.8994
   282.2500      0.0000    869.5493      7.6764     96.3869
   282.5000      0.0000    862.4401      7.7559     93.0759
   282.7500      0.0000    859.3802      7.8307     92.8072
   283.0000      0.0000    862.5845      7.9218     95.3455
   283.2500      0.0000    870.0589      8.0294     99.6545
   283.5000      0.0000    877.7462      8.1168    104.8663
   283.7500      0.0000    883.0192      8.1338    110.7572
   284.0000      0.0000    885.7057      8.0672    117.2813
   284.2500      0.0000    886.8143      7.9601    123.7280
   284.5000      0.0000    887.2557      7.8713    128.5501
   284.7500      0.0000    887.4703      7.8172    130.6409
   285.0000      0.0000    887.5076      7.7625    130.9478
   285.2500      0.0000    887.0961      7.6665    132.1187
   285.5000      0.0000    885.6169      7.5287    136.1451
   285.7500      0.0000    881.9191      7.3883    142.5267
   286.0000      0.0000    874.4011      7.2899    148.6099
   286.2500      0.0000    862.1772      7.2517    151.6564
   286.5000      0.0000    847.0195      7.2595    151.1633
   286.7500      0.0000    833.5709      7.2838    149.3717
   287.0000      0.0000    826.0929      7.3027    149.1763
   287.2500      0.0000    824.7617      7.3105    151.5753
   287.5000      0.0000    826.1072      7.3099    155.4248
   287.7500      0.0000    827.1204      7.3008    159.1680
   288.0000      0.0000    827.9652      7.2780    162.1254
   288.2500      0.0000    830.6654      7.2338    164.2543
   288.5000      0.0000    836.0714      7.1680    165.3264
   288.7500      0.0000    842.6388      7.0970    164.5259
   289.0000      0.0000    847.9825      7.0499    160.6622
   289.2500      0.0000    851.0749      7.0474    153.0167
   289.5000      0.0000    852.3876      7.0866    142.3651
   289.7500      0.0000    852.1149      7.1533    130.8106
   290.0000      0.0000    849.4571      7.2471    120.1468
   290.2500      0.0000    844.0950      7.3824    110.6863
   290.5000      0.0000    837.2784      7.5617    102.0634
   290.7500      0.0000    830.6380      7.7559     94.7100
   291.0000      0.0000    824.4604      7.9157     89.8223
   291.2500      0.0000    817.7903      8.0077     87.9120
   291.5000      0.0000    810.0563      8.0400     87.9431
   291.7500      0.0000    802.2664      8.0514     88.0417
   292.0000      0.0000    796.4523      8.0731     86.8982
   292.2500      0.0000    793.9589      8.1062     84.5752
   292.5000      0.0000    794.3271      8.1419     82.2573
   292.7500      0.0000    795.8901      8.1910     81.2570
   293.0000      0.0000    797.2822      8.2752     82.0814
   293.2500      0.0000    798.2363      8.3903     84.2390
   293.5000      0.0000    799.2368      8.5024     86.7920
   293.7500      0.0000    800.8407      8.5822     89.0523
   294.0000      0.0000    803.0093      8.6230     90.9305
   294.2500      0.0000    804.6290      8.6215     92.7840
