~Version Information
VERS.                      2.0: CWLS Log ASCII Standard - VERSION 2.0
WRAP.                       NO: One line per depth step
~Well Information Block
STRT.FT                -5.2500: 
STOP.FT               769.5000: 
STEP.FT                 0.2500: 
NULL.                -999.2500: 
COMP.          Pioneer Natural Resources: COMPANY
WELL.          HG Duran 34-27 Tr: WELL
FLD.           Purgatorie River: FIELD
LOC.           1076' FSL & 1465' FEL: LOCATION
PROV.                 Colorado: PROVINCE
CNTY.               Las Animas: COUNTRY
SRVC.          Patterson Wireline: SERVICE COMPANY
DATE.          Mon Apr 18 09:19:17 2005: LOG DATE
UWI.           05-071-08218-00: UNIQUE WELL ID
~Curve Information Block
DEPT.FT            0 000 00 00: Depth
CCL.                          : Casing Collar Locator
TT3.usec                      : CBL 3' Travel Time
AMP3.mV                       : CBL 3' Amplitude
GR.GAPI                       : Gamma Ray
~Parameter Information Block
~A  Depth       CCL         TT3         AMP3         GR     
# ...
   530.7500      0.0000   1067.0537      7.2364     44.8241
   531.0000      0.0000   1037.3862      8.1281     47.8719
   531.2500      0.0000    988.4080      8.9422     50.8825
   531.5000      0.0000    933.4494      9.4264     53.0369
   531.7500      0.0000    886.1678      9.5281     54.8081
   532.0000      0.0000    853.6516      9.3428     56.9749
   532.2500      0.0000    836.0472      8.9906     59.2641
   532.5000      0.0000    829.3974      8.6016     60.5030
   532.7500      0.0000    828.6918      8.3131     60.0361
   533.0000      0.0000    830.0032      8.2085     58.5040
   533.2500      0.0000    831.3288      8.2894     57.0880
   533.5000      0.0000    832.1123      8.5120     56.2877
   533.7500      0.0000    832.4027      8.8129     55.6852
   534.0000      0.0000    832.2216      9.1116     54.8615
   534.2500      0.0000    831.4689      9.3380     54.4090
   534.5000      0.0000    830.0600      9.4759     56.0073
   534.7500      0.0000    827.8961      9.5594     61.4255
   535.0000      0.0000    824.5958      9.6206     71.2487
   535.2500      0.0000    819.6452      9.6577     84.4961
   535.5000      0.0000    813.3705      9.6554     99.4384
   535.7500      0.0000    807.5915      9.6229    114.3867
   536.0000      0.0000    804.7224      9.6107    127.3941
   536.2500      0.0000    806.0909      9.6930    135.9721
   536.5000      0.0000    811.1188      9.9132    138.3842
   536.7500      0.0000    817.8429     10.2290    135.3629
   537.0000      0.0000    824.2268     10.5247    129.7861
   537.2500      0.0000    829.4314     10.6976    124.3149
   537.5000      0.0000    834.1389     10.7324    119.6003
   537.7500      0.0000    839.5703     10.6866    114.6335
   538.0000      0.0000    845.8768     10.6130    108.0944
   538.2500      0.0000    851.3721     10.5083     99.2360
   538.5000      0.0000    853.5684     10.3367     88.3753
   538.7500      0.0000    851.2841     10.0914     77.1178
   539.0000      0.0000    845.7496      9.8310     67.6879
   539.2500      0.0000    839.5997      9.6497     61.4339
   539.5000      0.0000    834.9160      9.6014     57.9272
   539.7500      0.0000    832.2449      9.6563     55.6700
   540.0000      0.0000    831.0452      9.7407     53.5762
   540.2500      0.0000    830.5822      9.8152     51.6478
   540.5000      0.0000    830.3990      9.8936     50.4391
   540.7500      0.0000    830.3208      9.9874     50.2854
   541.0000      0.0000    830.3065     10.0600     51.1607
   541.2500      0.0000    830.3405     10.0549     52.9625
   541.5000      0.0000    830.3904      9.9568     55.7174
   541.7500      0.0000    830.4207      9.8044     59.5153
   542.0000      0.0000    830.4556      9.6484     64.1273
   542.2500      0.0000    830.6597      9.5172     68.5474
   542.5000      0.0000    831.3720      9.4237     71.1430
   542.7500      0.0000    832.9460      9.3811     70.7891
   543.0000      0.0000    835.3129      9.3982     68.1264
   543.2500      0.0000    837.6071      9.4624     65.3810
   543.5000      0.0000    838.5389      9.5360     64.5227
   543.7500      0.0000    837.4901      9.5769     65.5881
   544.0000      0.0000    835.1332      9.5631     66.9228
   544.2500      0.0000    832.8062      9.5043     66.9333
   544.5000      0.0000    831.5256      9.4318     65.4359
   544.7500      0.0000    831.7797      9.3779     63.3490
   545.0000      0.0000    833.8640      9.3626     61.3943
   545.2500      0.0000    837.8009      9.3929     59.5826
   545.5000      0.0000    842.7576      9.4699     58.0766
   545.7500      0.0000    847.0588      9.5900     57.9743
   546.0000      0.0000    849.4227      9.7446     60.7353
   546.2500      0.0000    850.0400      9.9180     67.0258
   546.5000      0.0000    849.7255     10.0740     76.3732
   546.7500      0.0000    848.1965     10.1490     87.5048
   547.0000      0.0000    844.1189     10.0804     98.6560
   547.2500      0.0000    836.6597      9.8563    108.0502
   547.5000      0.0000    825.9237      9.5338    114.7271
   547.7500      0.0000    812.2354      9.2066    118.9109
   548.0000      0.0000    796.5338      8.9536    121.4885
   548.2500      0.0000    781.5225      8.8134    123.3491
   548.5000      0.0000    770.9962      8.7987    125.0498
   548.7500      0.0000    767.3991      8.9166    126.6198
   549.0000      0.0000    770.2612      9.1546    127.7199
   549.2500      0.0000    776.8478      9.4484    128.3531
   549.5000      0.0000    784.1351      9.6922    129.1334
   549.7500      0.0000    790.4139      9.7938    130.4043
   550.0000      0.0000    795.3380      9.7214    131.3743
   550.2500      0.0000    798.8939      9.5065    130.7459
   550.5000      0.0000    801.0025      9.2150    128.3270
   550.7500      0.0000    802.3759      8.9107    125.6600
   551.0000      0.0000    804.9990      8.6298    124.7752
   551.2500      0.0000    810.6873      8.3816    126.2468
   551.5000      0.0000    818.7988      8.1656    128.4051
   551.7500      0.0000    826.0874      7.9898    128.4623
   552.0000      0.0000    829.6965      7.8715    124.5864
   552.2500      0.0000    830.1816      7.8186    116.9879
   552.5000      0.0000    830.8762      7.8119    107.1939
   552.7500      0.0000    834.6023      7.8198     96.7526
   553.0000      0.0000    841.6400      7.8388     86.7335
   553.2500      0.0000    850.1514      7.9135     77.9915
   553.5000      0.0000    857.4807      8.1037     71.5097
   553.7500      0.0000    861.3234      8.4278     68.5265
   554.0000      0.0000    860.4727      8.8384     70.1795
   554.2500      0.0000    854.8224      9.2610     76.6536
   554.5000      0.0000    844.9573      9.6517     86.5187
   554.7500      0.0000    832.1237     10.0087     97.1037
   555.0000      0.0000    818.5487     10.3298    105.7975
   555.2500      0.0000    807.1610     10.5818    111.3535
   555.5000      0.0000    800.5032     10.7311    114.1459
   555.7500      0.0000    799.8488     10.7919    115.2378
   556.0000      0.0000    804.9567     10.8340    115.5458
   556.2500      0.0000    814.0674     10.9308    115.9013
   556.5000      0.0000    824.3634     11.0923    116.8034
   556.7500      0.0000    833.3572     11.2451    117.3778
   557.0000      0.0000    840.1543     11.2926    115.4442
   557.2500      0.0000    845.2410     11.2061    109.4833
   557.5000      0.0000    849.5076     11.0621    100.1975
   557.7500      0.0000    854.1832     10.9916     89.7660
   558.0000      0.0000    861.7795     11.0917     80.0558
   558.2500      0.0000    876.0869     11.3759     72.0626
   558.5000      0.0000    899.0195     11.7871     66.4951
   558.7500      0.0000    925.8386     12.2341     63.8186
   559.0000      0.0000    944.9503     12.6074     63.5529
   559.2500      0.0000    945.7330     12.7927     64.2499
   559.5000      0.0000    927.5976     12.7128     64.5696
   559.7500      0.0000    900.0026     12.3716     64.2318
   560.0000      0.0000    873.9659     11.8523     63.9676
   560.2500      0.0000    854.9638     11.2742     64.7816
   560.5000      0.0000    842.3351     10.7513     67.1482
   560.7500      0.0000    832.2321     10.3766     70.7397
   561.0000      0.0000    820.8500     10.2161     75.0888
   561.2500      0.0000    807.0342     10.2863     80.5932
   561.5000      0.0000    793.0981     10.5204     88.4091
   561.7500      0.0000    782.9208     10.7716     98.8377
   562.0000      0.0000    778.8499     10.8837    109.9525
   562.2500      0.0000    780.1279     10.7928    118.4741
   562.5000      0.0000    783.9312     10.5738    122.4341
   562.7500      0.0000    787.6217     10.3722    122.8693
   563.0000      0.0000    790.0330     10.2829    122.6863
   563.2500      0.0000    791.1902     10.2921    124.0399
   563.5000      0.0000    791.5017     10.3282    127.0792
   563.7500      0.0000    791.3358     10.3511    130.7896
   564.0000      0.0000    790.9941     10.3868    134.1203
