~Version Information
VERS.                      2.0: CWLS Log ASCII Standard - VERSION 2.0
WRAP.                       NO: One line per depth step
~Well Information Block
STRT.FT               910.3000: 
STOP.FT              1932.5000: 
STEP.FT                 0.1000: 
NULL.                -999.2500: 
COMP.          Petrogulf Corporation: COMPANY
WELL.             State 16-34R: WELL
FLD.           Purgatorie River: FIELD
LOC.           1095' FSL & 1498' FEL: LOCATION
CNTY.               Las Animas: COUNTY
SRVC.                         : SERVICE COMPANY
DATE.          Thu May 06 14:28:18 2004: LOG DATE
UWI.           05 071 08032 00: UNIQUE WELL ID
STAT.                 Colorado: STATE
~Curve Information Block
DEPT.FT            0 000 00 00: Depth
DCAL.in                       : CDL Caliper
RHOB.g/cc                     : CDL Bulk Density
RHOC.g/cc                     : CDL Density Correction
DPOR.pu                       : CDL Density Porosity
NPOR.pu                       : Neutron Porosity
GR.GAPI                       : Gamma Ray
~Parameter Information Block
~A  Depth       DCAL        RHOB        RHOC        DPOR        NPOR         GR     
# ...
  1044.7000      7.9151      2.5571      0.0064      5.6293     26.8648    103.1524
  1044.8000      7.9261      2.5728      0.0313      4.6801     27.3607    105.9721
  1044.9000      7.9261      2.5819      0.0380      4.1296     28.1234    107.3546
  1045.0000      7.9901      2.5800      0.0320      4.2395     28.9215    114.8988
  1045.1000      7.9901      2.5754     -0.0089      4.5197     29.3271    126.7258
  1045.2000      7.9901      2.5740      0.0050      4.6091     29.2173    133.1622
  1045.3000      8.0319      2.5711      0.0474      4.7841     28.8829    132.0793
  1045.4000      8.0319      2.5620     -0.0008      5.3333     28.8280    130.6937
  1045.5000      8.0661      2.5539     -0.0247      5.8257     29.1864    131.7730
  1045.6000      8.0661      2.5553     -0.0120      5.7377     29.6299    133.5740
  1045.7000      8.0661      2.5644     -0.0052      5.1902     30.0056    134.9825
  1045.8000      8.0624      2.5732     -0.0461      4.6532     30.3480    134.3782
  1045.9000      8.0624      2.5738     -0.0007      4.6156     30.5774    133.3282
  1046.0000      8.0324      2.5606     -0.0277      5.4184     30.6822    134.5485
  1046.1000      8.0324      2.5443     -0.0519      6.4036     30.7094    136.5233
  1046.2000      8.0324      2.5430     -0.0087      6.4871     30.6344    135.5771
  1046.3000      8.0246      2.5558     -0.0059      5.7075     30.5767    132.4269
  1046.4000      8.0246      2.5721     -0.0133      4.7220     30.5406    130.1237
  1046.5000      7.9962      2.5865      0.0164      3.8480     30.3494    130.0371
  1046.6000      7.9962      2.5905      0.0408      3.6071     30.1589    134.5847
  1046.7000      7.9962      2.5789     -0.0177      4.3118     30.2007    142.3073
  1046.8000      7.9905      2.5690     -0.0108      4.9075     30.4469    142.7934
  1046.9000      7.9905      2.5815     -0.0280      4.1511     30.7685    131.6420
  1047.0000      7.9912      2.6156     -0.0324      2.0823     31.1016    120.1347
  1047.1000      7.9912      2.6532      0.0209     -0.1931     31.3287    118.1449
  1047.2000      7.9912      2.6824      0.0093     -1.9644     31.1487    121.3203
  1047.3000      7.9928      2.7061      0.0461     -3.3973     30.8098    123.4528
  1047.4000      7.9928      2.7263      0.0426     -4.6221     30.8438    125.2253
  1047.5000      7.9846      2.7445      0.0417     -5.7274     31.1143    125.6522
  1047.6000      7.9846      2.7632      0.0361     -6.8589     31.3322    122.5505
  1047.7000      7.9846      2.7785      0.0718     -7.7868     31.6948    116.9031
  1047.8000      7.9779      2.7815      0.0224     -7.9706     32.3461    112.1374
  1047.9000      7.9779      2.7758     -0.0185     -7.6234     33.1727    112.1779
  1048.0000      7.9815      2.7707     -0.0194     -7.3152     33.9711    114.3374
  1048.1000      7.9815      2.7576     -0.0191     -6.5225     34.4784    114.5193
  1048.2000      7.9815      2.7204      0.0274     -4.2697     34.8386    115.1219
  1048.3000      7.9779      2.6672     -0.0893     -1.0398     35.3022    119.4395
  1048.4000      7.9779      2.6198     -0.0808      1.8283     35.3002    126.3798
  1048.5000      7.9783      2.5749     -0.0619      4.5486     34.2459    131.5077
  1048.6000      7.9783      2.5271     -0.1161      7.4507     32.6279    130.8667
  1048.7000      7.9783      2.5005     -0.1658      9.0581     31.4223    129.1590
  1048.8000      7.9769      2.5046     -0.1074      8.8119     30.7920    134.2015
  1048.9000      7.9769      2.5113     -0.0463      8.4046     30.3309    141.5636
  1049.0000      7.9791      2.5030     -0.0101      8.9106     29.8069    142.4223
  1049.1000      7.9791      2.4896     -0.0222      9.7241     29.1434    138.8392
  1049.2000      7.9791      2.4786      0.0256     10.3860     28.3602    137.0724
  1049.3000      7.9791      2.4645     -0.0133     11.2450     27.4538    140.8333
  1049.4000      7.9791      2.4476      0.0018     12.2684     26.6537    148.6712
  1049.5000      7.9793      2.4398     -0.0257     12.7368     26.3925    152.6495
  1049.6000      7.9793      2.4496      0.0446     12.1448     26.5809    147.8864
  1049.7000      7.9793      2.4629      0.0624     11.3420     26.9426    137.9294
  1049.8000      7.9684      2.4585      0.0894     11.6062     27.3399    130.4630
  1049.9000      7.9684      2.4386      0.0462     12.8128     27.5625    128.4681
  1050.0000      7.9784      2.4105      0.1016     14.5128     27.3799    128.9842
  1050.1000      7.9784      2.3652      0.0617     17.2594     26.8681    129.6086
  1050.2000      7.9784      2.2974      0.0351     21.3708     26.1403    129.4757
  1050.3000      8.0099      2.2028      0.0045     27.1026     24.7999    127.6376
  1050.4000      8.0099      2.0751     -0.0536     34.8419     22.5137    125.8906
  1050.5000      8.0263      1.9224     -0.0799     44.0955     19.4442    125.4981
  1050.6000      8.0263      1.7634     -0.1569     53.7336     16.0156    124.2816
  1050.7000      8.0263      1.6053     -0.1774     63.3139     12.8654    120.6684
  1050.8000      8.0376      1.4323     -0.1253     73.7986     10.3816    114.8570
  1050.9000      8.0376      1.2525     -0.2097     84.6978      8.5152    107.6278
  1051.0000      8.1022      1.1466     -0.2130     91.1144      7.1756    102.5423
  1051.1000      8.1022      1.1901      0.0676     88.4783      6.4639    101.2640
  1051.2000      8.1022      1.3596      0.3353     78.2048      6.5012    100.6549
  1051.3000      8.2022      1.5749      0.4659     65.1565      7.2791     99.7711
  1051.4000      8.2022      1.7778      0.5190     52.8635      8.5902    101.7123
  1051.5000      8.2113      1.9481      0.5559     42.5383     10.3738    106.2499
  1051.6000      8.2113      2.0809      0.5596     34.4915     12.7475    112.3833
  1051.7000      8.2113      2.1731      0.5015     28.9030     15.3176    121.4580
  1051.8000      8.0779      2.2359      0.3813     25.0976     17.6774    131.2814
  1051.9000      8.0779      2.2897      0.3163     21.8344     20.0016    138.0716
  1052.0000      8.0336      2.3444      0.2128     18.5232     22.2844    141.1658
  1052.1000      8.0336      2.3993      0.1593     15.1922     24.1735    144.2902
  1052.2000      8.0336      2.4451      0.1152     12.4174     25.3528    149.6117
  1052.3000      7.9860      2.4680      0.0616     11.0302     26.0044    152.0591
  1052.4000      7.9860      2.4636      0.0506     11.2977     26.4688    150.3644
  1052.5000      7.9675      2.4361      0.0386     12.9623     26.8980    152.2698
  1052.6000      7.9675      2.3999      0.0132     15.1579     27.3528    158.6785
  1052.7000      7.9675      2.3807     -0.0438     16.3184     27.6686    160.8997
  1052.8000      7.9714      2.3900      0.0205     15.7559     27.5387    155.8280
  1052.9000      7.9714      2.4099      0.0335     14.5526     27.1752    148.2375
  1053.0000      7.9722      2.4286      0.0045     13.4154     26.9688    142.9903
  1053.1000      7.9722      2.4537      0.0142     11.9000     26.7839    140.2939
  1053.2000      7.9722      2.4802      0.0633     10.2892     26.7606    140.2115
  1053.3000      7.9714      2.4897      0.0713      9.7146     27.0349    144.0905
  1053.4000      7.9714      2.4857      0.0382      9.9598     27.0920    148.0349
  1053.5000      7.9649      2.4890      0.0915      9.7592     26.7059    149.4361
  1053.6000      7.9649      2.5033      0.0622      8.8936     26.2019    152.4400
  1053.7000      7.9649      2.5201      0.0466      7.8734     26.0390    156.2737
  1053.8000      7.9637      2.5294      0.0863      7.3084     26.5403    155.2570
  1053.9000      7.9637      2.5266      0.0681      7.4784     27.3932    151.4840
  1054.0000      7.9663      2.5213      0.0668      7.8022     28.0351    148.8638
  1054.1000      7.9663      2.5181      0.0396      7.9956     28.2270    146.7352
  1054.2000      7.9663      2.5062      0.0425      8.7146     28.1636    145.8783
