~Version Information
VERS.                      2.0: CWLS Log ASCII Standard - VERSION 2.0
WRAP.                       NO: One line per depth step
~Well Information Block
STRT.FT               640.0000: 
STOP.FT               927.0000: 
STEP.FT                 0.1000: 
NULL.                -999.2500: 
COMP.          Pioneer Natural Resources: COMPANY
WELL.          Claim Jumper 41-22: WELL
FLD.           Purgatoire River: FIELD
LOC.           1120' FNL & 977' FEL: LOCATION
PROV.                 Colorado: PROVINCE
CNTY.               Las Animas: COUNTRY
SRVC.                Patterson: SERVICE COMPANY
DATE.          Thu Jun 23 08:35:14 2005: LOG DATE
UWI.           05-071-08405-00: UNIQUE WELL ID
~Curve Information Block
DEPT.FT            0 000 00 00: Depth
DCAL.in                       : CDL Caliper
RHOB.g/cc                     : CDL Bulk Density
RHOC.g/cc                     : CDL Density Correction
DPOR.pu                       : CDL Density Porosity
GR.GAPI                       : Gamma Ray
NPOR.pu                       : Neutron Porosity
~Parameter Information Block
~A  Depth       DCAL        RHOB        RHOC        DPOR         GR         NPOR    
# ...
   851.2000      7.8891      2.4182      0.0346     14.0464    120.6418     20.1113
   851.3000      7.8918      2.3882     -0.0026     15.8690    117.6645     20.2290
   851.4000      7.8918      2.3810      0.0625     16.3055    119.3132     20.5807
   851.5000      7.8930      2.3829      0.0531     16.1885    121.8580     20.8231
   851.6000      7.8930      2.3787      0.0473     16.4423    123.7642     20.6423
   851.7000      7.8930      2.3739      0.0617     16.7328    122.9595     20.1718
   851.8000      7.8940      2.3779      0.0743     16.4929    115.9463     19.8816
   851.9000      7.8940      2.3872      0.1003     15.9293    108.2024     20.1028
   852.0000      7.8939      2.3958      0.0511     15.4035    110.1458     20.4126
   852.1000      7.8939      2.4048      0.0872     14.8593    118.9037     20.6069
   852.2000      7.8939      2.4144      0.0619     14.2814    124.9439     20.9553
   852.3000      7.8955      2.4225      0.0914     13.7889    129.6910     21.1766
   852.4000      7.8955      2.4222      0.1467     13.8036    135.7868     20.8513
   852.5000      7.8990      2.4070      0.0664     14.7247    137.4163     20.2363
   852.6000      7.8990      2.3918      0.0710     15.6509    135.1425     19.7687
   852.7000      7.8990      2.4006      0.0603     15.1179    138.6294     19.6196
   852.8000      7.9001      2.4333      0.1211     13.1320    142.8342     19.5141
   852.9000      7.9001      2.4595      0.1429     11.5459    138.0709     19.3867
   853.0000      7.8993      2.4612      0.0995     11.4436    127.9474     19.5636
   853.1000      7.8993      2.4552      0.1159     11.8090    118.3865     19.9356
   853.2000      7.8993      2.4566      0.1348     11.7239    108.7960     20.1844
   853.3000      7.8955      2.4588      0.1357     11.5871     98.3786     20.2531
   853.4000      7.8955      2.4494      0.1489     12.1546     90.4776     20.2792
   853.5000      7.8877      2.4259      0.0568     13.5806     89.9872     20.5519
   853.6000      7.8877      2.3947      0.0873     15.4743     98.8933     21.1642
   853.7000      7.8877      2.3627      0.0848     17.4147    110.6275     21.7068
   853.8000      7.8744      2.3446      0.0561     18.5112    114.8359     22.1537
   853.9000      7.8744      2.3557      0.0482     17.8377    109.8879     22.8428
   854.0000      7.8578      2.3968      0.0568     15.3450    105.0634     23.4852
   854.1000      7.8578      2.4652      0.1065     11.2029    108.7839     23.7395
   854.2000      7.8578      2.5561      0.1675      5.6910    117.7633     23.9315
   854.3000      7.8425      2.6440      0.2390      0.3665    122.7577     24.3474
   854.4000      7.8425      2.6987      0.2676     -2.9489    121.6602     24.8067
   854.5000      7.8331      2.7184      0.2748     -4.1476    118.2562     24.9230
   854.6000      7.8331      2.7227      0.2507     -4.4048    115.5748     24.5758
   854.7000      7.8331      2.7196      0.2273     -4.2207    113.1777     24.3358
   854.8000      7.8347      2.6963      0.1610     -2.8059    110.1822     24.4462
   854.9000      7.8347      2.6485      0.1006      0.0920    107.9882     24.1218
   855.0000      7.8527      2.5989      0.0345      3.0944    107.0767     23.2475
   855.1000      7.8527      2.5794      0.0536      4.2777    105.9692     22.6300
   855.2000      7.8527      2.6019     -0.0169      2.9134    103.6811     22.2142
   855.3000      7.8728      2.6416      0.0957      0.5069    101.7468     21.4091
   855.4000      7.8728      2.6606      0.0754     -0.6448    104.8738     20.4833
   855.5000      7.8819      2.6520      0.0602     -0.1206    111.9047     19.6725
   855.6000      7.8819      2.6248      0.0730      1.5253    113.3417     18.8691
   855.7000      7.8819      2.5887      0.0324      3.7143    105.9317     18.4115
   855.8000      7.8842      2.5581      0.0517      5.5684     97.2106     18.2678
   855.9000      7.8842      2.5397      0.0433      6.6841     93.6402     17.8935
   856.0000      7.8884      2.5278      0.0672      7.4071     94.9785     17.4352
   856.1000      7.8884      2.5087      0.0535      8.5615     96.5635     17.4423
   856.2000      7.8884      2.4790      0.0045     10.3653     95.5658     18.0052
   856.3000      7.8973      2.4535      0.0181     11.9081     95.8747     18.8029
   856.4000      7.8973      2.4471      0.0191     12.2978    106.2867     19.4355
   856.5000      7.9062      2.4577      0.0568     11.6557    124.6174     19.8729
   856.6000      7.9062      2.4698      0.0637     10.9219    132.4482     20.2428
   856.7000      7.9062      2.4701      0.0988     10.9013    122.8788     20.5751
   856.8000      7.9060      2.4576      0.0256     11.6607    108.3554     20.8058
   856.9000      7.9060      2.4363      0.0541     12.9536    105.0866     20.8218
   857.0000      7.9011      2.4078      0.0475     14.6788    112.9716     20.6196
   857.1000      7.9011      2.3858     -0.0040     16.0146    113.1654     20.4449
   857.2000      7.9011      2.3862      0.0390     15.9882    102.9972     20.5766
   857.3000      7.8939      2.4056      0.0191     14.8134    100.5116     20.9130
   857.4000      7.8939      2.4291      0.0823     13.3866    105.1005     21.1171
   857.5000      7.8880      2.4419      0.0758     12.6103    101.3704     21.1926
   857.6000      7.8880      2.4402      0.0669     12.7130     89.0268     21.2145
   857.7000      7.8880      2.4314      0.1120     13.2480     80.7281     20.9854
   857.8000      7.8829      2.4201      0.1061     13.9305     82.1033     20.5870
   857.9000      7.8829      2.4113      0.0753     14.4654     89.8176     20.3428
   858.0000      7.8787      2.4151      0.0563     14.2384     99.9999     20.2027
   858.1000      7.8787      2.4335      0.0899     13.1234    105.0262     20.0674
   858.2000      7.8787      2.4661      0.0757     11.1471    102.0143     20.2212
   858.3000      7.8787      2.5150      0.1508      8.1808    100.8429     20.6389
   858.4000      7.8787      2.5549      0.1883      5.7663    107.5975     20.7711
   858.5000      7.8822      2.5527      0.1591      5.8959    115.3841     20.5141
   858.6000      7.8822      2.5194      0.0831      7.9125    117.3610     20.4344
   858.7000      7.8822      2.4880      0.0915      9.8160    114.3060     20.7013
   858.8000      7.8858      2.4717      0.0602     10.8046    110.9186     20.9361
   858.9000      7.8858      2.4641      0.0782     11.2651    113.1796     20.9473
   859.0000      7.8893      2.4573      0.0737     11.6805    119.1424     20.8636
   859.1000      7.8893      2.4572      0.0199     11.6846    120.3942     20.8339
   859.2000      7.8893      2.4666      0.1130     11.1155    114.0811     20.9908
   859.3000      7.8900      2.4727      0.0719     10.7428    105.5068     21.2363
   859.4000      7.8900      2.4749      0.0622     10.6143    103.0908     21.2769
   859.5000      7.8858      2.4774      0.1010     10.4620    107.5905     21.0973
   859.6000      7.8858      2.4723      0.0963     10.7678    112.1962     20.9973
   859.7000      7.8858      2.4647      0.0556     11.2328    112.8201     21.2053
   859.8000      7.8835      2.4736      0.0694     10.6906    112.2995     21.6143
   859.9000      7.8835      2.4902      0.0988      9.6837    114.0579     21.9791
   860.0000      7.8857      2.4905      0.0477      9.6680    119.9534     22.0576
   860.1000      7.8857      2.4787      0.0620     10.3835    126.7857     21.7094
   860.2000      7.8857      2.4719      0.0909     10.7964    125.8151     21.1105
   860.3000      7.8874      2.4707      0.0770     10.8652    121.3588     20.6679
   860.4000      7.8874      2.4583      0.1189     11.6204    124.2709     20.6407
   860.5000      7.8890      2.4302      0.0309     13.3193    127.6439     20.8059
   860.6000      7.8890      2.4129      0.0195     14.3691    122.0522     20.9896
   860.7000      7.8890      2.4201      0.0608     13.9307    113.4806     21.2523
