~Version Information
VERS.                      2.0: CWLS Log ASCII Standard - VERSION 2.0
WRAP.                       NO: One line per depth step
~Well Information Block
STRT.FT                -4.5000: 
STOP.FT              1680.2500: 
STEP.FT                 0.2500: 
NULL.                -999.2500: 
COMP.          Pioneer Natural Resources: COMPANY
WELL.            Salty 42-6 Tr: WELL
FLD.           Purgatorie River: FIELD
LOC.           2409' FNL & 599' FEL--: LOCATION
PROV.                       CO: PROVINCE
CNTY.               Las Animas: COUNTRY
SRVC.                         : SERVICE COMPANY
DATE.          Mon Dec 20 13:36:48 2004: LOG DATE
UWI.           071-08238      : UNIQUE WELL ID
~Curve Information Block
DEPT.FT            0 000 00 00: Depth
HVOLTA.V                      : Head Voltage Apparent
GR.GAPI                       : Gamma Ray
CCL.                          : Casing Collar Locator
TT3.usec                      : CBL 3' Travel Time
AMP3.mV                       : CBL 3' Amplitude
~Parameter Information Block
~A  Depth      HVOLTA        GR         CCL         TT3         AMP3    
# ...
   667.5000     97.0343     85.0112      0.0000    756.4719      5.6145
   667.7500     97.0856     83.9049      0.0000    736.9426      5.1460
   668.0000     97.2600     82.0527      0.0000    741.0420      4.7838
   668.2500     97.1441     79.2017      0.0000    762.2257      4.6319
   668.5000     97.0892     76.0259      0.0000    788.9421      4.7261
   668.7500     97.1167     73.8071      0.0000    812.8323      4.9998
   669.0000     97.0546     73.5504     -2.0000    831.4436      5.3357
   669.2500     97.1370     75.3981      0.0000    846.1795      5.6451
   669.5000     97.1310     78.7734      2.0000    858.2023      5.9069
   669.7500     97.2194     82.6342      0.0000    865.0538      6.1591
   670.0000     97.1716     85.3427      0.0000    861.4132      6.4575
   670.2500     97.1060     84.9637      0.0000    844.5745      6.8160
   670.5000     97.3114     80.5935      0.0000    819.0200      7.1832
   670.7500     97.1848     73.4618      0.0000    794.1226      7.4985
   671.0000     97.1274     66.2981      0.0000    777.1061      7.7644
   671.2500     97.3424     61.5132      0.0000    768.9547      8.0341
   671.5000     97.1477     59.8643      0.0000    766.3751      8.3380
   671.7500     97.1095     60.5036      0.0000    765.9077      8.6525
   672.0000     97.3592     62.1682      0.0000    765.8461      8.9309
   672.2500     97.3257     64.3097      0.0000    765.8228      9.1376
   672.5000     97.2469     67.0845      0.0000    765.8400      9.2540
   672.7500     97.3974     70.5802      0.0000    765.8431      9.2765
   673.0000     97.0464     74.3913      0.0000    765.7404      9.2210
   673.2500     96.8412     77.8466      0.0000    765.5273      9.1247
   673.5000     97.3196     80.4977      0.0000    765.2891      9.0384
   673.7500     97.1477     82.4107      0.0000    765.1183      9.0104
   674.0000     97.3460     83.9518      0.0000    765.0654      9.0695
   674.2500     97.2458     85.4329      0.0000    765.1348      9.2143
   674.5000     97.2158     87.2311      0.0000    765.2619      9.4149
   674.7500     97.1406     90.1194      0.0000    765.2932      9.6270
   675.0000     97.0821     94.8057      0.0000    765.0469      9.8149
   675.2500     97.1370    100.7276      0.0000    764.4260      9.9663
   675.5000     97.2361    105.5623      0.0000    763.4045     10.0885
   675.7500     97.3174    106.2928      0.0000    761.7618     10.1942
   676.0000     97.1787    101.0435      0.0000    758.6413     10.2977
   676.2500     97.1060     90.4056      0.0000    752.4050     10.4167
   676.5000     97.3246     77.2817      0.0000    741.4969     10.5669
   676.7500     97.2326     65.0769      0.0000    726.2727     10.7462
   677.0000     97.2386     55.6510      0.0000    710.2076     10.9310
   677.2500     97.2946     48.9878      0.0000    698.7347     11.0903
   677.5000     97.2230     44.6711      0.0000    696.2188     11.2032
   677.7500     97.0450     43.1878      0.0000    703.4569     11.2614
   678.0000     97.1548     45.5611      0.0000    717.3839     11.2629
   678.2500     97.1441     52.0020      0.0000    732.9257     11.2122
   678.5000     97.2946     61.2087      0.0000    745.7710     11.1180
   678.7500     97.2504     71.1120      0.0000    754.2314     10.9791
   679.0000     97.2230     80.3519      0.0000    759.1677     10.7797
   679.2500     97.4655     88.8185      0.0000    762.7078     10.5067
   679.5000     97.3460     96.5816      0.0000    767.1744     10.1643
   679.7500     97.0653    102.8457      0.0000    774.3459      9.7620
   680.0000     97.0486    106.5598      0.0000    784.2067      9.3018
   680.2500     97.1131    107.4399      0.0000    793.7781      8.7914
   680.5000     97.2326    105.6426      0.0000    798.3818      8.2628
   680.7500     97.2361    101.1723      0.0000    795.5221      7.7635
   681.0000     97.2361     94.6834      0.0000    787.1870      7.3339
   681.2500     97.3139     88.4119      0.0000    777.6610      6.9978
   681.5000     97.2565     85.2311      0.0000    769.9772      6.7667
   681.7500     97.1573     86.4465      0.0000    765.0852      6.6423
   682.0000     96.9865     90.6345      0.0000    762.9810      6.6141
   682.2500     97.1919     94.5294      0.0000    763.1761      6.6607
   682.5000     97.1441     95.0594      0.0000    764.5296      6.7587
   682.7500     97.1167     91.1045      0.0000    765.7109      6.8962
   683.0000     97.2087     83.8928      0.0000    766.0158      7.0815
   683.2500     97.1202     75.9367      0.0000    765.5079      7.3356
   683.5000     97.2194     69.3862      0.0000    764.5869      7.6673
   683.7500     97.3043     65.0196      0.0000    763.6114      8.0545
   684.0000     97.1680     62.5011      0.0000    762.8065      8.4533
   684.2500     97.0653     61.3603      0.0000    762.2623      8.8294
   684.5000     97.1955     61.6603      0.0000    761.9396      9.1817
   684.7500     97.2469     63.9860      0.0000    761.7393      9.5279
   685.0000     97.3531     69.0788      0.0000    761.5928      9.8595
   685.2500     97.0963     77.2531      0.0000    761.4985     10.1175
   685.5000     97.1477     87.7883      0.0000    761.5031     10.2302
   685.7500     97.3938     98.7530      0.0000    761.6681     10.1758
   686.0000     97.0521    107.5161      0.0000    762.1365     10.0001
   686.2500     97.0486    111.5260      0.0000    763.3318      9.7829
   686.5000     97.1513    109.0691      0.0000    766.2236      9.6029
   686.7500     97.3353    100.0275      0.0000    772.0353      9.5186
   687.0000     97.1884     86.3256      0.0000    780.7338      9.5520
   687.2500     97.2804     71.5315      0.0000    789.3828      9.6817
   687.5000     97.1502     59.4752      0.0000    793.2089      9.8653
   687.7500     97.1991     52.4962      0.0000    789.7026     10.0717
   688.0000     97.2326     50.4448      0.0000    781.1965     10.2928
   688.2500     97.0521     51.1610      0.0000    772.6352     10.5319
   688.5000     97.1752     51.9726      0.0000    767.8115     10.7891
   688.7500     97.1955     51.1625      0.0000    768.6039     11.0464
   689.0000     97.2194     48.6307      0.0000    776.4392     11.2626
   689.2500     97.2672     45.5311      0.0000    792.0124     11.3907
   689.5000     97.2804     43.2187      0.0000    812.6631     11.4118
   689.7500     97.2493     42.2121      0.0000    831.4142     11.3458
   690.0000     97.1716     42.0398      0.0000    840.6585     11.2274
   690.2500     97.3424     42.0694      0.0000    837.2076     11.0824
   690.5000     97.0521     42.3648      0.0000    823.5304     10.9268
   690.7500     97.1274     43.8552      0.0000    805.2215     10.7768
   691.0000     97.3150     47.9542      0.0000    788.0040     10.6453
   691.2500     97.1477     55.6742      0.0000    775.5710     10.5295
   691.5000     97.1106     66.4001      0.0000    768.6182     10.4086
   691.7500     97.3699     77.4574      0.0000    765.6586     10.2591
   692.0000     97.3293     85.4789      0.0000    764.7836     10.0769
   692.2500     97.2397     88.7092      0.0000    764.7495      9.8852
   692.5000     97.0963     88.0734      0.0000    764.9973      9.7223
   692.7500     97.1919     85.9196      0.0000    765.3090      9.6163
   693.0000     97.0724     83.9693      0.0000    765.6069      9.5698
   693.2500     97.2779     82.9026      0.0000    765.8343      9.5683
   693.5000     97.2361     83.6024      0.0000    765.8378      9.6031
   693.7500     97.3078     87.5877      0.0000    765.1821      9.6767
   694.0000     97.2469     95.4228      0.0000    763.0817      9.7811
   694.2500     97.2971    105.0886      0.0000    758.7470      9.8851
   694.5000     97.2361    112.7822      0.0000    752.1550      9.9553
   694.7500     97.0414    115.5965      0.0000    744.5182      9.9859
   695.0000     97.0653    113.1675      0.0000    737.6716     10.0057
   695.2500     97.0856    107.0465      0.0000    732.8196     10.0604
