~Version Information
VERS.                      2.0: CWLS Log ASCII Standard - VERSION 2.0
WRAP.                       NO: One line per depth step
~Well Information Block
STRT.FT               530.0000: 
STOP.FT              1825.0000: 
STEP.FT                 0.1000: 
NULL.                -999.2500: 
COMP.          Pioneer Natural Resources: COMPANY
WELL.          Vision 31-11 Tr: WELL
FLD.           Purgatoire River: FIELD
LOC.           742' FNL & 1593' FEL: LOCATION
STAT.                 Colorado: State
CNTY.               Las Animas: COUNTY
CTRY. USA : Country
SECT. 11 : Section
TOWN. 32S : Township
RANG. 66W : Range
SRVC.                Patterson: SERVICE COMPANY
DATE.          Mon Oct 10 07:17:32 2005: LOG DATE
API.           05 071 08305 00: UNIQUE WELL ID
~Curve Information Block
DEPT.FT            0 000 00 00: Depth
DCAL.in                       : CDL Caliper
RHOB.g/cc                     : CDL Bulk Density
RHOC.g/cc                     : CDL Density Correction
DPOR.pu                       : CDL Density Porosity
GR.GAPI                       : Gamma Ray
NPOR.pu                       : Neutron Porosity
~Parameter Information Block
~A  Depth       DCAL        RHOB        RHOC        DPOR         GR         NPOR    
# ...
  1470.8000      8.2123      2.5219      0.3016      7.7665    130.0835     25.6650
  1470.9000      8.2123      2.5497      0.2695      6.0777    128.5997     25.1411
  1471.0000      8.2724      2.5789      0.2739      4.3119    133.0827     24.7525
  1471.1000      8.2724      2.6056      0.2588      2.6885    137.5011     25.2825
  1471.2000      8.2724      2.6095      0.3159      2.4530    136.6621     26.3321
  1471.3000      8.4047      2.5777      0.2660      4.3802    131.2824     26.7787
  1471.4000      8.4047      2.5318      0.1923      7.1620    124.4011     26.6153
  1471.5000      8.4392      2.5006      0.1252      9.0552    120.9377     26.9726
  1471.6000      8.4392      2.4901      0.0802      9.6885    122.6704     27.6611
  1471.7000      8.4392      2.4895      0.1075      9.7285    126.4272     27.4563
  1471.8000      8.3643      2.4811      0.0805     10.2367    130.3217     26.5743
  1471.9000      8.3643      2.4581      0.0634     11.6295    132.7564     26.0727
  1472.0000      8.1803      2.4309      0.0363     13.2782    131.9258     25.7898
  1472.1000      8.1803      2.4182      0.0228     14.0489    129.0217     25.2616
  1472.2000      8.1803      2.4358      0.0465     12.9810    126.5037     25.0358
  1472.3000      8.1619      2.4752      0.0699     10.5968    125.8494     25.1098
  1472.4000      8.1619      2.5087      0.0719      8.5650    128.0429     24.9839
  1472.5000      8.1929      2.5246      0.0958      7.5989    133.3514     24.5768
  1472.6000      8.1929      2.5305      0.0899      7.2447    137.4569     24.4543
  1472.7000      8.1929      2.5286      0.0829      7.3590    136.3334     24.8835
  1472.8000      8.2271      2.5155      0.0508      8.1536    134.0627     24.8938
  1472.9000      8.2271      2.4969      0.0136      9.2776    135.7647     24.2667
  1473.0000      8.2199      2.4874      0.0153      9.8549    138.5679     23.2942
  1473.1000      8.2199      2.4973     -0.0027      9.2549    137.2439     22.3506
  1473.2000      8.2199      2.5209      0.0041      7.8254    136.6365     22.4164
  1473.3000      8.1236      2.5435      0.0284      6.4521    141.7042     23.0522
  1473.4000      8.1236      2.5624      0.0023      5.3082    144.6745     22.8499
  1473.5000      8.0666      2.5753      0.1070      4.5290    141.6495     22.1270
  1473.6000      8.0666      2.5711      0.0517      4.7810    138.5349     21.7512
  1473.7000      8.0666      2.5547      0.0433      5.7759    136.5674     21.7360
  1473.8000      8.0525      2.5399      0.0287      6.6744    134.4481     21.7248
  1473.9000      8.0525      2.5320      0.0356      7.1501    133.9423     21.2963
  1474.0000      8.0509      2.5344      0.0083      7.0087    130.2314     20.7085
  1474.1000      8.0509      2.5428      0.0832      6.4980    121.0667     20.8724
  1474.2000      8.0509      2.5416      0.0565      6.5706    113.6994     22.1050
  1474.3000      8.0584      2.5288      0.0609      7.3440    112.6068     23.8923
  1474.4000      8.0584      2.5187      0.0091      7.9555    116.7211     25.2662
  1474.5000      8.0716      2.5183      0.0194      7.9825    121.7757     25.3458
  1474.6000      8.0716      2.5209      0.0199      7.8251    121.9895     24.0323
  1474.7000      8.0716      2.5193      0.0152      7.9226    120.4474     22.5364
  1474.8000      8.0826      2.5125      0.0475      8.3341    124.5909     22.0827
  1474.9000      8.0826      2.5090     -0.0234      8.5450    131.9298     22.5086
  1475.0000      8.1143      2.5196      0.0501      7.9059    135.8373     22.7631
  1475.1000      8.1143      2.5343      0.0551      7.0131    135.1996     22.7196
  1475.2000      8.1143      2.5375      0.0486      6.8193    132.1280     22.2849
  1475.3000      8.1169      2.5282      0.0860      7.3800    129.2245     21.0790
  1475.4000      8.1169      2.5201      0.0016      7.8713    130.3115     19.9985
  1475.5000      8.1345      2.5275      0.0386      7.4222    137.0003     20.3245
  1475.6000      8.1345      2.5393      0.0896      6.7081    142.4662     21.8044
  1475.7000      8.1345      2.5449      0.0205      6.3724    139.1526     22.6956
  1475.8000      8.1505      2.5609      0.0049      5.4018    132.1609     22.6158
  1475.9000      8.1505      2.5913      0.0859      3.5557    132.3603     22.8237
  1476.0000      8.1410      2.6109      0.1106      2.3707    139.0312     23.8943
  1476.1000      8.1410      2.6041      0.0651      2.7804    142.6251     25.1447
  1476.2000      8.1410      2.5788      0.0935      4.3147    139.4076     25.4206
  1476.3000      8.1396      2.5513      0.0190      5.9832    133.9375     24.3680
  1476.4000      8.1396      2.5368      0.0560      6.8629    130.6213     22.8515
  1476.5000      8.1359      2.5361      0.0548      6.9010    127.1712     22.0434
  1476.6000      8.1359      2.5396      0.0408      6.6886    121.0534     22.4760
  1476.7000      8.1359      2.5371      0.0537      6.8428    117.1914     23.3079
  1476.8000      8.1180      2.5228      0.0505      7.7089    119.7234     23.3537
  1476.9000      8.1180      2.5050      0.0102      8.7875    125.0911     22.7232
  1477.0000      8.0934      2.4985      0.0177      9.1795    127.1790     21.9316
  1477.1000      8.0934      2.5059      0.0494      8.7363    125.6609     21.3401
  1477.2000      8.0934      2.5175      0.0848      8.0322    125.3717     21.6409
  1477.3000      8.1150      2.5240      0.0484      7.6349    127.0043     22.6052
  1477.4000      8.1150      2.5239      0.0738      7.6401    127.5097     22.8459
  1477.5000      8.1103      2.5246      0.0512      7.6025    126.6673     22.0870
  1477.6000      8.1103      2.5306      0.1325      7.2367    125.9114     22.0923
  1477.7000      8.1103      2.5357      0.0651      6.9269    123.6528     23.9675
  1477.8000      8.1415      2.5282      0.1109      7.3788    121.2359     25.8941
  1477.9000      8.1415      2.5045      0.0606      8.8176    123.8001     26.2688
  1478.0000      8.1733      2.4796      0.0870     10.3248    131.4817     25.8562
  1478.1000      8.1733      2.4629      0.0692     11.3394    140.7705     25.5764
  1478.2000      8.1733      2.4489      0.0417     12.1880    145.2005     25.7303
  1478.3000      8.1774      2.4403      0.0246     12.7067    140.8238     25.7940
  1478.4000      8.1774      2.4482      0.0118     12.2322    132.9995     25.3166
  1478.5000      8.1667      2.4801     -0.0281     10.2980    128.7943     24.8459
  1478.6000      8.1667      2.5251      0.1039      7.5709    128.3447     24.9177
  1478.7000      8.1667      2.5539      0.1251      5.8231    128.3190     25.1175
  1478.8000      8.1449      2.5646      0.1121      5.1733    129.0511     25.0798
  1478.9000      8.1449      2.5795      0.1290      4.2733    133.2317     25.4842
  1479.0000      8.1487      2.5944      0.1807      3.3708    136.7093     25.5663
  1479.1000      8.1487      2.5847      0.1944      3.9557    136.0246     24.3629
  1479.2000      8.1487      2.5444      0.1652      6.3988    138.3706     23.8185
  1479.3000      8.1536      2.5048      0.0479      8.8027    146.4837     24.8974
  1479.4000      8.1536      2.5038      0.0608      8.8618    152.4592     25.3871
  1479.5000      8.1430      2.5350      0.1097      6.9720    150.9999     24.3187
  1479.6000      8.1430      2.5559      0.1177      5.7041    145.2842     23.7541
  1479.7000      8.1430      2.5464      0.0954      6.2761    140.5944     24.8204
  1479.8000      8.0969      2.5252      0.1080      7.5646    140.2995     25.8881
  1479.9000      8.0969      2.5105      0.0716      8.4546    142.8073     25.2065
  1480.0000      8.1410      2.4940      0.0872      9.4523    142.2718     24.0202
  1480.1000      8.1410      2.4543      0.0540     11.8593    138.5964     24.3321
  1480.2000      8.1410      2.3942     -0.0405     15.5042    133.9635     25.5798
  1480.3000      8.1622      2.3458     -0.0141     18.4354    129.4086     26.2717
