~Version Information
VERS.                      2.0: CWLS Log ASCII Standard - VERSION 2.0
WRAP.                       NO: One line per depth step
~Well Information Block
STRT.FT              1882.7500: 
STOP.FT              2400.5000: 
STEP.FT                 0.2500: 
NULL.                -999.2500: 
COMP.          Pioneer Natural Resources: COMPANY
WELL.          Flying Horse 12-11: WELL
FLD.           Purgatoire River: FIELD
LOC.           2,428' FNL & 308' FWL------: LOCATION
PROV.                 Colorado: PROVINCE
CNTY.               Las Animas: COUNTRY
SRVC.                         : SERVICE COMPANY
DATE.          Fri Jun 10 06:52:30 2005: LOG DATE
UWI.                          : UNIQUE WELL ID
~Curve Information Block
DEPT.FT            0 000 00 00: Depth
CCL.                          : Casing Collar Locator
TT3.usec                      : CBL 3' Travel Time
AMP3.mV                       : CBL 3' Amplitude
AMP5.mV                       : CBL 5' Amplitude
GR.GAPI                       : Gamma Ray
~Parameter Information Block
~A  Depth       CCL         TT3         AMP3        AMP5         GR     
# ...
  2134.7500      0.0000    622.8401      5.0240      0.1259     67.9185
  2135.0000      0.0000    626.5534      4.8219      0.3000     73.7550
  2135.2500      0.0000    638.8426      4.5943      0.3870     79.6543
  2135.5000      0.0000    655.4678      4.3909      0.0389     84.4665
  2135.7500      0.0000    673.8754      4.2507     -0.0482     88.2329
  2136.0000      0.0000    692.5021      4.1801      0.3000     91.5170
  2136.2500      0.0000    709.1461      4.1589      0.0389     94.5509
  2136.5000      0.0000    720.7963      4.1694      0.3000     97.3734
  2136.7500      0.0000    725.1959      4.2160      0.0389    100.3563
  2137.0000      0.0000    722.2354      4.3116      0.2129    104.0018
  2137.2500      0.0000    713.6633      4.4449      0.0389    108.3642
  2137.5000      0.0000    701.8594      4.5682      0.2129    112.9827
  2137.7500      0.0000    689.2929      4.6270      0.3000    117.1361
  2138.0000      0.0000    678.9089      4.6047      0.1259    120.0521
  2138.2500      0.0000    673.7223      4.5371      0.2129    121.3903
  2138.5000      0.0000    674.7998      4.4862      0.1259    121.8362
  2138.7500      0.0000    679.8014      4.5018      0.3000    122.8587
  2139.0000      0.0000    684.5740      4.6007      0.0389    125.5747
  2139.2500      0.0000    686.3775      4.7650      0.1259    129.8286
  2139.5000      0.0000    684.8446      4.9546      0.3000    134.2198
  2139.7500      0.0000    680.0872      5.1259      0.2129    136.8643
  2140.0000      0.0000    671.6380      5.2468      0.2129    136.4000
  2140.2500      0.0000    660.0420      5.3039      0.1259    132.8026
  2140.5000      0.0000    648.0908      5.2995      0.1259    127.5674
  2140.7500      0.0000    639.3354      5.2434      0.0389    123.0132
  2141.0000      0.0000    635.9181      5.1452      0.1259    120.9141
  2141.2500      0.0000    638.0911      5.0124      0.3870    121.2630
  2141.5000      0.0000    644.8813      4.8496      0.3000    122.2613
  2141.7500      0.0000    654.6785      4.6609      0.0389    121.8415
  2142.0000      0.0000    665.7537      4.4571      0.2129    119.4700
  2142.2500      0.0000    676.6700      4.2609      0.2129    116.4938
  2142.5000      0.0000    686.2791      4.1059      0.2129    114.7919
  2142.7500      0.0000    693.5118      4.0247      0.3000    115.0956
  2143.0000      0.0000    697.4437      4.0342      0.1259    116.4945
  2143.2500      0.0000    697.2470      4.1303      0.3000    117.3707
  2143.5000      0.0000    692.0262      4.2940      0.5611    116.6987
  2143.7500      0.0000    681.2495      4.5016      0.1259    114.6900
  2144.0000      0.0000    666.2509      4.7328      0.2129    112.6655
  2144.2500      0.0000    651.7050      4.9760      0.3000    112.4131
  2144.5000      0.0000    644.8642      5.2255      0.1259    115.2508
  2144.7500      0.0000    651.4535      5.4700     -0.1352    121.2070
  2145.0000      0.0000    670.8930      5.6890      0.4741    128.8157
  2145.2500      0.0000    696.0630      5.8586      0.2129    135.7434
  2145.5000      0.0000    718.3639      5.9514     -0.1352    139.9209
  2145.7500      0.0000    732.3169      5.9360      0.1259    140.4588
  2146.0000      0.0000    736.1099      5.7941      0.3000    137.9005
  2146.2500      0.0000    730.9412      5.5506      0.6482    133.7617
  2146.5000      0.0000    721.1584      5.2766     -0.3093    129.4423
  2146.7500      0.0000    713.2014      5.0593      1.2575    125.2430
  2147.0000      0.0000    712.0111      4.9629      0.3000    120.7831
  2147.2500      0.0000    717.2499      5.0072      0.9964    116.3387
  2147.5000      0.0000    723.5694      5.1750      0.9964    112.9468
  2147.7500      0.0000    725.6403      5.4565      1.2575    111.0586
  2148.0000      0.0000    722.3598      5.8942      1.1705    109.9638
  2148.2500      0.0000    715.1457      6.5546      1.6057    108.7878
  2148.5000      0.0000    704.8702      7.4306      1.4316    107.3439
  2148.7500      0.0000    693.4590      8.3887      1.6057    105.9106
  2149.0000      2.0000    685.8452      9.2241      1.6057    104.9915
  2149.2500      0.0000    685.6535      9.7403      1.8668    105.4179
  2149.5000      0.0000    689.6812      9.7944      1.8668    107.9055
  2149.7500      0.0000    690.1221      9.3604      2.1280    112.1957
  2150.0000      0.0000    683.1342      8.6236      2.0409    116.9894
  2150.2500      0.0000    673.2808      7.9563      2.2150    120.8015
  2150.5000      0.0000    668.6342      7.6910      2.3891    122.7478
  2150.7500      0.0000    672.9659      7.8874      2.5632    122.8229
  2151.0000      0.0000    682.8383      8.3202      2.3021    121.8815
  2151.2500      0.0000    690.8058      8.6641      0.6482    121.2000
  2151.5000      0.0000    691.4916      8.7029      2.2150    121.5424
  2151.7500      0.0000    685.5213      8.4217      0.8223    122.5003
  2152.0000      0.0000    677.5993      7.9403      1.5186    122.7621
  2152.2500      0.0000    671.6456      7.3788      1.1705    120.7495
  2152.5000      0.0000    669.0971      6.7898      0.9964    115.1822
  2152.7500      0.0000    670.7568      6.1864      1.2575    105.8893
  2153.0000      0.0000    677.4752      5.5986      0.8223     94.4250
  2153.2500      0.0000    688.2493      5.0936      0.7352     83.4733
  2153.5000      0.0000    699.9963      4.7505      0.2129     75.4757
  2153.7500      0.0000    710.2909      4.6167      0.3000     71.7702
  2154.0000      0.0000    718.8602      4.6827      0.1259     72.5105
  2154.2500      0.0000    725.7872      4.8897      0.1259     76.8881
  2154.5000      0.0000    730.1014      5.1545      0.4741     83.5437
  2154.7500      0.0000    730.9397      5.3943      0.2129     91.0351
  2155.0000      0.0000    728.7577      5.5464      0.3000     97.9561
  2155.2500      0.0000    724.6343      5.5804      0.3870    102.8804
  2155.5000      0.0000    719.1904      5.5051      0.5611    104.7040
  2155.7500      0.0000    712.8062      5.3689      0.5611    103.2112
  2156.0000      0.0000    706.3199      5.2523      0.3870     99.1721
  2156.2500      0.0000    700.9039      5.2409      0.7352     94.0496
  2156.5000      0.0000    697.2861      5.3835      0.9093     89.8371
  2156.7500      0.0000    695.1079      5.6716      0.7352     88.6079
  2157.0000      0.0000    692.5080      6.0648      1.2575     91.2935
  2157.2500      0.0000    686.4169      6.5305      0.9093     96.7752
  2157.5000      0.0000    674.8192      7.0577      1.2575    102.5991
  2157.7500      0.0000    660.1669      7.6510      1.5186    106.7047
  2158.0000      0.0000    649.7555      8.3303      1.6927    108.6121
  2158.2500      0.0000    650.4669      9.1334      2.3021    109.3656
  2158.5000      0.0000    662.2592     10.1132      2.7373    110.4553
  2158.7500      0.0000    677.4434     11.3286      3.1725    112.5860
  2159.0000      0.0000    685.8752     12.8232      3.9559    115.3454
  2159.2500      0.0000    679.4861     14.5965      4.1300    117.7985
  2159.5000      0.0000    652.7694     16.5977      4.8264    119.0386
  2159.7500      0.0000    602.8530     18.7559      5.8710    118.2859
  2160.0000      0.0000    532.9189     21.0058      6.6544    114.9137
  2160.2500      0.0000    455.2997     23.2745      8.2212    108.5403
  2160.5000      0.0000    387.1100     25.4515      9.6140     99.1462
  2160.7500      0.0000    340.0191     27.3957     10.3103     87.2694
  2161.0000      0.0000    314.5788     28.9844     11.7031     74.0333
  2161.2500      0.0000    303.8691     30.1535     12.8347     60.9281
  2161.5000      0.0000    300.4012     30.8988     14.1404     49.6673
  2161.7500      0.0000    299.6056     31.2581     14.1404     41.9787
  2162.0000      0.0000    299.5612     31.2957     14.7497     38.7907
  2162.2500      0.0000    299.6663     31.0835     15.1850     39.3621
  2162.5000      0.0000    299.7813     30.6780     15.7072     41.6072
