~Version Information
 VERS.                                  2.0 : CWLS LAS VERSION
 WRAP.                                   NO : WRAPING MODE
 SWARE .                 MController 2.5.0J : SOFTWARE VERSION
~Well Information
 WELL.                       Lavedure 7-44R : WELL
 COMP.                Petrogulf Corporation : COMPANY
 FLD.                      Purgatoire River : FIELD
 LOC.                 SE/SE Sec 7 T33S R67W : LOCATION
 DATE.                             09/23/05 : DATE(S) LOGGED
 SRVC.       BLANCO Geological Services LLC : SERVICE COMPANY
 STAT.                                   CO : STATE
 CNTY.                           Las Animas : COUNTY
 CTRY.                                  USA : COUNTRY
 API.                       05-071-08090-00 : API NUMBER
 STRT.FT                             828.00 : START DEPTH
 STOP.FT                            2020.00 : STOP DEPTH
 STEP.FT                               1.00 : DEPTH INCREMENT
 NULL.                                -9999 : NULL VALUE
~Curve information
 DEPTH.FT                                   :
 ROP.MIN/FT                                 :
 GAS.UNITS                                  :
~ASCII Log data
# ...
      1428.0         0.20         27.2 
      1429.0         0.27         27.6 
      1430.0         0.20         28.4 
      1431.0         0.25         29.3 
      1432.0         0.27         29.5 
      1433.0         0.20         29.5 
      1434.0         0.20         29.1 
      1435.0         0.20         27.2 
      1436.0         0.17         22.7 
      1437.0         2.23        122.9 
      1438.0         0.48        102.7 
      1439.0         0.33         70.0 
      1440.0         0.50         48.8 
      1441.0         0.23         40.7 
      1442.0         0.20         41.6 
      1443.0         0.23         42.0 
      1444.0         0.20         41.6 
      1445.0         0.20         40.3 
      1446.0         0.23         38.3 
      1447.0         0.27         36.8 
      1448.0         0.30         35.3 
      1449.0         0.32         33.5 
      1450.0         0.23         30.4 
      1451.0         0.27         29.5 
      1452.0         0.27         28.9 
      1453.0         0.30         28.8 
      1454.0         0.27         27.9 
      1455.0         0.27         26.9 
      1456.0         0.27         26.5 
      1457.0         0.27         26.2 
      1458.0         0.23         26.0 
      1459.0         0.27         25.8 
      1460.0         0.23         25.6 
      1461.0         0.28         25.6 
      1462.0         0.30         25.7 
      1463.0         0.27         25.8 
      1464.0         0.23         26.1 
      1465.0         0.27         25.3 
      1466.0         0.27         22.3 
      1467.0         2.18        132.9 
      1468.0         0.70        145.8 
      1469.0         0.47        105.3 
      1470.0         0.43         67.4 
      1471.0         0.47         48.3 
      1472.0         0.43         38.8 
      1473.0         0.37         35.7 
      1474.0         0.35         35.7 
      1475.0         0.37         34.7 
      1476.0         0.33         33.3 
      1477.0         0.33         31.4 
      1478.0         0.27         28.8 
      1479.0         0.30         27.3 
      1480.0         0.27         26.1 
      1481.0         0.27         26.2 
      1482.0         0.30         26.5 
      1483.0         0.27         26.8 
      1484.0         0.32         26.7 
      1485.0         0.30         30.9 
      1486.0         0.30         32.8 
      1487.0         0.33         33.7 
      1488.0         0.30         33.8 
      1489.0         0.33         32.0 
      1490.0         0.37         32.4 
      1491.0         0.43         32.1 
      1492.0         0.37         30.7 
      1493.0         0.40         30.1 
      1494.0         0.58         30.2 
      1495.0         0.43         29.7 
      1496.0         0.40         41.4 
      1497.0         0.33         45.9 
      1498.0         0.37         40.5 
      1499.0         0.53         38.0 
      1500.0         4.40        216.8 
      1501.0         0.63         95.5 
      1502.0         0.53         73.1 
      1503.0         0.43         58.7 
      1504.0         0.40         52.8 
      1505.0         0.52         48.7 
      1506.0         0.67         48.0 
      1507.0         0.43         48.4 
      1508.0         0.33         46.5 
      1509.0         0.30         45.4 
      1510.0         0.33         44.6 
      1511.0         0.37         45.6 
      1512.0         0.37         45.7 
      1513.0         0.65         45.2 
      1514.0         0.40         45.3 
      1515.0         0.33         46.9 
      1516.0         0.20         47.0 
      1517.0         0.17         47.6 
      1518.0         0.20         47.9 
      1519.0         0.13         48.0 
      1520.0         0.17         46.9 
      1521.0         0.13         46.8 
      1522.0         0.17         47.5 
      1523.0         0.13         48.7 
      1524.0         0.17         49.7 
      1525.0         0.17         51.0 
      1526.0         0.23         51.2 
      1527.0         0.22         47.5 
      1528.0         0.23         40.7 
      1529.0         0.37         39.6 
      1530.0         7.40        158.0 
      1531.0         0.93         42.3 
      1532.0         0.70         54.3 
      1533.0         0.38         65.9 
      1534.0         0.37         68.3 
      1535.0         0.53         74.5 
      1536.0         0.57         74.6 
      1537.0         0.77         63.2 
      1538.0         0.47         50.7 
      1539.0         0.52         45.5 
      1540.0         0.43         42.7 
      1541.0         0.33         41.6 
      1542.0         0.33         42.9 
      1543.0         0.23         42.7 
      1544.0         0.57         47.9 
      1545.0         0.47         48.5 
      1546.0         0.50         48.4 
      1547.0         0.55         47.9 
      1548.0         0.80         48.2 
      1549.0         0.63         48.2 
      1550.0         0.80         45.8 
      1551.0         0.75         42.5 
      1552.0         0.67         41.9 
      1553.0         0.63         41.8 
      1554.0         0.63         42.8 
      1555.0         0.63         43.2 
      1556.0         0.68         37.3 
      1557.0         0.83         91.0 
      1558.0         0.70        116.7 
      1559.0         0.90        114.6 
      1560.0         4.17         82.4 
      1561.0         0.60         43.9 
      1562.0         0.60         44.0 
      1563.0         0.47         51.5 
      1564.0         0.40         53.8 
      1565.0         0.43         53.8 
      1566.0         0.57         53.5 
      1567.0         0.62         51.8 
      1568.0         0.60         47.6 
      1569.0         0.67         47.2 
      1570.0         0.80         46.7 
      1571.0         0.60         46.1 
      1572.0         0.55         45.8 
      1573.0         0.67         45.4 
      1574.0         0.60         45.6 
      1575.0         0.50         43.9 
      1576.0         0.37         45.1 
      1577.0         0.20         46.5 
      1578.0         0.23         48.7 
      1579.0         0.32         50.2 
      1580.0         0.33         51.2 
      1581.0         0.43         51.6 
      1582.0         0.37         51.1 
      1583.0         0.30         50.0 
      1584.0         0.40         49.6 
      1585.0         0.30         50.6 
      1586.0         0.27         50.8 
      1587.0         0.25         50.9 
      1588.0         0.40         50.9 
      1589.0         0.37         52.0 
      1590.0         8.15        195.8 
      1591.0         0.73         41.3 
      1592.0         0.77         44.6 
      1593.0         0.73         45.0 
      1594.0         0.75         45.5 
      1595.0         0.60         46.2 
      1596.0         0.53         46.2 
      1597.0         0.57         46.5 
      1598.0         0.57         48.2 
      1599.0         0.70         48.3 
      1600.0         1.05         48.3 
      1601.0         0.70         48.2 
      1602.0         1.20         47.9 
      1603.0         0.85         47.2 
      1604.0         1.27         51.7 
      1605.0         0.90         51.7 
      1606.0         0.82         47.0 
      1607.0         0.50         45.0 
      1608.0         0.47         42.1 
      1609.0         0.47         44.8 
      1610.0         0.40         45.1 
      1611.0         0.40         44.2 
      1612.0         0.53         44.9 
      1613.0         0.55         44.9 
      1614.0         0.57         45.4 
      1615.0         0.63         44.9 
      1616.0         0.40         43.9 
      1617.0         0.50         45.1 
      1618.0         0.47         45.3 
      1619.0         0.48         44.3 
      1620.0         5.95        195.6 
      1621.0         0.60         72.9 
      1622.0         0.72         69.9 
      1623.0         0.80         55.0 
      1624.0         0.57         41.5 
      1625.0         0.57         41.1 
      1626.0         0.95         46.3 
      1627.0         0.90         46.5 
