~Version Information
 VERS.                                  2.0 : CWLS LAS VERSION
 WRAP.                                   NO : WRAPING MODE
 SWARE .                 MController 2.5.0J : SOFTWARE VERSION
~Well Information
 WELL.                        Montoya 1-44R : WELL
 COMP.                       Petrogulf Corp : COMPANY
 FLD.                      Purgatoire River : FIELD
 LOC.                 SE/SE Sec 1 T33S R68W : LOCATION
 DATE.                             11/15/04 : DATE(S) LOGGED
 SRVC.       Blanco Geological Services LLC : SERVICE COMPANY
 STAT.                                   CO : STATE
 CNTY.                           Las Animas : COUNTY
 CTRY.                                  USA : COUNTRY
 API.                       05-071-08239-00 : API NUMBER
 STRT.FT                             615.00 : START DEPTH
 STOP.FT                            2140.00 : STOP DEPTH
 STEP.FT                               1.00 : DEPTH INCREMENT
 NULL.                                -9999 : NULL VALUE
~Curve information
 DEPTH.FT                                   :
 ROP.MIN/FT                                 :
 GAS.UNITS                                  :
~ASCII Log data
# ...
      1815.0         0.30         12.4 
      1816.0         0.33         12.5 
      1817.0         0.30         12.7 
      1818.0         0.33         12.0 
      1819.0         0.28         12.1 
      1820.0         0.33         12.5 
      1821.0         0.40         22.1 
      1822.0         0.30         22.1 
      1823.0         0.37         28.0 
      1824.0         0.33         29.3 
      1825.0         0.30         26.0 
      1826.0         0.23         23.0 
      1827.0         0.40         17.2 
      1828.0         0.33         15.1 
      1829.0         0.35         14.7 
      1830.0         0.30         13.8 
      1831.0         0.37         14.3 
      1832.0         0.47         13.5 
      1833.0         0.43         13.3 
      1834.0         0.40         13.1 
      1835.0         0.33         13.1 
      1836.0         0.33         13.5 
      1837.0         0.33         13.0 
      1838.0         0.28         12.8 
      1839.0         0.30         13.0 
      1840.0         0.27         13.2 
      1841.0         0.27         12.9 
      1842.0         0.20         12.8 
      1843.0         0.23         12.8 
      1844.0         0.23         13.1 
      1845.0         0.23         13.6 
      1846.0         0.23         12.6 
      1847.0         0.27         12.6 
      1848.0         0.20         15.8 
      1849.0         0.23         15.8 
      1850.0         0.23         17.7 
      1851.0         0.28         18.5 
      1852.0         0.23         18.8 
      1853.0         0.20         17.5 
      1854.0         0.20         17.2 
      1855.0         0.23         16.0 
      1856.0         0.20         15.7 
      1857.0         0.27         15.3 
      1858.0         0.23         15.1 
      1859.0         0.23         14.2 
      1860.0         0.30         14.2 
      1861.0         0.23         13.8 
      1862.0         0.23         13.7 
      1863.0         0.40         14.2 
      1864.0         0.38         13.8 
      1865.0         0.37         14.1 
      1866.0         0.27         13.6 
      1867.0         0.27         14.1 
      1868.0         0.27         14.4 
      1869.0         0.27         14.5 
      1870.0         0.27         14.8 
      1871.0         0.23         14.8 
      1872.0         0.27         14.2 
      1873.0         0.27         13.7 
      1874.0         0.27         13.7 
      1875.0         0.30         14.0 
      1876.0         0.25         14.0 
      1877.0         0.23         13.7 
      1878.0         0.23         14.6 
      1879.0         0.23         14.6 
      1880.0         0.20         15.3 
      1881.0         0.23         15.2 
      1882.0         0.23         15.9 
      1883.0         0.27         16.7 
      1884.0         0.27         16.6 
      1885.0         0.20         16.5 
      1886.0         0.27         16.5 
      1887.0         0.33         15.6 
      1888.0         0.37         15.2 
      1889.0         0.27         15.4 
      1890.0         0.23         15.3 
      1891.0         0.30         15.7 
      1892.0         0.32         15.4 
      1893.0         0.33         15.1 
      1894.0         0.37         15.7 
      1895.0         0.33         14.8 
      1896.0         0.33         14.9 
      1897.0         0.33         15.0 
      1898.0         0.30         14.6 
      1899.0         0.27         15.0 
      1900.0         0.30         14.6 
      1901.0         0.27         14.3 
      1902.0         0.25         14.5 
      1903.0         0.23          1.6 
      1904.0         0.27         14.7 
      1905.0         0.20         14.8 
      1906.0         0.27         14.5 
      1907.0         0.30         13.5 
      1908.0         0.27         13.3 
      1909.0         0.27         13.1 
      1910.0         0.23         14.0 
      1911.0         0.27         80.5 
      1912.0         0.23         80.5 
      1913.0         0.27         97.2 
      1914.0         0.27         85.6 
      1915.0         0.23         48.0 
      1916.0         0.18         26.4 
      1917.0         0.38         23.1 
      1918.0         0.30         20.1 
      1919.0         0.33         16.4 
      1920.0         0.30         17.3 
      1921.0         0.33         16.8 
      1922.0         0.50         16.0 
      1923.0         0.20         14.6 
      1924.0         0.27         14.6 
      1925.0         0.20         14.5 
      1926.0         0.30         14.6 
      1927.0         0.43         14.4 
      1928.0         0.48         14.3 
      1929.0         0.27         14.2 
      1930.0         0.30         14.0 
      1931.0         0.37         13.3 
      1932.0         0.23         13.7 
      1933.0         0.23         13.7 
      1934.0         0.27         13.8 
      1935.0         0.20         13.3 
      1936.0         0.23         12.6 
      1937.0         0.17         14.1 
      1938.0         0.13         14.1 
      1939.0         0.23         15.6 
      1940.0         0.17         17.9 
      1941.0         0.22         17.9 
      1942.0         0.17         18.8 
      1943.0         0.20         18.7 
      1944.0         0.23         19.3 
      1945.0         0.20         16.5 
      1946.0         0.27         15.8 
      1947.0         0.30         16.0 
      1948.0         0.30         15.4 
      1949.0         0.33         14.8 
      1950.0         0.37         14.6 
      1951.0         0.27         14.1 
      1952.0         0.30         14.3 
      1953.0         0.30         14.8 
      1954.0         0.30         14.4 
      1955.0         0.35         13.8 
      1956.0         0.30         13.7 
      1957.0         0.33         13.3 
      1958.0         0.27         13.6 
      1959.0         0.40         13.7 
      1960.0         0.43         14.2 
      1961.0         0.23         14.2 
      1962.0         0.20         13.8 
      1963.0         0.23         13.5 
      1964.0         0.30         13.0 
      1965.0         0.30         13.1 
      1966.0         0.42         12.8 
      1967.0         0.30         12.6 
      1968.0         0.27         12.8 
      1969.0         0.27         15.8 
      1970.0         0.23         15.8 
      1971.0         0.20         14.9 
      1972.0         0.23         14.1 
      1973.0         0.27         13.6 
      1974.0         0.27         13.8 
      1975.0         0.20         13.6 
      1976.0         0.27         13.4 
      1977.0         0.22         13.3 
      1978.0         0.40         13.1 
      1979.0         0.30         12.2 
      1980.0         0.40         11.8 
      1981.0         0.40         11.9 
      1982.0         0.33         11.0 
      1983.0         0.33         11.5 
      1984.0         0.33         12.9 
      1985.0         0.30         13.3 
      1986.0         0.30         13.1 
      1987.0         0.32         11.8 
      1988.0         0.30         11.8 
      1989.0         0.30         12.5 
      1990.0         0.30         12.1 
      1991.0         0.30         13.3 
      1992.0         0.30         13.2 
      1993.0         0.30         12.5 
      1994.0         0.33         13.4 
      1995.0         0.33         13.3 
      1996.0         0.40         11.7 
      1997.0         0.23         11.0 
      1998.0         0.28         10.8 
      1999.0         0.27         11.4 
      2000.0         0.27         12.7 
      2001.0         0.33         13.3 
      2002.0         0.37         13.9 
      2003.0         0.37         15.8 
      2004.0         0.33         15.3 
      2005.0         0.23         15.6 
      2006.0         0.10         17.1 
      2007.0         0.40         17.2 
      2008.0         0.30         16.8 
      2009.0         0.30         15.6 
      2010.0         0.30         15.8 
      2011.0         0.32         15.3 
      2012.0         0.43         15.1 
      2013.0         0.30         13.7 
      2014.0         0.37         13.5 
