~Version Information
VERS.                      2.0: CWLS Log ASCII Standard - VERSION 2.0
WRAP.                       NO: One line per depth step
~Well Information Block
STRT.FT               780.0000: 
STOP.FT              3152.2500: 
STEP.FT                 0.2500: 
NULL.                -999.2500: 
COMP.          Pioneer Natural Resources: COMPANY
WELL.            Paradise 13-8: WELL
FLD.           Purgatoire River: FIELD
LOC.           1896' FSL & 1120' FWL: LOCATION
PROV.                 Colorado: PROVINCE
CNTY.               Las Animas: COUNTRY
SRVC.                Patterson: SERVICE COMPANY
DATE.          Sat Jan 22 20:39:47 2005: LOG DATE
UWI.           05 071 07946 00: UNIQUE WELL ID
~Curve Information Block
DEPT.FT            0 000 00 00: Depth
SN.Ohm-m                      : IEL Short Normal
SP.mV                         : IEL Spontaneous Potential
DIR.Ohm-m                     : IEL Induction Resistivity
GR.GAPI                       : Gamma Ray
~Parameter Information Block
~A  Depth        SN          SP         DIR          GR     
# ...
  2957.5000     10.9314     12.6487     10.1291    120.1370
  2957.7500     10.8949     12.6423     10.3634    118.6173
  2958.0000     10.9653     12.6546     10.6656    116.9550
  2958.2500     11.2376     12.6341     11.0595    116.6513
  2958.5000     11.7960     12.5652     11.5522    117.4852
  2958.7500     12.6804     12.4635     12.1188    118.2026
  2959.0000     13.8524     12.3645     12.6977    117.9115
  2959.2500     15.1828     12.3133     13.2039    116.5235
  2959.5000     16.4856     12.3588     13.5584    113.6160
  2959.7500     17.5909     12.5506     13.7220    111.7681
  2960.0000     18.4112     12.9321     13.7104    109.2555
  2960.2500     18.9520     13.5268     13.5801    107.5029
  2960.5000     19.2639     14.3217     13.3971    104.7635
  2960.7500     19.3876     15.2545     13.2099    103.3538
  2961.0000     19.3407     16.2119     13.0396    103.4432
  2961.2500     19.1439     17.0420     12.8858    105.8240
  2961.5000     18.8423     17.5785     12.7405    112.7414
  2961.7500     18.4938     17.6670     12.6006    118.4007
  2962.0000     18.1416     17.1863     12.4725    126.1722
  2962.2500     17.7977     16.0601     12.3690    130.2644
  2962.5000     17.4456     14.2639     12.3046    134.6281
  2962.7500     17.0560     11.8334     12.2908    136.0684
  2963.0000     16.6087      8.8851     12.3337    134.9708
  2963.2500     16.1124      5.6436     12.4314    131.7852
  2963.5000     15.6106      2.4577     12.5717    124.4825
  2963.7500     15.1702     -0.2231     12.7356    119.4800
  2964.0000     14.8569     -1.9275     12.9021    114.7614
  2964.2500     14.7010     -2.2850     13.0501    114.5571
  2964.5000     14.6729     -1.1450     13.1516    118.2523
  2964.7500     14.6883      1.3646     13.1650    122.0021
  2965.0000     14.6493      4.8711     13.0485    127.0022
  2965.2500     14.4966      8.8699     12.7883    129.2154
  2965.5000     14.2370     12.8643     12.4162    131.0922
  2965.7500     13.9297     16.4760     11.9931    131.8645
  2966.0000     13.6468     19.4920     11.5778    133.0335
  2966.2500     13.4380     21.8519     11.2081    134.0781
  2966.5000     13.3143     23.6001     10.9014    135.9789
  2966.7500     13.2512     24.8332     10.6632    137.0380
  2967.0000     13.2049     25.6600     10.4923    137.4596
  2967.2500     13.1383     26.1794     10.3827    136.9145
  2967.5000     13.0415     26.4735     10.3244    135.6846
  2967.7500     12.9340     26.6087     10.3053    135.0852
  2968.0000     12.8458     26.6407     10.3141    134.6718
  2968.2500     12.7970     26.6171     10.3423    134.5657
  2968.5000     12.7937     26.5761     10.3859    134.5183
  2968.7500     12.8347     26.5418     10.4458    134.5901
  2969.0000     12.9119     26.5196     10.5251    134.9040
  2969.2500     13.0048     26.4961     10.6236    135.1619
  2969.5000     13.0845     26.4452     10.7312    135.1624
  2969.7500     13.1318     26.3401     10.8290    134.7254
  2970.0000     13.1483     26.1657     10.8991    133.9894
  2970.2500     13.1485     25.9267     10.9391    134.0797
  2970.5000     13.1422     25.6481     10.9658    135.2044
  2970.7500     13.1274     25.3674     11.0052    135.7740
  2971.0000     13.0990     25.1221     11.0768    134.5987
  2971.2500     13.0631     24.9371     11.1854    132.1484
  2971.5000     13.0445     24.8163     11.3249    127.0235
  2971.7500     13.0807     24.7416     11.4872    123.6423
  2972.0000     13.2015     24.6753     11.6694    119.7064
  2972.2500     13.4158     24.5639     11.8751    117.8393
  2972.5000     13.7137     24.3394     12.1108    115.7999
  2972.7500     14.0733     23.9216     12.3809    115.0316
  2973.0000     14.4636     23.2239     12.6849    115.2841
  2973.2500     14.8528     22.1661     13.0171    116.3292
  2973.5000     15.2278     20.6943     13.3694    118.0462
  2973.7500     15.6110     18.7986     13.7350    118.3787
  2974.0000     16.0597     16.5236     14.1116    116.5116
  2974.2500     16.6459     13.9650     14.5016    113.4078
  2974.5000     17.4258     11.2540     14.9096    106.3047
  2974.7500     18.4121      8.5347     15.3404    100.7735
  2975.0000     19.5629      5.9401     15.7964     93.5749
  2975.2500     20.7890      3.5732     16.2730     90.6352
  2975.5000     21.9733      1.4992     16.7507     89.1379
  2975.7500     22.9904     -0.2495     17.1936     89.1716
  2976.0000     23.7280     -1.6541     17.5598     89.3812
  2976.2500     24.1076     -2.6841     17.8195     89.6617
  2976.5000     24.0967     -3.2790     17.9630     91.0474
  2976.7500     23.7039     -3.3477     17.9855     92.6047
  2977.0000     22.9633     -2.7913     17.8626     94.9917
  2977.2500     21.9243     -1.5401     17.5427     96.2703
  2977.5000     20.6536      0.4105     16.9721     98.1982
  2977.7500     19.2387      2.9795     16.1417    100.0576
  2978.0000     17.7785      6.0024     15.1135    104.3026
  2978.2500     16.3655      9.2533     14.0032    108.2542
  2978.5000     15.0739     12.4771     12.9331    116.2440
  2978.7500     13.9597     15.4242     11.9937    123.0747
  2979.0000     13.0605     17.8794     11.2333    134.5927
  2979.2500     12.3867     19.6812     10.6660    141.5329
  2979.5000     11.9162     20.7294     10.2841    147.1442
  2979.7500     11.6049     20.9833     10.0677    145.9874
  2980.0000     11.4123     20.4588      9.9931    136.5686
  2980.2500     11.3272     19.2275     10.0397    126.5961
  2980.5000     11.3845     17.4213     10.1967    109.8395
  2980.7500     11.6685     15.2325     10.4666     99.4844
  2981.0000     12.2919     12.9026     10.8644     87.5788
  2981.2500     13.3400     10.6906     11.4119     82.7297
  2981.5000     14.7969      8.8296     12.1273     79.7204
  2981.7500     16.5049      7.4830     13.0115     79.5887
  2982.0000     18.2017      6.7177     14.0310     80.4093
  2982.2500     19.6268      6.5034     15.1087     81.1188
  2982.5000     20.6259      6.7352     16.1313     82.4346
  2982.7500     21.1891      7.2689     16.9822     83.5919
  2983.0000     21.4165      7.9552     17.5851     85.7768
  2983.2500     21.4474      8.6641     17.9333     87.5426
  2983.5000     21.3963      9.2951     18.0861     90.6800
  2983.7500     21.3272      9.7785     18.1360     92.9509
  2984.0000     21.2663     10.0717     18.1719     95.8277
  2984.2500     21.2263     10.1556     18.2558     96.7287
  2984.5000     21.2168     10.0331     18.4176     95.8244
  2984.7500     21.2454      9.7274     18.6609     93.8337
  2985.0000     21.3155      9.2801     18.9719     89.5711
  2985.2500     21.4266      8.7458     19.3295     86.3982
  2985.5000     21.5736      8.1852     19.7174     82.0830
  2985.7500     21.7491      7.6559     20.1301     80.0922
  2986.0000     21.9427      7.2060     20.5641     78.8971
  2986.2500     22.1373      6.8697     20.9957     78.9313
  2986.5000     22.3111      6.6664     21.3689     78.9458
  2986.7500     22.4465      6.6021     21.6126     78.4065
  2987.0000     22.5376      6.6705     21.6827     76.9270
  2987.2500     22.5855      6.8546     21.5955     76.0688
  2987.5000     22.5898      7.1293     21.4185     76.0256
  2987.7500     22.5494      7.4654     21.2291     77.0517
  2988.0000     22.4717      7.8358     21.0756     79.4736
  2988.2500     22.3748      8.2194     20.9636     80.8978
  2988.5000     22.2765      8.6016     20.8698     82.0091
  2988.7500     22.1793      8.9719     20.7698     82.3088
  2989.0000     22.0703      9.3195     20.6586     82.8520
  2989.2500     21.9368      9.6321     20.5478     83.3155
  2989.5000     21.7814      9.8973     20.4498     83.4949
  2989.7500     21.6208     10.1054     20.3683     82.8695
  2990.0000     21.4748     10.2525     20.3021     80.7802
  2990.2500     21.3575     10.3420     20.2495     79.1072
  2990.5000     21.2735     10.3842     20.2061     77.4862
  2990.7500     21.2174     10.3958     20.1628     77.5486
