~Version Information
VERS.                      2.0: CWLS Log ASCII Standard - VERSION 2.0
WRAP.                       NO: One line per depth step
~Well Information Block
STRT.FT               450.0000: 
STOP.FT              2753.5000: 
STEP.FT                 0.1000: 
NULL.                -999.2500: 
COMP.          Pioneer Natural Resources: COMPANY
WELL.             Squeal 11-26: WELL
FLD.           Purgatoire River: FIELD
LOC.           1186' FNL & 152' FWL: LOCATION
PROV.                 Colorado: PROVINCE
CNTY.               Las Animas: COUNTRY
SRVC.                Patterson: SERVICE COMPANY
DATE.          Wed Jun 15 09:11:52 2005: LOG DATE
UWI.           05 071 08404 00: UNIQUE WELL ID
~Curve Information Block
DEPT.FT            0 000 00 00: Depth
DCAL.in                       : CDL Caliper
RHOB.g/cc                     : CDL Bulk Density
RHOC.g/cc                     : CDL Density Correction
DPOR.pu                       : CDL Density Porosity
GR.GAPI                       : Gamma Ray
NPOR.pu                       : Neutron Porosity
~Parameter Information Block
~A  Depth       DCAL        RHOB        RHOC        DPOR         GR         NPOR    
# ...
  1822.8000      7.9652      2.4219      0.0976     13.8251    140.0197     28.8766
  1822.9000      7.9652      2.3460      0.0541     18.4248    146.3865     28.7760
  1823.0000      7.9852      2.2579      0.0229     23.7613    156.2076     29.7320
  1823.1000      7.9852      2.2012     -0.0245     27.1988    169.5304     31.9610
  1823.2000      7.9852      2.1921      0.1048     27.7532    179.9276     33.6739
  1823.3000      8.0479      2.2030      0.0570     27.0905    180.6659     33.8423
  1823.4000      8.0479      2.2137      0.1134     26.4437    175.3022     32.8677
  1823.5000      8.0709      2.2287      0.1329     25.5307    170.8902     31.6133
  1823.6000      8.0709      2.2508      0.1901     24.1922    169.3363     31.0823
  1823.7000      8.0709      2.2907      0.1274     21.7787    167.0851     31.5525
  1823.8000      8.1079      2.3706      0.1785     16.9351    160.6887     32.2589
  1823.9000      8.1079      2.4647      0.2242     11.2294    154.0990     32.5104
  1824.0000      8.1274      2.4986      0.1509      9.1741    153.8403     32.3333
  1824.1000      8.1274      2.4463      0.0407     12.3483    159.1387     31.8390
  1824.2000      8.1274      2.3660     -0.0456     17.2148    165.9639     30.8428
  1824.3000      8.1483      2.3260     -0.0393     19.6341    170.7194     29.8379
  1824.4000      8.1483      2.3406      0.0165     18.7509    168.2430     29.7490
  1824.5000      8.2140      2.3880     -0.0017     15.8794    158.2436     30.3200
  1824.6000      8.2140      2.4483      0.0405     12.2254    146.8844     30.2726
  1824.7000      8.2140      2.5104      0.0869      8.4600    141.6057     29.7110
  1824.8000      8.3445      2.5718      0.2217      4.7398    148.2209     29.9828
  1824.9000      8.3445      2.6329      0.3433      1.0388    162.1819     30.8177
  1825.0000      8.1891      2.6840      0.4239     -2.0614    170.3679     31.0437
  1825.1000      8.1891      2.7032      0.3953     -3.2265    169.3338     30.7367
  1825.2000      8.1891      2.6784      0.3192     -1.7202    168.3214     30.2067
  1825.3000      8.0620      2.6281      0.1453      1.3269    175.1545     29.9576
  1825.4000      8.0620      2.5901      0.1534      3.6303    184.0379     30.4178
  1825.5000      8.0528      2.5835      0.1538      4.0285    185.6117     30.7738
  1825.6000      8.0528      2.5996      0.1847      3.0557    181.6711     30.5476
  1825.7000      8.0528      2.6120      0.1517      2.3043    178.0271     30.3304
  1825.8000      8.0863      2.5940      0.1559      3.3938    178.4497     30.3066
  1825.9000      8.0863      2.5531     -0.0008      5.8749    182.5000     30.4163
  1826.0000      8.1006      2.5215      0.0448      7.7861    185.2561     30.4888
  1826.1000      8.1006      2.4967      0.0560      9.2880    184.8975     30.2763
  1826.2000      8.1006      2.4605      0.0552     11.4851    184.7020     29.9528
  1826.3000      8.0423      2.4226      0.0351     13.7846    186.0211     29.9341
  1826.4000      8.0423      2.3900      0.0296     15.7585    187.9782     30.5141
  1826.5000      8.0350      2.3387      0.0322     18.8695    184.9662     31.3391
  1826.6000      8.0350      2.2394      0.0063     24.8832    174.8029     31.7942
  1826.7000      8.0350      2.1061     -0.0541     32.9607    165.5000     32.2090
  1826.8000      8.0562      1.9949     -0.1138     39.7032    160.5334     32.9421
  1826.9000      8.0562      1.9432     -0.0356     42.8392    160.0751     33.5900
  1827.0000      8.0752      1.9475     -0.0724     42.5763    166.0512     33.6755
  1827.1000      8.0752      1.9945     -0.0255     39.7277    173.9275     33.1401
  1827.2000      8.0752      2.0659      0.0394     35.4028    176.3194     32.1985
  1827.3000      8.1240      2.1438      0.0887     30.6797    172.2318     31.5434
  1827.4000      8.1240      2.2222      0.1960     25.9256    167.3760     31.3379
  1827.5000      8.1454      2.3043      0.2271     20.9511    162.9213     31.0197
  1827.6000      8.1454      2.3964      0.2514     15.3707    153.6623     30.2793
  1827.7000      8.1454      2.4796      0.2747     10.3259    141.5698     29.6081
  1827.8000      8.2339      2.5156      0.1631      8.1440    132.3493     29.3742
  1827.9000      8.2339      2.5085     -0.0011      8.5733    127.5371     29.1204
  1828.0000      8.2535      2.5035      0.0139      8.8768    127.5006     28.7976
  1828.1000      8.2535      2.5205      0.0113      7.8463    133.3869     28.8696
  1828.2000      8.2535      2.5405      0.0664      6.6350    141.3967     29.2693
  1828.3000      8.0737      2.5457      0.0694      6.3225    145.0117     29.5417
  1828.4000      8.0737      2.5383      0.1111      6.7707    145.5350     29.5553
  1828.5000      8.0472      2.5203      0.0962      7.8632    146.8952     29.7032
  1828.6000      8.0472      2.4855      0.1102      9.9724    150.5180     30.4114
  1828.7000      8.0472      2.4355      0.0797     12.9996    155.8009     31.7928
  1828.8000      8.0331      2.3850      0.1038     16.0590    158.8476     32.8786
  1828.9000      8.0331      2.3391      0.0932     18.8412    156.9955     32.0872
  1829.0000      8.0397      2.2743      0.0893     22.7689    154.4768     30.0518
  1829.1000      8.0397      2.1581      0.0729     29.8128    156.4004     28.9482
  1829.2000      8.0397      2.0011     -0.0724     39.3272    160.4200     29.5064
  1829.3000      8.0583      1.8630     -0.0921     47.6979    161.4596     31.0248
  1829.4000      8.0583      1.7895     -0.0346     52.1536    157.8038     32.4842
  1829.5000      8.0827      1.7705     -0.0019     53.3034    149.9074     33.2022
  1829.6000      8.0827      1.7756     -0.0109     52.9940    144.1537     33.4801
  1829.7000      8.0827      1.8083     -0.0585     51.0095    146.1411     33.9885
  1829.8000      8.1327      1.8841      0.0239     46.4160    147.7648     34.5038
  1829.9000      8.1327      1.9860      0.1578     40.2436    141.7693     34.2969
  1830.0000      8.1536      2.0963      0.1878     33.5573    132.2057     33.4355
  1830.1000      8.1536      2.2274      0.2216     25.6094    123.0065     32.4366
  1830.2000      8.1536      2.3758      0.3064     16.6203    115.2723     31.2053
  1830.3000      8.2213      2.4883      0.3178      9.7974    111.3230     30.1515
  1830.4000      8.2213      2.5281      0.1479      7.3874    111.1992     30.4523
  1830.5000      8.2666      2.5297      0.0414      7.2898    110.2383     31.9577
  1830.6000      8.2666      2.5325      0.0878      7.1217    105.5052     33.0291
  1830.7000      8.2666      2.5267      0.0659      7.4699    103.1590     32.4078
  1830.8000      8.1267      2.5034      0.0385      8.8866    108.2955     30.5261
  1830.9000      8.1267      2.4800     -0.0128     10.3028    116.0445     28.3998
  1831.0000      8.0790      2.4731      0.0101     10.7221    119.7273     26.6923
  1831.1000      8.0790      2.4871     -0.0004      9.8705    117.3834     25.7654
  1831.2000      8.0790      2.5192      0.0008      7.9277    112.0762     25.1433
  1831.3000      8.0849      2.5532      0.0704      5.8658    110.1444     24.0528
  1831.4000      8.0849      2.5647      0.0554      5.1696    113.6077     22.9896
  1831.5000      8.0879      2.5461      0.0478      6.2958    117.4855     22.9732
  1831.6000      8.0879      2.5211      0.0369      7.8150    117.4393     23.8418
  1831.7000      8.0879      2.5218      0.0233      7.7677    114.4769     24.7688
  1831.8000      8.0463      2.5465      0.0565      6.2744    111.9965     25.4223
  1831.9000      8.0463      2.5639      0.0534      5.2198    113.3297     25.8594
  1832.0000      8.0276      2.5653      0.0394      5.1340    118.6432     26.2695
  1832.1000      8.0276      2.5702      0.0544      4.8349    122.6868     26.5095
  1832.2000      8.0276      2.5894      0.0504      3.6724    122.5713     26.1506
  1832.3000      7.9789      2.6189      0.1001      1.8856    120.1284     25.3132
