~Version Information
VERS.                      2.0: CWLS Log ASCII Standard - VERSION 2.0
WRAP.                       NO: One line per depth step
~Well Information Block
STRT.FT               250.0000: 
STOP.FT              2600.7500: 
STEP.FT                 0.2500: 
NULL.                -999.2500: 
COMP.          Pioneer Natural Resources: COMPANY
WELL.              Quack 22-24: WELL
FLD.           Purgatoire River: FIELD
LOC.           2492' FNL & 2459' FWL--: LOCATION
PROV.                 Colorado: PROVINCE
CNTY.               Las Animas: COUNTRY
SRVC.                Patterson: SERVICE COMPANY
DATE.          Sun Jun 12 09:02:01 2005: LOG DATE
UWI.            05 071 0840200: UNIQUE WELL ID
~Curve Information Block
DEPT.FT            0 000 00 00: Depth
SN.Ohm-m                      : IEL Short Normal
SP.mV                         : IEL Spontaneous Potential
DIR.Ohm-m                     : IEL Induction Resistivity
GR.GAPI                       : Gamma Ray
~Parameter Information Block
~A  Depth        SN          SP         DIR          GR     
# ...
  2561.5000     22.6321    -20.3008     21.9934    127.5557
  2561.7500     22.6706    -20.3286     21.9444    128.3876
  2562.0000     22.7140    -20.3644     21.8806    132.9944
  2562.2500     22.7639    -20.4010     21.8123    137.2369
  2562.5000     22.8247    -20.4312     21.7616    142.6163
  2562.7500     22.8988    -20.4495     21.7541    144.3547
  2563.0000     22.9849    -20.4530     21.8069    143.8139
  2563.2500     23.0789    -20.4431     21.9220    141.8749
  2563.5000     23.1761    -20.4247     22.0870    137.6755
  2563.7500     23.2735    -20.4062     22.2803    134.4995
  2564.0000     23.3727    -20.3983     22.4771    130.1698
  2564.2500     23.4817    -20.4120     22.6548    128.2659
  2564.5000     23.6117    -20.4585     22.8021    127.3902
  2564.7500     23.7721    -20.5481     22.9247    127.7568
  2565.0000     23.9662    -20.6898     23.0446    128.6893
  2565.2500     24.1931    -20.8915     23.1901    129.2194
  2565.5000     24.4510    -21.1584     23.3849    129.6733
  2565.7500     24.7382    -21.4915     23.6469    129.6262
  2566.0000     25.0500    -21.8847     23.9909    128.9236
  2566.2500     25.3752    -22.3230     24.4275    128.2099
  2566.5000     25.6930    -22.7811     24.9517    127.2312
  2566.7500     25.9729    -23.2246     25.5274    126.6600
  2567.0000     26.1797    -23.6135     26.0835    125.3644
  2567.2500     26.2861    -23.9071     26.5352    123.7629
  2567.5000     26.2871    -24.0701     26.8256    119.5731
  2567.7500     26.2074    -24.0782     26.9544    114.9266
  2568.0000     26.0925    -23.9213     26.9676    102.8974
  2568.2500     25.9843    -23.6050     26.9144     90.1169
  2568.5000     25.8983    -23.1491     26.8087     64.3483
  2568.7500     25.8178    -22.5852     26.6265     45.6625
  2569.0000     25.7072    -21.9517     26.3346     22.0433
  2569.2500     25.5315    -21.2898     25.9246     11.5857
  2569.5000     25.2706    -20.6386     25.4220      3.4212
  2569.7500     24.9246    -20.0307     24.8685      1.2699
  2570.0000     24.5128    -19.4897     24.2980      0.2166
  2570.2500     24.0675    -19.0282     23.7290      0.0542
  2570.5000     23.6235    -18.6486     23.1730      0.0029
  2570.7500     23.2096    -18.3440     22.6436   -999.2500
  2571.0000     22.8424    -18.1017     22.1564   -999.2500
  2571.2500     22.5277    -17.9067     21.7222   -999.2500
  2571.5000     22.2652    -17.7448     21.3423   -999.2500
  2571.7500     22.0525    -17.6058     21.0117   -999.2500
  2572.0000     21.8837    -17.4847     20.7277   -999.2500
  2572.2500     21.7463    -17.3811     20.4957   -999.2500
  2572.5000     21.6222    -17.2976     20.3266   -999.2500
  2572.7500     21.4929    -17.2357     20.2279   -999.2500
  2573.0000     21.3432    -17.1917     20.1905   -999.2500
  2573.2500     21.1603    -17.1529     20.1807   -999.2500
  2573.5000     20.9305    -17.0958     20.1411   -999.2500
  2573.7500     20.6373    -16.9875     20.0049   -999.2500
  2574.0000     20.2621    -16.7907     19.7181   -999.2500
  2574.2500     19.7961    -16.4727     19.2630   -999.2500
  2574.5000     19.2582    -16.0154     18.6688   -999.2500
  2574.7500     18.7042    -15.4245     18.0062   -999.2500
  2575.0000     18.2088    -14.7346     17.3657   -999.2500
  2575.2500     17.8284    -14.0083     16.8281   -999.2500
  2575.5000     17.5758    -13.3294     16.4407   -999.2500
  2575.7500     17.4245    -12.7902     16.2084   -999.2500
  2576.0000     17.3375    -12.4766     16.1012   -999.2500
  2576.2500     17.2988    -12.4547     16.0762   -999.2500
  2576.5000     17.3359    -12.7607     16.1038   -999.2500
  2576.7500     17.5267    -13.3958     16.1877   -999.2500
  2577.0000     17.9849    -14.3276     16.3643   -999.2500
  2577.2500     18.8117    -15.4953     16.6874   -999.2500
  2577.5000     20.0333    -16.8176     17.2062   -999.2500
  2577.7500     21.5659    -18.2008     17.9502   -999.2500
  2578.0000     23.2375    -19.5466     18.9186   -999.2500
  2578.2500     24.8402    -20.7568     20.0714   -999.2500
  2578.5000     26.1774    -21.7371     21.3152   -999.2500
  2578.7500     27.0936    -22.4008     22.4892   -999.2500
  2579.0000     27.4967    -22.6728     23.3729   -999.2500
  2579.2500     27.3674    -22.4962     23.7437   -999.2500
  2579.5000     26.7554    -21.8416     23.4807   -999.2500
  2579.7500     25.7687    -20.7159     22.6413   -999.2500
  2580.0000     24.5579    -19.1707     21.4359   -999.2500
  2580.2500     23.2887    -17.3036     20.1211   -999.2500
  2580.5000     22.0992    -15.2527     18.9024   -999.2500
  2580.7500     21.0615    -13.1815     17.8980   -999.2500
  2581.0000     20.1716    -11.2573     17.1493   -999.2500
  2581.2500     19.3811     -9.6267     16.6459   -999.2500
  2581.5000     18.6505     -8.3943     16.3497   -999.2500
  2581.7500     17.9933     -7.6088     16.2141   -999.2500
  2582.0000     17.4865     -7.2602     16.2015   -999.2500
  2582.2500     17.2444     -7.2875     16.2958   -999.2500
  2582.5000     17.3702     -7.5945     16.5051   -999.2500
  2582.7500     17.9037     -8.0704     16.8515   -999.2500
  2583.0000     18.7898     -8.6086     17.3512   -999.2500
  2583.2500     19.8851     -9.1227     17.9964   -999.2500
  2583.5000     21.0039     -9.5549     18.7439   -999.2500
  2583.7500     21.9812     -9.8777     19.5152   -999.2500
  2584.0000     22.7212    -10.0908     20.2078   -999.2500
  2584.2500     23.2082    -10.2126     20.7199   -999.2500
  2584.5000     23.4810    -10.2716     20.9833   -999.2500
  2584.7500     23.5979    -10.2978     20.9890   -999.2500
  2585.0000     23.6117    -10.3168     20.7888   -999.2500
  2585.2500     23.5619    -10.3473     20.4720   -999.2500
  2585.5000     23.4791    -10.4017     20.1328   -999.2500
  2585.7500     23.3939    -10.4895     19.8471   -999.2500
  2586.0000     23.3398    -10.6206     19.6614   -999.2500
  2586.2500     23.3473    -10.8087     19.5903   -999.2500
  2586.5000     23.4328    -11.0721     19.6184   -999.2500
  2586.7500     23.5945    -11.4322     19.7088   -999.2500
  2587.0000     23.8169    -11.9105     19.8189   -999.2500
  2587.2500     24.0800    -12.5254     19.9209   -999.2500
  2587.5000     24.3680    -13.2894     20.0171   -999.2500
  2587.7500     24.6750    -14.2077     20.3814   -999.2500
  2588.0000     25.0077    -15.2776     20.5855   -999.2500
  2588.2500     25.3831    -16.4869     20.9173   -999.2500
  2588.5000     25.8161    -17.8116     21.4074   -999.2500
  2588.7500     26.2998    -19.2117     22.0512   -999.2500
  2589.0000     26.7861    -20.6267     22.7961   -999.2500
  2589.2500     27.1782    -21.9747     23.5368   -999.2500
  2589.5000     27.3406    -23.1551     24.1297   -999.2500
  2589.7500     27.1369    -24.0585     24.4439   -999.2500
  2590.0000     26.4904    -24.5819     24.4403   -999.2500
  2590.2500     25.4420    -24.6462     24.2468   -999.2500
  2590.5000     24.1572    -24.2119     24.1905   -999.2500
  2590.7500     22.8553    -23.2880     24.7955   -999.2500
  2591.0000     21.6882    -21.9313     26.8444   -999.2500
  2591.2500     20.6548    -20.2362     31.0419   -999.2500
  2591.5000     19.6179    -18.3180     41.4685   -999.2500
  2591.7500     18.4175    -16.2928     67.2635   -999.2500
  2592.0000     16.9933    -14.2618    163.4596   -999.2500
  2592.2500     15.4289    -12.2999 100000.0000   -999.2500
  2592.5000     13.9025    -10.4535 100000.0000   -999.2500
  2592.7500     12.5962     -8.7453 100000.0000   -999.2500
  2593.0000     11.6251     -7.1841 100000.0000   -999.2500
  2593.2500     11.0075     -5.7767 100000.0000   -999.2500
  2593.5000     10.6779     -4.5382 100000.0000   -999.2500
  2593.7500     10.5322     -3.4986 100000.0000   -999.2500
  2594.0000     10.4831     -2.7042 100000.0000   -999.2500
  2594.2500     10.4922     -2.2117 100000.0000   -999.2500
  2594.5000     10.5598     -2.0785 100000.0000   -999.2500
  2594.7500     10.6899     -2.3481 100000.0000   -999.2500
