~Version Information
VERS.                      2.0: CWLS Log ASCII Standard - VERSION 2.0
WRAP.                       NO: One line per depth step
~Well Information Block
STRT.FT                 0.0000: 
STOP.FT              2384.7500: 
STEP.FT                 0.2500: 
NULL.                -999.2500: 
COMP.          Petrogulf Corporation: COMPANY
WELL.           McDaniel 9-34V: WELL
FLD.           Purgatorie River: FIELD
LOC.           620' FSL & 1800' FEL: LOCATION
STAT.                 Colorado: State
CNTY.               Las Animas: COUNTY
CTRY. USA : Country
SECT. 9 : Section
TOWN. 33S : Township
RANG. 67W : Range
SRVC.                Patterson: SERVICE COMPANY
DATE.          Thu Nov 10 12:28:18 2005: LOG DATE
API. 05-071-08333                         : UNIQUE WELL ID
~Curve Information Block
DEPT.FT            0 000 00 00: Depth
AMP3.mV                       : CBL 3' Amplitude
CCL.                          : Casing Collar Locator
GR.GAPI                       : Gamma Ray
TT3.usec                      : CBL 3' Travel Time
~Parameter Information Block
~A  Depth       AMP3        CCL          GR         TT3     
# ...
   301.5000      6.5764      0.0000     97.4644    392.0962
   301.7500      6.5576      0.0000     96.9099    382.1699
   302.0000      6.4568      0.0000     96.0669    374.1561
   302.2500      6.2960      0.0000     94.3407    369.7552
   302.5000      6.1137      0.0000     90.9744    367.9261
   302.7500      5.9595      0.0000     86.0031    367.2969
   303.0000      5.8706      0.0000     80.4616    367.3486
   303.2500      5.8444      0.0000     75.7853    368.0079
   303.5000      5.8467      0.0000     72.7408    369.1905
   303.7500      5.8429      0.0000     70.7356    370.7316
   304.0000      5.8128      0.0000     68.4147    372.7688
   304.2500      5.7542      0.0000     65.0734    377.1253
   304.5000      5.6953      0.0000     61.3529    390.0340
   304.7500      5.6693      0.0000     58.6155    422.1894
   305.0000      5.6783      0.0000     57.9196    478.1523
   305.2500      5.7152      0.0000     59.5802    543.1284
   305.5000      5.7719      0.0000     63.2493    592.5075
   305.7500      5.8037      0.0000     67.9396    616.5073
   306.0000      5.7673      0.0000     72.0108    623.3892
   306.2500      5.6875      0.0000     73.8329    623.8989
   306.5000      5.6106      0.0000     73.0495    623.1776
   306.7500      5.5293      0.0000     71.0884    622.7063
   307.0000      5.4270      0.0000     70.0687    623.5047
   307.2500      5.3469      0.0000     71.1997    627.1549
   307.5000      5.3364      0.0000     74.0656    633.9052
   307.7500      5.3853      0.0000     76.9884    640.3755
   308.0000      5.4673      0.0000     78.1371    643.2366
   308.2500      5.5714      0.0000     76.8531    646.2980
   308.5000      5.6735      0.0000     74.1322    656.9669
   308.7500      5.7345      0.0000     71.6290    674.0004
   309.0000      5.7492      0.0000     70.1253    686.8218
   309.2500      5.7507      0.0000     69.0817    686.8837
   309.5000      5.7640      0.0000     67.6280    674.3448
   309.7500      5.7972      0.0000     65.7146    657.5346
   310.0000      5.8492      0.0000     64.0743    646.7496
   310.2500      5.9110      0.0000     63.1177    644.8958
   310.5000      5.9683      0.0000     62.1337    647.1671
   310.7500      6.0056      0.0000     59.7849    649.0377
   311.0000      6.0128      0.0000     55.3630    649.6956
   311.2500      5.9766      0.0000     49.4924    649.8093
   311.5000      5.8834      0.0000     43.6166    649.7629
   311.7500      5.7521      0.0000     38.9313    649.7542
   312.0000      5.6374      0.0000     35.8477    650.3793
   312.2500      5.5898      0.0000     34.2879    652.7524
   312.5000      5.6348      0.0000     34.2336    657.4838
   312.7500      5.7608      0.0000     35.8520    663.4881
   313.0000      5.9168      0.0000     39.0143    668.5840
   313.2500      6.0501      0.0000     42.8742    671.1379
   313.5000      6.1268      0.0000     46.2902    671.8809
   313.7500      6.1218      0.0000     48.7428    674.0958
   314.0000      6.0563      0.0000     50.5940    679.8640
   314.2500      6.0003      0.0000     52.4556    685.8897
   314.5000      6.0045      0.0000     54.6590    684.1660
   314.7500      6.0573      0.0000     57.2219    670.5742
   315.0000      6.0949      0.0000     59.7729    651.0512
   315.2500      6.0505      0.0000     61.5522    634.9078
   315.5000      5.8858      0.0000     62.1342    626.9323
   315.7500      5.5739      0.0000     62.2692    627.1293
   316.0000      5.1420      0.0000     63.5616    634.5047
   316.2500      4.6960      0.0000     67.1987    647.8160
   316.5000      4.3286      0.0000     73.1485    662.1216
   316.7500      4.0691      0.0000     80.3529    670.8397
   317.0000      3.9113      0.0000     87.3631    670.3683
   317.2500      3.8351      0.0000     92.9458    658.0752
   317.5000      3.8151      0.0000     96.4861    631.7286
   317.7500      3.8040      0.0000     98.0647    596.8256
   318.0000      3.7188      0.0000     98.1562    568.5284
   318.2500      3.4947      0.0000     97.2186    560.9507
   318.5000      3.1808      0.0000     95.6445    577.0372
   318.7500      2.9211      0.0000     93.8728    606.4107
   319.0000      2.7811      0.0000     92.0636    630.8600
   319.2500      2.7034      0.0000     89.8050    637.7769
   319.5000      2.6437      0.0000     86.7483    627.4484
   319.7500      2.5942      0.0000     83.4527    604.9026
   320.0000      2.5284      0.0000     81.0094    575.5249
   320.2500      2.4510      0.0000     79.8617    549.1364
   320.5000      2.3969      0.0000     79.4783    532.9172
   320.7500      2.3466      0.0000     79.1528    520.2094
   321.0000      2.2540      0.0000     78.6205    497.9149
   321.2500      2.1256      0.0000     77.8041    469.5243
   321.5000      2.0429      0.0000     76.4826    459.6267
   321.7500      2.1196      0.0000     74.6307    485.7260
   322.0000      2.3388      0.0000     72.8718    535.2538
   322.2500      2.5089      0.0000     72.1206    581.0083
   322.5000      2.5269      0.0000     72.6396    611.4574
   322.7500      2.5088      0.0000     73.6391    628.8630
   323.0000      2.6192      0.0000     73.9351    628.8842
   323.2500      2.9163      0.0000     72.8686    606.3630
   323.5000      3.2946     -2.0000     70.6402    570.8059
   323.7500      3.5731      2.0000     68.1966    537.6537
   324.0000      3.6722      0.0000     67.0877    515.8220
   324.2500      3.6493      0.0000     68.9041    514.2905
   324.5000      3.6449      0.0000     74.1389    537.6723
   324.7500      3.8723      0.0000     81.5755    568.5589
   325.0000      4.5001      0.0000     89.0738    579.5540
   325.2500      5.3444      0.0000     94.9271    558.9193
   325.5000      5.8915      0.0000     98.4193    512.3903
   325.7500      5.9156      0.0000     99.4788    456.2679
   326.0000      5.7042      0.0000     98.3312    410.1396
   326.2500      5.5335      0.0000     95.6171    383.6317
   326.5000      5.4242      0.0000     92.3953    373.0252
   326.7500      5.3458      0.0000     89.6087    371.0581
   327.0000      5.3149      0.0000     87.6805    373.7058
   327.2500      5.3539      0.0000     86.8747    378.5020
   327.5000      5.4764      0.0000     87.7066    381.9243
   327.7500      5.7096      0.0000     90.4501    382.5218
   328.0000      6.0549      0.0000     94.3848    384.1256
   328.2500      6.4074      0.0000     98.0704    391.0763
   328.5000      6.6081      0.0000    100.4340    402.8927
   328.7500      6.5865      0.0000    101.2922    417.8767
   329.0000      6.3950      0.0000    100.9915    440.3140
   329.2500      6.1519      0.0000     99.9693    479.8093
   329.5000      5.9527      0.0000     98.5895    538.1731
   329.7500      5.7855      0.0000     96.9222    596.0268
   330.0000      5.5847      0.0000     94.5620    624.5592
   330.2500      5.3562      0.0000     91.0200    610.9439
   330.5000      5.1788      0.0000     86.4494    562.3870
   330.7500      5.1035      0.0000     81.7500    500.0644
   331.0000      5.1152      0.0000     77.8766    450.1815
   331.2500      5.1875      0.0000     75.2624    424.3810
   331.5000      5.2990      0.0000     73.8621    415.4557
   331.7500      5.4009      0.0000     73.4482    412.7954
   332.0000      5.4472      0.0000     73.7873    411.5147
   332.2500      5.4328      0.0000     74.6527    410.4312
   332.5000      5.3619      0.0000     75.8204    408.5175
   332.7500      5.2296      0.0000     77.1652    403.7736
   333.0000      5.0588      0.0000     78.7061    394.8485
   333.2500      4.9213      0.0000     80.3860    383.7267
   333.5000      4.8819      0.0000     81.8130    374.7095
   333.7500      4.9232      0.0000     82.5023    370.0115
   334.0000      4.9733      0.0000     82.5416    368.6738
   334.2500      4.9996      0.0000     82.8509    369.2404
   334.5000      5.0183      0.0000     84.6244    371.6231
   334.7500      5.0308      0.0000     88.3764    377.1036
