~Version Information
VERS.                      2.0: CWLS Log ASCII Standard - VERSION 2.0
WRAP.                       NO: One line per depth step
~Well Information Block
STRT.FT               -12.5000: 
STOP.FT              1647.5000: 
STEP.FT                 0.2500: 
NULL.                -999.2500: 
COMP.          Pioneer Natural Resources: COMPANY
WELL.            Harlee L 34-9: WELL
FLD.           Purgatorie River`: FIELD
LOC.           600' FSL & 2125' FEL----: LOCATION
PROV.                       CO: PROVINCE
CNTY.               Las Animas: COUNTRY
SRVC.                Patterson: SERVICE COMPANY
DATE.          Sat Feb 12 09:31:33 2005: LOG DATE
UWI.           05 071 08009 00: UNIQUE WELL ID
~Curve Information Block
DEPT.FT            0 000 00 00: Depth
CCL.                          : Casing Collar Locator
TT3.usec                      : CBL 3' Travel Time
AMP3.mV                       : CBL 3' Amplitude
AMP5.mV                       : CBL 5' Amplitude
GR.GAPI                       : Gamma Ray
~Parameter Information Block
~A  Depth       CCL         TT3         AMP3        AMP5         GR     
# ...
   631.5000      0.0000    285.8542     59.6857     52.2144     86.9319
   631.7500      0.0000    285.8572     58.9197     49.2741     76.7302
   632.0000      0.0000    285.8662     57.7888     49.6178     70.1411
   632.2500      0.0000    285.8803     56.3716     48.5104     68.6903
   632.5000      0.0000    285.8903     54.8006     45.4936     71.8807
   632.7500      0.0000    285.8857     53.2065     43.6607     77.7009
   633.0000      0.0000    285.8658     51.6500     40.9877     84.1422
   633.2500      0.0000    285.8430     50.0889     37.3600     90.3848
   633.5000      0.0000    285.8380     48.4151     35.2597     96.6648
   633.7500      0.0000    285.8715     46.5334     30.4864    103.3710
   634.0000      0.0000    285.9589     44.4191     28.4244    110.4004
   634.2500      0.0000    286.1095     42.1260     26.2096    117.0349
   634.5000      0.0000    286.3216     39.7639     23.3456    122.1181
   634.7500      0.0000    286.5779     37.4679     22.1236    124.4178
   635.0000      0.0000    286.8478     35.3765     20.1379    123.0507
   635.2500      0.0000    287.0992     33.6161     19.7179    117.7427
   635.5000      0.0000    287.3098     32.2752     19.0687    109.0187
   635.7500      0.0000    287.4726     31.3705     17.5413     98.5734
   636.0000      0.0000    287.5928     30.8344     16.5484     89.3606
   636.2500      0.0000    287.6787     30.5526     15.7083     84.5793
   636.5000      0.0000    287.7333     30.4284     15.2119     85.8846
   636.7500      0.0000    287.7541     30.4263     14.9828     92.3209
   637.0000      0.0000    287.7385     30.5645     14.9446    101.0784
   637.2500      0.0000    287.6876     30.8710     14.5627    109.4839
   637.5000      0.0000    287.6062     31.3397     14.8300    116.3208
   637.7500      0.0000    287.5036     31.9091     14.5245    121.4672
   638.0000      0.0000    287.3974     32.4760     14.7155    124.8897
   638.2500      0.0000    287.3097     32.9432     15.0210    126.4645
   638.5000      0.0000    287.2566     33.2662     14.6773    126.4382
   638.7500      0.0000    287.2375     33.4595     15.4028    125.5125
   639.0000      0.0000    287.2375     33.5598     15.7847    124.5025
   639.2500      0.0000    287.2389     33.5901     14.7918    124.2356
   639.5000      0.0000    287.2302     33.5576     15.6319    125.5731
   639.7500      0.0000    287.2105     33.4658     15.5174    128.7028
   640.0000      0.0000    287.1875     33.3166     14.7918    132.1658
   640.2500      0.0000    287.1713     33.1049     15.0210    133.4587
   640.5000      0.0000    287.1697     32.8197     14.1427    131.3463
   640.7500      0.0000    287.1869     32.4478     13.9517    127.2468
   641.0000      0.0000    287.2228     31.9862     14.3336    123.9132
   641.2500      0.0000    287.2720     31.4599     13.6081    122.9518
   641.5000      0.0000    287.3239     30.9214     13.4553    123.6968
   641.7500      0.0000    287.3699     30.4165     13.3790    124.2432
   642.0000      0.0000    287.4092     29.9489     12.5770    123.4045
   642.2500      0.0000    287.4470     29.4910     12.8443    121.7679
   642.5000      0.0000    287.4891     29.0213     12.2334    120.9702
   642.7500      0.0000    287.5437     28.5418     11.4315    122.0040
   643.0000      0.0000    287.6274     28.0645     12.3861    124.1967
   643.2500      0.0000    287.7979     27.5976     12.3097    125.7747
   643.5000      0.0000    288.2191     27.1416     10.7441    125.3877
   643.7500      0.0000    289.2837     26.6710      4.4815    123.3468
   644.0000      0.0000    291.6713     26.1007     12.1570    121.6302
   644.2500      0.0000    296.1761     25.2799      5.3980    122.4984
   644.5000      0.0000    303.2745     24.0435      5.3980    126.6867
   644.7500      0.0000    312.8546     22.3064      5.3980    132.5998
   645.0000      0.0000    324.6668     20.1652      5.5508    137.2142
   645.2500      0.0000    339.6023     17.9427      4.9398    137.9337
   645.5000      0.0000    360.4302     16.0689      4.9016    133.9128
   645.7500      0.0000    389.2279     14.8290      5.3598    126.2870
   646.0000      2.3276    421.7537     14.2278      4.7488    117.6456
   646.2500     -1.5442    445.9581     14.1061      4.7488    111.0176
   646.5000      0.0000    450.3937     14.3452      5.0162    108.5297
   646.7500      0.0000    434.6127     14.9644      4.3670    110.3151
   647.0000      0.0000    408.3704     16.0550      4.4052    114.5672
   647.2500      0.0000    381.6506     17.5761      4.6725    118.9935
   647.5000      0.0000    359.0973     19.1818      4.1379    122.3660
   647.7500      0.0000    342.2946     20.3553      4.6343    124.6896
   648.0000      0.0000    332.0650     20.8109      4.9780    126.3550
   648.2500      0.0000    327.7395     20.7008      3.7560    127.7542
   648.5000      0.0000    327.0013     20.3883      5.9708    129.5218
   648.7500      0.0000    327.4992     20.1140      9.7131    132.3546
   649.0000      0.0000    328.0167     19.9099      5.3980    136.2330
   649.2500      0.0000    328.3000     19.7181      6.1236    140.0994
   649.5000      0.0000    328.4452     19.5065      6.5818    142.4996
   649.7500      0.0000    328.5472     19.2966      6.1999    142.6812
   650.0000      0.0000    328.6311     19.1302      5.9326    141.2235
   650.2500      0.0000    328.6959     19.0285      6.2763    139.4939
   650.5000      0.0000    328.7403     18.9823      6.1617    138.3007
   650.7500      0.0000    328.7646     18.9713      5.7417    137.1497
   651.0000      0.0000    328.7672     18.9817      6.0090    134.9214
   651.2500      0.0000    328.7458     19.0042      6.1617    131.2044
   651.5000      0.0000    328.7032     19.0212      5.5889    126.8864
   651.7500      0.0000    328.6546     18.9977      5.5889    123.4220
   652.0000      0.0000    328.6246     18.8936      5.8563    121.6686
   652.2500      0.0000    328.6288     18.6926      5.3216    121.6296
   652.5000      0.0000    328.6596     18.4203      5.1689    122.9706
   652.7500      0.0000    328.6938     18.1267      5.7417    125.2402
   653.0000      0.0000    328.7155     17.8505      5.5508    127.6832
   653.2500      0.0000    328.7271     17.6033      4.9780    129.4030
   653.5000      0.0000    328.7430     17.3787      5.5126    129.8145
   653.7500      0.0000    328.7756     17.1683      5.0162    128.8554
   654.0000      0.0000    328.8273     16.9675      4.7870    126.9412
   654.2500      0.0000    328.8906     16.7772      5.4362    124.7362
   654.5000      0.0000    328.9551     16.6031      5.2453    122.7441
   654.7500      0.0000    329.0134     16.4539      4.6343    121.2648
   655.0000      0.0000    329.0616     16.3385      5.0925    120.7094
   655.2500      0.0000    329.0910     16.2666      5.2835    121.3160
   655.5000      0.0000    329.0863     16.2471      4.7870    122.4795
   655.7500      0.0000    329.0388     16.2770      4.4434    122.9467
   656.0000      0.0000    328.9595     16.3355      5.0543    121.8631
   656.2500      0.0000    328.8703     16.3992      4.7870    119.4377
   656.5000      0.0000    328.7835     16.4641      4.3288    116.7679
   656.7500      0.0000    328.6956     16.5450      4.9398    115.2335
   657.0000      0.0000    328.5973     16.6545      5.0543    115.6444
   657.2500      0.0000    328.4838     16.7876      4.4815    117.5294
   657.5000      0.0000    328.3567     16.9248      4.6343    119.5029
   657.7500      0.0000    328.2184     17.0484      5.1307    120.7809
   658.0000      0.0000    328.0606     17.1580      4.9398    122.1600
   658.2500      0.0000    327.8645     17.2665      4.5579    124.9843
   658.5000      0.0000    327.6237     17.3759      5.1307    129.0334
   658.7500      0.0000    327.3692     17.4573      5.0162    131.9066
   659.0000      0.0000    327.1608     17.4614      4.3670    130.9797
   659.2500      0.0000    327.0461     17.3591      4.6343    126.0281
