~Version Information
VERS.                      2.0: CWLS Log ASCII Standard - VERSION 2.0
WRAP.                       NO: One line per depth step
~Well Information Block
STRT.FT               275.0000: 
STOP.FT               811.2000: 
STEP.FT                 0.1000: 
NULL.                -999.2500: 
COMP.          Pioneer Natural Resources: COMPANY
WELL.          Barrelman 41-27: WELL
FLD.           Purgatoire River: FIELD
LOC.           371' FNL & 493' FEL--: LOCATION
PROV.                 Colorado: PROVINCE
CNTY.               Las Animas: COUNTRY
SRVC.                Patterson: SERVICE COMPANY
DATE.          Fri May 20 11:50:01 2005: LOG DATE
UWI.           05 071 08334 00: UNIQUE WELL ID
~Curve Information Block
DEPT.FT            0 000 00 00: Depth
DCAL.in                       : CDL Caliper
RHOB.g/cc                     : CDL Bulk Density
RHOC.g/cc                     : CDL Density Correction
DPOR.pu                       : CDL Density Porosity
NPOR.pu                       : Neutron Porosity
GR.GAPI                       : Gamma Ray
~Parameter Information Block
~A  Depth       DCAL        RHOB        RHOC        DPOR        NPOR         GR     
# ...
   611.0000      8.0375      2.4713      0.0447     10.8322     23.4520    111.9950
   611.1000      8.0375      2.5040      0.0502      8.8466     22.7650    113.0459
   611.2000      8.0375      2.5396      0.0910      6.6902     23.8170    112.3033
   611.3000      8.0355      2.5590      0.0800      5.5166     25.0954    111.8943
   611.4000      8.0355      2.5588      0.0612      5.5277     25.2628    112.1631
   611.5000      8.0334      2.5527      0.0668      5.8964     24.3586    112.8449
   611.6000      8.0334      2.5507      0.0991      6.0185     22.9390    111.8864
   611.7000      8.0334      2.5504      0.0888      6.0346     21.5802    107.2373
   611.8000      8.0366      2.5523      0.0827      5.9218     20.9176     99.7963
   611.9000      8.0366      2.5587      0.0863      5.5342     21.7779     91.7063
   612.0000      8.0547      2.5672      0.0951      5.0203     23.7865     88.5289
   612.1000      8.0547      2.5722      0.1214      4.7141     25.3255     93.6056
   612.2000      8.0547      2.5608      0.0962      5.4038     26.1238    103.5536
   612.3000      8.0862      2.5184      0.0940      7.9769     26.8453    111.3379
   612.4000      8.0862      2.4494     -0.0228     12.1556     27.0976    112.3779
   612.5000      8.1109      2.3807     -0.0101     16.3209     26.2670    109.6479
   612.6000      8.1109      2.3327     -0.0382     19.2292     25.8061    106.7245
   612.7000      8.1109      2.3080     -0.0224     20.7261     27.4661    105.7881
   612.8000      8.1215      2.2972     -0.0044     21.3810     30.1862    106.6850
   612.9000      8.1215      2.2902      0.0069     21.8077     31.6225    105.1563
   613.0000      8.1294      2.2836      0.0293     22.2030     31.7096    100.1227
   613.1000      8.1294      2.2805      0.0339     22.3945     31.3266     97.8544
   613.2000      8.1294      2.2868      0.0674     22.0131     30.1710    105.5805
   613.3000      8.1457      2.3028      0.1009     21.0442     28.8611    117.1636
   613.4000      8.1457      2.3208      0.1349     19.9485     28.9639    123.3161
   613.5000      8.1702      2.3339      0.1322     19.1589     29.9985    125.9515
   613.6000      8.1702      2.3411      0.1373     18.7196     30.5665    126.5943
   613.7000      8.1702      2.3489      0.1235     18.2462     30.8775    122.7964
   613.8000      8.1963      2.3644      0.0898     17.3107     31.5848    118.2309
   613.9000      8.1963      2.3802      0.1181     16.3541     32.4528    116.7217
   614.0000      8.2209      2.3767      0.0767     16.5652     32.9688    114.5443
   614.1000      8.2209      2.3521      0.0599     18.0568     33.3494    109.4975
   614.2000      8.2209      2.3291      0.0059     19.4482     33.8194    102.8421
   614.3000      8.2389      2.3254      0.0538     19.6729     33.9438     97.4018
   614.4000      8.2389      2.3363      0.0383     19.0116     33.6062     95.4092
   614.5000      8.2469      2.3490      0.0678     18.2443     33.1059     95.7097
   614.6000      8.2469      2.3498      0.0916     18.1924     32.5146     95.8013
   614.7000      8.2469      2.3338      0.0595     19.1652     31.9183     98.2601
   614.8000      8.2498      2.3162      0.0353     20.2310     31.5764    105.6818
   614.9000      8.2498      2.3119      0.0520     20.4915     31.3352    111.4241
   615.0000      8.2499      2.3123      0.1027     20.4648     30.6501    111.7120
   615.1000      8.2499      2.3054      0.0613     20.8857     29.7039    111.3387
   615.2000      8.2499      2.2946      0.0659     21.5402     29.3112    114.1552
   615.3000      8.2491      2.2871      0.0386     21.9956     30.1728    117.1801
   615.4000      8.2491      2.2892      0.0469     21.8694     31.8727    115.0580
   615.5000      8.2494      2.3050      0.0404     20.9068     33.0636    109.7459
   615.6000      8.2494      2.3286      0.0907     19.4759     32.9282    108.3070
   615.7000      8.2494      2.3466      0.0972     18.3907     31.4891    115.8449
   615.8000      8.2501      2.3523      0.0766     18.0420     30.2086    126.4085
   615.9000      8.2501      2.3506      0.0707     18.1464     30.6398    132.5291
   616.0000      8.2490      2.3499      0.0801     18.1875     31.9765    135.1704
   616.1000      8.2490      2.3555      0.0689     17.8472     32.5791    133.0894
   616.2000      8.2490      2.3657      0.0815     17.2326     32.7848    126.7609
   616.3000      8.2451      2.3733      0.0653     16.7684     33.4019    123.7723
   616.4000      8.2451      2.3759      0.0628     16.6144     33.9059    123.9540
   616.5000      8.2334      2.3800      0.0594     16.3625     33.9667    122.6789
   616.6000      8.2334      2.3892      0.0758     15.8062     33.8119    125.7094
   616.7000      8.2334      2.3990      0.0808     15.2117     33.2063    135.1000
   616.8000      8.2057      2.4062      0.0777     14.7732     31.8416    139.7871
   616.9000      8.2057      2.4089      0.0763     14.6141     30.2762    133.5278
   617.0000      8.1650      2.4099      0.0882     14.5496     29.5784    125.6347
   617.1000      8.1650      2.4221      0.0689     13.8132     29.9317    125.3493
   617.2000      8.1650      2.4496      0.0825     12.1475     30.4611    129.2979
   617.3000      8.1252      2.4760      0.1220     10.5473     30.6031    131.3821
   617.4000      8.1252      2.4906      0.0634      9.6620     30.4763    132.3480
   617.5000      8.0977      2.5001      0.1228      9.0849     30.0023    135.0291
   617.6000      8.0977      2.5041      0.1107      8.8424     29.2931    139.2104
   617.7000      8.0977      2.5005      0.1074      9.0585     29.0295    142.8914
   617.8000      8.0752      2.4986      0.0917      9.1785     28.9549    142.2715
   617.9000      8.0752      2.5007      0.1161      9.0484     27.8078    137.4680
   618.0000      8.0495      2.4966      0.1136      9.2963     26.3871    132.3523
   618.1000      8.0495      2.4871      0.0671      9.8747     26.6669    129.8761
   618.2000      8.0495      2.4891      0.0647      9.7507     28.2272    130.6044
   618.3000      8.0278      2.5101      0.0837      8.4806     28.9985    130.0514
   618.4000      8.0278      2.5377      0.0880      6.8061     28.3509    125.2199
   618.5000      8.0128      2.5589      0.1039      5.5229     27.8668    120.9110
   618.6000      8.0128      2.5720      0.1196      4.7299     28.4521    118.3547
   618.7000      8.0128      2.5759      0.1318      4.4925     28.8509    112.0806
   618.8000      8.0025      2.5638      0.1407      5.2251     27.9974    102.7395
   618.9000      8.0025      2.5359      0.1074      6.9161     26.7898     97.4586
   619.0000      7.9982      2.5085      0.0393      8.5757     26.6311     99.0540
   619.1000      7.9982      2.4964      0.0605      9.3092     27.3724    102.1019
   619.2000      7.9982      2.4953      0.0486      9.3735     27.9164    100.3975
   619.3000      8.0003      2.4960      0.0604      9.3352     27.9132     94.1499
   619.4000      8.0003      2.4953      0.0485      9.3756     27.8901     92.0739
   619.5000      8.0062      2.4881      0.0934      9.8138     28.2497    101.4251
   619.6000      8.0062      2.4717      0.0332     10.8035     28.4427    116.0048
   619.7000      8.0062      2.4589      0.0439     11.5812     28.1433    126.5853
   619.8000      8.0105      2.4576      0.0532     11.6618     28.1134    131.5894
   619.9000      8.0105      2.4602      0.0767     11.5058     28.6402    132.6578
   620.0000      8.0110      2.4591      0.0623     11.5693     29.0202    131.1105
   620.1000      8.0110      2.4586      0.0481     11.6016     28.6997    127.2732
   620.2000      8.0110      2.4616      0.0727     11.4172     28.0290    122.9384
   620.3000      8.0092      2.4609      0.0636     11.4613     27.5835    120.2169
   620.4000      8.0092      2.4583      0.0552     11.6188     27.4898    118.4078
   620.5000      8.0092      2.4657      0.0610     11.1726     27.7214    117.2762
