~Version Information
VERS.                      2.0: CWLS Log ASCII Standard - VERSION 2.0
WRAP.                       NO: One line per depth step
~Well Information Block
STRT.FT               582.2500: 
STOP.FT              2642.5000: 
STEP.FT                 0.2500: 
NULL.                -999.2500: 
COMP.          Petrogulf Corporation: COMPANY
WELL.           Montoya 12-41V: WELL
FLD.           Purgatorie River: FIELD
LOC.           1081' FNL & 605' FEL: LOCATION
CNTY.               Las Animas: COUNTY
SRVC.                         : SERVICE COMPANY
DATE.          Tue Aug 10 10:59:28 2004: LOG DATE
UWI.           05 071 08094 00: UNIQUE WELL ID
STAT.                 Colorado: STATE
~Curve Information Block
DEPT.FT            0 000 00 00: Depth
SP.mV                         : DIL Spontaneous Potential
RILD.Ohm-m                    : DIL Deep Resistivity
RILM.Ohm-m                    : DIL Medium Resistivity
RLL3.Ohm-m                    : DIL Shallow Resistivity
GR.GAPI                       : Gamma Ray
~Parameter Information Block
~A  Depth        SP         RILD        RILM        RLL3         GR     
# ...
  2094.2500    -11.8954     42.6050     33.9892     48.3216     35.3157
  2094.5000    -11.5119     39.5757     31.4880     46.3349     34.9496
  2094.7500    -11.2380     36.6891     29.1621     45.3437     35.2173
  2095.0000    -11.0751     34.0615     27.0657     44.9421     37.7957
  2095.2500    -10.9888     31.7554     25.2187     44.5555     41.8229
  2095.5000    -10.9155     29.7853     23.6215     43.6065     51.9076
  2095.7500    -10.7768     28.1315     22.2640     41.6797     61.1623
  2096.0000    -10.5061     26.7553     21.1313     38.6418     78.5040
  2096.2500    -10.0768     25.6074     20.2055     34.6785     92.2493
  2096.5000     -9.5171     24.6371     19.4673     30.2299    115.0325
  2096.7500     -8.9066     23.8002     18.8960     25.8475    130.0223
  2097.0000     -8.3521     23.0678     18.4709     22.0363    148.6144
  2097.2500     -7.9480     22.4295     18.1720     19.1442    157.0198
  2097.5000     -7.7497     21.8928     17.9821     17.3291    163.6003
  2097.7500     -7.7617     21.4776     17.8881     16.5890    164.8846
  2098.0000     -7.9437     21.2094     17.8814     16.8182    163.7396
  2098.2500     -8.2339     21.1150     17.9587     17.8606    161.3396
  2098.5000     -8.5636     21.2215     18.1205     19.5479    155.4180
  2098.7500     -8.8680     21.5558     18.3692     21.7201    150.1571
  2099.0000     -9.0855     22.1389     18.7060     24.2251    141.1769
  2099.2500     -9.1679     22.9719     19.1283     26.9010    134.8680
  2099.5000     -9.0863     24.0158     19.6274     29.5483    125.1739
  2099.7500     -8.8453     25.1735     20.1870     31.9206    118.8652
  2100.0000     -8.4887     26.2970     20.7845     33.7526    110.8839
  2100.2500     -8.0958     27.2297     21.3929     34.8264    107.1419
  2100.5000     -7.7662     27.8674     21.9859     35.0452    103.5050
  2100.7500     -7.5979     28.1975     22.5406     34.4703    101.5118
  2101.0000     -7.6674     28.2897     23.0431     33.3012     97.7993
  2101.2500     -8.0114     28.2533     23.4888     31.8100     94.4275
  2101.5000     -8.6184     28.1945     23.8818     30.2671     87.7683
  2101.7500     -9.4248     28.1866     24.2320     28.8888     82.4036
  2102.0000    -10.3244     28.2551     24.5508     27.8158     73.8763
  2102.2500    -11.1915     28.3753     24.8467     27.1113     68.5022
  2102.5000    -11.9085     28.4921     25.1241     26.7718     61.4288
  2102.7500    -12.4009     28.5568     25.3822     26.7431     57.3776
  2103.0000    -12.6563     28.5595     25.6173     26.9449     52.3860
  2103.2500    -12.7280     28.5281     25.8261     27.2961     49.9250
  2103.5000    -12.7095     28.4948     26.0094     27.7357     47.5331
  2103.7500    -12.7007     28.4579     26.1732     28.2272     46.5931
  2104.0000    -12.7672     28.3712     26.3293     28.7483     45.8137
  2104.2500    -12.9194     28.1737     26.4921     29.2752     45.6520
  2104.5000    -13.1155     27.8365     26.6743     29.7719     45.8235
  2104.7500    -13.2826     27.3858     26.8833     30.1906     45.9923
  2105.0000    -13.3522     26.8842     27.1170     30.4853     45.9939
  2105.2500    -13.2895     26.3880     27.3647     30.6282     45.8503
  2105.5000    -13.1047     25.9159     27.6092     30.6242     45.5486
  2105.7500    -12.8490     25.4538     27.8345     30.5155     45.1790
  2106.0000    -12.5954     24.9822     28.0310     30.3762     44.1497
  2106.2500    -12.4178     24.5024     28.2011     30.3000     43.3289
  2106.5000    -12.3727     24.0436     28.3556     30.3836     42.6330
  2106.7500    -12.4980     23.6469     28.5107     30.7125     42.7890
  2107.0000    -12.8155     23.3429     28.6796     31.3525     43.6351
  2107.2500    -13.3370     23.1416     28.8686     32.3464     44.1518
  2107.5000    -14.0668     23.0359     29.0760     33.7124     44.2901
  2107.7500    -14.9931     23.0125     29.2946     35.4366     43.9460
  2108.0000    -16.0763     23.0666     29.5171     37.4591     43.1825
  2108.2500    -17.2355     23.2093     29.7417     39.6568     42.8780
  2108.5000    -18.3437     23.4674     29.9735     41.8371     43.3368
  2108.7500    -19.2424     23.8743     30.2242     43.7488     44.4122
  2109.0000    -19.7751     24.4512     30.5082     45.1147     47.1809
  2109.2500    -19.8251     25.1898     30.8359     45.6810     50.0620
  2109.5000    -19.3532     26.0373     31.2082     45.2767     57.3806
  2109.7500    -18.4133     26.8978     31.6150     43.8711     65.1755
  2110.0000    -17.1467     27.6504     32.0345     41.6099     81.1551
  2110.2500    -15.7558     28.1911     32.4396     38.8093     93.2049
  2110.5000    -14.4592     28.4705     32.8040     35.8964    109.3229
  2110.7500    -13.4434     28.5161     33.1075     33.3128    116.3531
  2111.0000    -12.8195     28.4229     33.3389     31.4142    118.4997
  2111.2500    -12.5980     28.3197     33.4948     30.4009    113.9984
  2111.5000    -12.6921     28.3354     33.5782     30.3010    100.4363
  2111.7500    -12.9464     28.5781     33.5992     31.0022     89.1962
  2112.0000    -13.1878     29.1317     33.5782     32.3130     73.0848
  2112.2500    -13.2702     30.0576     33.5472     34.0271     64.2246
  2112.5000    -13.1097     31.3893     33.5469     35.9697     54.0070
  2112.7500    -12.6951     33.1085     33.6187     38.0149     48.7220
  2113.0000    -12.0758     35.1117     33.7964     40.0776     42.4150
  2113.2500    -11.3380     37.1828     34.0955     42.0941     39.3335
  2113.5000    -10.5719     39.0194     34.5094     44.0045     36.8307
  2113.7500     -9.8456     40.3345     35.0131     45.7451     36.6735
  2114.0000     -9.1864     40.9973     35.5668     47.2507     38.3005
  2114.2500     -8.5804     41.1078     36.1263     48.4556     40.2455
  2114.5000     -7.9949     40.9409     36.6480     49.2889     44.2119
  2114.7500     -7.4100     40.8092     37.0932     49.6668     47.8737
  2115.0000     -6.8506     40.9398     37.4263     49.5077     55.9071
  2115.2500     -6.3904     41.4138     37.6158     48.7871     63.3252
  2115.5000     -6.1278     42.1517     37.6342     47.6252     77.0147
  2115.7500     -6.1418     42.9430     37.4641     46.3598     86.8430
  2116.0000     -6.4474     43.5230     37.1051     45.5313    100.1792
  2116.2500     -6.9774     43.6807     36.5761     45.7316    106.5313
  2116.5000     -7.6002     43.3512     35.9133     47.3417    109.9508
  2116.7500     -8.1613     42.6419     35.1646     50.2664    107.7519
  2117.0000     -8.5352     41.7752     34.3807     53.8231     99.6005
  2117.2500     -8.6560     40.9969     33.6104     56.8947     93.3436
  2117.5000     -8.5258     40.4901     32.8955     58.3301     87.4846
  2117.7500     -8.2015     40.3205     32.2700     57.4199     87.8099
  2118.0000     -7.7697     40.4145     31.7571     54.2087     94.4557
  2118.2500     -7.3198     40.5746     31.3699     49.4729    101.0177
  2118.5000     -6.9264     40.5508     31.1094     44.3878    110.0023
  2118.7500     -6.6364     40.1464     30.9668     40.0725    113.9500
  2119.0000     -6.4695     39.3108     30.9261     37.2452    115.8614
  2119.2500     -6.4259     38.1433     30.9699     36.1121    114.1258
  2119.5000     -6.5042     36.8262     31.0834     36.4635    106.4274
  2119.7500     -6.7145     35.5540     31.2590     37.8640     97.9931
  2120.0000     -7.0833     34.5014     31.4978     39.8284     81.9620
  2120.2500     -7.6423     33.8168     31.8099     41.9406     70.6228
  2120.5000     -8.4046     33.6209     32.2086     43.9213     55.4930
  2120.7500     -9.3397     34.0028     32.7063     45.6629     47.7831
  2121.0000    -10.3592     35.0075     33.3073     47.2349     40.3385
  2121.2500    -11.3279     36.6235     33.9994     48.8507     37.8032
  2121.5000    -12.0952     38.7686     34.7528     50.7885     36.4429
  2121.7500    -12.5356     41.2859     35.5173     53.2790     36.2902
  2122.0000    -12.5870     43.9591     36.2286     56.3806     35.9915
