~Version Information
VERS.                      2.0: CWLS Log ASCII Standard - VERSION 2.0
WRAP.                       NO: One line per depth step
~Well Information Block
STRT.FT               840.0000: 
STOP.FT              2019.0000: 
STEP.FT                 0.2500: 
NULL.                -999.2500: 
COMP.          Petrogulf Corporation: COMPANY
WELL.           Lavedure 7-44R: WELL
FLD.           Purgatorie River: FIELD
LOC.           946' FSL & 521' FEL: LOCATION
PROV.                 Colorado: PROVINCE
CNTY.               Las Animas: COUNTRY
SRVC.                Patterson: SERVICE COMPANY
DATE.          Mon Sep 26 08:35:42 2005: LOG DATE
UWI.                          : UNIQUE WELL ID
~Curve Information Block
DEPT.FT            0 000 00 00: Depth
SP.mV                         : DIL Spontaneous Potential
RILD.Ohm-m                    : DIL Deep Resistivity
RILM.Ohm-m                    : DIL Medium Resistivity
RLL3.Ohm-m                    : DIL Shallow Resistivity
GR.GAPI                       : Gamma Ray
~Parameter Information Block
~A  Depth        SP         RILD        RILM        RLL3         GR     
# ...
  1764.0000    191.4710     22.4011     24.8527     26.2602     83.8772
  1764.2500    191.8597     22.1156     23.9953     26.0523     72.0231
  1764.5000    192.3423     21.7878     23.9566     25.3845     56.8928
  1764.7500    192.8236     21.9183     23.7046     24.4185     51.0534
  1765.0000    193.2513     22.1317     23.2114     23.2834     61.6794
  1765.2500    193.5331     22.1717     22.7155     22.3051     57.6803
  1765.5000    193.6518     21.7551     23.0052     21.8761     56.3895
  1765.7500    193.6809     22.0003     23.4081     22.0783     60.3509
  1766.0000    193.7172     21.4815     22.5438     22.5475     78.5027
  1766.2500    193.8215     21.4884     22.7872     22.7793     64.5025
  1766.5000    193.8889     21.6545     22.7604     22.9954     63.3528
  1766.7500    193.8751     21.6018     22.7273     23.3181     73.7634
  1767.0000    193.8673     21.4142     22.5299     23.2536     95.9004
  1767.2500    193.8235     21.7533     22.4343     22.6712     88.2725
  1767.5000    193.7522     22.1815     22.5466     22.0276     75.9348
  1767.7500    193.6806     22.4889     22.7968     21.9551     68.7439
  1768.0000    193.6869     22.3938     23.2138     22.1709     79.9769
  1768.2500    193.7905     22.9690     24.0087     23.8471     76.2642
  1768.5000    194.1862     23.8423     24.4670     27.2283     87.8873
  1768.7500    194.7289     23.7793     25.6798     31.9572     73.5606
  1769.0000    195.4571     24.1884     27.0111     37.0258     66.8210
  1769.2500    196.2257     24.2148     27.2792     40.4897     78.2943
  1769.5000    197.0488     24.3136     28.4447     39.8249     66.9409
  1769.7500    197.7331     24.5015     29.8535     36.6165     72.5849
  1770.0000    198.3262     24.6896     30.3467     33.7921     71.2900
  1770.2500    199.0035     24.0683     30.3124     32.4584     55.8934
  1770.5000    199.6819     23.9600     29.9754     32.6360     63.1406
  1770.7500    200.5488     23.3001     29.7776     34.4826     71.9147
  1771.0000    201.6118     22.6674     29.6553     37.4552     57.3119
  1771.2500    202.8703     22.2307     28.8339     40.0656     54.4010
  1771.5000    204.2873     22.2479     27.1284     39.7158     56.7886
  1771.7500    205.8172     21.8243     24.6903     35.1504     55.3627
  1772.0000    207.2333     21.4339     22.9931     25.7108     67.2915
  1772.2500    208.3057     20.9877     20.9484     17.0791     70.5422
  1772.5000    209.1628     20.8322     20.4459     14.1623     63.6590
  1772.7500    209.9485     20.3783     20.1769     15.8096     87.0775
  1773.0000    210.7951     19.8354     20.6732     18.5458    122.5770
  1773.2500    211.6891     19.3062     20.7136     19.6927    154.7333
  1773.5000    212.6677     19.0919     20.8515     20.7781    130.8560
  1773.7500    213.7140     18.5817     20.1691     23.4275    126.3564
  1774.0000    214.6942     17.6771     19.7961     24.0133    130.3899
  1774.2500    215.4642     17.5465     19.2222     20.0928     87.4874
  1774.5000    216.0244     17.5913     18.7081     18.1098    103.1408
  1774.7500    216.4723     17.6235     18.2023     19.5823    110.3215
  1775.0000    216.9465     17.6210     17.9810     22.2079    102.1437
  1775.2500    217.4412     17.8014     17.6617     20.9220     98.5791
  1775.5000    217.9005     18.1439     17.9869     17.6449    123.0266
  1775.7500    218.3793     18.6036     18.1722     16.8507    114.4556
  1776.0000    218.8003     18.6922     18.3406     18.4262    103.1828
  1776.2500    219.3204     19.2688     18.5381     20.1793    107.9067
  1776.5000    219.7692     19.3765     18.6363     18.7637    112.5302
  1776.7500    220.2408     19.8919     19.3404     15.5142    110.9019
  1777.0000    220.6635     20.2616     19.8754     15.7910    101.3025
  1777.2500    221.1000     20.9177     20.3856     20.3431    108.4102
  1777.5000    221.5405     20.8292     21.9550     27.2459    116.2134
  1777.7500    222.0018     20.7255     23.3393     31.8376    117.5339
  1778.0000    222.5728     20.8554     24.5413     33.8572    111.7170
  1778.2500    223.2325     20.7255     24.5946     33.1666    112.8902
  1778.5000    224.0327     20.3507     24.5865     30.0736    111.0421
  1778.7500    224.8662     19.0661     23.8985     25.0695    112.2070
  1779.0000    225.6760     19.0626     23.5759     20.2354    132.7387
  1779.2500    226.6053     18.0035     23.1094     19.0301    141.0091
  1779.5000    227.5874     17.1503     21.4231     21.4599    134.1641
  1779.7500    228.6512     16.4787     20.3363     23.3886    130.5935
  1780.0000    229.5038     15.7822     18.3277     23.1487    148.8567
  1780.2500    230.2562     15.3643     16.4009     19.1137    158.0444
  1780.5000    230.9894     14.6534     14.6943     13.4841    113.5212
  1780.7500    231.5942     13.9287     13.7138     10.2663    107.2655
  1781.0000    232.1115     13.0154     12.9142      9.2579    119.9769
  1781.2500    232.4689     12.1594     12.6603     10.0530    106.2674
  1781.5000    232.8207     11.4453     12.4717     11.9425    141.6620
  1781.7500    233.3992     10.8446     12.0464     14.0548    150.3364
  1782.0000    234.1005     10.2556     11.3869     13.9815    135.5576
  1782.2500    234.8028      9.5860     10.6030     12.2545    142.2365
  1782.5000    235.3992      8.9771      9.5168     11.2438    141.5265
  1782.7500    235.8105      8.6174      9.0416     10.5898    144.2702
  1783.0000    235.9443      8.4120      8.4612      9.7318    147.2916
  1783.2500    235.7304      8.2441      7.9769      8.8075    159.7133
  1783.5000    235.4048      8.0389      7.6134      8.2164    152.7820
  1783.7500    235.0147      7.8903      7.3474      7.9670    151.5379
  1784.0000    234.4680      7.7399      7.1166      7.9845    156.2182
  1784.2500    233.8274      7.6769      7.0193      8.0488    145.1918
  1784.5000    233.0333      7.6261      6.9454      8.2076    157.1103
  1784.7500    232.0575      7.6976      6.8107      8.2127    153.8232
  1785.0000    231.1071      7.8112      6.7150      8.0351    156.9562
  1785.2500    230.0908      8.0575      6.7300      7.5273    148.4140
  1785.5000    228.9834      8.2810      6.8598      7.2034    164.9187
  1785.7500    227.7532      8.6027      7.1564      6.9994    144.2097
  1786.0000    226.6266      8.9077      7.7281      7.6162    157.7939
  1786.2500    225.5548      9.4172      8.6492     10.1750    151.4905
  1786.5000    224.4924      9.8804      9.8939     17.8831    146.2176
  1786.7500    223.6891     10.4306     11.1786     28.8311    170.4052
  1787.0000    223.1148     11.0057     12.3836     39.4931    157.4704
  1787.2500    222.6253     11.8202     13.7050     51.2476    146.2740
  1787.5000    221.9973     12.6943     15.0296     47.1779    115.2515
  1787.7500    220.9534     13.9995     16.7270     38.4726     95.4924
  1788.0000    219.8451     15.3955     18.5298     38.6438     84.0136
  1788.2500    218.6549     16.8939     20.5823     44.7363     57.1242
  1788.5000    217.4016     18.9371     23.2986     51.8786     63.8509
  1788.7500    216.2870     20.7343     26.5608     54.4997     72.1266
  1789.0000    215.2861     22.2172     30.0116     51.3615     53.6103
  1789.2500    214.3774     23.6404     31.4932     46.9856     44.5403
  1789.5000    213.5986     24.3071     31.7138     42.7883     42.5157
  1789.7500    212.8786     24.5764     32.5354     38.4789     49.9147
  1790.0000    212.1762     24.0462     33.3972     34.1263     49.5508
  1790.2500    211.5603     24.2836     32.1720     33.6758     53.9418
  1790.5000    210.9765     23.3309     32.1963     35.5518     51.2177
  1790.7500    210.5450     22.7405     31.7567     37.4356     58.6897
  1791.0000    210.1323     22.3215     30.1843     38.2767     65.7567
  1791.2500    209.6598     22.2075     28.0368     36.0222     64.1567
  1791.5000    209.2024     21.4261     26.5524     31.5276     64.1626
  1791.7500    208.6885     21.3947     24.8957     28.3843     79.7861
