~Version Information
VERS.                      2.0: CWLS Log ASCII Standard - VERSION 2.0
WRAP.                       NO: One line per depth step
~Well Information Block
STRT.FT                -8.0000: 
STOP.FT              1357.5000: 
STEP.FT                 0.2500: 
NULL.                -999.2500: 
COMP.          Pioneer Natural Resources: COMPANY
WELL.          Lorencito 6-3-34-66: WELL
FLD.           Purgatorie River: FIELD
LOC.           2545' FNL & 1914' FWL: LOCATION
STAT.                       CO: State
CNTY.               Las Animas: COUNTY
CTRY. USA : Country
SECT. 3 : Section
TOWN. 34S : Township
RANG. 66W : Range
SRVC.          Patterson Wireline: SERVICE COMPANY
DATE.          Tue Sep 27 11:36:13 2005: LOG DATE
API.           05 071 08369 00: UNIQUE WELL ID
~Curve Information Block
DEPT.FT            0 000 00 00: Depth
CCL.                          : Casing Collar Locator
TT3.usec                      : CBL 3' Travel Time
AMP3.mV                       : CBL 3' Amplitude
GR.GAPI                       : Gamma Ray
~Parameter Information Block
~A  Depth       CCL         TT3         AMP3         GR     
# ...
   360.5000      0.0000    714.5405     11.1784     82.2596
   360.7500      0.0000    762.3083     11.1338     84.7075
   361.0000      0.0000    783.1849     11.0980     87.4303
   361.2500      0.0000    777.8140     11.0632     88.7728
   361.5000      0.0000    750.3830     11.0214     88.4531
   361.7500      0.0000    708.8004     10.9640     87.8083
   362.0000      0.0000    666.3012     10.8847     88.3832
   362.2500      0.0000    638.2857     10.7858     90.3996
   362.5000      0.0000    635.3617     10.6795     92.7813
   362.7500      0.0000    658.2852     10.5830     94.3710
   363.0000      0.0000    697.8262     10.5106     94.8555
   363.2500      0.0000    739.5915     10.4667     94.7562
   363.5000      0.0000    771.7717     10.4444     94.8599
   363.7500      0.0000    790.5177     10.4325     95.6308
   364.0000      0.0000    798.7365     10.4238     96.9751
   364.2500      0.0000    800.9760     10.4188     98.2449
   364.5000      0.0000    799.7632     10.4203     98.4105
   364.7500      0.0000    795.1883     10.4286     96.7703
   365.0000      0.0000    786.6370     10.4388     93.9065
   365.2500      0.0000    775.1059     10.4432     91.3836
   365.5000      0.0000    764.2424     10.4359     89.9240
   365.7500      0.0000    758.1404     10.4162     88.3309
   366.0000      0.0000    757.1298     10.3892     84.9357
   366.2500      0.0000    756.4272     10.3634     79.7285
   366.5000      0.0000    750.9715     10.3489     74.3591
   366.7500      0.0000    742.2188     10.3553     70.4405
   367.0000      0.0000    737.8278     10.3881     68.6724
   367.2500      0.0000    743.0296     10.4462     69.3049
   367.5000      0.0000    754.6372     10.5206     72.4565
   367.7500      0.0000    765.7067     10.5970     77.7662
   368.0000      0.0000    773.5132     10.6607     84.2296
   368.2500      0.0000    779.7530     10.7042     90.4151
   368.5000      0.0000    784.2836     10.7304     94.7837
   368.7500      0.0000    781.3351     10.7496     96.3760
   369.0000      0.0000    762.4633     10.7695     95.5312
   369.2500      0.0000    724.2274     10.7895     93.3809
   369.5000      0.0000    675.2178     10.8034     90.4608
   369.7500      0.0000    633.9915     10.8104     86.4506
   370.0000      0.0000    614.6353     10.8186     81.3515
   370.2500      0.0000    613.1412     10.8388     76.1213
   370.5000      0.0000    611.9330     10.8735     71.8684
   370.7500      0.0000    598.0374     10.9154     69.0103
   371.0000      0.0000    572.9716     10.9559     67.5602
   371.2500      0.0000    545.9927     10.9951     67.7256
   371.5000      0.0000    521.9304     11.0418     69.6403
   371.7500      0.0000    497.2749     11.1053     72.8144
   372.0000      0.0000    467.5089     11.1864     76.4502
   372.2500      0.0000    435.2322     11.2761     80.0711
   372.5000      0.0000    408.2199     11.3603     83.3589
   372.7500      0.0000    391.4526     11.4269     85.7300
   373.0000      0.0000    384.3818     11.4693     86.5551
   373.2500      0.0000    385.0618     11.4906     85.5854
   373.5000      0.0000    394.8476     11.5053     83.0074
   373.7500      0.0000    418.5935     11.5351     79.3836
   374.0000      0.0000    458.6897     11.5980     75.5925
   374.2500      0.0000    506.1085     11.7008     72.5500
   374.5000      0.0000    539.2950     11.8417     70.8786
   374.7500      0.0000    538.4626     12.0166     70.8827
   375.0000      0.0000    503.2608     12.2220     72.6454
   375.2500      0.0000    453.1927     12.4551     75.8972
   375.5000      0.0000    410.7396     12.7090     79.8093
   375.7500      0.0000    387.7071     12.9579     83.0866
   376.0000      0.0000    386.9201     13.1303     84.4544
   376.2500      0.0000    410.7704     13.1045     83.4000
   376.5000      0.0000    463.0162     12.7653     80.6909
   376.7500      0.0000    540.5819     12.1061     77.8808
   377.0000      0.0000    625.9792     11.2778     76.0066
   377.2500      0.0000    693.6860     10.5091     74.9832
   377.5000      0.0000    728.9477      9.9623     74.3329
   377.7500      0.0000    739.7314      9.6584     74.0654
   378.0000     -2.0000    746.5026      9.5191     74.5634
   378.2500      2.0000    760.6673      9.4516     75.8153
   378.5000      0.0000    777.2069      9.4108     77.0116
   378.7500      0.0000    787.3086      9.4258     77.1234
   379.0000      0.0000    790.0839      9.5869     75.9598
   379.2500      0.0000    789.4729      9.9778     74.5059
   379.5000      0.0000    787.6791     10.5843     74.1020
   379.7500      0.0000    785.9740     11.2744     75.4355
   380.0000      0.0000    786.5746     11.8815     78.3052
   380.2500      0.0000    790.2798     12.3026     81.9565
   380.5000      0.0000    795.1928     12.5267     85.4141
   380.7500      0.0000    799.0024     12.6037     87.7598
   381.0000      0.0000    801.0027     12.5993     88.4862
   381.2500      0.0000    801.7000     12.5611     87.6047
   381.5000      0.0000    801.6729     12.5092     85.3380
   381.7500      0.0000    800.7860     12.4480     81.8935
   382.0000      0.0000    797.3079     12.3823     77.7990
   382.2500      0.0000    786.9301     12.3213     74.4196
   382.5000      0.0000    763.4224     12.2755     73.6174
   382.7500      0.0000    723.9340     12.2521     76.1994
   383.0000      0.0000    677.2094     12.2518     80.6431
   383.2500      0.0000    644.3264     12.2655     84.0855
   383.5000      0.0000    644.4710     12.2788     84.8631
   383.7500      0.0000    677.5810     12.2807     83.6981
   384.0000      0.0000    724.3925     12.2716     82.4351
   384.2500      0.0000    763.8350     12.2604     82.2610
   384.5000      0.0000    787.1839     12.2565     83.2654
   384.7500      0.0000    797.2012     12.2631     85.0155
   385.0000      0.0000    799.5569     12.2763     86.9198
   385.2500      0.0000    796.6128     12.2883     88.2540
   385.5000      0.0000    785.3821     12.2917     88.5151
   385.7500      0.0000    758.3398     12.2820     87.8945
   386.0000      0.0000    708.4368     12.2581     87.0588
   386.2500      0.0000    638.2114     12.2210     86.5374
   386.5000      0.0000    565.8734     12.1710     86.6389
   386.7500      0.0000    519.3044     12.1103     87.6705
   387.0000      0.0000    519.4575     12.0451     89.6514
   387.2500      0.0000    566.2430     11.9845     91.8190
   387.5000      0.0000    638.6198     11.9354     92.9114
   387.7500      0.0000    708.7762     11.9011     92.3037
   388.0000      0.0000    758.6227     11.8843     90.7342
   388.2500      0.0000    785.6946     11.8882     89.5694
   388.5000      0.0000    797.1136     11.9121     89.4111
   388.7500      0.0000    800.7953     11.9471     89.7286
   389.0000      0.0000    801.0480     11.9790     89.5417
   389.2500      0.0000    798.3434     11.9968     87.9504
   389.5000      0.0000    790.4328     11.9978     84.2045
   389.7500      0.0000    774.1542     11.9858     78.0017
   390.0000      0.0000    748.1400     11.9646     70.0107
   390.2500      0.0000    714.1132     11.9360     61.8886
   390.5000      0.0000    674.1006     11.9019     55.5325
   390.7500      0.0000    626.8146     11.8661     52.2174
   391.0000      0.0000    570.3444     11.8329     52.3303
   391.2500      0.0000    509.5258     11.8051     55.6883
   391.5000      0.0000    457.1143     11.7845     61.7064
   391.7500      0.0000    426.1523     11.7724     68.9598
   392.0000      0.0000    422.9760     11.7699     74.8784
   392.2500      0.0000    446.1812     11.7775     76.6191
   392.5000      0.0000    488.0490     11.7960     72.8499
   392.7500      0.0000    537.1897     11.8257     64.9363
   393.0000      0.0000    583.8260     11.8647     56.1092
   393.2500      0.0000    623.5920     11.9074     49.0453
   393.5000      0.0000    655.4872     11.9472     44.2113
   393.7500      0.0000    678.4328     11.9800     40.5516
