~Version Information
VERS.                      2.0: CWLS Log ASCII Standard - VERSION 2.0
WRAP.                       NO: One line per depth step
~Well Information Block
STRT.FT               472.0000: 
STOP.FT              2428.5000: 
STEP.FT                 0.1000: 
NULL.                -999.2500: 
COMP.          Pioneer Natural Resources: COMPANY
WELL.          Flying Horse 12-11: WELL
FLD.           Purgatoire River: FIELD
LOC.           2428' FNL & 308' FWL: LOCATION
PROV.                 Colorado: PROVINCE
CNTY.               Las Animas: COUNTRY
SRVC.                Patterson: SERVICE COMPANY
DATE.          Mon May 30 06:06:20 2005: LOG DATE
UWI.           05 071 08378 00: UNIQUE WELL ID
~Curve Information Block
DEPT.FT            0 000 00 00: Depth
DCAL.in                       : CDL Caliper
RHOB.g/cc                     : CDL Bulk Density
RHOC.g/cc                     : CDL Density Correction
DPOR.pu                       : CDL Density Porosity
GR.GAPI                       : Gamma Ray
NPOR.pu                       : Neutron Porosity
~Parameter Information Block
~A  Depth       DCAL        RHOB        RHOC        DPOR         GR         NPOR    
# ...
  1374.4000      8.0627      2.4881      0.0334      9.8100     67.0125     21.1564
  1374.5000      8.0653      2.4991      0.0411      9.1485     62.0838     20.3717
  1374.6000      8.0653      2.5084      0.0005      8.5792     58.3686     19.3381
  1374.7000      8.0653      2.5121      0.0433      8.3573     58.2369     18.9157
  1374.8000      8.0469      2.5153      0.0413      8.1636     60.0877     18.7539
  1374.9000      8.0469      2.5299      0.0646      7.2816     61.2999     18.9550
  1375.0000      8.0514      2.5534      0.0028      5.8516     62.2761     19.2781
  1375.1000      8.0514      2.5628      0.0924      5.2842     64.8487     19.2313
  1375.2000      8.0514      2.5392      0.0333      6.7136     69.6317     19.3744
  1375.3000      8.0548      2.4970      0.0334      9.2753     73.2247     20.1317
  1375.4000      8.0548      2.4625     -0.0314     11.3609     72.7692     21.0466
  1375.5000      8.0694      2.4447     -0.0080     12.4404     70.0041     21.4760
  1375.6000      8.0694      2.4366     -0.0270     12.9347     67.2955     21.4245
  1375.7000      8.0694      2.4314      0.0118     13.2500     66.6890     20.8380
  1375.8000      8.0944      2.4230      0.0103     13.7604     69.2465     19.8218
  1375.9000      8.0944      2.4161      0.0126     14.1758     70.7995     19.5557
  1376.0000      8.0676      2.4225      0.0076     13.7908     68.2554     20.2379
  1376.1000      8.0676      2.4392      0.0251     12.7757     63.8254     20.6844
  1376.2000      8.0676      2.4565      0.0373     11.7252     61.2448     20.5302
  1376.3000      8.0401      2.4726      0.0634     10.7488     61.5811     20.5137
  1376.4000      8.0401      2.4870      0.0756      9.8787     64.0480     20.9299
  1376.5000      8.0299      2.4958      0.0728      9.3483     67.0316     21.1905
  1376.6000      8.0299      2.4979      0.0640      9.2173     67.3400     21.1450
  1376.7000      8.0299      2.4937      0.0273      9.4714     63.5025     21.0564
  1376.8000      7.9964      2.4811      0.0900     10.2347     57.5637     20.7438
  1376.9000      7.9964      2.4671      0.0543     11.0825     54.4304     20.2591
  1377.0000      7.9824      2.4640      0.0683     11.2730     57.4773     19.8837
  1377.1000      7.9824      2.4600      0.1074     11.5167     64.9131     19.4274
  1377.2000      7.9824      2.4462      0.0270     12.3494     71.6890     18.8707
  1377.3000      7.9981      2.4470      0.0062     12.3013     73.5807     18.8193
  1377.4000      7.9981      2.4725      0.0443     10.7549     71.0360     19.3939
  1377.5000      7.9913      2.4967      0.0824      9.2902     66.7029     19.7444
  1377.6000      7.9913      2.4995      0.0817      9.1189     64.4269     19.0591
  1377.7000      7.9913      2.4901      0.0549      9.6890     68.0981     17.8713
  1377.8000      7.9728      2.4849      0.0473     10.0038     74.3935     17.5271
  1377.9000      7.9728      2.4847      0.0675     10.0171     76.9207     18.3314
  1378.0000      7.9593      2.4866      0.0380      9.9009     73.7995     19.3051
  1378.1000      7.9593      2.5014      0.0108      9.0056     67.1416     19.5694
  1378.2000      7.9593      2.5212      0.0844      7.8053     61.3354     19.3633
  1378.3000      7.9348      2.5185      0.0772      7.9710     59.9084     19.4871
  1378.4000      7.9348      2.5036      0.0427      8.8726     61.9168     20.1312
  1378.5000      7.9525      2.5069      0.0175      8.6757     61.7916     20.7557
  1378.6000      7.9525      2.5260      0.0283      7.5135     58.1461     21.0302
  1378.7000      7.9525      2.5492     -0.0053      6.1064     56.2408     20.9465
  1378.8000      8.0333      2.5761      0.0261      4.4765     58.3155     20.8106
  1378.9000      8.0333      2.6096      0.0234      2.4464     61.8446     21.0094
  1379.0000      8.0683      2.6541      0.0610     -0.2482     64.9884     21.8001
  1379.1000      8.0683      2.7047      0.0946     -3.3177     68.2033     22.8272
  1379.2000      8.0683      2.7518      0.0602     -6.1675     72.2056     22.9285
  1379.3000      8.0398      2.7744      0.1717     -7.5365     74.3153     22.1543
  1379.4000      8.0398      2.7472      0.0656     -5.8906     72.5174     21.5478
  1379.5000      8.0036      2.6835      0.0403     -2.0330     72.8869     21.1435
  1379.6000      8.0036      2.6257     -0.0456      1.4727     78.5909     20.5633
  1379.7000      8.0036      2.5919      0.0035      3.5208     84.4986     20.2791
  1379.8000      7.9665      2.5591      0.0022      5.5092     86.6953     20.4308
  1379.9000      7.9665      2.5125     -0.0806      8.3316     84.8783     20.1826
  1380.0000      7.9806      2.4713     -0.0839     10.8300     81.5213     19.3674
  1380.1000      7.9806      2.4543     -0.0413     11.8617     79.6054     18.4688
  1380.2000      7.9806      2.4644     -0.0667     11.2470     80.5393     17.9215
  1380.3000      8.0539      2.4925     -0.0406      9.5483     82.8022     18.1592
  1380.4000      8.0539      2.5183     -0.0245      7.9797     82.6589     19.1936
  1380.5000      8.1237      2.5384      0.0331      6.7615     79.3619     20.1801
  1380.6000      8.1237      2.5633      0.1021      5.2554     76.9086     20.5852
  1380.7000      8.1237      2.5878      0.1394      3.7711     78.0474     21.1045
  1380.8000      8.0525      2.6034      0.0994      2.8265     79.9924     21.9823
  1380.9000      8.0525      2.6090      0.1577      2.4819     80.0279     22.5536
  1381.0000      7.9327      2.6086      0.0456      2.5066     79.6466     22.4246
  1381.1000      7.9327      2.6117      0.0940      2.3221     81.0109     21.7224
  1381.2000      7.9327      2.6137      0.1388      2.1992     83.1323     20.7583
  1381.3000      7.8975      2.6056      0.0944      2.6918     82.6901     20.2231
  1381.4000      7.8975      2.5944      0.0655      3.3721     79.1673     20.7640
  1381.5000      7.9063      2.5820      0.0492      4.1219     76.7064     22.0303
  1381.6000      7.9063      2.5535      0.0629      5.8456     78.5437     23.2171
  1381.7000      7.9063      2.5086     -0.0382      8.5674     84.3766     24.0684
  1381.8000      7.9159      2.4677      0.0084     11.0487     90.2971     24.5830
  1381.9000      7.9159      2.4435     -0.0568     12.5132     93.3108     24.8335
  1382.0000      7.9277      2.4393     -0.0238     12.7703     97.7589     24.9578
  1382.1000      7.9277      2.4497     -0.0025     12.1389    108.4505     25.1511
  1382.2000      7.9277      2.4643      0.0439     11.2543    119.4222     25.7911
  1382.3000      7.9745      2.4825      0.0080     10.1519    122.4139     26.8901
  1382.4000      7.9745      2.5083      0.0470      8.5875    122.4201     27.6587
  1382.5000      7.9855      2.5357      0.0636      6.9256    126.7965     27.6164
  1382.6000      7.9855      2.5567      0.0785      5.6547    131.5658     27.2287
  1382.7000      7.9855      2.5692      0.0424      4.8992    134.0911     27.1617
  1382.8000      7.9874      2.5817      0.0413      4.1417    135.5982     27.5655
  1382.9000      7.9874      2.6007      0.0660      2.9860    133.0958     27.9586
  1383.0000      7.9892      2.6164      0.0981      2.0377    126.3646     28.2192
  1383.1000      7.9892      2.6218      0.0359      1.7076    119.6718     28.7791
  1383.2000      7.9892      2.6176      0.0822      1.9666    118.1060     29.0458
  1383.3000      7.9843      2.6018      0.0629      2.9213    120.5028     28.1370
  1383.4000      7.9843      2.5855      0.0296      3.9090    120.1469     26.8667
  1383.5000      7.9831      2.5720      0.0698      4.7300    116.5433     26.4320
  1383.6000      7.9831      2.5490      0.0270      6.1199    111.9740     26.4636
  1383.7000      7.9831      2.5231     -0.0411      7.6924    106.6562     26.4948
  1383.8000      7.9825      2.5105      0.0274      8.4567    104.4662     26.5273
  1383.9000      7.9825      2.5127      0.0109      8.3215    107.9099     26.4313
