~Version Information
VERS.                      2.0: CWLS Log ASCII Standard - VERSION 2.0
WRAP.                       NO: One line per depth step
~Well Information Block
STRT.FT                -8.2500: 
STOP.FT              2209.7500: 
STEP.FT                 0.2500: 
NULL.                -999.2500: 
COMP.          Petrogulf Corporation: COMPANY
WELL.          Alexander 9-43V: WELL
FLD.           Purgatorie River: FIELD
LOC.                          : LOCATION
CNTY.               Las Animas: COUNTY
SRVC.                         : SERVICE COMPANY
DATE.          Wed May 28 09:25:28 2003: LOG DATE
UWI.           05 071 07727 00: UNIQUE WELL ID
STAT.                 Colorado: STATE
~Curve Information Block
DEPT.FT            0 000 00 00: Depth
CCL.                          : Casing Collar Locator
TT3.usec                      : CBL 3' Travel Time
AMP3.mV                       : CBL 3' Amplitude
GR.GAPI                       : Gamma Ray
~Parameter Information Block
~A  Depth       CCL         TT3         AMP3         GR     
# ...
   293.2500      0.0000    537.6460      5.6810     80.3800
   293.5000      0.0000    537.6199      5.4713     74.0437
   293.7500      5.0000    529.8298      5.3319     69.7347
   294.0000      0.0000    518.0729      5.2383     69.3338
   294.2500      0.0000    503.7605      5.1742     72.3718
   294.5000      0.0000    487.8904      5.1535     76.6479
   294.7500      0.0000    472.0313      5.2376     80.3976
   295.0000      0.0000    457.6208      5.5038     83.1746
   295.2500      0.0000    446.1806      5.9688     84.9203
   295.5000      0.0000    440.5743      6.5440     85.2542
   295.7500      0.0000    444.7751      7.0731     83.9284
   296.0000      0.0000    461.0038      7.4150     81.2984
   296.2500      0.0000    485.7911      7.5049     78.1547
   296.5000      0.0000    508.6560      7.3736     75.5044
   296.7500      0.0000    516.7806      7.1345     74.3448
   297.0000      0.0000    503.9907      6.9473     75.0381
   297.2500      0.0000    475.9321      6.9481     76.9224
   297.5000      0.0000    445.3895      7.1600     78.8272
   297.7500      0.0000    422.5088      7.4635     79.8833
   298.0000      0.0000    409.8012      7.6875     79.8422
   298.2500      0.0000    404.4822      7.7583     79.0261
   298.5000      0.0000    403.0146      7.7560     78.1284
   298.7500      0.0000    403.4380      7.8341     77.7664
   299.0000      0.0000    405.4265      8.0952     78.0321
   299.2500      0.0000    409.5043      8.5329     78.5962
   299.5000      0.0000    415.8960      9.0474     79.2889
   299.7500      0.0000    423.6100      9.4964     80.4301
   300.0000      0.0000    430.7346      9.7573     82.3865
   300.2500      0.0000    435.5618      9.7920     84.9827
   300.5000      0.0000    436.7846      9.6689     87.6036
   300.7500      0.0000    433.1648      9.5031     89.7282
   301.0000      0.0000    424.6939      9.3593     91.1040
   301.2500      0.0000    413.9306      9.2132     91.5528
   301.5000      0.0000    404.5830      8.9997     90.8839
   301.7500      0.0000    398.6772      8.6865     89.0555
   302.0000      0.0000    395.8034      8.3141     86.3612
   302.2500      0.0000    394.5589      7.9802     83.6069
   302.5000      0.0000    393.9346      7.7774     82.0979
   302.7500      0.0000    393.7195      7.7262     83.0101
   303.0000      0.0000    394.5708      7.7620     86.4450
   303.2500      0.0000    398.1682      7.7913     91.2889
   303.5000      0.0000    406.9564      7.7644     96.1214
   303.7500      0.0000    422.5568      7.7013    100.1436
   304.0000      0.0000    443.4796      7.6500    103.2906
   304.2500      0.0000    465.1880      7.6232    105.8260
   304.5000      0.0000    483.8685      7.5805    107.8769
   304.7500      0.0000    499.5560      7.4754    109.2600
   305.0000      0.0000    513.9669      7.3174    109.9133
   305.2500      0.0000    526.2814      7.1876    110.4222
   305.5000      0.0000    533.3081      7.1910    111.5927
   305.7500      0.0000    533.3942      7.3854    113.4425
   306.0000      0.0000    528.2993      7.7419    115.0713
   306.2500      0.0000    521.3069      8.1652    115.6825
   306.5000      0.0000    514.8629      8.5505    115.4752
   306.7500      0.0000    510.0552      8.8400    115.4700
   307.0000      0.0000    507.1065      9.0398    116.6577
   307.2500      0.0000    505.7183      9.1775    119.1961
   307.5000      0.0000    505.2628      9.2362    121.9897
   307.7500      0.0000    504.9702      9.1449    123.0588
   308.0000      0.0000    504.1511      8.8545    120.8607
   308.2500      0.0000    502.5175      8.4284    115.4735
   308.5000      0.0000    500.4586      8.0440    108.3228
   308.7500      0.0000    498.6321      7.8859    100.9430
   309.0000      0.0000    496.8904      8.0277     94.3453
   309.2500      0.0000    493.9291      8.4011     89.2353
   309.5000      0.0000    488.5486      8.8579     86.1237
   309.7500      0.0000    481.1756      9.2463     84.9780
   310.0000      0.0000    473.7396      9.4481     85.0479
   310.2500      0.0000    468.1668      9.3966     85.3607
   310.5000      0.0000    465.2679      9.1105     85.3425
   310.7500      0.0000    464.8860      8.7211     84.8163
   311.0000      0.0000    466.6115      8.4211     83.6793
   311.2500      0.0000    470.1398      8.3356     82.0920
   311.5000      0.0000    475.1279      8.4248     80.9795
   311.7500      0.0000    481.0377      8.5253     81.7310
   312.0000      0.0000    487.2483      8.4988     84.9788
   312.2500      0.0000    493.2051      8.3474     89.7252
   312.5000      0.0000    498.4925      8.1959     93.8248
   312.7500      0.0000    503.0479      8.1862     95.3315
   313.0000      0.0000    507.1588      8.3912     93.5277
   313.2500      0.0000    510.6100      8.7847     89.1699
   313.5000      0.0000    511.5962      9.2457     84.1774
   313.7500      0.0000    506.9813      9.6071     80.7974
   314.0000      0.0000    494.2238      9.7495     80.3656
   314.2500      0.0000    473.7309      9.6807     82.5211
   314.5000      0.0000    450.2272      9.5211     85.7222
   314.7500      0.0000    431.2748      9.3982     88.5709
   315.0000      0.0000    421.8105      9.3529     90.4649
   315.2500      0.0000    419.1584      9.3494     91.1902
   315.5000      0.0000    415.7891      9.3461     90.7018
   315.7500      0.0000    408.0616      9.3155     89.5583
   316.0000      0.0000    400.2622      9.2076     88.8185
   316.2500      0.0000    399.3258      8.9670     89.0790
   316.5000      0.0000    407.6597      8.6133     90.0345
   316.7500      0.0000    422.0273      8.2579     91.0783
   317.0000      0.0000    437.2941      8.0030     91.9080
   317.2500      0.0000    449.7338      7.8486     92.5965
   317.5000      0.0000    458.0504      7.7311     93.4706
   317.7500      0.0000    463.1039      7.6289     94.8442
   318.0000      0.0000    466.9502      7.5853     96.5323
   318.2500      0.0000    471.6207      7.6234     97.7209
   318.5000      0.0000    478.3044      7.6725     97.6168
   318.7500      0.0000    487.0972      7.6104     96.3749
   319.0000      0.0000    496.8476      7.3816     95.3397
   319.2500      0.0000    505.2648      7.0699     95.9619
   319.5000      0.0000    510.1938      6.8387     98.1733
   319.7500      0.0000    511.6959      6.7846    100.1769
   320.0000      0.0000    512.8212      6.8602    100.2169
   320.2500      0.0000    518.0819      6.9560     98.3350
   320.5000      0.0000    530.9949      7.0230     96.1984
   320.7500      0.0000    552.2411      7.0851     95.6045
   321.0000      0.0000    579.0909      7.1673     97.2685
   321.2500      0.0000    606.2139      7.2556    100.4740
   321.5000      0.0000    627.1964      7.3192    103.4926
   321.7500      0.0000    635.8102      7.3493    104.7162
   322.0000      0.0000    627.7691      7.3775    103.8692
   322.2500      0.0000    603.7294      7.4442    102.1534
   322.5000      0.0000    570.6819      7.5415    100.9824
   322.7500      0.0000    538.6636      7.6035    100.5927
   323.0000      0.0000    514.9750      7.5595    100.1651
   323.2500      0.0000    501.0289      7.3815     99.1537
   323.5000      0.0000    493.7693      7.0939     97.9243
   323.7500      0.0000    489.5148      6.7737     97.1054
   324.0000      0.0000    487.1121      6.5285     96.9471
   324.2500      0.0000    488.3580      6.4219     97.4159
   324.5000      0.0000    495.6320      6.4119     98.4622
   324.7500      0.0000    509.1756      6.3967     99.9260
   325.0000      0.0000    526.5786      6.3225    101.2389
   325.2500      0.0000    544.1098      6.2218    101.5088
   325.5000      0.0000    557.8207      6.1505    100.1853
   325.7500      0.0000    563.9387      6.1278     97.7428
   326.0000      0.0000    559.7281      6.1566     95.5712
   326.2500      0.0000    545.1611      6.2627     95.0133
   326.5000      0.0000    524.3386      6.4672     96.3762
