~Version Information
VERS.                      2.0: CWLS Log ASCII Standard - VERSION 2.0
WRAP.                       NO: One line per depth step
~Well Information Block
STRT.FT               858.7000: 
STOP.FT              2478.2000: 
STEP.FT                 0.1000: 
NULL.                -999.2500: 
COMP.          Petrogulf Corporation: COMPANY
WELL.           Torcom 17-33 V: WELL
FLD.           Purgatoire River: FIELD
LOC.           1544' FSL & 1746' FEL: LOCATION
PROV.                 Colorado: PROVINCE
CNTY.               Las Animas: COUNTRY
SRVC.                Patterson: SERVICE COMPANY
DATE.          Wed Dec 03 09:22:08 2003: LOG DATE
UWI.                          : UNIQUE WELL ID
~Curve Information Block
DEPT.FT            0 000 00 00: Depth
DCAL.in                       : CDL Caliper
RHOB.g/cc                     : CDL Bulk Density
RHOC.g/cc                     : CDL Density Correction
DPOR.pu                       : CDL Density Porosity
GR.GAPI                       : Gamma Ray
NPOR.pu                       : Neutron Porosity
~Parameter Information Block
~A  Depth       DCAL        RHOB        RHOC        DPOR         GR         NPOR    
# ...
  1415.5000      8.1357      2.5569      0.0458      5.6404    121.0797     22.2127
  1415.6000      8.1357      2.5757      0.0973      4.5046    116.5571     21.6334
  1415.7000      8.1357      2.6008      0.0838      2.9831    114.6818     21.6983
  1415.8000      8.1264      2.6137      0.1428      2.1976    116.3481     22.0544
  1415.9000      8.1264      2.6092      0.0882      2.4708    115.9037     22.5339
  1416.0000      8.1327      2.6075      0.0752      2.5756    113.2762     22.9534
  1416.1000      8.1327      2.6223      0.1120      1.6783    113.2803     22.8280
  1416.2000      8.1327      2.6317      0.1588      1.1104    115.1839     22.3580
  1416.3000      8.1202      2.6140      0.1120      2.1840    114.6048     21.9808
  1416.4000      8.1202      2.5831      0.0687      4.0573    112.8416     21.6173
  1416.5000      8.1098      2.5653      0.0299      5.1353    115.1959     21.3781
  1416.6000      8.1098      2.5601      0.0769      5.4467    120.0584     21.6020
  1416.7000      8.1098      2.5522      0.0663      5.9277    122.4696     21.8571
  1416.8000      8.1322      2.5518     -0.0339      5.9528    124.9065     21.3043
  1416.9000      8.1322      2.5748      0.0743      4.5564    125.9792     20.2874
  1417.0000      8.1198      2.6033      0.1045      2.8293    118.6743     19.7987
  1417.1000      8.1198      2.6147      0.0940      2.1407    107.3070     19.8629
  1417.2000      8.1198      2.6108      0.1204      2.3747     99.0885     19.9592
  1417.3000      8.1170      2.6069      0.0576      2.6114     96.3404     19.8591
  1417.4000      8.1170      2.6077      0.0665      2.5667     96.4230     19.7718
  1417.5000      8.1257      2.5972      0.1170      3.1998     93.1094     19.9091
  1417.6000      8.1257      2.5718      0.0636      4.7386     86.0694     19.9887
  1417.7000      8.1257      2.5574     -0.0317      5.6102     83.6369     19.9195
  1417.8000      8.1351      2.5711      0.0721      4.7795     89.8346     19.9845
  1417.9000      8.1351      2.5978      0.1112      3.1655     96.3376     19.9918
  1418.0000      8.1370      2.6111      0.0894      2.3592     96.1310     19.5587
  1418.1000      8.1370      2.5969      0.0848      3.2164     93.6639     18.8354
  1418.2000      8.1370      2.5662      0.0388      5.0787     95.4272     18.1951
  1418.3000      8.1210      2.5434      0.0257      6.4618    100.4086     17.5204
  1418.4000      8.1210      2.5392     -0.0127      6.7181    102.8670     16.6518
  1418.5000      8.1495      2.5416      0.0667      6.5700    100.1571     15.8077
  1418.6000      8.1495      2.5412      0.0233      6.5963     95.1360     15.1249
  1418.7000      8.1495      2.5515      0.0179      5.9707     89.7776     14.5770
  1418.8000      8.1800      2.5759      0.0491      4.4904     83.5950     14.0733
  1418.9000      8.1800      2.5889      0.0946      3.7045     76.9816     13.7375
  1419.0000      8.1564      2.5770      0.0561      4.4253     71.9012     13.8397
  1419.1000      8.1564      2.5560      0.0659      5.6976     69.9763     14.2990
  1419.2000      8.1564      2.5380      0.0415      6.7893     69.2585     14.8473
  1419.3000      8.1548      2.5228      0.0702      7.7096     68.3972     15.2615
  1419.4000      8.1548      2.5080      0.0608      8.6084     69.5862     15.4033
  1419.5000      8.1601      2.4970      0.0230      9.2701     70.7304     15.4326
  1419.6000      8.1601      2.5009      0.0135      9.0365     68.0771     15.5736
  1419.7000      8.1601      2.5168      0.0580      8.0716     66.1907     15.7442
  1419.8000      8.1726      2.5225      0.0817      7.7296     69.3359     15.8454
  1419.9000      8.1726      2.5064      0.0940      8.7010     71.9624     15.9289
  1420.0000      8.1766      2.4929      0.0103      9.5242     71.9723     15.9873
  1420.1000      8.1766      2.5054      0.1161      8.7660     75.0129     16.0961
  1420.2000      8.1766      2.5240      0.0990      7.6388     80.3139     16.3418
  1420.3000      8.1561      2.5171      0.0996      8.0542     82.7007     16.6400
  1420.4000      8.1561      2.4926      0.0275      9.5420     81.5962     16.8398
  1420.5000      8.1519      2.4800      0.0874     10.3026     80.3773     16.5775
  1420.6000      8.1519      2.4864      0.0526      9.9142     80.4822     15.9197
  1420.7000      8.1519      2.5026      0.0450      8.9336     81.5832     15.5021
  1420.8000      8.1539      2.5203      0.0415      7.8607     83.2686     15.4333
  1420.9000      8.1539      2.5273      0.1122      7.4360     84.4074     15.4740
  1421.0000      8.1482      2.5172      0.0363      8.0466     84.3342     15.7529
  1421.1000      8.1482      2.5059      0.0334      8.7332     81.8519     16.2476
  1421.2000      8.1482      2.5030      0.0938      8.9111     76.7417     16.4418
  1421.3000      8.1235      2.4991      0.0426      9.1456     70.6490     16.2520
  1421.4000      8.1235      2.4897      0.1189      9.7131     67.0536     16.1341
  1421.5000      8.1266      2.4837      0.0368     10.0796     69.6904     16.1183
  1421.6000      8.1266      2.4956      0.0903      9.3568     74.9845     15.9170
  1421.7000      8.1266      2.5211      0.0743      7.8119     77.2781     15.6874
  1421.8000      8.1201      2.5382      0.1301      6.7780     77.0885     15.6710
  1421.9000      8.1201      2.5323      0.0995      7.1346     75.0108     15.6837
  1422.0000      8.1408      2.5180      0.0814      8.0014     70.4464     15.4147
  1422.1000      8.1408      2.5196      0.0178      7.9012     67.5215     14.9847
  1422.2000      8.1408      2.5405      0.0706      6.6393     67.9428     14.8291
  1422.3000      8.1437      2.5583      0.1355      5.5602     69.4544     14.9963
  1422.4000      8.1437      2.5482      0.1537      6.1670     72.3079     15.1994
  1422.5000      8.1292      2.5233      0.0219      7.6784     74.5808     15.2883
  1422.6000      8.1292      2.5183      0.1061      7.9845     73.8426     15.1891
  1422.7000      8.1292      2.5292      0.1265      7.3231     71.3152     14.8946
  1422.8000      8.1167      2.5282      0.1031      7.3788     67.3763     14.5674
  1422.9000      8.1167      2.4997      0.0792      9.1086     61.6844     14.4010
  1423.0000      8.1299      2.4525      0.0540     11.9675     58.9374     14.3709
  1423.1000      8.1299      2.4244     -0.0523     13.6736     63.2844     14.3235
  1423.2000      8.1299      2.4372     -0.0172     12.8943     70.0616     14.4486
  1423.3000      8.1569      2.4625      0.0664     11.3625     72.7110     14.9347
  1423.4000      8.1569      2.4732      0.0234     10.7161     70.5864     15.4274
  1423.5000      8.1552      2.4823      0.0700     10.1635     67.2351     15.5244
  1423.6000      8.1552      2.4943      0.1248      9.4343     66.2363     15.3454
  1423.7000      8.1552      2.4974      0.0775      9.2460     69.2696     15.2378
  1423.8000      8.1592      2.4956      0.0438      9.3562     71.1500     15.2728
  1423.9000      8.1592      2.4934      0.1287      9.4915     66.6949     15.3651
  1424.0000      8.1439      2.4859      0.0695      9.9440     60.6660     15.4142
  1424.1000      8.1439      2.4778      0.0544     10.4336     57.8809     15.4836
  1424.2000      8.1439      2.4715      0.0915     10.8200     59.1292     15.4069
  1424.3000      8.1433      2.4635      0.0371     11.3026     62.8956     14.9947
  1424.4000      8.1433      2.4620      0.0185     11.3911     66.8762     14.9109
  1424.5000      8.1362      2.4719      0.0605     10.7935     69.7260     15.6536
  1424.6000      8.1362      2.4912      0.0151      9.6226     71.2586     16.7828
  1424.7000      8.1362      2.5156      0.1404      8.1455     73.0263     17.4428
  1424.8000      8.1309      2.5205      0.1476      7.8475     75.3635     17.3194
  1424.9000      8.1309      2.4983      0.0943      9.1911     78.6745     17.1520
  1425.0000      8.1240      2.4776      0.0414     10.4513     82.3000     17.6063
