~Version Information
 VERS.                                  2.0 : CWLS LAS VERSION
 WRAP.                                   NO : WRAPING MODE
 SWARE .                 MController 2.5.0J : SOFTWARE VERSION
~Well Information
 WELL.                      Robinson 15-12R : WELL
 COMP.                Petrogulf Corporation : COMPANY
 FLD.                      Purgatoire River : FIELD
 LOC.                SW/NW Sec 15 T33S R67W : LOCATION
 DATE.                          09/12-13/05 : DATE(S) LOGGED
 SRVC.       BLANCO Geological Services LLC : SERVICE COMPANY
 STAT.                                   CO : STATE
 CNTY.                           Las Animas : COUNTY
 CTRY.                                  USA : COUNTRY
 API.                       05-071-08307-00 : API NUMBER
 STRT.FT                               1.00 : START DEPTH
 STOP.FT                            1460.00 : STOP DEPTH
 STEP.FT                               1.00 : DEPTH INCREMENT
 NULL.                                -9999 : NULL VALUE
~Curve information
 DEPTH.FT                                   :
 ROP.MIN/FT                                 :
 GAS.UNITS                                  :
~ASCII Log data
# ...
      1201.0         0.30       1135.1 
      1202.0         0.37        983.1 
      1203.0         0.37        853.9 
      1204.0         0.23        784.1 
      1205.0         0.55        757.7 
      1206.0         0.23        689.8 
      1207.0         0.20        673.6 
      1208.0         0.33        663.8 
      1209.0         0.27        656.2 
      1210.0         0.23        660.3 
      1211.0         0.30        663.5 
      1212.0         0.17        658.4 
      1213.0         0.23        653.0 
      1214.0         0.23        642.5 
      1215.0         0.20        632.1 
      1216.0         0.20        618.1 
      1217.0         0.20        604.4 
      1218.0         0.22        613.7 
      1219.0         0.17        623.2 
      1220.0         0.17        628.9 
      1221.0         0.23        627.9 
      1222.0         0.23        635.9 
      1223.0         0.17        636.8 
      1224.0         0.20        629.8 
      1225.0         0.17        591.8 
      1226.0         0.17        568.9 
      1227.0         0.20        539.7 
      1228.0         0.20        565.7 
      1229.0         0.33        782.8 
      1230.0         1.22       1587.4 
      1231.0         0.23       1453.8 
      1232.0         0.27       1302.1 
      1233.0         0.27       1131.3 
      1234.0         0.23        994.2 
      1235.0         0.30        901.5 
      1236.0         0.20        828.2 
      1237.0         0.20        802.2 
      1238.0         0.23        786.9 
      1239.0         0.20        777.4 
      1240.0         0.20        766.9 
      1241.0         0.37        761.2 
      1242.0         0.27        758.7 
      1243.0         0.18        745.0 
      1244.0         0.17        728.5 
      1245.0         0.33        711.7 
      1246.0         0.23        692.4 
      1247.0         0.20        679.4 
      1248.0         0.27        672.1 
      1249.0         0.30        669.5 
      1250.0         0.23        668.2 
      1251.0         0.23        671.4 
      1252.0         0.23        678.7 
      1253.0         0.20        681.9 
      1254.0         0.17        678.4 
      1255.0         0.13        671.1 
      1256.0         0.20        659.4 
      1257.0         0.28        629.5 
      1258.0         0.23        570.8 
      1259.0         0.17        593.0 
      1260.0         1.50       1596.0 
      1261.0         0.40       1461.7 
      1262.0         0.23       1191.0 
      1263.0         0.27       1057.7 
      1264.0         0.23        933.9 
      1265.0         0.32        863.1 
      1266.0         0.40        806.9 
      1267.0         0.40        776.8 
      1268.0         0.37        757.4 
      1269.0         0.13        749.5 
      1270.0         0.17        746.0 
      1271.0         0.20        739.0 
      1272.0         0.30        731.7 
      1273.0         0.20        719.0 
      1274.0         0.20        711.1 
      1275.0         0.30        703.5 
      1276.0         0.17        688.6 
      1277.0         0.17        683.2 
      1278.0         0.18        675.9 
      1279.0         0.13        667.3 
      1280.0         0.13        661.9 
      1281.0         0.17        659.0 
      1282.0         0.30        662.5 
      1283.0         0.23        676.2 
      1284.0         0.33        680.0 
      1285.0         0.20        678.4 
      1286.0         0.20        660.3 
      1287.0         0.27        620.0 
      1288.0         0.20        561.6 
      1289.0         0.20        556.2 
      1290.0         1.52       1588.7 
      1291.0         0.40       1502.3 
      1292.0         0.43       1237.6 
      1293.0         0.47       1019.6 
      1294.0         0.30        859.9 
      1295.0         0.37        821.9 
      1296.0         0.43        790.4 
      1297.0         0.35        765.7 
      1298.0         0.23        750.8 
      1299.0         0.17        745.4 
      1300.0         0.20        741.6 
      1301.0         0.17        733.3 
      1302.0         0.17        726.3 
      1303.0         0.17        719.7 
      1304.0         0.17        711.1 
      1305.0         0.17        703.5 
      1306.0         0.20        696.5 
      1307.0         0.10        694.0 
      1308.0         0.17        688.9 
      1309.0         0.20        688.9 
      1310.0         0.20        687.3 
      1311.0         0.17        685.7 
      1312.0         0.17        685.4 
      1313.0         0.17        686.0 
      1314.0         0.17        686.0 
      1315.0         0.18        676.8 
      1316.0         0.17        640.0 
      1317.0         0.23        596.8 
      1318.0         0.17        543.8 
      1319.0         0.23        550.8 
      1320.0         2.27       1631.2 
      1321.0         0.22       1061.2 
      1322.0         0.10        967.2 
      1323.0         0.17        932.3 
      1324.0         0.17        891.7 
      1325.0         0.17        858.4 
      1326.0         0.20        838.7 
      1327.0         0.33        824.1 
      1328.0         0.30        791.7 
      1329.0         0.23        767.3 
      1330.0         0.23        751.4 
      1331.0         0.23        745.7 
      1332.0         0.13        741.9 
      1333.0         0.17        740.0 
      1334.0         0.20        740.0 
      1335.0         0.10        740.9 
      1336.0         0.17        740.0 
      1337.0         0.10        743.8 
      1338.0         0.20        742.2 
      1339.0         0.18        738.1 
      1340.0         0.13        732.4 
      1341.0         0.17        724.1 
      1342.0         0.13        716.2 
      1343.0         0.13        702.5 
      1344.0         0.17        682.2 
      1345.0         0.17        652.7 
      1346.0         0.17        607.3 
      1347.0         0.17        573.3 
      1348.0         0.20        572.1 
      1349.0         0.23        664.1 
      1350.0         1.72       1679.1 
      1351.0         0.30       1307.5 
      1352.0         0.27       1116.1 
      1353.0         0.27       1000.2 
      1354.0         0.23        913.6 
      1355.0         0.17        862.8 
      1356.0         0.17        835.5 
      1357.0         0.17        813.6 
      1358.0         0.17        799.0 
      1359.0         0.37        778.1 
      1360.0         0.32        741.6 
      1361.0         0.30        713.9 
      1362.0         0.37        719.7 
      1363.0         0.13        722.2 
      1364.0         0.17        723.2 
      1365.0         0.17        722.5 
      1366.0         0.17        720.6 
      1367.0         0.10        715.9 
      1368.0         0.13        713.3 
      1369.0         0.13        708.2 
      1370.0         0.17        702.2 
      1371.0         0.13        699.0 
      1372.0         0.13        700.0 
      1373.0         0.13        696.2 
      1374.0         0.17        694.3 
      1375.0         0.23        687.6 
      1376.0         0.27        651.7 
      1377.0         0.18        596.8 
      1378.0         0.23        573.7 
      1379.0         0.37        765.0 
      1380.0         1.63       1750.5 
      1381.0         0.17       1322.1 
      1382.0         0.20       1205.3 
      1383.0         0.20       1085.9 
      1384.0         0.13        991.0 
      1385.0         0.20        941.8 
      1386.0         0.22        876.1 
      1387.0         0.23        823.4 
      1388.0         0.20        792.7 
      1389.0         0.20        777.7 
      1390.0         0.27        767.6 
      1391.0         0.23        741.2 
      1392.0         0.30        711.7 
      1393.0         0.23        668.9 
      1394.0         0.27        638.7 
      1395.0         0.20        648.2 
      1396.0         0.17        659.0 
      1397.0         0.17        665.1 
      1398.0         0.22        680.9 
      1399.0         0.23        693.0 
      1400.0         0.20        700.0 
