~Version Information
VERS.                      2.0: CWLS Log ASCII Standard - VERSION 2.0
WRAP.                       NO: One line per depth step
~Well Information Block
STRT.FT               260.0000: 
STOP.FT              1200.5000: 
STEP.FT                 0.2500: 
NULL.                -999.2500: 
COMP.          Evergreen Operating Corporation: COMPANY
WELL.             Justin 32-10: WELL
FLD.           Purgatorie River: FIELD
LOC.           2994' FNL & 1449' FEL: LOCATION
PROV.                 Colorado: PROVINCE
CNTY.               Las Animas: COUNTRY
SRVC.                         : SERVICE COMPANY
DATE.          Sun Aug 29 20:47:20 2004: LOG DATE
UWI.           05 071 08053 00: UNIQUE WELL ID
~Curve Information Block
DEPT.FT            0 000 00 00: Depth
LTEN.lb                       : Surface Line Tension
SN.Ohm-m                      : IEL Short Normal
SP.mV                         : IEL Spontaneous Potential
DIR.Ohm-m                     : IEL Induction Resistivity
GR.GAPI                       : Gamma Ray
~Parameter Information Block
~A  Depth       LTEN         SN          SP         DIR          GR     
# ...
   624.0000    700.0652   2000.0000   2000.0000     15.8192    132.2313
   624.2500    694.0800   2000.0000   2000.0000     15.7351    134.2108
   624.5000    687.9019   2000.0000   2000.0000     15.6866    138.3810
   624.7500    682.9849   2000.0000   2000.0000     15.5651    141.6459
   625.0000    679.9761   2000.0000   2000.0000     15.3086    146.3386
   625.2500    679.3383   2000.0000   2000.0000     14.9242    148.8939
   625.5000    681.3304   2000.0000   2000.0000     14.4621    151.6703
   625.7500    685.3662   2000.0000   2000.0000     13.9739    153.1207
   626.0000    689.7122   2000.0000   2000.0000     13.4956    155.5694
   626.2500    692.0245   2000.0000   2000.0000     13.0575    157.5647
   626.5000    690.6450   2000.0000   2000.0000     12.6915    160.3039
   626.7500    685.9315   2000.0000   2000.0000     12.4239    161.2856
   627.0000    680.3180   2000.0000   2000.0000     12.2612    161.1530
   627.2500    676.6089   2000.0000   2000.0000     12.1858    160.3536
   627.5000    675.9194   2000.0000   2000.0000     12.1685    158.9329
   627.7500    677.2457   2000.0000   2000.0000     12.1860    158.1251
   628.0000    678.9370   2000.0000   2000.0000     12.2271    157.1645
   628.2500    680.3260   2000.0000   2000.0000     12.2872    156.6277
   628.5000    681.9080   2000.0000   2000.0000     12.3612    156.1714
   628.7500    684.2424   2000.0000   2000.0000     12.4507    156.3856
   629.0000    686.9069   2000.0000   2000.0000     12.5773    157.5755
   629.2500    688.6127   2000.0000   2000.0000     12.7857    158.3354
   629.5000    688.4789   2000.0000   2000.0000     13.1266    157.4625
   629.7500    687.1657   2000.0000   2000.0000     13.6322    154.6814
   630.0000    686.4719   2000.0000   2000.0000     14.3026    147.6796
   630.2500    687.6847   2000.0000   2000.0000     15.1152    142.3780
   630.5000    690.5184   2000.0000   2000.0000     16.0540    135.4672
   630.7500    693.6453   2000.0000   2000.0000     17.1366    131.8200
   631.0000    695.7586   2000.0000   2000.0000     18.4116    126.9843
   631.2500    696.0259   2000.0000   2000.0000     19.9154    123.7121
   631.5000    694.3126   2000.0000   2000.0000     21.6098    118.7766
   631.7500    691.4611   2000.0000   2000.0000     23.3429    115.9113
   632.0000    688.8485   2000.0000   2000.0000     24.8881    113.2403
   632.2500    687.1957   2000.0000   2000.0000     26.0754    113.0369
   632.5000    686.0764   2000.0000   2000.0000     26.9212    115.3546
   632.7500    685.0299   2000.0000   2000.0000     27.6362    118.3108
   633.0000    684.9307   2000.0000   2000.0000     28.4959    123.6083
   633.2500    687.3895   2000.0000   2000.0000     29.6611    126.7565
   633.5000    692.4285   2000.0000   2000.0000     31.0101    129.3016
   633.7500    697.4415   2000.0000   2000.0000     32.0856    129.0700
   634.0000    699.2102   2000.0000   2000.0000     32.3508    126.3416
   634.2500    696.7190   2000.0000   2000.0000     31.6895    123.7144
   634.5000    691.6548   2000.0000   2000.0000     30.5607    119.6795
   634.7500    686.7079   2000.0000   2000.0000     29.5776    117.2265
   635.0000    684.0046   2000.0000   2000.0000     29.0980    114.1293
   635.2500    684.5958   2000.0000   2000.0000     29.1483    112.6047
   635.5000    688.2656   2000.0000   2000.0000     29.5293    111.3246
   635.7500    693.3386   2000.0000   2000.0000     29.9535    111.0375
   636.0000    697.1818   2000.0000   2000.0000     30.1735    110.8984
   636.2500    697.7045   2000.0000   2000.0000     30.0713    110.7845
   636.5000    694.8391   2000.0000   2000.0000     29.6901    111.0072
   636.7500    690.6119   2000.0000   2000.0000     29.2029    112.0145
   637.0000    687.7280   2000.0000   2000.0000     28.8287    115.3577
   637.2500    687.8005   2000.0000   2000.0000     28.7330    118.4254
   637.5000    690.3791   2000.0000   2000.0000     28.9567    122.9429
   637.7500    693.4869   2000.0000   2000.0000     29.4175    125.3336
   638.0000    695.3575   2000.0000   2000.0000     29.9641    127.6345
   638.2500    695.7862   2000.0000   2000.0000     30.4552    128.0492
   638.5000    695.7512   2000.0000   2000.0000     30.8124    126.1299
   638.7500    695.9922   2000.0000   2000.0000     31.0320    122.8611
   639.0000    696.3917   2000.0000   2000.0000     31.1653    115.7757
   639.2500    696.6398   2000.0000   2000.0000     31.2895    110.7565
   639.5000    696.8397   2000.0000   2000.0000     31.4898    104.8081
   639.7500    697.1226   2000.0000   2000.0000     31.8485    102.4970
   640.0000    697.1069   2000.0000   2000.0000     32.4380    101.3536
   640.2500    696.2077   2000.0000   2000.0000     33.2770    101.7022
   640.5000    694.4566   2000.0000   2000.0000     34.2565    103.2917
   640.7500    692.6943   2000.0000   2000.0000     35.1048    104.8251
   641.0000    691.7144   2000.0000   2000.0000     35.4954    107.0340
   641.2500    691.2347   2000.0000   2000.0000     35.2743    107.6282
   641.5000    690.1313   2000.0000   2000.0000     34.5804    106.1267
   641.7500    687.8885   2000.0000   2000.0000     33.7092    103.7236
   642.0000    685.5267   2000.0000   2000.0000     32.8824     99.5017
   642.2500    684.8791   2000.0000   2000.0000     32.1483     97.0261
   642.5000    686.9077   2000.0000   2000.0000     31.4380     94.2451
   642.7500    690.6632   2000.0000   2000.0000     30.6835     93.2194
   643.0000    694.0667   2000.0000   2000.0000     29.8876     93.9817
   643.2500    695.8903   2000.0000   2000.0000     29.1185     96.7522
   643.5000    696.5890   2000.0000   2000.0000     28.4539    104.6526
   643.7500    696.9351   2000.0000   2000.0000     27.9332    111.8403
   644.0000    696.6046   2000.0000   2000.0000     27.5452    123.4744
   644.2500    694.8462   2000.0000   2000.0000     27.2441    130.4366
   644.5000    691.9560   2000.0000   2000.0000     26.9742    138.0552
   644.7500    689.1418   2000.0000   2000.0000     26.6868    141.0805
   645.0000    687.0867   2000.0000   2000.0000     26.3538    143.4057
   645.2500    685.4047   2000.0000   2000.0000     25.9777    144.2300
   645.5000    683.5657   2000.0000   2000.0000     25.6135    145.2093
   645.7500    681.6559   2000.0000   2000.0000     25.3734    145.5659
   646.0000    680.1635   2000.0000   2000.0000     25.4002    144.4467
   646.2500    679.6524   2000.0000   2000.0000     25.8193    141.8728
   646.5000    680.7968   2000.0000   2000.0000     26.6962    135.2515
   646.7500    684.0477   2000.0000   2000.0000     28.0016    129.8307
   647.0000    688.9683   2000.0000   2000.0000     29.5775    121.9902
   647.2500    694.2954   2000.0000   2000.0000     31.1200    117.4965
   647.5000    698.7735   2000.0000   2000.0000     32.2482    111.5945
   647.7500    701.6205   2000.0000   2000.0000     32.6976    107.8135
   648.0000    702.4814   2000.0000   2000.0000     32.5098    102.1653
   648.2500    701.6840   2000.0000   2000.0000     32.0194     98.6671
   648.5000    700.4903   2000.0000   2000.0000     31.6617     94.3648
   648.7500    700.2068   2000.0000   2000.0000     31.8046     92.2110
   649.0000    700.7312   2000.0000   2000.0000     32.6785     89.7880
   649.2500    700.7349   2000.0000   2000.0000     34.3504     88.6263
   649.5000    699.6465   2000.0000   2000.0000     36.6734     87.9594
   649.7500    698.7562   2000.0000   2000.0000     39.2361     88.6118
   650.0000    699.9158   2000.0000   2000.0000     41.4229     91.4308
   650.2500    703.5339   2000.0000   2000.0000     42.6773     94.1963
   650.5000    708.1953   2000.0000   2000.0000     42.8202     98.5002
   650.7500    711.9056   2000.0000   2000.0000     42.1100    100.7060
   651.0000    713.2874   2000.0000   2000.0000     41.0129    102.1543
   651.2500    711.8254   2000.0000   2000.0000     39.9330    101.9097
   651.5000    707.8249   2000.0000   2000.0000     39.0873    100.6112
   651.7500    702.5392   2000.0000   2000.0000     38.5226     99.6811
