~Version Information
VERS.                      2.0: CWLS Log ASCII Standard - VERSION 2.0
WRAP.                       NO: One line per depth step
~Well Information Block
STRT.FT                -2.2500: 
STOP.FT              1676.7500: 
STEP.FT                 0.2500: 
NULL.                -999.2500: 
COMP.          Pioneer Natural Resources: COMPANY
WELL.              Patten 22-2: WELL
FLD.           Purgatoire River: FIELD
LOC.           2157' FNL & 1528' FWL: LOCATION
PROV.                 Colorado: PROVINCE
CNTY.               Las Animas: COUNTRY
SRVC.                Patterson: SERVICE COMPANY
DATE.          Tue Dec 14 11:45:47 2004: LOG DATE
UWI.           05 071 08168 00: UNIQUE WELL ID
~Curve Information Block
DEPT.FT            0 000 00 00: Depth
GR.GAPI                       : Gamma Ray
CCL.                          : Casing Collar Locator
TT3.usec                      : CBL 3' Travel Time
AMP3.mV                       : CBL 3' Amplitude
~Parameter Information Block
~A  Depth        GR         CCL         TT3         AMP3    
# ...
   433.2500    108.4142      0.0000    799.7581      5.9935
   433.5000    115.2857      0.0000    768.6029      6.5452
   433.7500    123.3564      0.0000    746.7004      7.3041
   434.0000    130.7612      0.0000    739.8136      8.2804
   434.2500    135.1021      0.0000    745.4221      9.4124
   434.5000    135.5219      0.0000    754.5355     10.5579
   434.7500    133.5590      0.0000    758.7739     11.5341
   435.0000    131.6696      0.0000    756.1624     12.1916
   435.2500    131.0336      0.0000    750.3807     12.4822
   435.5000    130.8177      0.0000    745.5909     12.4765
   435.7500    129.4843      0.0000    743.1408     12.3084
   436.0000    126.5912      0.0000    742.2463     12.0866
   436.2500    122.9452      0.0000    741.8911     11.8534
   436.5000    119.2345      0.0000    741.6054     11.6124
   436.7500    115.2541      0.0000    741.3147     11.3713
   437.0000    110.5252      0.0000    741.0679     11.1493
   437.2500    105.2427      0.0000    740.9059     10.9631
   437.5000    100.5946      0.0000    740.8416     10.8198
   437.7500     98.2514      0.0000    740.9442     10.7176
   438.0000     99.1613      0.0000    741.4738     10.6446
   438.2500    102.4802      0.0000    742.9876     10.5823
   438.5000    105.7564      0.0000    746.0947     10.5198
   438.7500    106.5918      0.0000    750.6396     10.4722
   439.0000    104.5349      0.0000    754.9418     10.4753
   439.2500    101.4994      0.0000    756.4444     10.5532
   439.5000    100.2153      0.0000    753.7573     10.6927
   439.7500    102.1589      0.0000    747.9021     10.8546
   440.0000    106.8820      0.0000    741.3694     11.0084
   440.2500    113.1105      0.0000    736.4360     11.1459
   440.5000    119.9247      0.0000    734.3442     11.2698
   440.7500    126.4047      0.0000    735.0942     11.3831
   441.0000    130.7109      0.0000    737.5366     11.4938
   441.2500    130.9961      0.0000    740.0814     11.6164
   441.5000    127.7295      0.0000    741.5848     11.7559
   441.7500    124.0046      0.0000    741.4974     11.8925
   442.0000    122.6608      0.0000    739.3723     11.9952
   442.2500    123.6727      0.0000    734.7312     12.0529
   442.5000    125.0545      0.0000    727.6767     12.0877
   442.7500    125.7042      0.0000    719.4628     12.1373
   443.0000    126.1717      0.0000    712.0327     12.2251
   443.2500    126.6880      0.0000    706.8189     12.3454
   443.5000    125.9471      0.0000    704.0857     12.4700
   443.7500    122.8270      0.0000    703.3709     12.5727
   444.0000    118.5797      0.0000    704.3417     12.6472
   444.2500    116.2698      0.0000    707.1766     12.7048
   444.5000    117.9486      0.0000    712.1494     12.7576
   444.7500    122.5735      0.0000    718.6965     12.8140
   445.0000    126.5337      0.0000    724.9448     12.8855
   445.2500    126.1532      0.0000    728.5632     12.9830
   445.5000    120.1311      0.0000    728.3300     13.1009
   445.7500    110.1718      0.0000    724.7521     13.2149
   446.0000     99.6488      0.0000    719.3099     13.2997
   446.2500     91.6454      0.0000    713.5882     13.3458
   446.5000     87.7313      0.0000    709.0739     13.3574
   446.7500     87.7638      0.0000    707.1531     13.3396
   447.0000     90.4238      0.0000    708.8056     13.2919
   447.2500     94.0984      0.0000    713.9272     13.2128
   447.5000     97.6024      0.0000    720.6227     13.1076
   447.7500    100.3218      0.0000    725.6785     12.9931
   448.0000    101.9578      0.0000    726.7858     12.8906
   448.2500    102.3690      0.0000    724.3398     12.8076
   448.5000    101.6823      0.0000    720.4169     12.7273
   448.7500    100.4380      0.0000    716.3942     12.6278
   449.0000     99.6096      0.0000    712.4795     12.5076
   449.2500    100.4072      0.0000    709.0300     12.3820
   449.5000    103.7079      0.0000    707.1819     12.2597
   449.7500    109.2883      0.0000    708.0113     12.1365
   450.0000    115.7237      0.0000    711.3162     12.0055
   450.2500    121.3569      0.0000    715.0710     11.8563
   450.5000    125.2274      0.0000    716.3484     11.6665
   450.7500    126.9750      0.0000    713.5251     11.4064
   451.0000    126.6410      0.0000    707.9832     11.0683
   451.2500    125.2510      0.0000    703.9936     10.7030
   451.5000    124.8332      0.0000    707.1263     10.4063
   451.7500    126.6107      0.0000    721.3969     10.2325
   452.0000    129.2132      0.0000    745.9377     10.1371
   452.2500    129.7117      0.0000    774.5483     10.0472
   452.5000    126.7228      0.0000    800.0511      9.9633
   452.7500    121.7656      0.0000    819.2716      9.9398
   453.0000    117.3944      2.0000    833.3915      9.9975
   453.2500    114.7716     -2.0000    844.4766     10.1083
   453.5000    113.3330     -2.0000    853.0110     10.2442
   453.7500    111.9645      0.0000    858.0085     10.4167
   454.0000    109.8907      0.0000    857.2981     10.6695
   454.2500    107.0063      0.0000    847.3818     11.0155
   454.5000    104.1358      0.0000    825.5167     11.3530
   454.7500    102.8910      0.0000    793.7530     11.4911
   455.0000    104.6715      0.0000    759.8990     11.3322
   455.2500    109.4280      0.0000    733.0533     11.0015
   455.5000    115.4728      0.0000    718.1933     10.7304
   455.7500    120.5936      0.0000    714.7805     10.6442
   456.0000    123.1600      0.0000    719.2494     10.7094
   456.2500    122.3799      0.0000    728.4562     10.8342
   456.5000    118.5393      0.0000    741.5108     10.9591
   456.7500    113.5789      0.0000    758.3072     11.0725
   457.0000    110.6024      0.0000    776.2463     11.1952
   457.2500    111.7169      0.0000    789.5887     11.3661
   457.5000    116.4205      0.0000    793.1367     11.6270
   457.7500    122.5631      0.0000    786.4492     12.0096
   458.0000    128.3194      0.0000    774.0859     12.5213
   458.2500    132.6278      0.0000    761.5776     13.1208
   458.5000    134.5420      0.0000    751.2968     13.7015
   458.7500    133.2899      0.0000    742.8124     14.1216
   459.0000    128.9377      0.0000    736.7286     14.2805
   459.2500    122.5276      0.0000    736.1921     14.1787
   459.5000    115.6186      0.0000    743.5906     13.9071
   459.7500    109.6485      0.0000    756.7527     13.5772
   460.0000    105.2761      0.0000    769.2797     13.2561
   460.2500    102.2808      0.0000    774.4561     12.9512
   460.5000    100.4145      0.0000    769.1828     12.6434
   460.7500    100.1796      0.0000    755.6244     12.3248
   461.0000    102.4071      0.0000    740.2816     12.0066
   461.2500    107.0970      0.0000    731.2440     11.7064
   461.5000    112.8436      0.0000    734.7115     11.4400
   461.7500    117.3962      0.0000    751.8685     11.2214
   462.0000    118.8871      0.0000    777.5524     11.0592
   462.2500    117.0000      0.0000    802.6088     10.9481
   462.5000    113.3871      0.0000    819.4263     10.8728
   462.7500    110.8105      0.0000    825.9891     10.8205
   463.0000    111.4173      0.0000    824.7744     10.7823
   463.2500    115.5466      0.0000    819.0212     10.7416
   463.5000    121.9645      0.0000    810.9318     10.6762
   463.7500    128.8821      0.0000    802.2532     10.5768
   464.0000    134.6780      0.0000    794.7223     10.4542
   464.2500    138.1246      0.0000    789.4873     10.3258
   464.5000    138.4962      0.0000    786.6232     10.2054
   464.7500    135.7445      0.0000    785.4457     10.1050
   465.0000    130.6434      0.0000    785.1290     10.0301
   465.2500    124.7545      0.0000    785.0914      9.9689
   465.5000    120.0408      0.0000    785.0605      9.9014
   465.7500    118.0295      0.0000    784.9850      9.8217
   466.0000    118.9776      0.0000    784.9149      9.7415
   466.2500    121.8463      0.0000    784.9523      9.6701
   466.5000    125.2289      0.0000    785.3159      9.6011
