~Version Information
VERS.                      2.0: CWLS Log ASCII Standard - VERSION 2.0
WRAP.                       NO: One line per depth step
~Well Information Block
STRT.FT               702.7000: 
STOP.FT              2529.2000: 
STEP.FT                 0.1000: 
NULL.                -999.2500: 
COMP.          Pioneer Natural Resources: COMPANY
WELL.          Aztec Federal 41-15: WELL
FLD.           Purgatorie River: FIELD
LOC.           706' FNL & 1253' FEL: LOCATION
CNTY.               Las Animas: COUNTY
SRVC.          Superior Well Services: SERVICE COMPANY
DATE.          Tue Mar 18 09-36-47 2008: LOG DATE
UWI.           05-071-08342-00: UNIQUE WELL ID
STAT.                       CO: STATE
~Curve Information Block
DEPT.FT            0 000 00 00: Depth
DCAL.in                       : CDL Caliper
DPOR.pu                       : CDL Density Porosity
GR.GAPI                       : Gamma Ray
RHOB.g/cc                     : CDL Bulk Density
RHOC.g/cc                     : CDL Density Correction
~Parameter Information Block
~A  Depth       DCAL        DPOR         GR         RHOB        RHOC    
# ...
  2281.9000      7.7633      8.9151    117.0469      2.5029      0.1078
  2282.0000      7.7545      9.7562    118.0145      2.4890      0.1111
  2282.1000      7.7478     10.5798    118.6047      2.4754      0.1134
  2282.2000      7.7438     10.5503    116.8035      2.4759      0.1105
  2282.3000      7.7428      9.4611    113.5981      2.4939      0.1028
  2282.4000      7.7442      8.2852    111.0817      2.5133      0.0929
  2282.5000      7.7477      7.8824    111.2048      2.5199      0.0867
  2282.6000      7.7528      8.8649    114.4280      2.5037      0.0756
  2282.7000      7.7589     10.9480    118.4806      2.4694      0.0518
  2282.8000      7.7654     12.4478    120.9115      2.4446      0.0329
  2282.9000      7.7714     12.2463    121.2769      2.4479      0.0355
  2283.0000      7.7766     11.0451    121.9972      2.4678      0.0527
  2283.1000      7.7814     10.0202    124.2314      2.4847      0.0682
  2283.2000      7.7864      9.2655    125.4815      2.4971      0.0734
  2283.3000      7.7920      8.4137    125.3908      2.5112      0.0705
  2283.4000      7.7975      7.9844    127.1685      2.5183      0.0620
  2283.5000      7.8017      8.3596    128.6751      2.5121      0.0543
  2283.6000      7.8034      8.5775    123.8629      2.5085      0.0566
  2283.7000      7.8023      8.3986    116.2811      2.5114      0.0629
  2283.8000      7.7990      8.4354    111.9740      2.5108      0.0591
  2283.9000      7.7945      8.0943    109.8534      2.5164      0.0477
  2284.0000      7.7896      6.8561    109.1779      2.5369      0.0413
  2284.1000      7.7848      5.0895    108.4807      2.5660      0.0443
  2284.2000      7.7801      3.1264    105.4271      2.5984      0.0546
  2284.3000      7.7756      2.2361    102.5955      2.6131      0.0641
  2284.4000      7.7710      3.3151    101.1703      2.5953      0.0626
  2284.5000      7.7664      4.5719     98.8443      2.5746      0.0515
  2284.6000      7.7621      3.7966     94.9843      2.5874      0.0445
  2284.7000      7.7584      1.1695     89.7380      2.6307      0.0545
  2284.8000      7.7557     -0.3868     82.5113      2.6564      0.0722
  2284.9000      7.7538      0.8162     75.3932      2.6365      0.0768
  2285.0000      7.7524      3.1391     73.2438      2.5982      0.0691
  2285.1000      7.7513      4.5484     77.0274      2.5750      0.0624
  2285.2000      7.7508      4.3218     82.5720      2.5787      0.0657
  2285.3000      7.7511      3.3279     85.7384      2.5951      0.0756
  2285.4000      7.7530      2.6698     85.5298      2.6059      0.0810
  2285.5000      7.7566      2.4336     83.2463      2.6098      0.0809
  2285.6000      7.7618      2.1107     81.1693      2.6152      0.0865
  2285.7000      7.7677      1.4587     80.7684      2.6259      0.1022
  2285.8000      7.7731      0.6436     81.3017      2.6394      0.1203
  2285.9000      7.7764     -0.2332     81.9464      2.6538      0.1348
  2286.0000      7.7766     -0.4606     83.7431      2.6576      0.1393
  2286.1000      7.7732      0.9733     87.9078      2.6339      0.1262
  2286.2000      7.7671      3.6650     93.6393      2.5895      0.1031
  2286.3000      7.7603      6.0518     98.0511      2.5501      0.0867
  2286.4000      7.7547      6.8578     99.3685      2.5368      0.0858
  2286.5000      7.7517      6.4697     98.8318      2.5432      0.0940
  2286.6000      7.7517      5.8698     99.5528      2.5531      0.1032
  2286.7000      7.7542      5.2617    102.2315      2.5632      0.1126
  2286.8000      7.7580      4.9100    103.6429      2.5690      0.1211
  2286.9000      7.7616      5.2591    103.8399      2.5632      0.1230
  2287.0000      7.7639      6.1849    106.2902      2.5479      0.1164
  2287.1000      7.7644      6.9577    109.6203      2.5352      0.1077
  2287.2000      7.7629      7.1758    110.1423      2.5316      0.1041
  2287.3000      7.7599      6.9871    107.6652      2.5347      0.1074
  2287.4000      7.7562      6.6011    103.6757      2.5411      0.1142
  2287.5000      7.7526      6.5940    101.9296      2.5412      0.1169
  2287.6000      7.7495      7.3892    104.9692      2.5281      0.1111
  2287.7000      7.7471      8.9049    110.3099      2.5031      0.0975
  2287.8000      7.7455     10.6020    115.3717      2.4751      0.0816
  2287.9000      7.7445     11.5159    116.1428      2.4600      0.0733
  2288.0000      7.7441     11.3313    112.5127      2.4630      0.0798
  2288.1000      7.7447     11.2308    110.8771      2.4647      0.0923
  2288.2000      7.7467     12.3896    113.7499      2.4456      0.0901
  2288.3000      7.7508     14.2740    118.9782      2.4145      0.0680
  2288.4000      7.7577     15.7088    122.0233      2.3908      0.0439
  2288.5000      7.7679     16.3263    120.1764      2.3806      0.0321
  2288.6000      7.7815     16.3759    117.5180      2.3798      0.0294
  2288.7000      7.7974     16.0127    117.7844      2.3858      0.0278
  2288.8000      7.8141     15.1193    117.5890      2.4005      0.0266
  2288.9000      7.8295     13.6587    113.5741      2.4246      0.0283
  2289.0000      7.8418     11.9554    108.7812      2.4527      0.0322
  2289.1000      7.8503     10.6596    108.1591      2.4741      0.0333
  2289.2000      7.8551      9.7029    111.8988      2.4899      0.0350
  2289.3000      7.8567      8.4716    117.9821      2.5102      0.0465
  2289.4000      7.8556      7.1400    125.1161      2.5322      0.0630
  2289.5000      7.8522      6.3246    131.0979      2.5456      0.0716
  2289.6000      7.8464      6.4096    133.1099      2.5442      0.0666
  2289.7000      7.8387      6.7548    130.9496      2.5385      0.0584
  2289.8000      7.8297      6.8338    126.8134      2.5372      0.0545
  2289.9000      7.8207      6.8152    122.8778      2.5375      0.0509
  2290.0000      7.8130      6.5648    122.4577      2.5417      0.0507
  2290.1000      7.8078      6.3184    127.2846      2.5457      0.0555
  2290.2000      7.8053      6.8050    133.0759      2.5377      0.0556
  2290.3000      7.8052      8.1987    135.3302      2.5147      0.0466
  2290.4000      7.8067      9.5949    135.3094      2.4917      0.0352
  2290.5000      7.8091     10.1259    136.1882      2.4829      0.0317
  2290.6000      7.8114      9.8271    139.0334      2.4879      0.0388
  2290.7000      7.8133      9.6912    140.8783      2.4901      0.0435
  2290.8000      7.8143      9.9404    139.4242      2.4860      0.0424
  2290.9000      7.8145      9.6834    137.9503      2.4902      0.0457
  2291.0000      7.8140      8.8250    137.1612      2.5044      0.0544
  2291.1000      7.8132      7.9880    132.9404      2.5182      0.0672
  2291.2000      7.8125      7.6473    126.9282      2.5238      0.0813
  2291.3000      7.8119      7.7029    125.7174      2.5229      0.0894
  2291.4000      7.8118      7.2700    130.6407      2.5300      0.0930
  2291.5000      7.8119      6.5477    137.5963      2.5420      0.0985
  2291.6000      7.8122      7.0257    141.2250      2.5341      0.1076
  2291.7000      7.8126      8.2549    138.2390      2.5138      0.1208
  2291.8000      7.8132      8.5131    132.4203      2.5095      0.1388
  2291.9000      7.8142      7.7331    129.7983      2.5224      0.1562
  2292.0000      7.8158      6.6956    129.2011      2.5395      0.1678
  2292.1000      7.8182      6.3546    127.0686      2.5451      0.1692
  2292.2000      7.8210      7.4809    124.5805      2.5266      0.1549
  2292.3000      7.8238      9.4901    124.3088      2.4934      0.1299
  2292.4000      7.8261     10.9711    125.6473      2.4690      0.1067
  2292.5000      7.8278     11.1028    128.4243      2.4668      0.0926
  2292.6000      7.8289     10.6213    133.1897      2.4747      0.0862
  2292.7000      7.8295     10.5080    136.5981      2.4766      0.0870
  2292.8000      7.8299     10.4966    136.0279      2.4768      0.0935
  2292.9000      7.8308     10.2861    133.4462      2.4803      0.0962
  2293.0000      7.8326      9.7308    132.2459      2.4894      0.0982
