~Version Information
VERS.                      2.0: CWLS Log ASCII Standard - VERSION 2.0
WRAP.                       NO: One line per depth step
~Well Information Block
STRT.FT               590.0000: 
STOP.FT              1563.5000: 
STEP.FT                 0.1000: 
NULL.                -999.2500: 
COMP.          Petrogulf Corporation: COMPANY
WELL.             State 16-43R: WELL
FLD.           Purgatorie River: FIELD
LOC.           2538' FSL & 716' FEL: LOCATION
PROV.                 Colorado: PROVINCE
CNTY.               Las Animas: COUNTRY
SRVC.                Patterson: SERVICE COMPANY
DATE.          Tue Aug 09 14:21:37 2005: LOG DATE
UWI.                          : UNIQUE WELL ID
~Curve Information Block
DEPT.FT            0 000 00 00: Depth
DCAL.in                       : CDL Caliper
RHOB.g/cc                     : CDL Bulk Density
RHOC.g/cc                     : CDL Density Correction
DPOR.pu                       : CDL Density Porosity
GR.GAPI                       : Gamma Ray
NPOR.pu                       : Neutron Porosity
~Parameter Information Block
~A  Depth       DCAL        RHOB        RHOC        DPOR         GR         NPOR    
# ...
  1214.0000      8.1012      2.6077      0.1637      2.5619    131.7752     24.7711
  1214.1000      8.1012      2.6050      0.1301      2.7287    129.9504     25.0472
  1214.2000      8.1012      2.5943      0.1312      3.3750    128.4872     25.1921
  1214.3000      8.1214      2.5815      0.1430      4.1485    126.5862     25.0484
  1214.4000      8.1214      2.5711      0.1100      4.7801    123.1069     24.7222
  1214.5000      8.1438      2.5658      0.1273      5.1053    121.7921     24.4836
  1214.6000      8.1438      2.5606      0.0763      5.4197    126.2375     24.5150
  1214.7000      8.1438      2.5531      0.1116      5.8709    134.4274     24.7438
  1214.8000      8.1972      2.5441      0.0858      6.4210    141.3924     24.8468
  1214.9000      8.1972      2.5338      0.0890      7.0437    143.7271     24.7183
  1215.0000      8.2127      2.5261      0.0437      7.5081    141.3238     24.4387
  1215.1000      8.2127      2.5264      0.0563      7.4909    135.4398     24.0359
  1215.2000      8.2127      2.5307      0.0657      7.2312    128.0741     23.7588
  1215.3000      8.2468      2.5311      0.0714      7.2031    122.6233     23.8108
  1215.4000      8.2468      2.5281      0.0897      7.3899    120.2726     23.8705
  1215.5000      8.2459      2.5259      0.0882      7.5193    119.6309     23.6127
  1215.6000      8.2459      2.5327      0.1163      7.1079    118.5153     23.2859
  1215.7000      8.2459      2.5553      0.0988      5.7415    115.3222     23.2949
  1215.8000      8.2282      2.5937      0.1026      3.4095    112.3376     23.6257
  1215.9000      8.2282      2.6368      0.1524      0.8009    112.1580     23.8780
  1216.0000      8.1788      2.6656      0.1792     -0.9431    112.2972     23.8112
  1216.1000      8.1788      2.6705      0.1855     -1.2426    108.7263     23.5378
  1216.2000      8.1788      2.6515      0.2116     -0.0902    102.0397     23.1090
  1216.3000      8.1107      2.6123      0.1755      2.2826     96.8057     22.6378
  1216.4000      8.1107      2.5667      0.0960      5.0463     94.9593     22.4689
  1216.5000      8.1006      2.5342      0.0351      7.0157     95.3828     22.7368
  1216.6000      8.1006      2.5256      0.0101      7.5403     97.4628     23.0525
  1216.7000      8.1006      2.5349      0.0405      6.9738     98.0578     22.9218
  1216.8000      8.0792      2.5478      0.0666      6.1946     94.1261     22.4220
  1216.9000      8.0792      2.5550      0.0772      5.7552     90.1266     21.8915
  1217.0000      8.0719      2.5559      0.0717      5.7018     90.7473     21.4149
  1217.1000      8.0719      2.5531      0.0659      5.8731     93.4728     21.0221
  1217.2000      8.0719      2.5513      0.0616      5.9813     94.3854     20.7800
  1217.3000      8.0675      2.5519      0.0644      5.9475     92.5780     20.6863
  1217.4000      8.0675      2.5474      0.1065      6.2208     89.1808     20.5614
  1217.5000      8.0671      2.5360      0.0343      6.9063     86.4608     20.2344
  1217.6000      8.0671      2.5284      0.0604      7.3707     85.8925     19.9476
  1217.7000      8.0671      2.5280      0.0361      7.3960     87.4947     20.0257
  1217.8000      8.0704      2.5264      0.0761      7.4914     90.2724     20.2584
  1217.9000      8.0704      2.5181      0.0393      7.9964     91.4664     20.1966
  1218.0000      8.0853      2.5071      0.0530      8.6620     89.4718     19.8250
  1218.1000      8.0853      2.4961      0.0274      9.3292     85.3285     19.6049
  1218.2000      8.0853      2.4886      0.0116      9.7807     82.7357     19.7633
  1218.3000      8.0899      2.4888      0.0518      9.7690     83.7969     19.9774
  1218.4000      8.0899      2.4951      0.0151      9.3907     85.4455     20.0956
  1218.5000      8.0906      2.5023      0.0562      8.9502     85.1713     20.1596
  1218.6000      8.0906      2.5047      0.0221      8.8067     83.7456     19.9169
  1218.7000      8.0906      2.5049      0.0462      8.7934     81.9083     19.4564
  1218.8000      8.0929      2.5095      0.0527      8.5144     79.9300     19.3104
  1218.9000      8.0929      2.5195      0.0558      7.9120     79.3905     19.6025
  1219.0000      8.0908      2.5295      0.0888      7.3043     80.7000     20.0208
  1219.1000      8.0908      2.5379      0.0571      6.7963     81.4845     20.2250
  1219.2000      8.0908      2.5513      0.0855      5.9796     80.6987     20.1381
  1219.3000      8.0925      2.5667      0.0806      5.0480     80.0163     20.0613
  1219.4000      8.0925      2.5690      0.1139      4.9102     81.6477     20.2026
  1219.5000      8.1004      2.5504      0.0953      6.0338     84.8899     20.3624
  1219.6000      8.1004      2.5230      0.0289      7.6999     86.4738     20.3132
  1219.7000      8.1004      2.5066      0.0369      8.6938     85.0227     20.2594
  1219.8000      8.1218      2.5083      0.0228      8.5905     83.0743     20.4693
  1219.9000      8.1218      2.5200      0.0658      7.8798     83.9521     20.6543
  1220.0000      8.1465      2.5270      0.0546      7.4564     87.9885     20.4263
  1220.1000      8.1465      2.5230      0.0523      7.6974     92.0755     20.0010
  1220.2000      8.1465      2.5182      0.0183      7.9853     95.3937     19.9451
  1220.3000      8.1943      2.5254      0.0521      7.5499    100.5316     20.3829
  1220.4000      8.1943      2.5375      0.0908      6.8211    106.4054     21.0390
  1220.5000      8.2645      2.5417      0.0493      6.5660    108.6767     21.6460
  1220.6000      8.2645      2.5425      0.0536      6.5160    106.8252     21.8339
  1220.7000      8.2645      2.5427      0.0874      6.5006    105.9606     21.4869
  1220.8000      8.3514      2.5389      0.0733      6.7324    110.6476     21.1490
  1220.9000      8.3514      2.5356      0.0942      6.9322    118.3943     21.3131
  1221.0000      8.4074      2.5376      0.1006      6.8150    123.8154     21.6741
  1221.1000      8.4074      2.5441      0.1186      6.4211    125.3844     21.9638
  1221.2000      8.4074      2.5524      0.1143      5.9163    125.5665     22.4261
  1221.3000      8.4298      2.5583      0.1014      5.5600    127.3281     22.7875
  1221.4000      8.4298      2.5567      0.1403      5.6565    129.1806     22.6086
  1221.5000      8.4742      2.5512      0.1036      5.9871    129.0841     22.3228
  1221.6000      8.4742      2.5546      0.0787      5.7797    129.3210     22.4161
  1221.7000      8.4742      2.5640      0.1514      5.2101    132.4365     22.5638
  1221.8000      8.4797      2.5630      0.1233      5.2738    135.4429     22.3900
  1221.9000      8.4797      2.5505      0.0902      6.0306    135.5912     22.0996
  1222.0000      8.4936      2.5356      0.0947      6.9313    135.6910     22.0719
  1222.1000      8.4936      2.5222      0.0861      7.7477    137.1328     22.3782
  1222.2000      8.4936      2.5154      0.0413      8.1575    136.4971     22.7509
  1222.3000      8.4749      2.5187      0.0573      7.9552    133.0615     23.0144
  1222.4000      8.4749      2.5227      0.0850      7.7173    130.8019     23.2515
  1222.5000      8.4735      2.5217      0.0603      7.7775    131.4004     23.5097
  1222.6000      8.4735      2.5255      0.0532      7.5448    131.8818     23.6081
  1222.7000      8.4735      2.5349      0.0978      6.9742    129.2019     23.5660
  1222.8000      8.4868      2.5391      0.0749      6.7224    125.5299     23.5734
  1222.9000      8.4868      2.5353      0.0763      6.9532    125.1613     23.5209
  1223.0000      8.5113      2.5233      0.0852      7.6801    126.9059     23.2888
  1223.1000      8.5113      2.5081      0.0236      8.5995    125.7000     23.0252
  1223.2000      8.5113      2.5009      0.0798      9.0362    120.6431     22.7543
  1223.3000      8.5289      2.4949      0.0908      9.3983    115.1114     22.2351
  1223.4000      8.5289      2.4775      0.0531     10.4520    109.3009     21.3927
  1223.5000      8.5256      2.4540      0.0798     11.8808    101.7645     20.5372
