~Version Information
 VERS.                                  2.0 : CWLS LAS VERSION
 WRAP.                                   NO : WRAPING MODE
 SWARE .                 MController 2.5.0N : SOFTWARE VERSION
~Well Information
 WELL.                    Santisteven 13-22 : WELL
 COMP.    Pioneer Natural Resources USA Inc : COMPANY
 FLD.                      Purgatoire River : FIELD
 LOC.                NW/SW Sec 22 T33S R65W : LOCATION
 DATE.                               4/2/05 : DATE(S) LOGGED
 SRVC.       Blanco Geological Services LLC : SERVICE COMPANY
 STAT.                                   CO : STATE
 CNTY.                           Las Animas : COUNTY
 CTRY.                                  USA : COUNTRY
 API.                       05-071-08337-00 : API NUMBER
 STRT.FT                             254.00 : START DEPTH
 STOP.FT                             894.00 : STOP DEPTH
 STEP.FT                               1.00 : DEPTH INCREMENT
 NULL.                                -9999 : NULL VALUE
~Curve information
 DEPTH.FT                                   :
 ROP.MIN/FT                                 :
 GAS.UNITS                                  :
~ASCII Log data
       254.0     -9999.00          2.1 
       255.0        58.07          2.5 
       256.0        30.38          1.7 
       257.0        37.08         13.5 
       258.0         1.30         10.7 
       259.0         1.08         10.9 
       260.0         0.57         10.9 
       261.0         0.55         10.7 
       262.0         0.27         10.3 
       263.0         0.27         10.3 
       264.0         0.53         10.5 
       265.0         0.47         10.8 
       266.0         0.53         11.2 
       267.0         0.53         11.7 
       268.0         0.27         11.0 
       269.0         0.42         10.9 
       270.0         0.67         10.9 
       271.0         0.53         10.3 
       272.0         0.73         11.1 
       273.0         0.53         10.8 
       274.0         0.27         10.4 
       275.0         0.40         10.4 
       276.0         0.28         10.3 
       277.0         0.53         10.0 
       278.0         0.60          9.2 
       279.0         0.53          8.9 
       280.0         0.57          9.3 
       281.0         0.27          9.2 
       282.0         0.53          9.6 
       283.0         0.85         10.4 
       284.0         0.30          9.5 
       285.0         0.53          9.8 
       286.0         0.63          9.7 
       287.0         0.27          9.6 
       288.0         0.37          9.8 
       289.0         0.55          9.5 
       290.0         0.17          9.6 
       291.0         3.07         10.6 
       292.0         0.28         10.2 
       293.0         0.27         10.5 
       294.0         0.27          9.7 
       295.0         0.27         10.2 
       296.0         0.47         10.5 
       297.0         0.53         10.6 
       298.0         0.27         10.0 
       299.0         0.33          9.9 
       300.0         0.43         10.3 
       301.0         0.28          9.8 
       302.0         0.37         10.4 
       303.0         0.27         10.5 
       304.0         0.40         10.1 
       305.0         0.27         10.0 
       306.0         0.43         10.2 
       307.0         0.27         10.1 
       308.0         0.57         10.3 
       309.0         0.27         10.1 
       310.0         0.47         10.1 
       311.0         0.28         10.1 
       312.0         0.60         10.1 
       313.0         0.27         10.2 
       314.0         0.63         10.2 
       315.0         0.27          9.7 
       316.0         0.50         10.2 
       317.0         0.53         10.8 
       318.0         0.27         10.7 
       319.0         0.28         10.0 
       320.0         0.37         10.3 
       321.0         3.72         11.1 
       322.0         0.27         10.7 
       323.0         0.33         10.5 
       324.0         0.27         10.4 
       325.0         0.27         10.6 
       326.0         0.57         10.8 
       327.0         0.27         10.3 
       328.0         0.58         10.3 
       329.0         0.27         10.4 
       330.0         0.57         10.6 
       331.0         0.27          9.9 
       332.0         0.57         10.2 
       333.0         0.27          9.9 
       334.0         0.43         10.3 
       335.0         0.53         10.1 
       336.0         0.25         10.2 
       337.0         0.53         10.4 
       338.0         0.27         10.1 
       339.0         0.53         10.1 
       340.0         0.33         10.3 
       341.0         0.27         10.3 
       342.0         0.53         11.0 
       343.0         0.27         10.3 
       344.0         0.33         10.3 
       345.0         0.28          9.8 
       346.0         0.53         10.1 
       347.0         0.27          9.8 
       348.0         0.27         11.1 
       349.0         0.27         10.7 
       350.0         0.47         10.9 
       351.0         5.57         13.7 
       352.0         0.27         11.0 
       353.0         0.27         11.0 
       354.0         0.53         11.3 
       355.0         0.27         11.0 
       356.0         0.28         11.4 
       357.0         0.23         11.2 
       358.0         0.27         11.2 
       359.0         0.27         10.9 
       360.0         0.23         11.1 
       361.0         0.27         11.1 
       362.0         0.27         11.3 
       363.0         0.27         11.2 
       364.0         0.33         11.0 
       365.0         0.30         11.3 
       366.0         0.30         11.0 
       367.0         0.30         10.8 
       368.0         0.25         10.8 
       369.0         0.23         11.1 
       370.0         0.27         11.1 
       371.0         0.37         16.0 
       372.0         0.43         20.8 
       373.0         0.40         22.4 
       374.0         0.40         21.9 
       375.0         0.40         21.6 
       376.0         0.30         21.0 
       377.0         0.33         20.1 
       378.0         0.32         20.7 
       379.0         0.13         19.2 
       380.0         0.37         20.4 
       381.0         2.88         39.3 
       382.0         0.47         34.7 
       383.0         0.33         31.8 
       384.0         0.33         31.1 
       385.0         0.30         28.2 
       386.0         0.30         25.6 
       387.0         0.37         24.7 
       388.0         0.37         23.1 
       389.0         0.40         21.3 
       390.0         0.35         21.1 
       391.0         0.23         19.9 
       392.0         0.17         19.7 
       393.0         0.23         21.1 
       394.0         0.23         22.8 
       395.0         0.30         39.1 
       396.0         0.30         54.9 
       397.0         0.30         59.0 
       398.0         0.30         57.8 
       399.0         0.30         54.4 
       400.0         0.33         50.5 
       401.0         0.30         49.1 
       402.0         0.35         44.1 
       403.0         0.37         40.1 
       404.0         0.30         39.5 
       405.0         0.30         36.1 
       406.0         0.30         35.4 
       407.0         0.30         34.0 
       408.0         0.40         33.6 
       409.0         0.33         31.9 
       410.0         0.47         31.4 
       411.0         2.77         30.0 
       412.0         0.30         52.6 
       413.0         0.40         53.4 
       414.0         0.33         48.1 
       415.0         0.37         42.7 
       416.0         0.33         33.5 
       417.0         0.30         30.2 
       418.0         0.37         29.1 
       419.0         0.33         27.3 
       420.0         0.30         26.1 
       421.0         0.28         25.6 
       422.0         0.23         25.1 
       423.0         0.30         25.2 
       424.0         0.33         25.3 
       425.0         0.33         25.4 
       426.0         0.27         25.0 
       427.0         0.33         25.5 
       428.0         0.30         24.6 
       429.0         0.27         23.5 
       430.0         0.33         23.4 
       431.0         0.37         24.3 
       432.0         0.35         23.3 
       433.0         0.30         24.3 
       434.0         0.30         23.9 
       435.0         0.33         23.6 
       436.0         0.33         22.8 
       437.0         0.30         23.3 
       438.0         0.30         23.3 
       439.0         0.27         23.1 
       440.0         0.43         23.4 
       441.0         3.25         64.0 
       442.0         0.43         78.7 
       443.0         0.48         59.9 
       444.0         0.27         36.3 
       445.0         0.23         35.6 
       446.0         0.20         31.3 
       447.0         0.13         30.9 
       448.0         0.23         27.9 
       449.0         0.40         28.2 
       450.0         0.33         34.9 
       451.0         0.33         43.2 
       452.0         0.17         44.7 
       453.0         0.17         45.5 
