~Version Information
VERS.                      2.0: CWLS Log ASCII Standard - VERSION 2.0
WRAP.                       NO: One line per depth step
~Well Information Block
STRT.FT               521.0000: 
STOP.FT              2732.5000: 
STEP.FT                 0.2500: 
NULL.                -999.2500: 
COMP.          Petrogulf Corporation: COMPANY
WELL.              Silva 6-22V: WELL
FLD.           Purgatorie River: FIELD
LOC.           1936' FNL & 1798' FWL: LOCATION
CNTY.               Las Animas: COUNTY
SRVC.                         : SERVICE COMPANY
DATE.          Tue Nov 09 08:09:38 2004: LOG DATE
UWI.           05 071 08143 00: UNIQUE WELL ID
STAT.                 Colorado: STATE
~Curve Information Block
DEPT.FT            0 000 00 00: Depth
SP.mV                         : DIL Spontaneous Potential
RILD.Ohm-m                    : DIL Deep Resistivity
RILM.Ohm-m                    : DIL Medium Resistivity
RLL3.Ohm-m                    : DIL Shallow Resistivity
GR.GAPI                       : Gamma Ray
~Parameter Information Block
~A  Depth        SP         RILD        RILM        RLL3         GR     
# ...
  1277.0000    -40.2400     12.3240     12.5141     16.2839    136.5935
  1277.2500    -41.0028     12.2754     12.4159     16.1375    138.0995
  1277.5000    -41.6351     12.2474     12.3565     16.0003    140.9205
  1277.7500    -42.1201     12.2395     12.3354     15.9028    142.4075
  1278.0000    -42.4329     12.2520     12.3517     15.8722    143.2581
  1278.2500    -42.5611     12.2852     12.4039     15.9243    142.8478
  1278.5000    -42.5187     12.3398     12.4895     16.0632    141.2005
  1278.7500    -42.3509     12.4153     12.6056     16.2845    139.8448
  1279.0000    -42.1264     12.5113     12.7483     16.5793    138.0466
  1279.2500    -41.9108     12.6261     12.9135     16.9351    137.0135
  1279.5000    -41.7398     12.7579     13.0973     17.3330    135.1008
  1279.7500    -41.6025     12.9048     13.2955     17.7452    133.3081
  1280.0000    -41.4397     13.0656     13.5049     18.1374    130.0815
  1280.2500    -41.1594     13.2397     13.7232     18.4760    127.8563
  1280.5000    -40.6606     13.4275     13.9497     18.7401    124.6087
  1280.7500    -39.8701     13.6300     14.1848     18.9325    122.7199
  1281.0000    -38.7608     13.8478     14.4305     19.0829    121.2422
  1281.2500    -37.3603     14.0802     14.6898     19.2414    121.6127
  1281.5000    -35.7454     14.3245     14.9655     19.4649    123.7890
  1281.7500    -34.0224     14.5755     15.2596     19.8022    125.4646
  1282.0000    -32.3142     14.8261     15.5720     20.2821    126.7992
  1282.2500    -30.7418     15.0681     15.8998     20.9102    126.4175
  1282.5000    -29.4134     15.2939     16.2367     21.6709    124.0555
  1282.7500    -28.4187     15.4978     16.5735     22.5314    121.8676
  1283.0000    -27.8242     15.6774     16.8993     23.4461    119.0077
  1283.2500    -27.6662     15.8336     17.2020     24.3610    117.8245
  1283.5000    -27.9407     15.9698     17.4715     25.2192    116.7082
  1283.7500    -28.5961     16.0910     17.6998     25.9684    115.8582
  1284.0000    -29.5298     16.2023     17.8837     26.5695    114.3732
  1284.2500    -30.5943     16.3080     18.0246     27.0009    113.7962
  1284.5000    -31.6183     16.4115     18.1289     27.2577    114.1555
  1284.7500    -32.4348     16.5150     18.2077     27.3489    114.8634
  1285.0000    -32.9174     16.6205     18.2759     27.2975    115.6081
  1285.2500    -33.0135     16.7303     18.3509     27.1477    115.7285
  1285.5000    -32.7565     16.8471     18.4514     26.9730    115.8099
  1285.7500    -32.2579     16.9741     18.5955     26.8736    115.8825
  1286.0000    -31.6774     17.1140     18.7991     26.9553    115.2638
  1286.2500    -31.1823     17.2687     19.0739     27.2939    113.8843
  1286.5000    -30.9116     17.4388     19.4259     27.9010    110.6141
  1286.7500    -30.9441     17.6233     19.8541     28.7143    108.3417
  1287.0000    -31.2961     17.8195     20.3495     29.6203    106.0567
  1287.2500    -31.9218     18.0241     20.8950     30.5015    105.8210
  1287.5000    -32.7270     18.2330     21.4663     31.2816    107.9711
  1287.7500    -33.5849     18.4416     22.0329     31.9475    110.9984
  1288.0000    -34.3497     18.6444     22.5612     32.5381    116.8032
  1288.2500    -34.8800     18.8347     23.0183     33.1129    120.6039
  1288.5000    -35.0734     19.0037     23.3747     33.7178    125.2572
  1288.7500    -34.8971     19.1410     23.6078     34.3649    127.5858
  1289.0000    -34.4141     19.2349     23.7042     35.0279    129.8184
  1289.2500    -33.7903     19.2745     23.6597     35.6486    130.1306
  1289.5000    -33.2640     19.2517     23.4782     36.1425    128.2616
  1289.7500    -33.0902     19.1624     23.1698     36.4057    125.6060
  1290.0000    -33.4691     19.0078     22.7483     36.3249    120.9508
  1290.2500    -34.4857     18.7944     22.2295     35.7979    118.7329
  1290.5000    -36.0826     18.5321     21.6304     34.7625    119.0091
  1290.7500    -38.0815     18.2328     20.9695     33.2270    122.3370
  1291.0000    -40.2317     17.9076     20.2665     31.2850    131.5142
  1291.2500    -42.2818     17.5661     19.5430     29.1060    139.0735
  1291.5000    -44.0369     17.2156     18.8210     26.9020    149.4904
  1291.7500    -45.3960     16.8613     18.1208     24.8808    154.2669
  1292.0000    -46.3433     16.5080     17.4595     23.2018    156.7271
  1292.2500    -46.9267     16.1606     16.8497     21.9488    155.2465
  1292.5000    -47.2143     15.8252     16.2991     21.1234    149.9551
  1292.7500    -47.2647     15.5091     15.8114     20.6600    146.0647
  1293.0000    -47.1145     15.2200     15.3874     20.4545    142.6197
  1293.2500    -46.7796     14.9651     15.0265     20.3987    142.6931
  1293.5000    -46.2647     14.7497     14.7280     20.4109    145.2161
  1293.7500    -45.5815     14.5765     14.4912     20.4527    147.0445
  1294.0000    -44.7519     14.4460     14.3153     20.5282    148.4445
  1294.2500    -43.7991     14.3559     14.1990     20.6638    148.7089
  1294.5000    -42.7445     14.3030     14.1400     20.8795    149.4043
  1294.7500    -41.5958     14.2842     14.1342     21.1651    150.4344
  1295.0000    -40.3551     14.2972     14.1758     21.4729    152.1256
  1295.2500    -39.0248     14.3422     14.2580     21.7316    152.5585
  1295.5000    -37.6320     14.4215     14.3744     21.8752    151.4389
  1295.7500    -36.2364     14.5392     14.5199     21.8703    149.7384
  1296.0000    -34.9307     14.7007     14.6926     21.7316    146.6521
  1296.2500    -33.8238     14.9111     14.8945     21.5204    144.6904
  1296.5000    -33.0105     15.1736     15.1321     21.3297    142.5883
  1296.7500    -32.5455     15.4885     15.4153     21.2667    142.1004
  1297.0000    -32.4287     15.8519     15.7568     21.4435    142.7116
  1297.2500    -32.6053     16.2557     16.1701     21.9751    143.5350
  1297.5000    -32.9842     16.6879     16.6681     22.9776    144.4373
  1297.7500    -33.4623     17.1338     17.2614     24.5566    144.4301
  1298.0000    -33.9417     17.5787     17.9568     26.7831    142.8002
  1298.2500    -34.3412     18.0102     18.7549     29.6628    140.0958
  1298.5000    -34.5930     18.4206     19.6486     33.1134    133.0831
  1298.7500    -34.6405     18.8076     20.6188     36.9670    126.7816
  1299.0000    -34.4306     19.1735     21.6326     40.9980    116.5312
  1299.2500    -33.9224     19.5219     22.6407     44.9626    110.2122
  1299.5000    -33.1008     19.8556     23.5795     48.6265    102.4952
  1299.7500    -31.9940     20.1723     24.3781     51.7667     98.6135
  1300.0000    -30.6860     20.4636     24.9710     54.1529     94.6231
  1300.2500    -29.3191     20.7148     25.3156     55.5392     93.2205
  1300.5000    -28.0749     20.9074     25.4033     55.6947     93.0222
  1300.7500    -27.1439     21.0228     25.2617     54.4763     94.0800
  1301.0000    -26.6727     21.0479     24.9443     51.9175     97.4801
  1301.2500    -26.7243     20.9771     24.5137     48.2798    101.1491
  1301.5000    -27.2522     20.8154     24.0252     44.0255    108.6863
  1301.7500    -28.1133     20.5769     23.5173     39.7105    114.3267
  1302.0000    -29.1037     20.2817     23.0088     35.8362    121.5893
  1302.2500    -30.0220     19.9533     22.5034     32.7248    124.6460
  1302.5000    -30.7236     19.6141     21.9959     30.4653    126.2178
  1302.7500    -31.1523     19.2842     21.4816     28.9430    125.6816
  1303.0000    -31.3389     18.9786     20.9618     27.9295    123.5360
  1303.2500    -31.3705     18.7071     20.4473     27.1848    121.9264
  1303.5000    -31.3481     18.4739     19.9566     26.5360    120.9039
  1303.7500    -31.3438     18.2778     19.5115     25.9129    122.0041
  1304.0000    -31.3805     18.1137     19.1325     25.3403    126.1770
  1304.2500    -31.4351     17.9738     18.8332     24.9011    129.5014
  1304.5000    -31.4517     17.8499     18.6180     24.6872    133.1666
  1304.7500    -31.3677     17.7355     18.4812     24.7521    134.1748
