~Version Information
 VERS.                                  2.0 : CWLS LAS VERSION
 WRAP.                                   NO : WRAPING MODE
 SWARE .                 MController 2.5.0I : SOFTWARE VERSION
~Well Information
 WELL.                                  N/A : WELL
 COMP.                                  N/A : COMPANY
 FLD.                                   N/A : FIELD
 LOC.                                   N/A : LOCATION
 DATE.                                  N/A : DATE(S) LOGGED
 SRVC.                                  N/A : SERVICE COMPANY
 STAT.                                  N/A : STATE
 CNTY.                                  N/A : COUNTY
 CTRY.                                  N/A : COUNTRY
 API.                                   N/A : API NUMBER
 STRT.FT                             801.00 : START DEPTH
 STOP.FT                            2405.00 : STOP DEPTH
 STEP.FT                               1.00 : DEPTH INCREMENT
 NULL.                                -9999 : NULL VALUE
~Curve information
 DEPTH.FT                                   :
 ROP.MIN/FT                                 :
 GAS.UNITS                                  :
~ASCII Log data
# ...
      1001.0          0.2          3.3 
      1002.0          0.1          3.3 
      1003.0          0.2          3.5 
      1004.0          0.2          3.5 
      1005.0          0.2          3.3 
      1006.0          0.2          3.5 
      1007.0          0.1          3.3 
      1008.0          0.2          3.3 
      1009.0          0.2          3.4 
      1010.0          0.2          3.3 
      1011.0          0.3          3.5 
      1012.0          0.2          3.5 
      1013.0          0.2          3.3 
      1014.0          0.2          3.3 
      1015.0          0.2          3.2 
      1016.0          0.2          3.3 
      1017.0          0.1          3.3 
      1018.0          2.1          6.2 
      1019.0          0.3          4.8 
      1020.0          0.3          4.3 
      1021.0          0.3          4.1 
      1022.0          0.2          4.1 
      1023.0          0.2          4.0 
      1024.0          0.1          4.1 
      1025.0          0.1          4.5 
      1026.0          0.1          4.4 
      1027.0          0.1          4.6 
      1028.0          0.2          4.8 
      1029.0          0.2          4.9 
      1030.0          0.2          4.9 
      1031.0          0.2          4.9 
      1032.0          0.2          4.8 
      1033.0          0.2          4.3 
      1034.0          0.1          4.3 
      1035.0          0.2          4.4 
      1036.0          0.3          4.5 
      1037.0          0.2          4.4 
      1038.0          0.3          4.4 
      1039.0          0.2          4.5 
      1040.0          0.2          4.9 
      1041.0          0.2          4.5 
      1042.0          0.2          5.0 
      1043.0          0.2          5.1 
      1044.0          0.2          5.3 
      1045.0          0.2          5.2 
      1046.0          0.2          5.0 
      1047.0          0.1          5.0 
      1048.0          2.0          7.9 
      1049.0          0.4          6.3 
      1050.0          0.4          6.0 
      1051.0          0.5          5.3 
      1052.0          0.3          5.0 
      1053.0          0.4          5.3 
      1054.0          0.4          5.2 
      1055.0          0.2          5.4 
      1056.0          0.3          5.7 
      1057.0          0.3          6.2 
      1058.0          0.3          5.8 
      1059.0          0.3          6.0 
      1060.0          0.3          5.6 
      1061.0          0.3          5.6 
      1062.0          0.3          5.6 
      1063.0          0.2          5.6 
      1064.0          0.3          5.6 
      1065.0          0.3          5.7 
      1066.0          0.4          5.8 
      1067.0          0.4          5.8 
      1068.0          0.4         15.9 
      1069.0          0.4         31.7 
      1070.0          0.4         30.3 
      1071.0          0.4         21.2 
      1072.0          0.2         21.6 
      1073.0          0.2         23.4 
      1074.0          0.2         22.4 
      1075.0          0.2         16.8 
      1076.0          0.2         11.0 
      1077.0          0.2          8.4 
      1078.0          2.4         65.9 
      1079.0          0.2         20.6 
      1080.0          0.3         14.1 
      1081.0          0.3         11.4 
      1082.0          0.2          9.7 
      1083.0          0.3          8.6 
      1084.0          0.3          7.4 
      1085.0          0.2          6.8 
      1086.0          0.2          6.4 
      1087.0          0.2          6.5 
      1088.0          0.2          6.6 
      1089.0          0.2          6.3 
      1090.0          0.2          6.1 
      1091.0          0.2          6.2 
      1092.0          0.2          7.1 
      1093.0          0.2          7.4 
      1094.0          0.2          7.8 
      1095.0          0.2          7.4 
      1096.0          0.2          6.8 
      1097.0          0.2          6.7 
      1098.0          0.2          6.6 
      1099.0          0.2          6.5 
      1100.0          0.2          6.7 
      1101.0          0.2          6.7 
      1102.0          0.2          6.6 
      1103.0          0.2          6.8 
      1104.0          0.2          6.7 
      1105.0          0.2          6.8 
      1106.0          0.2          6.7 
      1107.0          0.2          6.4 
      1108.0          3.0         45.0 
      1109.0          0.3         17.7 
      1110.0          0.4         10.2 
      1111.0          0.3          7.4 
      1112.0          0.2          7.3 
      1113.0          0.3          6.7 
      1114.0          0.2          6.8 
      1115.0          0.2          6.9 
      1116.0          0.2          6.7 
      1117.0          0.1          7.1 
      1118.0          0.1          6.9 
      1119.0          0.1          7.4 
      1120.0          0.1          7.8 
      1121.0          0.1          8.6 
      1122.0          0.1          8.8 
      1123.0          0.1          8.9 
      1124.0          0.1          9.5 
      1125.0          0.2          9.8 
      1126.0          0.2          9.8 
      1127.0          0.2          9.8 
      1128.0          0.2          9.2 
      1129.0          0.2          8.7 
      1130.0          0.3          8.4 
      1131.0          0.2          7.9 
      1132.0          0.2          7.7 
      1133.0          0.2          7.4 
      1134.0          0.2          7.2 
      1135.0          0.2          7.3 
      1136.0          0.2          7.3 
      1137.0          0.2          6.7 
      1138.0          2.7         20.4 
      1139.0          0.5          9.7 
      1140.0          0.4          8.4 
      1141.0          0.3          7.6 
      1142.0          0.3          7.2 
      1143.0          0.3          7.3 
      1144.0          0.3          6.9 
      1145.0          0.3          7.1 
      1146.0          0.3          6.7 
      1147.0          0.3          6.8 
      1148.0          0.3          6.7 
      1149.0          0.3          6.7 
      1150.0          0.3          7.1 
      1151.0          0.3          6.9 
      1152.0          0.2          6.7 
      1153.0          0.3          6.8 
      1154.0          0.3          6.9 
      1155.0          0.2          6.9 
      1156.0          0.2          7.0 
      1157.0          0.2          6.9 
      1158.0          0.1          6.9 
      1159.0          0.1          7.4 
      1160.0          0.1          7.8 
      1161.0          0.1          8.3 
      1162.0          0.1          8.7 
      1163.0          0.1          9.2 
      1164.0          0.2          9.3 
      1165.0          0.1          9.5 
      1166.0          0.2          9.7 
      1167.0          0.2          9.2 
      1168.0          2.2         19.9 
      1169.0          0.2         13.6 
      1170.0          0.4         11.4 
      1171.0          0.3         10.2 
      1172.0          0.2          9.3 
      1173.0          0.2          9.3 
      1174.0          0.2          8.9 
      1175.0          0.1          8.7 
      1176.0          0.2          9.0 
      1177.0          0.2          8.8 
      1178.0          0.2          8.9 
      1179.0          0.2          8.9 
      1180.0          0.2          9.1 
      1181.0          0.2          9.1 
      1182.0          0.2          9.1 
      1183.0          0.2          8.8 
      1184.0          0.2          8.7 
      1185.0          0.2          8.7 
      1186.0          0.2          8.7 
      1187.0          0.2          8.5 
      1188.0          0.2          8.5 
      1189.0          0.2          8.4 
      1190.0          0.2          8.5 
      1191.0          0.2          8.5 
      1192.0          0.2          9.0 
      1193.0          0.2          8.6 
      1194.0          0.2          8.5 
      1195.0          0.2          8.7 
      1196.0          0.1          8.5 
      1197.0          0.2          8.5 
      1198.0          2.9         19.6 
      1199.0          0.2         12.2 
      1200.0          0.2         10.2 
