~Version Information
VERS.                      2.0: CWLS Log ASCII Standard - VERSION 2.0
WRAP.                       NO: One line per depth step
~Well Information Block
STRT.FT               480.0000: 
STOP.FT              1625.5000: 
STEP.FT                 0.1000: 
NULL.                -999.2500: 
COMP.          Pioneer Natural Resources: COMPANY
WELL.          Dude Canyon 22-32 Tr: WELL
FLD.           Purgatoire River: FIELD
LOC.           1741' FNL & 2331' FWL: LOCATION
PROV.                 Colorado: PROVINCE
CNTY.               Las Animas: COUNTRY
SRVC.                Patterson: SERVICE COMPANY
DATE.          Mon Jul 11 10:33:06 2005: LOG DATE
UWI.           05 071 08421 00: UNIQUE WELL ID
~Curve Information Block
DEPT.FT            0 000 00 00: Depth
DCAL.in                       : CDL Caliper
RHOB.g/cc                     : CDL Bulk Density
RHOC.g/cc                     : CDL Density Correction
DPOR.pu                       : CDL Density Porosity
GR.GAPI                       : Gamma Ray
NPOR.pu                       : Neutron Porosity
~Parameter Information Block
~A  Depth       DCAL        RHOB        RHOC        DPOR         GR         NPOR    
# ...
   931.2000      8.0602      2.6093      0.1419      2.4661    122.6831     23.3552
   931.3000      8.0886      2.6190      0.0943      1.8788    119.0142     23.5263
   931.4000      8.0886      2.6403      0.1360      0.5899    119.2702     23.3562
   931.5000      8.0656      2.6637      0.1580     -0.8329    117.6046     23.3650
   931.6000      8.0656      2.6736      0.1641     -1.4320    113.8244     23.5299
   931.7000      8.0656      2.6724      0.0948     -1.3597    110.8162     23.1998
   931.8000      8.0384      2.6657      0.1364     -0.9544    109.3908     22.3237
   931.9000      8.0384      2.6556      0.0821     -0.3384    110.9058     21.9320
   932.0000      8.0480      2.6466      0.0896      0.2053    115.9694     22.4027
   932.1000      8.0480      2.6399      0.0446      0.6146    118.0312     22.9629
   932.2000      8.0480      2.6346      0.0986      0.9316    112.8252     23.1682
   932.3000      8.0551      2.6337      0.0554      0.9850    108.6908     22.6964
   932.4000      8.0551      2.6448      0.0987      0.3152    110.9090     21.7126
   932.5000      8.0724      2.6588      0.1509     -0.5314    112.2310     21.5828
   932.6000      8.0724      2.6583      0.1400     -0.5051    105.4192     23.0452
   932.7000      8.0724      2.6526      0.0371     -0.1556     95.4529     25.0180
   932.8000      8.0805      2.6530      0.0427     -0.1796     92.4515     25.5338
   932.9000      8.0805      2.6516      0.0422     -0.0947     97.1499     23.8424
   933.0000      8.0738      2.6451      0.0549      0.2951    101.4218     21.6690
   933.1000      8.0738      2.6386      0.0379      0.6887     98.6525     21.0623
   933.2000      8.0738      2.6322      0.0513      1.0808     91.1160     22.0365
   933.3000      8.0529      2.6233      0.0556      1.6211     86.6153     23.2772
   933.4000      8.0529      2.6150      0.0204      2.1239     88.9227     23.8369
   933.5000      8.0604      2.6104      0.0081      2.3970     94.4156     22.8500
   933.6000      8.0604      2.6146      0.0440      2.1453     95.4962     20.5473
   933.7000      8.0604      2.6347      0.0967      0.9262     91.7096     18.8798
   933.8000      8.0676      2.6615      0.1061     -0.6968     92.2439     18.7450
   933.9000      8.0676      2.6655      0.1338     -0.9395    100.6687     19.7102
   934.0000      8.0756      2.6408      0.0705      0.5567    108.9936     21.3995
   934.1000      8.0756      2.6227      0.0438      1.6565    109.4001     22.9449
   934.2000      8.0756      2.6336      0.0470      0.9963    102.4620     23.4202
   934.3000      8.0441      2.6587      0.0743     -0.5260     94.5495     22.9687
   934.4000      8.0441      2.6779      0.0652     -1.6933     90.3592     22.0636
   934.5000      8.0243      2.6893      0.0824     -2.3830     88.1234     20.8960
   934.6000      8.0243      2.6965      0.0764     -2.8212     85.1340     19.9241
   934.7000      8.0243      2.6953      0.1237     -2.7459     81.5704     20.1490
   934.8000      7.9979      2.6781      0.1061     -1.7003     79.3679     21.9261
   934.9000      7.9979      2.6468      0.0696      0.1930     79.1761     24.1799
   935.0000      7.9913      2.6186      0.0524      1.9048     80.5924     25.5017
   935.1000      7.9913      2.6121      0.0584      2.2977     83.9988     25.3274
   935.2000      7.9913      2.6229      0.0393      1.6400     90.5204     24.2189
   935.3000      7.9893      2.6269      0.1020      1.4025     98.9878     23.4221
   935.4000      7.9893      2.6170      0.0335      1.9979    103.6007     23.7047
   935.5000      8.0102      2.6084      0.0748      2.5208    101.8344     24.9246
   935.6000      8.0102      2.6075      0.0349      2.5745     97.7448     26.0058
   935.7000      8.0102      2.6101      0.0328      2.4160     95.2359     25.4709
   935.8000      8.0528      2.6148      0.0158      2.1362     97.1623     23.7358
   935.9000      8.0528      2.6159      0.0824      2.0659    102.6098     22.8802
   936.0000      8.0594      2.6081     -0.0036      2.5381    106.0918     23.4895
   936.1000      8.0594      2.6015      0.0291      2.9402    106.8330     24.6369
   936.2000      8.0594      2.5955      0.0888      3.3025    105.2036     25.8379
   936.3000      8.0619      2.5848      0.0413      3.9493     99.9407     26.9616
   936.4000      8.0619      2.5798      0.0832      4.2575     93.9239     27.2195
   936.5000      8.0670      2.5890      0.0055      3.6969     90.2385     26.1854
   936.6000      8.0670      2.6106      0.0509      2.3877     91.7090     25.4025
   936.7000      8.0670      2.6336      0.0417      0.9939     97.8095     25.7327
   936.8000      8.0537      2.6486      0.0381      0.0861    104.1458     26.0044
   936.9000      8.0537      2.6508      0.1040     -0.0507    109.0049     26.0707
   937.0000      8.0630      2.6424      0.0626      0.4585    113.4323     26.8709
   937.1000      8.0630      2.6371      0.0566      0.7815    116.5516     28.1205
   937.2000      8.0630      2.6399      0.0356      0.6096    115.8102     28.7057
   937.3000      8.0556      2.6353      0.0706      0.8911    112.9714     28.2925
   937.4000      8.0556      2.6166      0.0049      2.0257    115.2837     27.6215
   937.5000      8.0532      2.6048      0.0297      2.7367    121.8838     27.1375
   937.6000      8.0532      2.6133      0.0310      2.2266    123.1288     26.9920
   937.7000      8.0532      2.6347      0.0371      0.9269    120.5456     27.7645
   937.8000      8.0540      2.6609      0.0665     -0.6577    123.2248     28.7452
   937.9000      8.0540      2.6843      0.0485     -2.0795    128.2958     28.5564
   938.0000      8.0509      2.6999      0.0515     -3.0247    126.6644     27.6320
   938.1000      8.0509      2.7031      0.0965     -3.2188    120.0280     27.0992
   938.2000      8.0509      2.6902      0.1127     -2.4367    116.4526     26.6942
   938.3000      8.0462      2.6651      0.1223     -0.9164    115.2610     25.7358
   938.4000      8.0462      2.6365      0.0554      0.8181    114.2273     24.8474
   938.5000      8.0443      2.6113      0.0382      2.3457    116.0608     24.9482
   938.6000      8.0443      2.5892      0.0510      3.6834    120.4446     25.9293
   938.7000      8.0443      2.5686     -0.0311      4.9339    124.3124     26.8930
   938.8000      8.0429      2.5546     -0.0016      5.7796    126.1180     27.1882
   938.9000      8.0429      2.5565      0.0068      5.6693    124.5394     26.9216
   939.0000      8.0809      2.5757      0.0353      4.5031    120.6145     26.8905
   939.1000      8.0809      2.5967      0.0776      3.2298    118.7776     26.8344
   939.2000      8.0809      2.6005      0.0747      2.9972    120.2511     25.8513
   939.3000      8.0839      2.5841      0.0294      3.9948    122.4837     25.0539
   939.4000      8.0839      2.5621      0.0027      5.3298    121.5582     25.7390
   939.5000      8.0687      2.5511      0.0258      5.9916    117.5012     26.8829
   939.6000      8.0687      2.5564      0.0351      5.6699    115.4144     27.3166
   939.7000      8.0687      2.5671      0.0750      5.0247    116.4188     27.2484
   939.8000      8.0521      2.5682      0.0708      4.9561    118.6907     26.7870
   939.9000      8.0521      2.5639      0.0527      5.2209    123.6080     25.9270
   940.0000      8.0527      2.5667      0.0529      5.0470    129.8428     25.3821
   940.1000      8.0527      2.5777      0.0938      4.3833    131.0784     25.4845
   940.2000      8.0527      2.5872      0.0554      3.8082    124.3267     25.8756
   940.3000      8.0575      2.5839      0.0667      4.0073    116.9965     26.5347
   940.4000      8.0575      2.5673      0.0520      5.0128    118.4975     27.1480
   940.5000      8.0504      2.5582      0.0083      5.5648    125.3261     27.1166
   940.6000      8.0504      2.5700      0.0362      4.8505    128.5123     26.8946
   940.7000      8.0504      2.5832      0.0819      4.0506    129.3311     26.8984
