~Version Information
VERS.                      2.0: CWLS Log ASCII Standard - VERSION 2.0
WRAP.                       NO: One line per depth step
~Well Information Block
STRT.FT                60.5000: 
STOP.FT              1875.7500: 
STEP.FT                 0.2500: 
NULL.                -999.2500: 
COMP.          Petrogulf Corporation: COMPANY
WELL.             State 16-14R: WELL
FLD.           Purgatorie River: FIELD
LOC.           598' FSL & 682' FWL--: LOCATION
PROV.                       CO: PROVINCE
CNTY.               Las Animas: COUNTRY
SRVC.                         : SERVICE COMPANY
DATE.          Fri Nov 12 08:50:45 2004: LOG DATE
UWI.            005 071 08034 : UNIQUE WELL ID
~Curve Information Block
DEPT.FT            0 000 00 00: Depth
GR.GAPI                       : Gamma Ray
CCL.                          : Casing Collar Locator
TT3.usec                      : CBL 3' Travel Time
AMP3.mV                       : CBL 3' Amplitude
~Parameter Information Block
~A  Depth        GR         CCL         TT3         AMP3    
# ...
  1367.0000    174.0347      0.0000    646.1006     11.0940
  1367.2500    158.9146      0.0000    633.7482     11.9873
  1367.5000    143.5552      0.0000    628.8340     12.8474
  1367.7500    132.5715      0.0000    631.6783     13.7169
  1368.0000    128.9063      0.0000    642.8355     14.5957
  1368.2500    132.9295      0.0000    660.8210     15.4342
  1368.5000    142.3547      0.0000    679.8661     16.1880
  1368.7500    153.1620      0.0000    691.6978     16.8526
  1369.0000    161.6249      0.0000    691.6371     17.4476
  1369.2500    166.1406      0.0000    682.6246     17.9862
  1369.5000    167.5997      0.0000    672.0309     18.4613
  1369.7500    168.3905      0.0000    664.8307     18.8535
  1370.0000    170.5853      0.0000    660.3842     19.1555
  1370.2500    174.1337      0.0000    654.9244     19.3887
  1370.5000    176.5562      0.0000    646.1576     19.5819
  1370.7500    174.7367      0.0000    635.5139     19.7385
  1371.0000    167.1856      0.0000    626.6690     19.8449
  1371.2500    154.7253      0.0000    622.5999     19.9142
  1371.5000    139.4083      0.0000    623.9346     19.9929
  1371.7500    123.1855      0.0000    628.9883     20.1161
  1372.0000    107.5281      0.0000    634.5574     20.2726
  1372.2500     93.7778      0.0000    637.3455     20.4212
  1372.5000     83.2918      0.0000    635.7944     20.5301
  1372.7500     77.0362      0.0000    630.9381     20.5953
  1373.0000     75.1246      0.0000    625.3127     20.6366
  1373.2500     76.7625      0.0000    620.9971     20.6910
  1373.5000     80.5085      0.0000    618.6088     20.8083
  1373.7500     84.6514      0.0000    617.6883     21.0319
  1374.0000     87.6916      0.0000    617.5334     21.3558
  1374.2500     88.8605      0.0000    617.6691     21.6922
  1374.5000     88.4793      0.0000    617.8933     21.8946
  1374.7500     87.8375      0.0000    618.1605     21.8303
  1375.0000     88.3605      0.0000    618.4808     21.4444
  1375.2500     90.4227      0.0000    618.9005     20.7745
  1375.5000     93.0086      0.0000    619.5949     19.9319
  1375.7500     94.8093      0.0000    621.0446     19.0604
  1376.0000     95.4162      0.0000    624.0929     18.2692
  1376.2500     95.2180      0.0000    629.5590     17.5864
  1376.5000     94.5811      0.0000    637.4293     16.9846
  1376.7500     93.6253      0.0000    646.5443     16.4364
  1377.0000     92.6807      0.0000    655.5656     15.9185
  1377.2500     92.3708      0.0000    664.6688     15.3859
  1377.5000     92.9156      0.0000    675.8755     14.7919
  1377.7500     93.6810      0.0000    690.9480     14.1384
  1378.0000     93.7995      0.0000    708.5834     13.4837
  1378.2500     92.9877      0.0000    724.4099     12.8988
  1378.5000     91.5048      0.0000    734.3828     12.4296
  1378.7500     89.6597      0.0000    737.5962     12.0858
  1379.0000     87.6473      0.0000    735.4415     11.8389
  1379.2500     85.5215      0.0000    729.3886     11.6284
  1379.5000     83.1430      0.0000    720.7250     11.3880
  1379.7500     80.4882      0.0000    711.4667     11.0666
  1380.0000     78.0493      0.0000    703.9440     10.6332
  1380.2500     76.5865      0.0000    699.4833     10.0845
  1380.5000     76.4007      0.0000    698.1969      9.4549
  1380.7500     76.9830      0.0000    699.9973      8.8043
  1381.0000     77.3771      0.0000    705.0824      8.1850
  1381.2500     76.9335      0.0000    712.9710      7.6242
  1381.5000     75.8540      0.0000    721.3844      7.1318
  1381.7500     74.8808      0.0000    727.4805      6.7091
  1382.0000     74.5222      0.0000    731.2968      6.3468
  1382.2500     74.9183      0.0000    736.9723      6.0290
  1382.5000     76.1412      0.0000    748.7138      5.7515
  1382.7500     77.8077      0.0000    765.5209      5.5280
  1383.0000     78.4176      0.0000    780.7159      5.3615
  1383.2500     75.9876      0.0000    786.1450      5.2148
  1383.5000     69.9939      0.0000    776.6134      5.0236
  1383.7500     62.5493      0.0000    752.6757      4.7493
  1384.0000     57.1781      0.0000    721.2600      4.4069
  1384.2500     56.1729      0.0000    692.2064      4.0386
  1384.5000     59.1091      0.0000    672.1879      3.6755
  1384.7500     63.8062      0.0000    661.7615      3.3311
  1385.0000     68.3915      0.0000    657.6109      3.0156
  1385.2500     72.2488      0.0000    656.2787      2.7395
  1385.5000     75.3973      0.0000    656.1129      2.5089
  1385.7500     77.6439      0.0000    657.5228      2.3266
  1386.0000     78.6704      0.0000    662.8076      2.1922
  1386.2500     78.5435      0.0000    675.1791      2.0999
  1386.5000     77.6755      0.0000    695.9297      2.0397
  1386.7500     76.4926      0.0000    721.0020      2.0037
  1387.0000     75.4724      0.0000    741.8779      1.9813
  1387.2500     75.1529      0.0000    752.4431      1.9559
  1387.5000     75.7096      0.0000    754.6307      1.9202
  1387.7500     76.6901      0.0000    755.4438      1.8943
  1388.0000     77.4496      0.0000    759.0497      1.9179
  1388.2500     77.8402      0.0000    762.8768      2.0210
  1388.5000     78.3329      0.0000    760.4124      2.2070
  1388.7500     79.4286      2.0000    746.8418      2.4588
  1389.0000     80.9934      0.0000    722.6617      2.7642
  1389.2500     82.1054      0.0000    693.3470      3.1402
  1389.5000     81.5786      0.0000    666.6573      3.6271
  1389.7500     78.8221      0.0000    649.3943      4.2608
  1390.0000     74.3732      0.0000    644.9098      5.0682
  1390.2500     69.6854      0.0000    653.7929      6.0794
  1390.5000     66.3065      0.0000    676.4538      7.2920
  1390.7500     64.8569      0.0000    712.1078      8.6138
  1391.0000     64.5608      0.0000    755.1686      9.8905
  1391.2500     63.9497      0.0000    795.6704     11.0079
  1391.5000     62.1739      0.0000    823.4891     11.9432
  1391.7500     59.4896      0.0000    832.0400     12.7292
  1392.0000     56.7029      0.0000    821.8094     13.4116
  1392.2500     54.6877      0.0000    803.4229     14.0340
  1392.5000     54.2858      0.0000    793.7225     14.6223
  1392.7500     55.8477      0.0000    803.0034     15.1647
  1393.0000     58.7068      0.0000    825.7449     15.6211
  1393.2500     61.6457      0.0000    846.3832     15.9529
  1393.5000     63.8970      0.0000    852.9332     16.1398
  1393.7500     65.3859      0.0000    843.1355     16.1757
  1394.0000     66.3367      0.0000    820.2829     16.0675
  1394.2500     67.0452      0.0000    788.3832     15.8391
  1394.5000     67.7590      0.0000    752.4976     15.5323
  1394.7500     68.4462      0.0000    719.5988     15.1968
  1395.0000     68.7707      0.0000    695.4036     14.8731
  1395.2500     68.4036      0.0000    680.7488     14.5833
  1395.5000     67.3522      0.0000    672.3010     14.3346
  1395.7500     66.1606      0.0000    666.6338     14.1250
  1396.0000     65.8568      0.0000    663.6961     13.9464
  1396.2500     67.2461      0.0000    666.8469     13.7903
  1396.5000     69.9664      0.0000    678.6704     13.6554
  1396.7500     72.6507      0.0000    695.8448     13.5478
  1397.0000     74.3743      0.0000    709.7676     13.4777
  1397.2500     75.5115      0.0000    714.4533     13.4599
  1397.5000     76.8716      0.0000    713.0654     13.5131
  1397.7500     78.4187      0.0000    715.2376     13.6453
  1398.0000     79.1973      0.0000    728.7526     13.8310
  1398.2500     78.3176      0.0000    754.0256     14.0069
  1398.5000     75.7763      0.0000    783.8232     14.0974
  1398.7500     72.4971      0.0000    806.3058     14.0543
  1399.0000     69.8097      0.0000    810.8962     13.8779
  1399.2500     68.7810      0.0000    796.1708     13.6068
  1399.5000     69.8021      0.0000    773.5842     13.2866
  1399.7500     72.7379      0.0000    759.5322     12.9393
  1400.0000     77.3220      0.0000    760.1055     12.5567
  1400.2500     83.3001      0.0000    764.8163     12.1258
