~Version Information
VERS.                      2.0: CWLS Log ASCII Standard - VERSION 2.0
WRAP.                       NO: One line per depth step
~Well Information Block
STRT.FT               550.0000: 
STOP.FT              2042.5000: 
STEP.FT                 0.1000: 
NULL.                -999.2500: 
COMP.          Petrogulf Corporation: COMPANY
WELL.          Robinson 15-12V: WELL
FLD.           Purgatorie River: FIELD
LOC.           1788' FNL & 466' FWL: LOCATION
PROV.                 Colorado: PROVINCE
CNTY.               Las Animas: COUNTRY
SRVC.                Patterson: SERVICE COMPANY
DATE.          Mon Sep 12 10:04:59 2005: LOG DATE
UWI.                          : UNIQUE WELL ID
~Curve Information Block
DEPT.FT            0 000 00 00: Depth
DCAL.in                       : CDL Caliper
RHOB.g/cc                     : CDL Bulk Density
RHOC.g/cc                     : CDL Density Correction
DPOR.pu                       : CDL Density Porosity
GR.GAPI                       : Gamma Ray
NPOR.pu                       : Neutron Porosity
~Parameter Information Block
~A  Depth       DCAL        RHOB        RHOC        DPOR         GR         NPOR    
# ...
   943.6000      8.1512      2.3904      0.0615     15.7326    177.8837     26.9065
   943.7000      8.1512      2.3786      0.0498     16.4496    177.4206     27.1292
   943.8000      8.1545      2.3715      0.0122     16.8799    174.5139     26.9399
   943.9000      8.1545      2.3778      0.0225     16.4987    173.3718     26.5444
   944.0000      8.1482      2.3940      0.0466     15.5172    173.5998     26.7097
   944.1000      8.1482      2.4049      0.0658     14.8551    171.5809     27.5431
   944.2000      8.1482      2.4033      0.0540     14.9506    169.2739     28.2000
   944.3000      8.1494      2.4019      0.0160     15.0375    170.1602     28.1936
   944.4000      8.1494      2.4142      0.0720     14.2907    172.6003     28.0929
   944.5000      8.1503      2.4345      0.0839     13.0607    173.9759     28.3430
   944.6000      8.1503      2.4506      0.1032     12.0846    176.1337     28.2224
   944.7000      8.1503      2.4607      0.0457     11.4744    179.0475     27.0369
   944.8000      8.1475      2.4698      0.0360     10.9238    178.6794     25.6855
   944.9000      8.1475      2.4764      0.0638     10.5238    175.9060     25.1646
   945.0000      8.1470      2.4776      0.0410     10.4514    174.7531     25.1488
   945.1000      8.1470      2.4757      0.0682     10.5656    174.6408     25.0846
   945.2000      8.1470      2.4734      0.0334     10.7010    174.4637     25.2251
   945.3000      8.1393      2.4749      0.0079     10.6129    175.5296     25.7220
   945.4000      8.1393      2.4834      0.0296     10.0962    177.6330     26.0407
   945.5000      8.1401      2.4969      0.0617      9.2773    179.3810     25.8612
   945.6000      8.1401      2.5080      0.0529      8.6057    179.3437     25.4676
   945.7000      8.1401      2.5107      0.0246      8.4433    178.2869     25.3285
   945.8000      8.1319      2.5044      0.0334      8.8217    177.5661     25.2163
   945.9000      8.1319      2.4959      0.0091      9.3382    174.7946     24.7299
   946.0000      8.1267      2.5007     -0.0122      9.0514    168.5908     24.4465
   946.1000      8.1267      2.5214      0.0501      7.7916    162.2303     24.8315
   946.2000      8.1267      2.5405      0.0617      6.6380    158.1722     25.2142
   946.3000      8.1193      2.5518      0.0010      5.9518    155.4765     24.8702
   946.4000      8.1193      2.5654      0.0350      5.1300    154.2041     24.1059
   946.5000      8.1195      2.5898      0.0245      3.6461    153.6920     23.3942
   946.6000      8.1195      2.6231      0.0639      1.6317    151.8835     22.6930
   946.7000      8.1195      2.6432      0.1381      0.4124    150.2785     21.8976
   946.8000      8.1129      2.6391      0.0539      0.6616    151.5801     21.1282
   946.9000      8.1129      2.6330      0.0350      1.0294    153.8859     20.6432
   947.0000      8.1066      2.6361      0.0377      0.8436    154.9543     20.6039
   947.1000      8.1066      2.6313      0.0179      1.1362    154.7238     21.0041
   947.2000      8.1066      2.6117     -0.0143      2.3223    152.5305     21.4715
   947.3000      8.1037      2.5992     -0.0269      3.0783    150.0020     21.7150
   947.4000      8.1037      2.6098      0.0691      2.4352    148.4337     21.9823
   947.5000      8.1029      2.6280      0.0883      1.3347    146.0944     22.3086
   947.6000      8.1029      2.6293      0.0487      1.2541    143.8951     22.3581
   947.7000      8.1029      2.5987      0.0655      3.1062    146.1994     22.0362
   947.8000      8.1059      2.5461     -0.0298      6.2968    151.0056     21.7595
   947.9000      8.1059      2.5036     -0.0193      8.8737    152.2837     21.8532
   948.0000      8.1000      2.4872     -0.0070      9.8657    151.2595     22.0556
   948.1000      8.1000      2.4904     -0.0022      9.6709    153.2763     21.8876
   948.2000      8.1000      2.5024      0.0342      8.9434    157.0017     21.4527
   948.3000      8.1049      2.5133      0.0315      8.2831    158.5819     21.3790
   948.4000      8.1049      2.5176      0.0177      8.0251    158.9703     21.7435
   948.5000      8.1109      2.5113      0.0308      8.4031    159.3636     22.0389
   948.6000      8.1109      2.5004     -0.0228      9.0643    159.2473     22.0813
   948.7000      8.1109      2.5024     -0.0178      8.9439    159.5533     22.0425
   948.8000      8.1125      2.5178      0.0321      8.0094    159.9767     21.9629
   948.9000      8.1125      2.5315      0.0407      7.1796    155.5071     21.6608
   949.0000      8.1103      2.5344      0.0539      7.0063    146.3316     21.1342
   949.1000      8.1103      2.5209      0.0331      7.8226    139.8019     20.7640
   949.2000      8.1103      2.4951     -0.0086      9.3876    140.7054     21.1032
   949.3000      8.1009      2.4759     -0.0245     10.5513    148.6481     22.0869
   949.4000      8.1009      2.4778     -0.0241     10.4372    160.0670     22.7745
   949.5000      8.0997      2.4950      0.0061      9.3969    169.7726     22.7660
   949.6000      8.0997      2.5125      0.0360      8.3346    171.3527     22.6523
   949.7000      8.0997      2.5233      0.0500      7.6778    166.7695     22.6418
   949.8000      8.1023      2.5303      0.0239      7.2545    164.3639     22.5353
   949.9000      8.1023      2.5405      0.0218      6.6380    163.9403     22.4231
   950.0000      8.1130      2.5519      0.0741      5.9459    162.4462     22.5250
   950.1000      8.1130      2.5560      0.0389      5.6945    161.9274     22.8568
   950.2000      8.1130      2.5570      0.0546      5.6372    161.5972     23.3176
   950.3000      8.1076      2.5600      0.0702      5.4528    159.9469     23.8711
   950.4000      8.1076      2.5630      0.0676      5.2715    157.7365     24.2848
   950.5000      8.1022      2.5672      0.0261      5.0194    155.6574     24.2536
   950.6000      8.1022      2.5690      0.0975      4.9080    154.4125     24.1129
   950.7000      8.1022      2.5589      0.0498      5.5221    153.8139     24.2080
   950.8000      8.1052      2.5401      0.0248      6.6634    154.1314     24.1630
   950.9000      8.1052      2.5231      0.0204      7.6935    156.4283     23.7942
   951.0000      8.1025      2.5165      0.0174      8.0886    159.9041     23.5288
   951.1000      8.1025      2.5230      0.0426      7.6947    162.5186     23.6740
   951.2000      8.1025      2.5316      0.0443      7.1763    163.5539     23.9368
   951.3000      8.1020      2.5278      0.0725      7.4060    164.5376     23.9100
   951.4000      8.1020      2.5076      0.0392      8.6295    165.5189     23.8209
   951.5000      8.1093      2.4787      0.0423     10.3846    163.3558     24.0324
   951.6000      8.1093      2.4569      0.0165     11.7014    157.9632     24.4356
   951.7000      8.1093      2.4504      0.0378     12.0977    152.8520     24.8003
   951.8000      8.1116      2.4432      0.0652     12.5337    148.5732     25.0860
   951.9000      8.1116      2.4219     -0.0061     13.8227    145.4896     25.2553
   952.0000      8.1124      2.4017      0.0074     15.0500    144.2836     25.1353
   952.1000      8.1124      2.3950      0.0741     15.4518    143.1868     24.7830
   952.2000      8.1124      2.3947      0.0430     15.4717    140.1737     24.7254
   952.3000      8.1020      2.3927      0.0499     15.5950    137.5677     25.1477
   952.4000      8.1020      2.3840      0.0347     16.1217    139.5880     25.3943
   952.5000      8.0986      2.3693      0.0370     17.0132    144.0077     25.1157
   952.6000      8.0986      2.3571      0.0125     17.7538    145.2668     24.9937
   952.7000      8.0986      2.3526      0.0061     18.0250    142.8308     25.6061
   952.8000      8.0990      2.3545      0.0108     17.9061    140.3682     26.4777
   952.9000      8.0990      2.3549      0.0406     17.8842    141.0080     26.8950
   953.0000      8.1039      2.3370      0.0748     18.9705    142.3029     26.9644
   953.1000      8.1039      2.2947     -0.0028     21.5314    140.2268     27.0546
