~Version Information
VERS.                      2.0: CWLS Log ASCII Standard - VERSION 2.0
WRAP.                       NO: One line per depth step
~Well Information Block
STRT.FT               902.0000: 
STOP.FT              2428.2000: 
STEP.FT                 0.1000: 
NULL.                -999.2500: 
COMP.          Pioneer Natural Resources: COMPANY
WELL.            Victory 12-14: WELL
FLD.           Purgatoire River: FIELD
LOC.           2434' FNL & 188' FWL: LOCATION
PROV.                 Colorado: PROVINCE
CNTY.               Las Animas: COUNTRY
SRVC.                Patterson: SERVICE COMPANY
DATE.          Mon Apr 18 07:24:17 2005: LOG DATE
UWI.           05 071 08332 00: UNIQUE WELL ID
~Curve Information Block
DEPT.FT            0 000 00 00: Depth
DCAL.in                       : CDL Caliper
RHOB.g/cc                     : CDL Bulk Density
RHOC.g/cc                     : CDL Density Correction
DPOR.pu                       : CDL Density Porosity
GR.GAPI                       : Gamma Ray
NPOR.pu                       : Neutron Porosity
~Parameter Information Block
~A  Depth       DCAL        RHOB        RHOC        DPOR         GR         NPOR    
# ...
  2313.2000      7.9530      2.5974      0.0471      3.1882     70.9221     27.5625
  2313.3000      7.9388      2.5744      0.0741      4.5811     72.0346     26.9295
  2313.4000      7.9388      2.5460      0.0237      6.3002     73.6739     26.7684
  2313.5000      7.9360      2.5315      0.0536      7.1831     74.6808     26.8963
  2313.6000      7.9360      2.5338      0.0161      7.0419     72.1580     27.1086
  2313.7000      7.9360      2.5461      0.0433      6.2961     66.4532     27.4479
  2313.8000      7.9176      2.5652      0.0081      5.1369     60.8227     27.2047
  2313.9000      7.9176      2.5835      0.0679      4.0283     56.7162     25.9590
  2314.0000      7.8963      2.5895      0.0604      3.6639     53.6561     24.4996
  2314.1000      7.8963      2.5922      0.0822      3.5042     50.7859     23.4240
  2314.2000      7.8963      2.6091      0.1145      2.4774     49.2748     22.7577
  2314.3000      7.8911      2.6410      0.0596      0.5472     48.1428     22.6515
  2314.4000      7.8911      2.6589      0.1463     -0.5413     44.5145     23.0376
  2314.5000      7.8977      2.6345      0.0927      0.9400     41.0529     23.6766
  2314.6000      7.8977      2.5929      0.0131      3.4629     41.2828     24.3834
  2314.7000      7.8977      2.5702      0.0578      4.8384     42.5088     24.5152
  2314.8000      7.9110      2.5733     -0.0320      4.6498     43.2319     23.9588
  2314.9000      7.9110      2.6020      0.0360      2.9078     44.6719     23.4930
  2315.0000      7.9075      2.6359      0.0917      0.8545     45.7353     23.5793
  2315.1000      7.9075      2.6419      0.0653      0.4909     45.6740     23.9814
  2315.2000      7.9075      2.6241      0.0398      1.5677     45.1089     24.2826
  2315.3000      7.9191      2.6189      0.0480      1.8823     45.2165     24.2571
  2315.4000      7.9191      2.6421      0.0262      0.4793     46.6839     23.8586
  2315.5000      7.9225      2.6739      0.0411     -1.4505     48.1468     23.2543
  2315.6000      7.9225      2.6777      0.1230     -1.6811     48.8797     22.7671
  2315.7000      7.9225      2.6430      0.0150      0.4234     49.8432     22.1556
  2315.8000      7.9189      2.6017      0.0135      2.9294     52.2958     21.2663
  2315.9000      7.9189      2.5796      0.0121      4.2669     55.8070     20.9905
  2316.0000      7.9208      2.5833      0.0043      4.0426     57.4365     21.9059
  2316.1000      7.9208      2.6104      0.0495      2.3970     55.4701     23.2914
  2316.2000      7.9208      2.6387      0.1212      0.6859     54.4382     24.0535
  2316.3000      7.9247      2.6380      0.1296      0.7303     56.8497     23.9423
  2316.4000      7.9247      2.6012      0.0536      2.9599     59.6255     23.5744
  2316.5000      7.9192      2.5508      0.0079      6.0150     60.5112     23.8664
  2316.6000      7.9192      2.5191     -0.0327      7.9335     57.2001     24.8191
  2316.7000      7.9192      2.5217      0.0056      7.7774     51.5551     25.4115
  2316.8000      7.9271      2.5399      0.0455      6.6738     47.6625     25.2384
  2316.9000      7.9271      2.5492      0.0653      6.1084     44.8734     24.7442
  2317.0000      7.9186      2.5501      0.0476      6.0553     42.9420     24.5465
  2317.1000      7.9186      2.5489      0.0770      6.1274     43.7092     24.5522
  2317.2000      7.9186      2.5451      0.0257      6.3586     46.2712     23.9422
  2317.3000      7.9224      2.5454      0.0528      6.3403     48.3009     22.8423
  2317.4000      7.9224      2.5530      0.0679      5.8800     48.6114     22.3690
  2317.5000      7.9133      2.5636      0.0325      5.2393     46.7551     22.7770
  2317.6000      7.9133      2.5762      0.0219      4.4702     44.8012     23.1466
  2317.7000      7.9133      2.5791      0.0835      4.2995     45.1807     22.6500
  2317.8000      7.9091      2.5653      0.0302      5.1355     46.5312     21.8340
  2317.9000      7.9091      2.5542      0.0636      5.8050     46.9291     21.5350
  2318.0000      7.9213      2.5582      0.0822      5.5653     46.8716     21.7666
  2318.1000      7.9213      2.5716      0.0288      4.7531     47.1486     22.3693
  2318.2000      7.9213      2.5886      0.0350      3.7231     47.2435     23.0894
  2318.3000      7.9216      2.6037      0.0241      2.8038     47.6407     23.1981
  2318.4000      7.9216      2.6110      0.0277      2.3620     48.6224     22.9875
  2318.5000      7.9287      2.6073      0.0623      2.5891     49.3270     23.6643
  2318.6000      7.9287      2.5980      0.0358      3.1512     49.5463     25.2062
  2318.7000      7.9287      2.5938      0.0262      3.4057     48.1593     26.6892
  2318.8000      7.9409      2.5913      0.0472      3.5583     45.9469     26.9451
  2318.9000      7.9409      2.5783      0.0425      4.3443     45.9558     26.0743
  2319.0000      7.9499      2.5590      0.0361      5.5176     47.4044     25.6395
  2319.1000      7.9499      2.5516     -0.0035      5.9628     46.9472     25.8096
  2319.2000      7.9499      2.5585      0.1111      5.5466     45.3264     25.9976
  2319.3000      7.9516      2.5685      0.0485      4.9417     44.5057     26.0189
  2319.4000      7.9516      2.5891      0.0702      3.6894     43.2771     25.6115
  2319.5000      7.9486      2.6191      0.1039      1.8721     40.4519     25.0527
  2319.6000      7.9486      2.6411      0.0626      0.5385     36.6185     24.8522
  2319.7000      7.9486      2.6510      0.0823     -0.0629     32.1964     24.8029
  2319.8000      7.9377      2.6548      0.0789     -0.2936     29.4591     24.4919
  2319.9000      7.9377      2.6545      0.1016     -0.2744     29.1500     24.1586
  2320.0000      7.9304      2.6468      0.0815      0.1948     28.7110     24.0749
  2320.1000      7.9304      2.6346      0.0707      0.9319     29.2116     24.1067
  2320.2000      7.9304      2.6294      0.0950      1.2457     32.3501     23.9463
  2320.3000      7.9236      2.6312      0.0718      1.1393     35.4605     23.2762
  2320.4000      7.9236      2.6246      0.1036      1.5408     34.8381     22.3162
  2320.5000      7.9244      2.6116     -0.0124      2.3272     29.9009     21.7304
  2320.6000      7.9244      2.6179      0.0607      1.9427     24.8121     21.8741
  2320.7000      7.9244      2.6490      0.0698      0.0611     23.0774     22.4472
  2320.8000      7.9365      2.6797      0.1170     -1.8014     23.5136     22.8268
  2320.9000      7.9365      2.6935      0.1347     -2.6354     24.7130     22.6022
  2321.0000      7.9102      2.7025      0.1035     -3.1848     26.0208     21.4679
  2321.1000      7.9102      2.7193      0.0901     -4.2001     25.5530     19.8201
  2321.2000      7.9102      2.7333      0.1277     -5.0498     24.5226     18.2481
  2321.3000      7.8728      2.7270      0.1175     -4.6649     25.2072     16.9480
  2321.4000      7.8728      2.6952      0.0716     -2.7419     26.2724     16.5258
  2321.5000      7.8655      2.6498      0.0211      0.0093     27.3767     17.5765
  2321.6000      7.8655      2.6135      0.0161      2.2105     30.2527     19.5844
  2321.7000      7.8655      2.6073     -0.0103      2.5880     33.7916     21.0445
  2321.8000      7.8895      2.6244      0.0667      1.5497     36.2292     21.5360
  2321.9000      7.8895      2.6285      0.0667      1.3003     37.5773     22.1210
  2322.0000      7.8944      2.6053      0.0529      2.7118     38.5279     23.1080
  2322.1000      7.8944      2.5840      0.0018      4.0007     40.1373     23.9661
  2322.2000      7.8944      2.5945      0.0270      3.3612     42.7076     24.4358
  2322.3000      7.8880      2.6180      0.1145      1.9413     46.1818     24.4899
  2322.4000      7.8880      2.6102      0.1340      2.4123     49.8548     24.5733
  2322.5000      7.9291      2.5749      0.0204      4.5491     51.2959     24.9342
  2322.6000      7.9291      2.5586      0.0798      5.5371     51.0943     25.0364
  2322.7000      7.9291      2.5779      0.0361      4.3694     51.9085     24.6346
