~Version Information
VERS.                      2.0: CWLS Log ASCII Standard - VERSION 2.0
WRAP.                       NO: One line per depth step
~Well Information Block
STRT.FT                 0.5000: 
STOP.FT              2891.5000: 
STEP.FT                 0.2500: 
NULL.                -999.2500: 
COMP.          Petrogulf Corporation: COMPANY
WELL.            Montoya 1-41V: WELL
FLD.           Purgatoire River: FIELD
LOC.           610' FNL & 1205' FEL--: LOCATION
PROV.                 Colorado: PROVINCE
CNTY.               Las Animas: COUNTRY
SRVC.                Patterson: SERVICE COMPANY
DATE.          Mon Sep 12 11:42:30 2005: LOG DATE
UWI.           05 071 08144 00: UNIQUE WELL ID
~Curve Information Block
DEPT.FT            0 000 00 00: Depth
CCL.                          : Casing Collar Locator
TT3.usec                      : CBL 3' Travel Time
AMP3.mV                       : CBL 3' Amplitude
GR.GAPI                       : Gamma Ray
~Parameter Information Block
~A  Depth       CCL         TT3         AMP3         GR     
# ...
  2647.0000      0.0000    740.5146      2.1267     70.6396
  2647.2500      0.0000    735.3218      2.1967     72.2587
  2647.5000      0.0000    726.9164      2.2630     73.3257
  2647.7500      0.0000    717.2034      2.3309     73.8305
  2648.0000      0.0000    709.7051      2.4012     74.1571
  2648.2500      0.0000    705.9481      2.4659     74.4997
  2648.5000      0.0000    704.6429      2.5112     74.5548
  2648.7500      0.0000    703.8156      2.5250     73.9283
  2649.0000      0.0000    702.6560      2.5056     72.5841
  2649.2500      0.0000    701.5584      2.4646     70.8042
  2649.5000      0.0000    701.2488      2.4193     69.0094
  2649.7500      0.0000    702.0675      2.3823     67.6794
  2650.0000      0.0000    703.6838      2.3586     67.0226
  2650.2500      0.0000    705.1820      2.3492     66.5849
  2650.5000      0.0000    705.5370      2.3516     65.5295
  2650.7500      0.0000    704.3859      2.3591     63.4769
  2651.0000      0.0000    702.4233      2.3640     60.9208
  2651.2500      0.0000    700.8987      2.3622     58.9120
  2651.5000      0.0000    700.6760      2.3529     58.4729
  2651.7500      0.0000    701.5488      2.3345     60.0869
  2652.0000      0.0000    702.3704      2.3030     63.3641
  2652.2500      0.0000    702.4036      2.2574     67.1261
  2652.5000      0.0000    702.9147      2.2032     70.0508
  2652.7500      0.0000    706.4001      2.1506     71.4701
  2653.0000      0.0000    713.1744      2.1105     71.6250
  2653.2500      0.0000    719.4980      2.0908     71.1827
  2653.5000      0.0000    720.3806      2.0933     70.5188
  2653.7500      0.0000    714.1639      2.1072     69.5560
  2654.0000      0.0000    703.8877      2.1098     68.3653
  2654.2500      0.0000    694.6861      2.0778     67.6645
  2654.5000      0.0000    690.5362      2.0040     68.2651
  2654.7500      0.0000    692.8875      1.9048     69.9456
  2655.0000      0.0000    700.6677      1.8116     71.2953
  2655.2500      0.0000    710.5428      1.7531     70.9597
  2655.5000      0.0000    717.8324      1.7401     68.8083
  2655.7500      0.0000    718.5079      1.7610     65.7501
  2656.0000      0.0000    711.3138      1.7934     62.7856
  2656.2500      0.0000    698.6606      1.8216     60.4792
  2656.5000      0.0000    685.9154      1.8409     58.9682
  2656.7500      0.0000    679.0090      1.8499     58.0752
  2657.0000      0.0000    680.8250      1.8503     57.4637
  2657.2500      0.0000    688.9080      1.8562     56.7653
  2657.5000      0.0000    697.4557      1.8886     55.5988
  2657.7500      0.0000    702.3774      1.9568     53.8130
  2658.0000     -2.0000    704.0490      2.0501     51.9503
  2658.2500      0.0000    705.0696      2.1494     51.1427
  2658.5000      0.0000    706.4775      2.2473     52.1951
  2658.7500      0.0000    707.0242      2.3547     54.8624
  2659.0000      0.0000    705.5365      2.4809     58.1395
  2659.2500      0.0000    703.0263      2.6066     61.0392
  2659.5000      0.0000    702.5920      2.6905     63.0070
  2659.7500      0.0000    708.0271      2.7130     63.8729
  2660.0000      0.0000    722.0921      2.7004     63.6780
  2660.2500      0.0000    744.3316      2.6932     62.6923
  2660.5000      0.0000    769.9352      2.7016     61.7054
  2660.7500      0.0000    792.0665      2.7053     62.0153
  2661.0000      0.0000    806.0099      2.6860     64.6303
  2661.2500      0.0000    810.3406      2.6471     69.2665
  2661.5000      0.0000    805.2195      2.6026     74.1802
  2661.7500      0.0000    792.2021      2.5588     77.1302
  2662.0000      0.0000    775.2466      2.5129     76.6978
  2662.2500      0.0000    759.0161      2.4616     72.9767
  2662.5000      0.0000    745.7742      2.4069     67.3529
  2662.7500      0.0000    735.4890      2.3532     61.6691
  2663.0000      0.0000    728.4934      2.3048     57.2474
  2663.2500      0.0000    726.0454      2.2658     54.3865
  2663.5000      0.0000    727.9733      2.2381     52.6813
  2663.7500      0.0000    731.3992      2.2184     51.8171
  2664.0000      0.0000    732.8684      2.1991     52.1087
  2664.2500      0.0000    731.0732      2.1734     54.4078
  2664.5000      0.0000    726.7307      2.1389     59.5046
  2664.7500      0.0000    720.7394      2.0945     67.3767
  2665.0000      0.0000    713.9710      2.0388     76.7815
  2665.2500      0.0000    708.4527      1.9731     85.6581
  2665.5000      0.0000    706.5743      1.9046     92.2522
  2665.7500      0.0000    708.1075      1.8423     96.0429
  2666.0000      0.0000    709.2750      1.7912     97.5800
  2666.2500      0.0000    706.2357      1.7535     97.6255
  2666.5000      0.0000    699.4736      1.7307     96.7866
  2666.7500      0.0000    693.9302      1.7218     95.9363
  2667.0000      0.0000    694.6946      1.7205     96.3711
  2667.2500      0.0000    702.7975      1.7195     98.8314
  2667.5000      0.0000    714.9872      1.7146    102.1599
  2667.7500      0.0000    726.9178      1.7058    103.3804
  2668.0000      0.0000    736.1248      1.6962     99.8381
  2668.2500      0.0000    742.3425      1.6918     91.6787
  2668.5000      0.0000    746.5161      1.7000     81.9890
  2668.7500      0.0000    750.5294      1.7276     74.3162
  2669.0000      0.0000    756.8026      1.7798     70.4095
  2669.2500      0.0000    766.8022      1.8541     70.2795
  2669.5000      0.0000    780.0063      1.9337     73.2242
  2669.7500      0.0000    794.3411      1.9905     78.0765
  2670.0000      0.0000    806.7305      2.0043     83.2839
  2670.2500      0.0000    813.2545      1.9802     87.6640
  2670.5000      0.0000    810.3840      1.9501     90.9079
  2670.7500      0.0000    797.5822      1.9518     93.1288
  2671.0000      0.0000    778.9854      2.0049     94.3210
  2671.2500      0.0000    761.5656      2.0990     94.4228
  2671.5000      0.0000    750.6135      2.2027     93.5051
  2671.7500      0.0000    746.5527      2.2823     91.7181
  2672.0000      0.0000    745.8817      2.3168     89.3302
  2672.2500      0.0000    744.6855      2.3042     86.8920
  2672.5000      0.0000    741.5812      2.2567     85.0383
  2672.7500      0.0000    738.6891      2.1911     84.0080
  2673.0000      0.0000    740.8904      2.1197     83.6221
  2673.2500      0.0000    752.9260      2.0449     83.8036
  2673.5000      0.0000    774.5135      1.9595     84.6301
  2673.7500      0.0000    797.2542      1.8555     85.6201
  2674.0000      0.0000    808.4589      1.7375     85.4966
  2674.2500      0.0000    800.6497      1.6269     83.3010
  2674.5000      0.0000    777.5390      1.5506     79.6462
  2674.7500      0.0000    750.2123      1.5238     76.4470
  2675.0000      0.0000    728.4371      1.5390     75.3512
  2675.2500      0.0000    715.7423      1.5704     76.5867
  2675.5000      0.0000    710.6740      1.5906     79.0468
  2675.7500      0.0000    710.9760      1.5868     81.1375
  2676.0000      0.0000    716.5587      1.5643     81.8023
  2676.2500      0.0000    728.5525      1.5373     81.1837
  2676.5000      0.0000    745.4009      1.5180     80.2875
  2676.7500      0.0000    761.0280      1.5132     79.9474
  2677.0000      0.0000    768.9191      1.5285     80.2969
  2677.2500      0.0000    767.8903      1.5695     81.2587
  2677.5000      0.0000    761.9036      1.6361     83.1427
  2677.7500      0.0000    754.0721      1.7184     86.3955
  2678.0000      0.0000    743.4684      1.8034     90.8735
  2678.2500      0.0000    728.7005      1.8861     95.6423
  2678.5000      0.0000    712.0362      1.9691     99.3882
  2678.7500      0.0000    698.0914      2.0518    100.8440
  2679.0000      0.0000    689.9205      2.1283     99.2628
  2679.2500      0.0000    687.8503      2.1956     95.0916
  2679.5000      0.0000    690.5118      2.2592     90.1301
  2679.7500      0.0000    694.8455      2.3258     86.6044
  2680.0000      0.0000    696.1714      2.3932     85.7856
  2680.2500      0.0000    691.1410      2.4524     87.3354
