~Version Information
VERS.                      2.0: CWLS Log ASCII Standard - VERSION 2.0
WRAP.                       NO: One line per depth step
~Well Information Block
STRT.FT               483.5000: 
STOP.FT              2348.7500: 
STEP.FT                 0.2500: 
NULL.                -999.2500: 
COMP.          Pioneer Natural Resources: COMPANY
WELL.          Hill Climb 22-2: WELL
FLD.           Purgatoire River: FIELD
LOC.           1820' FNL & 2193' FWL: LOCATION
PROV.                 Colorado: PROVINCE
CNTY.               Las Animas: COUNTRY
SRVC.                Patterson: SERVICE COMPANY
DATE.          Wed Oct 20 08:57:51 2004: LOG DATE
UWI.           05 071 08175 00: UNIQUE WELL ID
~Curve Information Block
DEPT.FT            0 000 00 00: Depth
DIR.Ohm-m                     : IEL Induction Resistivity
SN.Ohm-m                      : IEL Short Normal
SP.mV                         : IEL Spontaneous Potential
GR.GAPI                       : Gamma Ray
~Parameter Information Block
~A  Depth       DIR          SN          SP          GR     
# ...
   852.0000     22.6113     34.1567     58.1122    122.2491
   852.2500     23.3855     35.5951     57.7413    123.8285
   852.5000     24.2127     37.3203     57.1589    123.6480
   852.7500     25.1068     39.5907     56.2716    123.4969
   853.0000     26.1657     42.6492     54.9780    124.2884
   853.2500     27.5289     46.6064     53.1826    124.7143
   853.5000     29.3077     51.4541     50.8197    122.9538
   853.7500     31.5258     57.2085     47.8842    119.3209
   854.0000     34.1037     64.0913     44.4599    110.1339
   854.2500     36.8992     72.5803     40.7304    102.0683
   854.5000     39.7832     83.1556     36.9597     88.5123
   854.7500     42.6920     95.8084     33.4463     79.6135
   855.0000     45.5894    109.6216     30.4727     68.4610
   855.2500     48.3651    122.8360     28.2759     63.2422
   855.5000     50.7453    133.5370     27.0466     58.9052
   855.7500     52.2927    140.4316     26.9394     58.0023
   856.0000     52.5121    142.8482     28.0629     58.7634
   856.2500     51.0272    140.1008     30.4386     60.0740
   856.5000     47.7870    131.5325     33.9470     62.3344
   856.7500     43.1981    117.6137     38.3004     63.9508
   857.0000     38.0164    100.5482     43.0722     67.5308
   857.2500     33.0012     83.2635     47.7821     71.7086
   857.5000     28.6294     67.8762     52.0059     82.1699
   857.7500     25.0586     55.2055     55.4662     92.1333
   858.0000     22.2454     45.2735     58.0726    110.0136
   858.2500     20.0663     37.7806     59.9036    122.0041
   858.5000     18.3850     32.2370     61.1461    136.7228
   858.7500     17.0778     28.0911     62.0198    143.3604
   859.0000     16.0421     24.9047     62.7141    149.0292
   859.2500     15.1993     22.3864     63.3492    150.8320
   859.5000     14.4965     20.2918     63.9686    151.6902
   859.7500     13.9025     18.3736     64.5546    151.1805
   860.0000     13.3998     16.4405     65.0599    148.6270
   860.2500     12.9760     14.4616     65.4413    145.8073
   860.5000     12.6184     12.6101     65.6825    140.6865
   860.7500     12.3125     11.1864     65.8005    137.3277
   861.0000     12.0432     10.4559     65.8355    133.4113
   861.2500     11.7956     10.5132     65.8338    132.0348
   861.5000     11.5566     11.2378     65.8346    132.0920
   861.7500     11.3182     12.3297     65.8656    133.0992
   862.0000     11.0808     13.4179     65.9460    134.7488
   862.2500     10.8534     14.2099     66.0913    135.6073
   862.5000     10.6495     14.5886     66.3126    137.1982
   862.7500     10.4806     14.5900     66.6109    138.7969
   863.0000     10.3543     14.3166     66.9700    141.1556
   863.2500     10.2763     13.8750     67.3551    142.0327
   863.5000     10.2522     13.3617     67.7194    142.9597
   863.7500     10.2878     12.8576     68.0178    144.4659
   864.0000     10.3854     12.4086     68.2214    148.5827
   864.2500     10.5409     12.0128     68.3233    151.3457
   864.5000     10.7420     11.6432     68.3353    152.5234
   864.7500     10.9672     11.2889     68.2754    150.5757
   865.0000     11.1884     10.9819     68.1554    145.4333
   865.2500     11.3770     10.7932     67.9744    142.7463
   865.5000     11.5146     10.7993     67.7209    142.1454
   865.7500     11.5975     11.0226     67.3820    143.3591
   866.0000     11.6312     11.3892     66.9538    144.4425
   866.2500     11.6207     11.7585     66.4475    143.4668
   866.5000     11.5664     12.0068     65.8895    140.0671
   866.7500     11.4680     12.0833     65.3159    137.7267
   867.0000     11.3287     11.9976     64.7643    135.2460
   867.2500     11.1577     11.7841     64.2635    133.7330
   867.5000     10.9690     11.4943     63.8264    129.8979
   867.7500     10.7819     11.2007     63.4483    125.9982
   868.0000     10.6191     10.9757     63.1103    120.0918
   868.2500     10.5031     10.8525     62.7890    118.3105
   868.5000     10.4501     10.8140     62.4659    122.0842
   868.7500     10.4666     10.8263     62.1335    128.9534
   869.0000     10.5475     10.8841     61.7952    141.8228
   869.2500     10.6779     11.0185     61.4611    148.7736
   869.5000     10.8372     11.2521     61.1423    153.4791
   869.7500     11.0038     11.5510     60.8449    153.3544
   870.0000     11.1600     11.8317     60.5660    151.3768
   870.2500     11.2950     12.0205     60.2910    150.0900
   870.5000     11.4048     12.1036     59.9962    148.2469
   870.7500     11.4884     12.1253     59.6558    146.7672
   871.0000     11.5439     12.1543     59.2523    144.7495
   871.2500     11.5665     12.2465     58.7828    144.3058
   871.5000     11.5508     12.4166     58.2591    145.0788
   871.7500     11.4961     12.6317     57.6992    145.4981
   872.0000     11.4099     12.8328     57.1173    144.2697
   872.2500     11.3073     12.9678     56.5175    142.5205
   872.5000     11.2057     13.0169     55.8934    140.8289
   872.7500     11.1169     12.9971     55.2336    141.2403
   873.0000     11.0443     12.9394     54.5307    143.4508
   873.2500     10.9846     12.8527     53.7872    144.8853
   873.5000     10.9343     12.7072     53.0161    145.8197
   873.7500     10.8932     12.4596     52.2352    145.6429
   874.0000     10.8657     12.0987     51.4601    144.7329
   874.2500     10.8588     11.6766     50.7007    143.9620
   874.5000     10.8814     11.2978     49.9644    142.2938
   874.7500     10.9426     11.0672     49.2617    140.3492
   875.0000     11.0509     11.0265     48.6081    136.1222
   875.2500     11.2116     11.1269     48.0181    133.2035
   875.5000     11.4243     11.2640     47.4979    129.6778
   875.7500     11.6823     11.3505     47.0446    127.3232
   876.0000     11.9756     11.3772     46.6553    121.8453
   876.2500     12.2967     11.4198     46.3399    116.6221
   876.5000     12.6446     11.5998     46.1270    108.3815
   876.7500     13.0215     12.0383     46.0545    104.3779
   877.0000     13.4207     12.8126     46.1494    102.4163
   877.2500     13.8122     13.8897     46.4104    103.4211
   877.5000     14.1384     15.0769     46.8035    105.8088
   877.7500     14.3304     16.0907     47.2720    106.3919
   878.0000     14.3405     16.7300     47.7522    104.6208
   878.2500     14.1697     16.9918     48.1855    102.2453
   878.5000     13.8647     17.0275     48.5252     99.3900
   878.7500     13.4920     17.0100     48.7429     99.5186
   879.0000     13.1100     17.0382     48.8385    103.7411
   879.2500     12.7547     17.1185     48.8474    108.2766
   879.5000     12.4383     17.1933     48.8378    114.5005
   879.7500     12.1567     17.1910     48.8914    116.9915
   880.0000     11.9025     17.0812     49.0751    118.6788
   880.2500     11.6786     16.9062     49.4172    119.6803
   880.5000     11.5063     16.7700     49.8996    122.6235
   880.7500     11.4211     16.7868     50.4679    125.7011
   881.0000     11.4593     17.0082     51.0515    131.3454
   881.2500     11.6428     17.3628     51.5827    135.0074
   881.5000     11.9673     17.6492     52.0111    138.1058
   881.7500     12.3966     17.6049     52.3117    137.1417
   882.0000     12.8645     17.0325     52.4874    130.2877
   882.2500     13.2904     15.9386     52.5655    123.0381
   882.5000     13.6072     14.6066     52.5866    111.1495
   882.7500     13.7883     13.5253     52.5891    104.1702
   883.0000     13.8510     13.1713     52.5954     96.8306
   883.2500     13.8348     13.7466     52.6067     94.5492
   883.5000     13.7687     15.0235     52.6078     95.5530
   883.7500     13.6513     16.4256     52.5791     99.0048
   884.0000     13.4523     17.3371     52.5077    106.3945
   884.2500     13.1370     17.4374     52.3937    110.8821
   884.5000     12.6952     16.8015     52.2496    114.4917
   884.7500     12.1532     15.7305     52.0946    114.8628
   885.0000     11.5605     14.5234     51.9487    114.3699
   885.2500     10.9663     13.3772     51.8276    114.4618
