~Version Information
VERS.                      2.0: CWLS Log ASCII Standard - VERSION 2.0
WRAP.                       NO: One line per depth step
~Well Information Block
STRT.FT                -8.5000: 
STOP.FT              1597.7500: 
STEP.FT                 0.2500: 
NULL.                -999.2500: 
COMP.          Pioneer Natural Resources: COMPANY
WELL.          Dude Canyon 22-32 Tr: WELL
FLD.           Purgatorie River: FIELD
LOC.           1741' FnL & 2331' FWL--: LOCATION
PROV.                       CO: PROVINCE
CNTY.               Las Animas: COUNTRY
SRVC.          Patterson Wireline: SERVICE COMPANY
DATE.          Fri Jul 15 14:44:37 2005: LOG DATE
UWI.           05 071 08421 00: UNIQUE WELL ID
~Curve Information Block
DEPT.FT            0 000 00 00: Depth
CCL.                          : Casing Collar Locator
TT3.usec                      : CBL 3' Travel Time
AMP3.mV                       : CBL 3' Amplitude
GR.GAPI                       : Gamma Ray
~Parameter Information Block
~A  Depth       CCL         TT3         AMP3         GR     
# ...
   293.0000      0.0000    355.8345     10.2246     38.8218
   293.2500      0.0000    363.9041     10.1755     40.2356
   293.5000      0.0000    381.0080     10.0479     41.4606
   293.7500      0.0000    407.7488      9.8038     41.7561
   294.0000      0.0000    437.9641      9.4388     40.8319
   294.2500      0.0000    462.6797      8.9862     38.8812
   294.5000      0.0000    480.6768      8.4996     36.4200
   294.7500      0.0000    502.3685      8.0413     34.0821
   295.0000      0.0000    539.8867      7.6824     32.3226
   295.2500      0.0000    595.4055      7.4767     31.2439
   295.5000      0.0000    659.8662      7.4175     30.7780
   295.7500      0.0000    718.4615      7.4400     30.9733
   296.0000      2.0000    756.1393      7.4739     31.9097
   296.2500      2.0000    763.6649      7.4791     33.2330
   296.5000      0.0000    743.3732      7.4413     34.0318
   296.7500      0.0000    709.1932      7.3751     33.5985
   297.0000      0.0000    677.7332      7.3543     32.3383
   297.2500      0.0000    655.7125      7.5022     31.5848
   297.5000      0.0000    635.7936      7.8975     32.4029
   297.7500      0.0000    606.5640      8.4817     34.7285
   298.0000      0.0000    564.5607      9.0916     37.6518
   298.2500      0.0000    514.8839      9.5806     40.2819
   298.5000      0.0000    464.7464      9.8951     42.2066
   298.7500      0.0000    420.4702     10.0585     43.2946
   299.0000      0.0000    387.0339     10.1245     43.4766
   299.2500      0.0000    366.2412     10.1439     42.9168
   299.5000      0.0000    355.8259     10.1508     42.1848
   299.7500      0.0000    351.6078     10.1602     42.1362
   300.0000      0.0000    350.1863     10.1739     43.7659
   300.2500      0.0000    349.8597     10.1892     48.0157
   300.5000      0.0000    350.4050     10.2031     55.1850
   300.7500      0.0000    352.9846     10.2133     64.4169
   301.0000      0.0000    360.2722     10.2173     74.0936
   301.2500      0.0000    375.3159     10.2130     82.8178
   301.5000      0.0000    397.6435     10.1987     89.8799
   301.7500      0.0000    419.4844     10.1742     94.9958
   302.0000      0.0000    428.8474     10.1410     98.0932
   302.2500      0.0000    419.7128     10.1015     99.6238
   302.5000      0.0000    398.0569     10.0593    100.7599
   302.7500      0.0000    375.8007     10.0192    102.6584
   303.0000      0.0000    360.6323      9.9871    105.1931
   303.2500      0.0000    352.9922      9.9667    106.7546
   303.5000      0.0000    349.8962      9.9590    105.8946
   303.7500      0.0000    348.7676      9.9613    103.1047
   304.0000      0.0000    348.3769      9.9682    100.3859
   304.2500      0.0000    348.2717      9.9739     98.9724
   304.5000      0.0000    348.2716      9.9760     98.0498
   304.7500      0.0000    348.2751      9.9757     96.0731
   305.0000      0.0000    348.2619      9.9754     92.8399
   305.2500      0.0000    348.2529      9.9764     89.5960
   305.5000      0.0000    348.2806      9.9805     87.3209
   305.7500      0.0000    348.3580      9.9913     85.7052
   306.0000      0.0000    348.4462     10.0119     83.8223
   306.2500      0.0000    348.4610     10.0394     81.1600
   306.5000      0.0000    348.3374     10.0635     78.0509
   306.7500      0.0000    348.0906     10.0744     75.5836
   307.0000      0.0000    347.8087     10.0701     74.8209
   307.2500      0.0000    347.6222     10.0543     75.6693
   307.5000      0.0000    347.7220     10.0283     76.7786
   307.7500      0.0000    348.6465      9.9930     76.9474
   308.0000      0.0000    352.0752      9.9561     76.3527
   308.2500      0.0000    362.1513      9.9300     76.1256
   308.5000      0.0000    385.9772      9.9198     77.0639
   308.7500      0.0000    430.4274      9.9167     79.0217
   309.0000      0.0000    494.7173      9.9056     81.2267
   309.2500      0.0000    564.3992      9.8756     82.8784
   309.5000      0.0000    614.8345      9.8268     83.6777
   309.7500      0.0000    624.7975      9.7707     84.2733
   310.0000      0.0000    590.8668      9.7238     86.2348
   310.2500      0.0000    530.8719      9.6983     90.9612
   310.5000      0.0000    472.2993      9.6969     98.0614
   310.7500      0.0000    434.7207      9.7163    104.9790
   311.0000      0.0000    421.0972      9.7526    108.7761
   311.2500      0.0000    422.7009      9.8041    108.4033
   311.5000      0.0000    429.1313      9.8725    105.1116
   311.7500      0.0000    434.1966      9.9615    100.9579
   312.0000      0.0000    436.0806     10.0703     97.2227
   312.2500      0.0000    435.2143     10.1860     93.9354
   312.5000      0.0000    432.7841     10.2864     90.1987
   312.7500      0.0000    430.3178     10.3554     84.8283
   313.0000      0.0000    429.1717     10.3948     77.3413
   313.2500      0.0000    429.3945     10.4219     68.7970
   313.5000      0.0000    429.4486     10.4574     61.3767
   313.7500      0.0000    428.0057     10.5153     56.8657
   314.0000      0.0000    426.2869     10.5971     55.5789
   314.2500      0.0000    428.4703     10.6925     56.4972
   314.5000      0.0000    440.5005     10.7849     58.0588
   314.7500      0.0000    469.0815     10.8585     59.0502
   315.0000      0.0000    518.8817     10.9050     59.2377
   315.2500      0.0000    586.0873     10.9272     59.1400
   315.5000      0.0000    655.1603     10.9369     59.0930
   315.7500      0.0000    707.0704     10.9460     58.8279
   316.0000      0.0000    732.8493     10.9582     57.9174
   316.2500      0.0000    738.2128     10.9694     56.2905
   316.5000      0.0000    736.5299     10.9786     54.4752
   316.7500      0.0000    738.6713     10.9929     53.6436
   317.0000      0.0000    747.2621     11.0200     55.0290
   317.2500      0.0000    758.2885     11.0550     58.7862
   317.5000      0.0000    767.9634     11.0802     63.4625
   317.7500      0.0000    777.1816     11.0818     66.8640
   318.0000      0.0000    788.4844     11.0619     67.5182
   318.2500      0.0000    800.5582     11.0346     65.3415
   318.5000      0.0000    808.1859     11.0119     61.1658
   318.7500      0.0000    806.8553     10.9971     56.0096
   319.0000      0.0000    795.4246     10.9870     50.8112
   319.2500      0.0000    775.3411     10.9771     46.4448
   319.5000      0.0000    750.0944     10.9629     43.7097
   319.7500      0.0000    726.0472     10.9399     43.1939
   320.0000      0.0000    711.2565     10.9043     44.9063
   320.2500      0.0000    710.4255     10.8520     48.0411
   320.5000      0.0000    720.0875     10.7756     51.4269
   320.7500      0.0000    730.1979     10.6691     54.3733
   321.0000      0.0000    732.9846     10.5395     56.8532
   321.2500      0.0000    730.9086     10.4042     58.9352
   321.5000      0.0000    734.3479     10.2765     60.4625
   321.7500      0.0000    750.6315     10.1604     61.3004
   322.0000      0.0000    776.3029     10.0605     61.4427
   322.2500      0.0000    799.9822      9.9853     60.7072
   322.5000      0.0000    811.0065      9.9356     58.6064
   322.7500      0.0000    805.2325      9.9005     54.8359
   323.0000      0.0000    785.6273      9.8660     49.8998
   323.2500      0.0000    759.8292      9.8256     44.9675
   323.5000      0.0000    736.1552      9.7803     41.0466
   323.7500      0.0000    719.6235      9.7319     38.4781
   324.0000      0.0000    710.6223      9.6782     37.1411
   324.2500      0.0000    706.7521      9.6188     36.7925
   324.5000      0.0000    705.4079      9.5621     37.1589
   324.7500      0.0000    704.9845      9.5218     37.9018
   325.0000      0.0000    704.8065      9.5096     38.6009
   325.2500      0.0000    704.6830      9.5336     38.9832
   325.5000      0.0000    704.5889      9.5991     39.3543
   325.7500      0.0000    704.5189      9.7002     40.5374
   326.0000      0.0000    704.4590      9.8141     43.1007
   326.2500      0.0000    704.3936      9.9132     46.8273
