~Version Information
VERS.                      2.0: CWLS Log ASCII Standard - VERSION 2.0
WRAP.                       NO: One line per depth step
~Well Information Block
STRT.FT               768.0000: 
STOP.FT              2637.5000: 
STEP.FT                 0.2500: 
NULL.                -999.2500: 
COMP.          Pioneer Natural Resources: COMPANY
WELL.               Zink 44-10: WELL
FLD.           Purgatoire River: FIELD
LOC.           548' FSL & 473' FEL: LOCATION
PROV.                 Colorado: PROVINCE
CNTY.               Las Animas: COUNTRY
SRVC.                Patterson: SERVICE COMPANY
DATE.          Mon May 30 05:59:42 2005: LOG DATE
UWI.           05 071 08380 00: UNIQUE WELL ID
~Curve Information Block
DEPT.FT            0 000 00 00: Depth
SN.Ohm-m                      : IEL Short Normal
SP.mV                         : IEL Spontaneous Potential
DIR.Ohm-m                     : IEL Induction Resistivity
GR.GAPI                       : Gamma Ray
~Parameter Information Block
~A  Depth        SN          SP         DIR          GR     
# ...
  1505.0000     11.6856   -115.3867     12.5761    127.8652
  1505.2500     11.8993   -115.9576     12.4818    125.8818
  1505.5000     12.1215   -116.5516     12.3681    125.0057
  1505.7500     12.2880   -117.1262     12.2857    125.8656
  1506.0000     12.3257   -117.6466     12.2625    128.4175
  1506.2500     12.2059   -118.0995     12.2938    130.2372
  1506.5000     11.9624   -118.4937     12.3523    132.3606
  1506.7500     11.6695   -118.8490     12.4070    133.2944
  1507.0000     11.4009   -119.1848     12.4366    134.1669
  1507.2500     11.1873   -119.5097     12.4311    134.5082
  1507.5000     10.9982   -119.8143     12.3874    134.7303
  1507.7500     10.7583   -120.0722     12.3074    134.6267
  1508.0000     10.4150   -120.2530     12.1992    133.8970
  1508.2500     10.0242   -120.3403     12.0761    133.0379
  1508.5000      9.7368   -120.3449     11.9507    131.6874
  1508.7500      9.6864   -120.3011     11.8286    131.1559
  1509.0000      9.9132   -120.2516     11.7084    131.2360
  1509.2500     10.3466   -120.2262     11.5860    131.7662
  1509.5000     10.8087   -120.2311     11.4620    133.0081
  1509.7500     11.1128   -120.2540     11.3445    134.0822
  1510.0000     11.2164   -120.2806     11.2468    135.8128
  1510.2500     11.2330   -120.3079     11.1823    136.6206
  1510.5000     11.3065   -120.3442     11.1610    136.6141
  1510.7500     11.5056   -120.3982     11.1892    135.9448
  1511.0000     11.7918   -120.4695     11.2713    135.1539
  1511.2500     12.0597   -120.5499     11.4118    135.3799
  1511.5000     12.2201   -120.6322     11.6154    136.7686
  1511.7500     12.2614   -120.7140     11.8856    137.7880
  1512.0000     12.2513   -120.7912     12.2208    138.1947
  1512.2500     12.2893   -120.8505     12.6125    137.1140
  1512.5000     12.4799   -120.8720     13.0415    132.7971
  1512.7500     12.9504   -120.8352     13.4762    127.9476
  1513.0000     13.8260   -120.7225     13.8724    117.7848
  1513.2500     15.1459   -120.5219     14.1759    109.4274
  1513.5000     16.8683   -120.2368     14.3297     95.9448
  1513.7500     18.9439   -119.8928     14.2862     87.6245
  1514.0000     21.2802   -119.5239     14.0270     78.3360
  1514.2500     23.6431   -119.1459     13.5826     74.9567
  1514.5000     25.6345   -118.7466     13.0321     74.0264
  1514.7500     26.7837   -118.3013     12.4752     75.7223
  1515.0000     26.7606   -117.7921     11.9950     80.9461
  1515.2500     25.5952   -117.2176     11.6366     85.7962
  1515.5000     23.6581   -116.5930     11.4115     94.2658
  1515.7500     21.4319   -115.9480     11.3284    100.0993
  1516.0000     19.3496   -115.3208     11.4444    108.1416
  1516.2500     17.7275   -114.7498     11.9406    112.6338
  1516.5000     16.6949   -114.2617     13.2784    117.6697
  1516.7500     16.1901   -113.8651     16.7944    119.7571
  1517.0000     16.0446   -113.5524     28.8850    121.0050
  1517.2500     16.0606   -113.3109    916.5394    120.8211
  1517.5000     16.0656   -113.1324 100000.0000    119.5445
  1517.7500     15.9723   -113.0153 100000.0000    118.1755
  1518.0000     15.7855   -112.9557 100000.0000    115.5598
  1518.2500     15.5321   -112.9355 100000.0000    113.8926
  1518.5000     15.2157   -112.9265 100000.0000    112.7761
  1518.7500     14.8441   -112.9137 100000.0000    113.5162
  1519.0000     14.4451   -112.9105 100000.0000    116.8001
  1519.2500     14.0609   -112.9451 100000.0000    119.7826
  1519.5000     13.7722   -113.0353 100000.0000    123.5440
  1519.7500     13.7013   -113.1812 100000.0000    124.3270
  1520.0000     13.9612   -113.3763 100000.0000    121.4845
  1520.2500     14.6061   -113.6211 100000.0000    116.9827
  1520.5000     15.5974   -113.9279 100000.0000    107.9950
  1520.7500     16.8228   -114.3166 100000.0000    101.7698
  1521.0000     18.1968   -114.8050 100000.0000     93.4689
  1521.2500     19.6998   -115.4013 100000.0000     88.9154
  1521.5000     21.2765   -116.1018 100000.0000     83.8989
  1521.7500     22.7774   -116.8966 100000.0000     82.0667
  1522.0000     24.0284   -117.7812 100000.0000     81.9071
  1522.2500     24.8771   -118.7727 100000.0000     83.4643
  1522.5000     25.1939   -119.9168 100000.0000     88.0780
  1522.7500     24.9173   -121.2799 100000.0000     92.5991
  1523.0000     24.0858   -122.9426 100000.0000    101.1798
  1523.2500     22.7838   -125.0201      3.5702    107.5714
  1523.5000     21.0730   -127.7028      1.1427    117.0405
  1523.7500     18.9997   -131.2830      0.4982    122.7690
  1524.0000     16.6392   -136.1603      0.2333    129.9153
  1524.2500     14.0846   -142.8315      0.1114    133.3914
  1524.5000     11.3933   -151.8761      0.0590    135.9850
  1524.7500      8.5962   -163.8932      0.0379    135.4835
  1525.0000      5.8206   -179.3203      0.0305    130.5452
  1525.2500      3.3931   -198.0389      0.0302    124.2619
  1525.5000      1.6904   -218.7959      0.0353    111.2234
  1525.7500      0.8316   -238.9786      0.0467    101.3830
  1526.0000      0.6593   -255.4082      0.0667     87.5510
  1526.2500      1.1877   -265.9095      0.0986     80.1746
  1526.5000      3.2231   -270.3299      0.1464     72.5977
  1526.7500      8.4921   -270.2827      0.2145     69.4263
  1527.0000     18.3759   -268.2207      0.3109     66.1256
  1527.2500     31.9135   -266.4422      0.4523     64.4484
  1527.5000     45.8860   -266.1797      0.6754     62.9939
  1527.7500     57.2338   -267.1998      1.0572     63.0849
  1528.0000     64.4623   -268.4414      1.7472     64.7798
  1528.2500     67.1400   -269.2813      2.9258     66.4742
  1528.5000     65.3223   -270.1532      4.2442     68.8497
  1528.7500     59.3686   -271.9341      4.2512     69.9818
  1529.0000     49.7905   -274.9935      3.0279     71.2837
  1529.2500     37.5030   -278.9886      1.9237     72.5824
  1529.5000     24.4313   -283.1481      1.2354     76.7066
  1529.7500     13.2342   -286.0676      0.8255     81.4450
  1530.0000      5.7602   -285.2471      0.5726     91.1636
  1530.2500      1.9628   -277.6976      0.4096     98.5464
  1530.5000      0.5316   -261.7671      0.3027    109.2631
  1530.7500      0.2224   -238.6895      0.2339    115.3168
  1531.0000      0.5093   -212.3194      0.1924    121.8518
  1531.2500      1.4496   -187.1441      0.1724    124.4959
  1531.5000      3.1880   -166.2252      0.1719    126.7569
  1531.7500      5.4876   -150.4877      0.1947    127.7754
  1532.0000      7.7626   -139.3266      0.2537    129.1460
  1532.2500      9.5640   -131.5798      0.3778    129.9200
  1532.5000     10.8345   -126.1690      0.6410    130.6017
  1532.7500     11.7291   -122.3183      1.3152    130.6942
  1533.0000     12.3990   -119.5293      4.4344    130.5954
  1533.2500     12.9286   -117.4786 100000.0000    130.7287
  1533.5000     13.3451   -115.9351 100000.0000    131.8427
  1533.7500     13.6441   -114.7220 100000.0000    133.3786
  1534.0000     13.8321   -113.7215 100000.0000    136.6834
  1534.2500     13.9587   -112.8837 100000.0000    139.1884
  1534.5000     14.0909   -112.2059 100000.0000    142.6636
  1534.7500     14.2597   -111.6864 100000.0000    144.4317
  1535.0000     14.4417   -111.2917 100000.0000    145.6201
  1535.2500     14.5855   -110.9650 100000.0000    145.0214
  1535.5000     14.6669   -110.6523 100000.0000    141.7888
  1535.7500     14.7565   -110.3185 100000.0000    138.4923
  1536.0000     15.0220   -109.9490 100000.0000    133.1555
  1536.2500     15.6391   -109.5475 100000.0000    130.0632
  1536.5000     16.7167   -109.1364 100000.0000    126.9406
  1536.7500     18.2619   -108.7506 100000.0000    125.9379
  1537.0000     20.1242   -108.4239 100000.0000    125.0643
  1537.2500     22.0285   -108.1761 100000.0000    123.8400
  1537.5000     23.7744   -108.0076 100000.0000    119.6020
  1537.7500     25.3832   -107.9033 100000.0000    115.0470
  1538.0000     27.0030   -107.8423 100000.0000    106.3525
  1538.2500     28.7035   -107.8048 100000.0000     99.8510
