~Version Information
 VERS.                                  2.0 : CWLS LAS VERSION
 WRAP.                                   NO : WRAPING MODE
 SWARE .                 MController 2.5.0J : SOFTWARE VERSION
~Well Information
 WELL.                      Victory 12-14Tr : WELL
 COMP.    Pioneer Natural Resources USA Inc : COMPANY
 FLD.                      Purgatoire River : FIELD
 LOC.                SW/NW Sec 14 T32S R66W : LOCATION
 DATE.                           7/16-17/05 : DATE(S) LOGGED
 SRVC.       BLANCO Geological Services LLC : SERVICE COMPANY
 STAT.                                   CO : STATE
 CNTY.                           Las Animas : COUNTY
 CTRY.                                  USA : COUNTRY
 API.                       05-071-08433-00 : API NUMBER
 STRT.FT                             797.00 : START DEPTH
 STOP.FT                            1900.00 : STOP DEPTH
 STEP.FT                               1.00 : DEPTH INCREMENT
 NULL.                                -9999 : NULL VALUE
~Curve information
 DEPTH.FT                                   :
 ROP.MIN/FT                                 :
 GAS.UNITS                                  :
~ASCII Log data
       797.0     -9999.00          3.6 
       798.0         2.52          4.2 
       799.0         0.67          4.3 
       800.0         1.80          4.6 
       801.0         0.20          4.3 
       802.0         0.20          4.3 
       803.0         0.10          4.3 
       804.0         0.12          3.8 
       805.0         0.07          3.8 
       806.0         0.10          3.8 
       807.0         0.07          3.8 
       808.0         0.10          4.4 
       809.0         0.10          4.4 
       810.0         0.37          4.1 
       811.0         0.23          3.7 
       812.0         0.13          3.6 
       813.0         0.27          4.5 
       814.0         0.23          4.4 
       815.0         0.40          4.4 
       816.0         0.20          4.3 
       817.0         0.20          4.2 
       818.0         0.17          4.0 
       819.0         0.10          4.0 
       820.0         0.30          4.5 
       821.0         0.17          4.5 
       822.0         0.18          3.7 
       823.0         0.20          4.1 
       824.0         0.17          3.6 
       825.0         0.33          3.8 
       826.0         0.17          3.8 
       827.0         0.20          3.8 
       828.0         0.17          3.8 
       829.0         0.17          3.6 
       830.0         0.17          3.6 
       831.0         0.30          3.9 
       832.0         0.37          4.0 
       833.0         0.53          4.9 
       834.0         0.25          4.2 
       835.0         0.67          4.6 
       836.0         0.10          4.4 
       837.0         0.20          4.8 
       838.0         0.27          8.1 
       839.0         0.23         11.0 
       840.0         0.23         12.7 
       841.0         0.17         13.3 
       842.0         0.17         14.1 
       843.0         0.17         14.4 
       844.0         0.17         14.9 
       845.0         0.20         14.6 
       846.0         0.17         15.7 
       847.0         0.13         15.6 
       848.0         0.17         15.3 
       849.0         0.28         15.1 
       850.0         0.10         15.3 
       851.0         0.20         15.3 
       852.0         0.13         15.9 
       853.0         0.10         15.4 
       854.0         0.20         15.7 
       855.0         0.17         15.7 
       856.0         0.17         15.3 
       857.0         0.17         16.5 
       858.0         0.13         16.5 
       859.0         0.17         15.3 
       860.0         0.13         15.3 
       861.0         0.13         15.6 
       862.0         0.10         15.6 
       863.0         0.10         15.6 
       864.0         0.10         16.3 
       865.0         0.10         16.0 
       866.0         0.17         15.9 
       867.0         1.85         17.0 
       868.0         0.20         16.6 
       869.0         0.20         16.1 
       870.0         0.17         15.9 
       871.0         0.17         16.7 
       872.0         0.17         16.0 
       873.0         0.17         16.8 
       874.0         0.13         15.8 
       875.0         0.13         15.8 
       876.0         0.13         15.5 
       877.0         0.17         16.3 
       878.0         0.10         16.3 
       879.0         0.40         16.6 
       880.0         0.10         16.6 
       881.0         0.13         16.6 
       882.0         0.12         15.9 
       883.0         7.03         16.8 
       884.0         0.23         15.4 
       885.0         0.20         15.0 
       886.0         0.17         15.8 
       887.0         0.17         15.0 
       888.0         0.40         15.0 
       889.0         0.07         14.9 
       890.0         0.70         16.3 
       891.0         0.43         15.7 
       892.0         0.17         15.9 
       893.0         0.52         16.0 
       894.0         0.13         15.1 
       895.0         0.20         15.1 
       896.0         0.17         14.8 
       897.0         2.27         16.2 
       898.0         0.17         15.3 
       899.0         0.22         15.3 
       900.0         0.23         15.2 
       901.0         0.20         15.2 
       902.0         0.20         14.8 
       903.0         0.30         15.5 
       904.0         0.17         15.3 
       905.0         0.20         15.3 
       906.0         0.13         16.3 
       907.0         0.47         13.9 
       908.0         0.23         12.7 
       909.0         0.20         12.0 
       910.0         0.20         11.1 
       911.0         0.23         10.5 
       912.0         1.22          9.5 
       913.0         0.60          7.5 
       914.0         0.27          6.1 
       915.0         0.17          6.8 
       916.0         0.17          6.8 
       917.0         0.13          6.1 
       918.0         0.10          6.1 
       919.0         0.13          6.9 
       920.0         0.13          6.5 
       921.0         0.13          6.1 
       922.0         0.07          6.1 
       923.0         0.10          6.3 
       924.0         0.07          6.0 
       925.0         0.13          6.1 
       926.0         0.52          6.7 
       927.0         6.40          6.4 
       928.0         0.30          5.0 
       929.0         0.37          5.4 
       930.0         0.27          5.4 
       931.0         0.23          3.1 
       932.0         0.27          3.8 
       933.0         0.37          3.1 
       934.0         0.33          6.1 
       935.0         0.27         10.3 
       936.0         0.20         10.3 
       937.0         0.20         10.8 
       938.0         0.20         11.1 
       939.0         0.25         12.2 
       940.0         0.23         11.8 
       941.0         0.17         12.3 
       942.0         0.23         13.0 
       943.0         0.20         12.5 
       944.0         0.27         12.7 
       945.0         0.20         12.7 
       946.0         0.27         13.0 
       947.0         0.23         12.9 
       948.0         0.27         13.8 
       949.0         0.27         13.2 
       950.0         0.27         13.1 
       951.0         0.23         14.1 
       952.0         0.20         16.4 
       953.0         0.22         18.7 
       954.0         0.20         18.0 
       955.0         0.13         18.2 
       956.0         0.17         17.1 
       957.0         1.80         31.1 
       958.0         0.40         26.9 
       959.0         0.33         17.5 
       960.0         0.25         16.2 
       961.0         0.20         15.4 
       962.0         0.23         15.7 
       963.0         0.33         14.9 
       964.0         0.23         15.9 
       965.0         0.27         15.0 
       966.0         0.27         14.6 
       967.0         0.27         15.7 
       968.0         0.27         14.8 
       969.0         0.27         14.7 
       970.0         0.27         15.0 
       971.0         0.27         15.2 
       972.0         0.27         15.2 
       973.0         0.25         14.4 
       974.0         0.23         15.7 
       975.0         0.27         15.6 
       976.0         0.27         15.3 
       977.0         0.27         15.4 
       978.0         0.27         15.2 
       979.0         0.23         14.3 
       980.0         0.37         15.0 
       981.0         0.30         14.3 
       982.0         0.33         14.7 
       983.0         0.27         14.2 
       984.0         0.27         13.9 
       985.0         0.25         13.5 
       986.0         0.37         14.0 
       987.0         2.07         16.2 
       988.0         0.40         14.4 
       989.0         0.30         13.4 
       990.0         0.32         14.1 
       991.0         0.27         13.4 
       992.0         0.23         13.3 
       993.0         0.23         14.4 
       994.0         0.27         23.7 
       995.0         0.20         38.7 
       996.0         0.17         42.2 
