~Version Information
VERS.                      2.0: CWLS Log ASCII Standard - VERSION 2.0
WRAP.                       NO: One line per depth step
~Well Information Block
STRT.FT               948.2500: 
STOP.FT              2134.5000: 
STEP.FT                 0.2500: 
NULL.                -999.2500: 
COMP.          Petrogulf Corporation: COMPANY
WELL.             Valejo 8-12R: WELL
FLD.           Purgatorie River: FIELD
LOC.           1351'' FNL & 1562' FWL: LOCATION
CNTY.               Las Animas: COUNTY
SRVC.                         : SERVICE COMPANY
DATE.          Wed Apr 28 02:30:32 2004: LOG DATE
UWI.           05 071 08038 00: UNIQUE WELL ID
STAT.                 Colorado: STATE
~Curve Information Block
DEPT.FT            0 000 00 00: Depth
SP.mV                         : DIL Spontaneous Potential
RILD.Ohm-m                    : DIL Deep Resistivity
RILM.Ohm-m                    : DIL Medium Resistivity
RLL3.Ohm-m                    : DIL Shallow Resistivity
GR.GAPI                       : Gamma Ray
~Parameter Information Block
~A  Depth        SP         RILD        RILM        RLL3         GR     
# ...
  1200.2500     80.4879     14.2226     18.1067     24.4230    108.1283
  1200.5000     80.5089     13.9258     17.9631     25.4929    106.7248
  1200.7500     80.5631     13.6789     17.7252     25.9416    107.2375
  1201.0000     80.6592     13.4926     17.4139     25.7492    110.1590
  1201.2500     80.7916     13.3544     17.0630     25.0296    112.7148
  1201.5000     80.9452     13.2415     16.7009     23.9146    116.1697
  1201.7500     81.1089     13.1321     16.3432     22.5633    118.1930
  1202.0000     81.2789     13.0092     15.9936     21.2502    121.4870
  1202.2500     81.4460     12.8609     15.6485     20.3718    123.8511
  1202.5000     81.5953     12.6804     15.3010     20.2427    126.3786
  1202.7500     81.7203     12.4692     14.9425     20.7787    126.5421
  1203.0000     81.8308     12.2361     14.5662     21.4219    124.5159
  1203.2500     81.9400     11.9924     14.1710     21.5195    122.6227
  1203.5000     82.0493     11.7462     13.7640     20.8447    120.9778
  1203.7500     82.1474     11.5010     13.3586     19.7195    121.3748
  1204.0000     82.2206     11.2597     12.9681     18.6568    124.3378
  1204.2500     82.2559     11.0282     12.6003     17.9455    127.4780
  1204.5000     82.2384     10.8148     12.2549     17.5366    132.6477
  1204.7500     82.1622     10.6284     11.9263     17.1976    135.5753
  1205.0000     82.0485     10.4763     11.6101     16.7197    138.3496
  1205.2500     81.9458     10.3645     11.3094     16.0332    139.0582
  1205.5000     81.9060     10.2972     11.0386     15.1962    138.4916
  1205.7500     81.9600     10.2754     10.8209     14.3147    137.0698
  1206.0000     82.1067     10.2950     10.6808     13.4965    134.0162
  1206.2500     82.3203     10.3456     10.6356     12.8665    132.1901
  1206.5000     82.5643     10.4118     10.6903     12.5827    130.8761
  1206.7500     82.8053     10.4761     10.8370     12.8139    130.7750
  1207.0000     83.0187     10.5233     11.0584     13.6906    130.2875
  1207.2500     83.1932     10.5459     11.3295     15.2229    129.0219
  1207.5000     83.3319     10.5460     11.6187     17.1992    126.0614
  1207.7500     83.4496     10.5335     11.8893     19.1558    124.3023
  1208.0000     83.5614     10.5216     12.1049     20.5381    123.1020
  1208.2500     83.6693     10.5217     12.2388     20.9966    123.0467
  1208.5000     83.7587     10.5405     12.2823     20.5693    122.9623
  1208.7500     83.8103     10.5783     12.2454     19.5780    122.6478
  1209.0000     83.8137     10.6280     12.1511     18.3629    122.5283
  1209.2500     83.7674     10.6764     12.0268     17.1219    123.3130
  1209.5000     83.6738     10.7087     11.8957     15.9543    126.0216
  1209.7500     83.5479     10.7146     11.7709     14.9677    128.3078
  1210.0000     83.4328     10.6940     11.6550     14.2866    131.0926
  1210.2500     83.3965     10.6553     11.5437     13.9536    132.0855
  1210.5000     83.4952     10.6105     11.4331     13.8542    132.7955
  1210.7500     83.7214     10.5681     11.3256     13.7777    133.4861
  1211.0000     83.9851     10.5308     11.2313     13.5894    135.6892
  1211.2500     84.1615     10.4978     11.1641     13.3506    137.8839
  1211.5000     84.1702     10.4688     11.1361     13.2563    141.6028
  1211.7500     84.0152     10.4464     11.1528     13.4563    143.7786
  1212.0000     83.7609     10.4341     11.2105     13.9525    145.1724
  1212.2500     83.4849     10.4354     11.2961     14.6529    144.0467
  1212.5000     83.2465     10.4530     11.3891     15.4641    139.1429
  1212.7500     83.0762     10.4914     11.4676     16.2811    134.7839
  1213.0000     82.9790     10.5574     11.5174     16.9110    129.4328
  1213.2500     82.9373     10.6587     11.5407     17.1072    127.7327
  1213.5000     82.9166     10.8010     11.5584     16.7729    127.5807
  1213.7500     82.8837     10.9859     11.6055     16.1158    128.0434
  1214.0000     82.8307     11.2109     11.7206     15.5280    128.3501
  1214.2500     82.7755     11.4717     11.9362     15.2918    128.2566
  1214.5000     82.7362     11.7637     12.2695     15.4285    127.8719
  1214.7500     82.7138     12.0827     12.7180     15.8191    127.2425
  1215.0000     82.6944     12.4234     13.2633     16.4384    125.0916
  1215.2500     82.6579     12.7789     13.8822     17.4907    122.7442
  1215.5000     82.5865     13.1418     14.5603     19.3444    118.3532
  1215.7500     82.4801     13.5075     15.2946     22.2748    115.3520
  1216.0000     82.3671     13.8767     16.0831     26.1317    111.6519
  1216.2500     82.2945     14.2548     16.9101     30.1858    110.1723
  1216.5000     82.3015     14.6491     17.7437     33.4223    109.7588
  1216.7500     82.3960     15.0641     18.5479     35.1992    110.5376
  1217.0000     82.5489     15.4983     19.3014     35.7166    112.7584
  1217.2500     82.7093     15.9438     20.0070     35.7966    114.6387
  1217.5000     82.8299     16.3866     20.6842     36.1634    117.2875
  1217.7500     82.8836     16.8085     21.3519     36.9573    118.1515
  1218.0000     82.8647     17.1866     22.0112     37.9573    116.6689
  1218.2500     82.7802     17.4947     22.6365     39.1879    113.5919
  1218.5000     82.6457     17.7078     23.1714     41.1268    107.1487
  1218.7500     82.4815     17.8127     23.5328     44.1163    103.1118
  1219.0000     82.3070     17.8169     23.6324     47.4985     99.7978
  1219.2500     82.1328     17.7495     23.4199     49.5280     99.9833
  1219.5000     81.9593     17.6513     22.9240     48.4951    103.2360
  1219.7500     81.7810     17.5612     22.2547     44.1215    106.5623
  1220.0000     81.5943     17.5073     21.5622     37.8417    111.8967
  1220.2500     81.4027     17.5032     20.9820     31.7881    114.9250
  1220.5000     81.2176     17.5483     20.6017     27.5900    117.4655
  1220.7500     81.0536     17.6307     20.4548     25.8985    117.4859
  1221.0000     80.9164     17.7339     20.5308     26.5499    115.5920
  1221.2500     80.7965     17.8441     20.7904     28.8973    113.7844
  1221.5000     80.6785     17.9574     21.1780     32.1028    111.0213
  1221.7500     80.5641     18.0813     21.6356     35.3826    109.0755
  1222.0000     80.4853     18.2295     22.1163     38.1665    105.7774
  1222.2500     80.4969     18.4114     22.5917     40.1789    103.5151
  1222.5000     80.6541     18.6232     23.0498     41.5180    100.4945
  1222.7500     80.9852     18.8455     23.4933     42.7156     98.6941
  1223.0000     81.4695     19.0494     23.9465     44.6775     95.8198
  1223.2500     82.0330     19.2085     24.4520     48.5033     93.5208
  1223.5000     82.5728     19.3074     25.0284     55.2227     89.2413
  1223.7500     83.0056     19.3437     25.6011     65.3106     85.8736
  1224.0000     83.3068     19.3241     25.9723     77.8415     80.8578
  1224.2500     83.5072     19.2616     25.9042     89.7206     78.4869
  1224.5000     83.6547     19.1735     25.2917     96.1665     78.0839
  1224.7500     83.7800     19.0772     24.2611     93.1700     80.3501
  1225.0000     83.8973     18.9825     23.0871     80.5131     86.7326
  1225.2500     84.0207     18.8829     22.0354     62.4913     91.7371
  1225.5000     84.1664     18.7547     21.2765     45.4026     97.9491
  1225.7500     84.3436     18.5665     20.8805     34.2183    100.2027
  1226.0000     84.5572     18.2977     20.8358     31.0851    100.0137
  1226.2500     84.8164     17.9507     21.0589     35.5037     97.6337
  1226.5000     85.1231     17.5501     21.3961     44.6030     91.9630
  1226.7500     85.4512     17.1308     21.6511     53.5391     88.1813
  1227.0000     85.7448     16.7254     21.6568     57.3618     85.1926
  1227.2500     85.9439     16.3594     21.3600     53.9655     85.9844
  1227.5000     86.0190     16.0500     20.8394     45.4189     91.3189
  1227.7500     85.9859     15.8054     20.2361     36.0960     96.7107
  1228.0000     85.8908     15.6211     19.6637     29.4950    105.1597
