~Version Information
VERS.                      2.0: CWLS Log ASCII Standard - VERSION 2.0
WRAP.                       NO: One line per depth step
~Well Information Block
STRT.FT               -16.0000: 
STOP.FT              2454.2500: 
STEP.FT                 0.2500: 
NULL.                -999.2500: 
COMP.                         : COMPANY
WELL.                         : WELL
FLD.                          : FIELD
LOC.                          : LOCATION
CNTY.                         : COUNTY
SRVC.                         : SERVICE COMPANY
DATE.          Tue Aug 31 08:09:44 2004: LOG DATE
UWI.                          : UNIQUE WELL ID
STAT.                         : STATE
~Curve Information Block
DEPT.FT            0 000 00 00: Depth
GR.GAPI                       : Gamma Ray
CCL.                          : Casing Collar Locator
TT3.usec                      : CBL 3' Travel Time
AMP3.mV                       : CBL 3' Amplitude
~Parameter Information Block
~A  Depth        GR         CCL         TT3         AMP3    
# ...
   151.5000     50.9352      0.0000    313.8110     81.9938
   151.7500     52.2535      0.0000    313.6331     82.1251
   152.0000     53.2220      0.0000    313.4031     82.2392
   152.2500     53.3881      0.0000    313.2719     82.4028
   152.5000     52.6592      0.0000    313.3013     82.6717
   152.7500     51.3305      0.0000    313.4200     83.0415
   153.0000     49.7334      0.0000    313.5364     83.4138
   153.2500     47.8923      0.0000    313.5883     83.6983
   153.5000     45.6704      0.0000    313.5149     83.9094
   153.7500     43.1551      0.0000    313.3299     84.0841
   154.0000     40.8113      0.0000    313.1465     84.2069
   154.2500     39.3139      0.0000    313.0447     84.2591
   154.5000     39.2910      0.0000    313.0162     84.2445
   154.7500     41.1889      0.0000    313.0371     84.1864
   155.0000     45.2669      0.0000    313.1094     84.1305
   155.2500     51.3944      0.0000    313.2130     84.1105
   155.5000     58.5502      0.0000    313.2660     84.0989
   155.7500     64.7486      0.0000    313.2130     84.0262
   156.0000     68.1123      0.0000    313.1093     83.8769
   156.2500     68.4253      0.0000    313.0360     83.7324
   156.5000     67.4793      0.0000    313.0077     83.6752
   156.7500     67.6202      0.0000    313.0020     83.6917
   157.0000     69.8715      0.0000    313.0077     83.7320
   157.2500     73.4061      0.0000    313.0360     83.7889
   157.5000     76.5889      0.0000    313.1093     83.8182
   157.7500     78.3265      0.0000    313.2130     83.6714
   158.0000     78.3927      0.0000    313.2660     83.2785
   158.2500     76.9568      0.0000    313.2130     82.8567
   158.5000     74.5971      0.0000    313.1094     82.7256
   158.7500     72.6483      0.0000    313.0370     82.9289
   159.0000     72.4407      0.0000    313.0152     83.2573
   159.2500     73.8757      0.0000    313.0370     83.5588
   159.5000     75.5055      0.0000    313.1094     83.8021
   159.7500     76.1703      0.0000    313.2130     83.9507
   160.0000     75.9149      0.0000    313.2660     83.9620
   160.2500     75.1822      0.0000    313.2130     83.8623
   160.5000     73.7613      0.0000    313.1093     83.7019
   160.7500     71.0509      0.0000    313.0360     83.5217
   161.0000     67.1859      0.0000    313.0076     83.4108
   161.2500     63.3263      0.0000    313.0011     83.4651
   161.5000     60.6310      0.0000    313.0011     83.6604
   161.7500     59.3270      0.0000    313.0076     83.8663
   162.0000     59.0207      0.0000    313.0360     83.9918
   162.2500     59.6519      0.0000    313.1093     84.0496
   162.5000     61.7972      0.0000    313.2130     84.1059
   162.7500     66.1415      0.0000    313.2660     84.2131
   163.0000     72.7125      0.0000    313.2130     84.3691
   163.2500     80.3456      0.0000    313.1093     84.5368
   163.5000     86.8913      0.0000    313.0360     84.6746
   163.7500     90.5133      0.0000    313.0077     84.7303
   164.0000     91.1618      0.0000    313.0020     84.6822
   164.2500     90.4970      0.0000    313.0077     84.5928
   164.5000     90.0922      0.0000    313.0360     84.5528
   164.7500     89.8269      0.0000    313.1093     84.5804
   165.0000     88.0825      0.0000    313.2130     84.6112
   165.2500     83.4211      0.0000    313.2660     84.5847
   165.5000     76.0809      0.0000    313.2130     84.5222
   165.7500     67.8058      0.0000    313.1104     84.4868
   166.0000     60.4790      0.0000    313.0436     84.4834
   166.2500     55.3516      0.0000    313.0436     84.4513
   166.5000     53.2235      0.0000    313.1104     84.3664
   166.7500     54.4828      0.0000    313.2130     84.2808
   167.0000     58.8571      0.0000    313.2660     84.2299
   167.2500     65.5801      0.0000    313.2130     84.2013
   167.5000     73.7254      0.0000    313.1093     84.2019
   167.7500     82.0862      0.0000    313.0360     84.2619
   168.0000     89.1247      0.0000    313.0077     84.3761
   168.2500     93.7358      0.0000    313.0020     84.4820
   168.5000     96.0294      0.0000    313.0077     84.5223
   168.7500     96.8556      0.0000    313.0360     84.4741
   169.0000     96.5948      0.0000    313.1093     84.3335
   169.2500     94.9348      0.0000    313.2130     84.1861
   169.5000     91.9282      0.0000    313.2660     84.1895
   169.7500     88.7299      0.0000    313.2130     84.3673
   170.0000     86.8282      0.0000    313.1093     84.5654
   170.2500     86.6706      0.0000    313.0360     84.6656
   170.5000     87.4301      0.0000    313.0077     84.6877
   170.7500     88.0124      0.0000    313.0020     84.6992
   171.0000     87.8555      0.0000    313.0077     84.7426
   171.2500     86.9176      0.0000    313.0362     84.7875
   171.5000     85.4396      0.0000    313.1119     84.6847
   171.7500     83.7206      0.0000    313.2354     84.1497
   172.0000     81.8824      0.0000    313.3966     82.7041
   172.2500     79.9865      0.0000    313.7477     79.7379
   172.5000     78.3386      0.0000    314.6930     74.9538
   172.7500     77.3120      0.0000    316.5156     68.5565
   173.0000     76.8355      0.0000    318.8184     61.2584
   173.2500     76.3063      0.0000    320.6328     54.9996
   173.5000     75.0009      0.0000    321.3836     51.9026
   173.7500     72.5396      0.0000    321.4202     51.6370
   174.0000     69.1221      0.0000    321.3350     52.2387
   174.2500     65.3163     -5.0000    321.2950     52.6281
   174.5000     61.6204      5.0000    321.2265     52.7802
   174.7500     58.5040      0.0000    321.1594     52.8748
   175.0000     56.7672      0.0000    321.2039     52.8993
   175.2500     57.1948      0.0000    321.3563     52.7353
   175.5000     59.7552      0.0000    321.3339     52.9943
   175.7500     63.7537      0.0000    320.6276     55.4651
   176.0000     68.6791      0.0000    318.9710     61.2832
   176.2500     74.0729      0.0000    316.7682     69.0279
   176.5000     78.6040      0.0000    314.8055     76.0031
   176.7500     80.4330      0.0000    313.5566     80.5598
   177.0000     79.0112      0.0000    312.9593     82.7233
   177.2500     75.8749      0.0000    312.7649     83.4744
   177.5000     73.3288      0.0000    312.7907     83.7274
   177.7500     72.7946      0.0000    312.8908     83.8309
   178.0000     74.4274      0.0000    312.9629     83.8521
   178.2500     77.4918      0.0000    312.9838     83.9264
   178.5000     80.6622      0.0000    312.9553     84.1263
   178.7500     82.4696      0.0000    312.8535     84.3304
   179.0000     82.1201      0.0000    312.6701     84.4187
   179.2500     79.9973      0.0000    312.4851     84.4239
   179.5000     77.2756      0.0000    312.4117     84.4366
   179.7500     75.1449      0.0000    312.4647     84.4803
   180.0000     74.3205      0.0000    312.5886     84.5451
   180.2500     74.8606      0.0000    312.7423     84.6377
   180.5000     76.2099      0.0000    312.8734     84.7249
   180.7500     77.5965      0.0000    312.9193     84.7161
   181.0000     78.4530      0.0000    312.8470     84.5917
   181.2500     78.4243      0.0000    312.6767     84.4832
   181.5000     77.2840      0.0000    312.5210     84.5131
   181.7500     75.1455      0.0000    312.5211     84.6303
   182.0000     72.5597      0.0000    312.6777     84.6936
   182.2500     70.0554      0.0000    312.8547     84.6490
   182.5000     67.8061      0.0000    312.9564     84.5656
   182.7500     66.1047      0.0000    312.9914     84.4981
   183.0000     65.7387      0.0000    312.9989     84.4055
   183.2500     67.3167      0.0000    312.9999     84.2495
   183.5000     70.5269      0.0000    313.0000     84.0883
   183.7500     74.4094      0.0000    313.0000     84.0097
   184.0000     77.9762      0.0000    312.9999     84.0396
   184.2500     80.4547      0.0000    312.9990     84.1416
   184.5000     81.4764      0.0000    312.9924     84.2517
   184.7500     81.1874      0.0000    312.9640     84.3684
