~Version Information
 VERS.                                  2.0 : CWLS LAS VERSION
 WRAP.                                   NO : WRAPING MODE
 SWARE .                 MController 2.5.0J : SOFTWARE VERSION
~Well Information
 WELL.                    Oink-Oink 14-36Tr : WELL
 COMP.    Pioneer Natural Resources USA Inc : COMPANY
 FLD.                      Purgatoire River : FIELD
 LOC.                SW/SW Sec 36 T32S R67W : LOCATION
 DATE.                         6/09-10/2005 : DATE(S) LOGGED
 SRVC.       Blanco Geological Services LLC : SERVICE COMPANY
 STAT.                                   CO : STATE
 CNTY.                           Las Animas : COUNTY
 CTRY.                                  USA : COUNTRY
 API.                       05-071-08393-00 : API NUMBER
 STRT.FT                             231.00 : START DEPTH
 STOP.FT                            1924.00 : STOP DEPTH
 STEP.FT                               1.00 : DEPTH INCREMENT
 NULL.                                -9999 : NULL VALUE
~Curve information
 DEPTH.FT                                   :
 ROP.MIN/FT                                 :
 GAS.UNITS                                  :
~ASCII Log data
# ...
      1031.0         0.13          1.5 
      1032.0         0.23         -0.8 
      1033.0         0.17          6.4 
      1034.0         0.23          8.8 
      1035.0         0.22          6.7 
      1036.0         0.23          8.5 
      1037.0         0.20         10.9 
      1038.0         0.20         14.0 
      1039.0         0.17         13.6 
      1040.0         0.17          9.0 
      1041.0         0.20          4.7 
      1042.0         0.20          2.9 
      1043.0         0.23          3.1 
      1044.0         0.23          5.0 
      1045.0         0.17          6.3 
      1046.0         3.52        101.3 
      1047.0         0.37         61.4 
      1048.0         0.27         40.4 
      1049.0         0.20         28.2 
      1050.0         0.17         36.9 
      1051.0         0.28         71.3 
      1052.0         0.27        104.4 
      1053.0         0.23        140.8 
      1054.0         0.20        183.5 
      1055.0         0.17        219.2 
      1056.0         0.17        247.4 
      1057.0         0.20        273.4 
      1058.0         0.17        287.4 
      1059.0         0.17        295.0 
      1060.0         0.20        296.9 
      1061.0         0.20        292.3 
      1062.0         0.20        282.5 
      1063.0         0.20        271.7 
      1064.0         0.13        264.3 
      1065.0         0.07        260.8 
      1066.0         0.07        256.8 
      1067.0         0.07        253.4 
      1068.0         0.10        248.7 
      1069.0         0.07        245.6 
      1070.0         0.23        237.0 
      1071.0         0.15        230.4 
      1072.0         0.20        223.8 
      1073.0         0.17        218.6 
      1074.0         0.17        214.6 
      1075.0         0.17        210.0 
      1076.0         3.05         53.9 
      1077.0         0.43         28.3 
      1078.0         0.23         19.5 
      1079.0         0.30          9.0 
      1080.0         0.27          6.9 
      1081.0         0.30         21.1 
      1082.0         0.47         75.1 
      1083.0         0.23        131.5 
      1084.0         0.17        171.0 
      1085.0         0.17        202.7 
      1086.0         0.13        222.7 
      1087.0         0.15        238.6 
      1088.0         0.10        246.9 
      1089.0         0.10        253.1 
      1090.0         0.10        256.6 
      1091.0         0.20        256.4 
      1092.0         0.30        248.2 
      1093.0         0.27        241.6 
      1094.0         0.27        234.6 
      1095.0         0.33        216.1 
      1096.0         0.37        215.7 
      1097.0         0.30        233.0 
      1098.0         0.27        249.9 
      1099.0         0.27        262.3 
      1100.0         0.30        268.4 
      1101.0         0.25        267.6 
      1102.0         0.23        264.7 
      1103.0         0.20        261.5 
      1104.0         0.20        258.2 
      1105.0         0.20        254.2 
      1106.0         2.85         78.1 
      1107.0         0.30         50.3 
      1108.0         0.30         29.9 
      1109.0         0.30         15.0 
      1110.0         0.20          9.7 
      1111.0         0.13          5.7 
      1112.0         0.23          1.7 
      1113.0         0.23          1.7 
      1114.0         0.27          8.9 
      1115.0         0.27         40.1 
      1116.0         0.17         72.0 
      1117.0         0.17        104.0 
      1118.0         0.38        154.7 
      1119.0         0.50        219.8 
      1120.0         0.20        240.0 
      1121.0         0.33        254.4 
      1122.0         0.40        203.5 
      1123.0         0.47        147.6 
      1124.0         0.27        138.1 
      1125.0         0.23        139.4 
      1126.0         0.17        143.4 
      1127.0         0.17        146.8 
      1128.0         0.23        151.2 
      1129.0         0.23        151.4 
      1130.0         0.22        147.0 
      1131.0         0.23        139.8 
      1132.0         0.27        134.7 
      1133.0         0.47        158.8 
      1134.0         0.40        189.9 
      1135.0         0.23        205.6 
      1136.0         6.10       4450.4 
      1137.0         0.23       4954.2 
      1138.0         0.37       5412.5 
      1139.0         0.37       4069.9 
      1140.0         0.27       2772.1 
      1141.0         0.23       1986.3 
      1142.0         0.30       1410.5 
      1143.0         0.20       1160.2 
      1144.0         0.13       1043.1 
      1145.0         0.18        879.2 
      1146.0         0.33        638.4 
      1147.0         0.27        522.0 
      1148.0         0.20        481.7 
      1149.0         0.17        460.8 
      1150.0         0.23        484.3 
      1151.0         0.20        495.5 
      1152.0         0.27        477.1 
      1153.0         0.23        480.1 
      1154.0         0.20        479.1 
      1155.0         0.17        477.5 
      1156.0         0.20        490.6 
      1157.0         0.17        510.5 
      1158.0         0.20        475.2 
      1159.0         0.17        491.5 
      1160.0         0.10        484.3 
      1161.0         0.10        473.5 
      1162.0         0.22        462.4 
      1163.0         0.20        478.8 
      1164.0         0.17        498.4 
      1165.0         0.13        470.9 
      1166.0         3.98       2300.0 
      1167.0         0.40       3347.9 
      1168.0         0.17       3819.0 
      1169.0         0.23       4453.6 
      1170.0         0.23       4975.8 
      1171.0         0.23       4623.4 
      1172.0         0.17       3910.6 
      1173.0         0.27       2746.6 
      1174.0         0.30       1734.7 
      1175.0         0.22       1327.1 
      1176.0         0.23       1051.9 
      1177.0         0.20        886.4 
      1178.0         0.30        712.0 
      1179.0         0.17        643.0 
      1180.0         0.17        589.7 
      1181.0         0.20        556.0 
      1182.0         0.20        549.8 
      1183.0         0.17        558.3 
      1184.0         0.13        553.7 
      1185.0         0.20        542.9 
      1186.0         0.17        528.8 
      1187.0         0.23        524.6 
      1188.0         0.13        513.8 
      1189.0         0.17        501.0 
      1190.0         0.17        501.7 
      1191.0         0.20        503.6 
      1192.0         0.22        491.9 
      1193.0         0.23        487.6 
      1194.0         0.20        487.3 
      1195.0         0.23        503.3 
      1196.0         5.45       2553.2 
      1197.0         0.33       1649.3 
      1198.0         0.42       1290.8 
      1199.0         0.37       1163.2 
      1200.0         0.33       1017.6 
      1201.0         0.43        783.4 
      1202.0         0.33        622.4 
      1203.0         0.37        543.9 
      1204.0         0.53        597.2 
      1205.0         0.37        592.3 
      1206.0         0.30        545.5 
      1207.0         0.22        524.6 
      1208.0         0.13        493.5 
      1209.0         0.10        473.9 
      1210.0         0.10        482.4 
      1211.0         0.20        487.3 
      1212.0         0.20        444.4 
      1213.0         0.23        469.9 
      1214.0         0.27        440.0 
      1215.0         0.30        257.3 
      1216.0         0.23        266.9 
      1217.0         0.27        285.6 
      1218.0         0.23        302.6 
      1219.0         0.23        315.0 
      1220.0         0.20        324.7 
      1221.0         0.23        330.0 
      1222.0         0.22        321.4 
      1223.0         0.20        304.4 
      1224.0         0.23        284.7 
      1225.0         0.23        268.0 
      1226.0         5.12       4127.1 
      1227.0         0.27       4680.3 
      1228.0         0.23       4915.6 
      1229.0         0.17       4648.3 
      1230.0         0.25       3935.4 
