~Version Information
VERS.                      2.0: CWLS Log ASCII Standard - VERSION 2.0
WRAP.                       NO: One line per depth step
~Well Information Block
STRT.FT               965.2500: 
STOP.FT              2602.5000: 
STEP.FT                 0.2500: 
NULL.                -999.2500: 
COMP.          Petrogulf Corporation: COMPANY
WELL.             Valejo 8-12V: WELL
FLD.           Purgatorie River: FIELD
LOC.           1510' FNL & 1460' FWL: LOCATION
CNTY.               Las Animas: COUNTY
SRVC.                         : SERVICE COMPANY
DATE.          Fri Nov 14 05:32:33 2003: LOG DATE
UWI.                          : UNIQUE WELL ID
STAT.                 Colorado: STATE
~Curve Information Block
DEPT.FT            0 000 00 00: Depth
RILD.Ohm-m                    : DIL Deep Resistivity
RILM.Ohm-m                    : DIL Medium Resistivity
RLL3.Ohm-m                    : DIL Shallow Resistivity
SP.mV                         : DIL Spontaneous Potential
GR.GAPI                       : Gamma Ray
~Parameter Information Block
~A  Depth       RILD        RILM        RLL3         SP          GR     
# ...
  2253.2500     18.7364     22.7505     33.1974     -9.6989     58.3708
  2253.5000     19.0268     23.7215     35.5952     -9.5104     56.9521
  2253.7500     19.2783     24.5334     37.4410     -9.2527     56.0995
  2254.0000     19.5227     25.0722     38.5037     -8.9397     54.4237
  2254.2500     19.7861     25.3164     38.8087     -8.6030     52.9251
  2254.5000     20.0816     25.3632     38.6613     -8.2792     50.7484
  2254.7500     20.4166     25.3956     38.5110     -7.9961     49.9579
  2255.0000     20.8043     25.6131     38.7334     -7.7654     50.1797
  2255.2500     21.2623     26.1696     39.5120     -7.5890     50.8924
  2255.5000     21.7967     27.1486     40.9200     -7.4714     51.5379
  2255.7500     22.3829     28.5599     43.1145     -7.4284     50.9955
  2256.0000     22.9615     30.3358     46.3963     -7.4815     48.3260
  2256.2500     23.4550     32.3222     50.9658     -7.6430     45.7599
  2256.5000     23.7973     34.2898     56.4807     -7.9014     42.2478
  2256.7500     23.9604     35.9954     61.7854     -8.2159     40.7859
  2257.0000     23.9641     37.2725     65.2078     -8.5252     39.7797
  2257.2500     23.8639     38.0767     65.4386     -8.7664     39.3625
  2257.5000     23.7288     38.4501     62.3864     -8.8989     38.6859
  2257.7500     23.6216     38.4550     57.2315     -8.9198     38.5210
  2258.0000     23.5876     38.1454     51.6245     -8.8603     39.4299
  2258.2500     23.6498     37.5928     46.8096     -8.7657     40.7595
  2258.5000     23.8086     36.9118     43.3500     -8.6709     42.9034
  2258.7500     24.0433     36.2434     41.3358     -8.5874     43.8774
  2259.0000     24.3171     35.6982     40.5823     -8.5082     44.4374
  2259.2500     24.5839     35.3073     40.6655     -8.4182     44.4612
  2259.5000     24.8003     35.0217     41.0030     -8.2993     44.4570
  2259.7500     24.9429     34.7598     41.1045     -8.1316     44.5371
  2260.0000     25.0215     34.4686     40.8302     -7.9015     44.7448
  2260.2500     25.0754     34.1538     40.4182     -7.6135     44.8997
  2260.5000     25.1520     33.8629     40.2382     -7.2944     45.0754
  2260.7500     25.2809     33.6445     40.4665     -6.9841     45.0722
  2261.0000     25.4605     33.5174     40.9467     -6.7205     44.6837
  2261.2500     25.6617     33.4688     41.3442     -6.5269     44.0901
  2261.5000     25.8469     33.4700     41.4332     -6.4080     42.8383
  2261.7500     25.9909     33.4983     41.2256     -6.3516     42.1151
  2262.0000     26.0935     33.5471     40.8383     -6.3351     42.1692
  2262.2500     26.1737     33.6268     40.2975     -6.3347     43.4148
  2262.5000     26.2486     33.7607     39.5224     -6.3335     46.9077
  2262.7500     26.3059     33.9830     38.4959     -6.3243     49.6857
  2263.0000     26.2903     34.3345     37.4125     -6.3110     53.4819
  2263.2500     26.1129     34.8485     36.6191     -6.3052     55.4868
  2263.5000     25.6830     35.5184     36.3938     -6.3203     57.3134
  2263.7500     24.9451     36.2487     36.7900     -6.3631     57.3023
  2264.0000     23.8947     36.8045     37.6926     -6.4320     54.8266
  2264.2500     22.5744     36.8032     39.0015     -6.5229     51.7058
  2264.5000     21.0630     35.8096     40.7571     -6.6333     46.0908
  2264.7500     19.4634     33.5501     43.0793     -6.7577     42.6814
  2265.0000     17.8804     30.1303     45.8666     -6.8793     39.3036
  2265.2500     16.3957     26.0514     48.3615     -6.9709     38.4822
  2265.5000     15.0538     21.9596     49.0399     -7.0042     39.3939
  2265.7500     13.8675     18.3470     46.3322     -6.9639     41.6340
  2266.0000     12.8339     15.4316     39.9038     -6.8556     48.6747
  2266.2500     11.9447     13.2164     31.2849     -6.7048     56.6356
  2266.5000     11.1884     11.5983     23.0147     -6.5471     73.3284
  2266.7500     10.5478     10.4453     17.0419     -6.4149     86.1018
  2267.0000     10.0013      9.6326     13.8521     -6.3287    103.6922
  2267.2500      9.5282      9.0559     12.7800     -6.2966    112.4071
  2267.5000      9.1139      8.6353     12.7886     -6.3173    119.6724
  2267.7500      8.7530      8.3176     13.0267     -6.3799    120.9981
  2268.0000      8.4479      8.0745     13.0651     -6.4621    119.4306
  2268.2500      8.2063      7.8966     12.9084     -6.5344    117.3214
  2268.5000      8.0365      7.7836     12.8029     -6.5730    114.4244
  2268.7500      7.9428      7.7369     12.9501     -6.5712    113.0769
  2269.0000      7.9212      7.7534     13.3570     -6.5404    111.8019
  2269.2500      7.9596      7.8253     13.8991     -6.5027    111.4022
  2269.5000      8.0421      7.9421     14.4527     -6.4841    111.3947
  2269.7500      8.1575      8.0939     14.9422     -6.5065    111.4423
  2270.0000      8.3043      8.2758     15.3125     -6.5790    111.0183
  2270.2500      8.4873      8.4893     15.5211     -6.6906    110.6901
  2270.5000      8.7086      8.7410     15.5781     -6.8130    111.5385
  2270.7500      8.9621      9.0389     15.5804     -6.9161    113.4677
  2271.0000      9.2365      9.3881     15.6831     -6.9841    117.1617
  2271.2500      9.5248      9.7879     16.0267     -7.0224    118.4966
  2271.5000      9.8296     10.2308     16.6756     -7.0530    116.6891
  2271.7500     10.1604     10.7026     17.5866     -7.1026    113.1898
  2272.0000     10.5259     11.1856     18.6017     -7.1919    106.9497
  2272.2500     10.9284     11.6634     19.4844     -7.3296    103.5414
  2272.5000     11.3660     12.1296     20.0260     -7.5165    100.3297
  2272.7500     11.8351     12.5942     20.1847     -7.7553     99.0524
  2273.0000     12.3330     13.0859     20.1549     -8.0557     97.6208
  2273.2500     12.8593     13.6461     20.2790     -8.4261     96.9760
  2273.5000     13.4152     14.3201     20.8376     -8.8634     96.7787
  2273.7500     13.9993     15.1495     21.9218     -9.3523     96.9146
  2274.0000     14.6027     16.1650     23.5884     -9.8707     96.3631
  2274.2500     15.2046     17.3798     26.1952    -10.3903     95.0183
  2274.5000     15.7747     18.7804     30.5017    -10.8741     91.6176
  2274.7500     16.2823     20.3178     37.2410    -11.2840     88.6040
  2275.0000     16.7068     21.9045     46.3557    -11.5958     82.9563
  2275.2500     17.0482     23.4184     56.4185    -11.8113     78.5719
  2275.5000     17.3285     24.7234     64.7574    -11.9561     72.1396
  2275.7500     17.5824     25.6995     68.5581    -12.0626     68.8214
  2276.0000     17.8386     26.2754     66.5227    -12.1511     66.2949
  2276.2500     18.1042     26.4477     59.8292    -12.2183     66.3252
  2276.5000     18.3624     26.2715     51.3336    -12.2392     68.3955
  2276.7500     18.5831     25.8301     43.5984    -12.1795     70.5896
  2277.0000     18.7369     25.2082     37.5782    -12.0111     74.2673
  2277.2500     18.8067     24.4939     32.9634    -11.7238     76.7586
  2277.5000     18.7898     23.7965     29.3416    -11.3305     80.4649
  2277.7500     18.6956     23.2414     26.7933    -10.8648     82.7267
  2278.0000     18.5404     22.9251     25.5910    -10.3731     85.1795
  2278.2500     18.3440     22.8590     25.7082     -9.9028     85.9192
  2278.5000     18.1263     22.9488     26.7964     -9.4902     85.5649
  2278.7500     17.9038     23.0356     28.5008     -9.1521     84.3254
  2279.0000     17.6893     22.9887     30.5752     -8.8850     80.9311
  2279.2500     17.4989     22.7804     32.6762     -8.6727     77.8984
  2279.5000     17.3597     22.4771     34.2609     -8.4971     73.3308
  2279.7500     17.3076     22.1724     34.8411     -8.3467     71.0447
  2280.0000     17.3710     21.9366     34.2912     -8.2183     69.5705
  2280.2500     17.5535     21.8122     32.8693     -8.1140     70.1000
  2280.5000     17.8299     21.8307     31.0308     -8.0331     73.3543
  2280.7500     18.1572     22.0206     29.2854     -7.9669     77.0030
  2281.0000     18.4927     22.4011     28.1145     -7.9032     83.4188
