~Version Information
VERS.                      2.0: CWLS Log ASCII Standard - VERSION 2.0
WRAP.                       NO: One line per depth step
~Well Information Block
STRT.FT                -9.7500: 
STOP.FT              2158.2500: 
STEP.FT                 0.2500: 
NULL.                -999.2500: 
COMP.          Petrogulf Corporation: COMPANY
WELL.             State 16-41V: WELL
FLD.           Purgatoire River: FIELD
LOC.           335' FNL & 823' FEL--: LOCATION
PROV.                 Colorado: PROVINCE
CNTY.               Las Animas: COUNTRY
SRVC.                Patterson: SERVICE COMPANY
DATE.          Wed Aug 17 12:15:10 2005: LOG DATE
UWI.           05 071 08344 00: UNIQUE WELL ID
~Curve Information Block
DEPT.FT            0 000 00 00: Depth
CCL.                          : Casing Collar Locator
TT3.usec                      : CBL 3' Travel Time
AMP3.mV                       : CBL 3' Amplitude
GR.GAPI                       : Gamma Ray
~Parameter Information Block
~A  Depth       CCL         TT3         AMP3         GR     
# ...
   693.7500      0.0000    440.3784     24.3232    128.0021
   694.0000      0.0000    390.1054     26.9777    128.6557
   694.2500      0.0000    357.7266     30.0988    129.0438
   694.5000      0.0000    339.9764     33.5260    128.4446
   694.7500      0.0000    329.8843     37.0013    125.5004
   695.0000      0.0000    322.3807     40.1957    119.6448
   695.2500      0.0000    315.6558     42.8204    111.6407
   695.5000      0.0000    309.9841     44.7415    103.1252
   695.7500      0.0000    305.9680     45.9902     95.9216
   696.0000      0.0000    303.6201     46.6824     91.2310
   696.2500      0.0000    302.4637     46.9470     88.7643
   696.5000      0.0000    301.9688     46.8948     86.9258
   696.7500      0.0000    301.8098     46.5979     84.5532
   697.0000      0.0000    301.8754     46.0778     82.2391
   697.2500      0.0000    302.2104     45.3366     81.2785
   697.5000      0.0000    302.9765     44.4134     81.7680
   697.7500      0.0000    304.3552     43.4042     82.6069
   698.0000      0.0000    306.2768     42.4395     83.0462
   698.2500      0.0000    308.1423     41.6516     83.2461
   698.5000      0.0000    309.0318     41.1394     83.4108
   698.7500      0.0000    308.4557     40.9247     83.3644
   699.0000      0.0000    306.8332     40.9429     83.1908
   699.2500      0.0000    305.0656     41.1062     83.4820
   699.5000      0.0000    303.7596     41.3917     84.5226
   699.7500      0.0000    302.9370     41.8691     85.5903
   700.0000      0.0000    302.2125     42.6516     85.4908
   700.2500      0.0000    300.9428     43.8318     83.8415
   700.5000      0.0000    298.2766     45.4492     81.6001
   700.7500      0.0000    293.4732     47.4751     80.2013
   701.0000      0.0000    286.5778     49.8020     80.4066
   701.2500      0.0000    278.7953     52.2779     82.1347
   701.5000      0.0000    271.8975     54.7909     84.9281
   701.7500      0.0000    267.0736     57.3267     88.1338
   702.0000      0.0000    264.3776     59.9252     91.0623
   702.2500      0.0000    263.1339     62.5816     93.4687
   702.5000      0.0000    262.6203     65.1839     95.6788
   702.7500      0.0000    262.3995     67.5222     97.9051
   703.0000      0.0000    262.3015     69.3420     99.5956
   703.2500      0.0000    262.3420     70.3967     99.7001
   703.5000      0.0000    262.7496     70.4634     97.5583
   703.7500      0.0000    264.1297     69.3041     93.3790
   704.0000      0.0000    267.6010     66.6189     88.0223
   704.2500      0.0000    274.5656     62.1000     82.5519
   704.5000      0.0000    286.1772     55.6512     77.7387
   704.7500      0.0000    303.2406     47.6558     73.5978
   705.0000      0.0000    327.2886     39.0314     69.5693
   705.2500      0.0000    361.7124     30.9201     65.5144
   705.5000      0.0000    410.2485     24.1885     62.3658
   705.7500      0.0000    472.1829     19.1206     61.4809
   706.0000      2.0000    538.4675     15.5022     63.4614
   706.2500     -2.0000    594.3295     12.9201     67.7217
   706.5000      0.0000    628.3538     11.0044     72.9296
   706.7500      0.0000    640.6469      9.5285     77.7165
   707.0000      0.0000    641.8472      8.4117     81.3007
   707.2500      0.0000    643.0797      7.6480     83.7339
   707.5000      0.0000    646.9747      7.2072     85.5751
   707.7500      0.0000    648.5302      6.9919     87.2493
   708.0000      0.0000    642.6681      6.8817     88.7552
   708.2500      0.0000    629.2695      6.7978     90.1496
   708.5000      0.0000    612.3711      6.7221     92.2871
   708.7500      0.0000    596.8906      6.6683     96.5257
   709.0000      0.0000    586.3767      6.6468    103.0474
   709.2500      0.0000    582.3591      6.6504    109.5728
   709.5000      0.0000    584.5759      6.6624    112.5755
   709.7500      0.0000    591.3464      6.6690    110.3660
   710.0000      0.0000    600.0241      6.6641    104.7151
   710.2500      0.0000    607.9237      6.6477     99.0180
   710.5000      0.0000    613.4726      6.6235     95.0695
   710.7500      0.0000    616.6277      6.5974     92.0410
   711.0000      0.0000    618.3698      6.5774     88.3792
   711.2500      0.0000    620.0980      6.5691     83.9356
   711.5000      0.0000    623.5764      6.5695     79.9195
   711.7500      0.0000    630.9136      6.5653     77.3808
   712.0000      0.0000    643.5668      6.5422     76.4190
   712.2500      0.0000    660.5500      6.4969     76.5361
   712.5000      0.0000    677.9632      6.4397     76.9144
   712.7500      0.0000    691.3439      6.3850     76.4130
   713.0000      0.0000    698.7995      6.3405     74.2031
   713.2500      0.0000    701.5759      6.3041     70.7129
   713.5000      0.0000    702.0626      6.2686     67.3008
   713.7500      0.0000    701.9319      6.2283     64.7186
   714.0000      0.0000    701.8097      6.1825     62.4187
   714.2500      0.0000    701.7714      6.1337     59.5853
   714.5000      0.0000    701.7544      6.0870     56.2757
   714.7500      0.0000    701.6997      6.0537     53.1912
   715.0000      0.0000    701.5159      6.0522     50.8306
   715.2500      0.0000    700.9393      6.0981     49.4058
   715.5000      0.0000    699.3809      6.1885     49.3739
   715.7500      0.0000    696.0640      6.3001     51.5390
   716.0000      0.0000    690.7696      6.4046     56.5562
   716.2500      0.0000    684.6941      6.4847     64.4727
   716.5000      0.0000    680.0563      6.5406     74.6703
   716.7500      0.0000    678.2126      6.5842     86.0424
   717.0000      0.0000    678.3517      6.6255     97.2113
   717.2500      0.0000    678.4913      6.6646    106.8751
   717.5000      0.0000    677.4974      6.7005    114.3148
   717.7500      0.0000    675.8169      6.7438    119.6799
   718.0000      0.0000    674.7532      6.8070    123.6808
   718.2500      0.0000    675.7441      6.8842    126.7857
   718.5000      0.0000    680.1874      6.9490    128.6966
   718.7500      0.0000    688.6841      6.9789    128.7689
   719.0000      0.0000    699.2357      6.9756    126.9464
   719.2500      0.0000    706.5438      6.9653    124.2048
   719.5000      0.0000    705.0196      6.9830    122.0448
   719.7500      0.0000    693.8706      7.0532    121.4147
   720.0000      0.0000    678.6574      7.1772    121.9618
   720.2500      0.0000    666.9299      7.3386    122.3075
   720.5000      0.0000    662.4274      7.5175    121.1352
   720.7500      0.0000    663.5994      7.6940    118.1501
   721.0000      0.0000    666.7009      7.8437    114.2373
   721.2500      0.0000    669.2096      7.9430    110.8141
   721.5000      0.0000    670.6514      7.9836    108.8397
   721.7500      0.0000    671.6300      7.9758    108.2910
   722.0000      0.0000    672.9782      7.9416    108.5391
   722.2500      0.0000    675.6646      7.9091    109.0390
   722.5000      0.0000    680.8816      7.9063    109.5511
   722.7500      0.0000    689.4139      7.9522    109.8381
   723.0000      0.0000    700.3588      8.0474    109.3425
   723.2500      0.0000    710.5948      8.1768    107.4478
   723.5000      0.0000    716.2634      8.3220    104.3750
   723.7500      0.0000    715.2267      8.4709    101.7383
   724.0000      0.0000    708.2842      8.6187    101.5400
   724.2500      0.0000    698.4485      8.7647    104.1530
   724.5000      0.0000    689.1813      8.9119    107.6266
   724.7500      0.0000    682.7414      9.0650    109.4331
   725.0000      0.0000    679.5980      9.2250    108.8188
   725.2500      0.0000    679.1703      9.3845    107.1216
   725.5000      0.0000    680.9543      9.5310    105.9665
   725.7500      0.0000    684.9288      9.6555    105.7475
   726.0000      0.0000    691.1393      9.7573    106.0297
   726.2500      0.0000    699.1032      9.8378    106.7789
   726.5000      0.0000    707.5867      9.8934    108.4657
   726.7500      0.0000    715.0355      9.9150    111.1102
   727.0000      0.0000    720.5450      9.8940    113.9536
