~Version Information
VERS.                      2.0: CWLS Log ASCII Standard - VERSION 2.0
WRAP.                       NO: One line per depth step
~Well Information Block
STRT.FT                10.0000: 
STOP.FT              1066.5000: 
STEP.FT                 0.2500: 
NULL.                -999.2500: 
COMP.          Pioneer Natural Resources: COMPANY
WELL.            Redland 23-24: WELL
FLD.           Purgatoire River: FIELD
LOC.           2356' FSL & 1880' FWL----: LOCATION
PROV.                 Colorado: PROVINCE
CNTY.               Las Animas: COUNTRY
SRVC.                         : SERVICE COMPANY
DATE.          Thu Mar 24 10:01:02 2005: LOG DATE
UWI.           05 071 08221   : UNIQUE WELL ID
~Curve Information Block
DEPT.FT            0 000 00 00: Depth
CCL.                          : Casing Collar Locator
TT3.usec                      : CBL 3' Travel Time
AMP3.mV                       : CBL 3' Amplitude
AMP5.mV                       : CBL 5' Amplitude
GR.GAPI                       : Gamma Ray
~Parameter Information Block
~A  Depth       CCL         TT3         AMP3        AMP5         GR     
# ...
  1046.0000      0.0000    412.7154     12.1362      6.7415     85.2448
  1046.2500      0.0000    381.3138     12.6246      5.9580     87.9412
  1046.5000      0.0000    371.5959     12.9531      9.6140     93.4059
  1046.7500      0.0000    380.9319     13.0456      3.9560    100.1012
  1047.0000      0.0000    408.5092     12.9245      4.6523    105.5794
  1047.2500      0.0000    453.1857     12.6823      7.6119    107.9606
  1047.5000      0.0000    511.9845     12.3994      2.9114    107.1023
  1047.7500      0.0000    579.9329     12.1012      3.9560    104.5701
  1048.0000      0.0000    650.1343     11.7792      3.2596    102.4034
  1048.2500      0.0000    715.4372     11.4309      3.8689    101.5659
  1048.5000      0.0000    770.9050     11.0821      4.3041    101.4295
  1048.7500      0.0000    813.1509     10.7792      4.3041    100.8777
  1049.0000      0.0000    837.7083     10.5604      3.9560     99.8142
  1049.2500      0.0000    840.1268     10.4304      4.4782     99.4351
  1049.5000      0.0000    820.5297     10.3667      4.0430    101.1715
  1049.7500      0.0000    786.8337     10.3534      4.8264    105.4494
  1050.0000      0.0000    754.1862     10.3989      5.0005    111.0795
  1050.2500      0.0000    739.3774     10.5147      6.6544    115.6427
  1050.5000      0.0000    751.3594     10.6833      7.0896    116.9679
  1050.7500      0.0000    784.6616     10.8503      7.1767    114.7358
  1051.0000      0.0000    822.9523     10.9527      7.1767    110.5549
  1051.2500      0.0000    850.3452     10.9600      7.7860    106.3637
  1051.5000      0.0000    860.4045     10.8931      6.4803    102.8017
  1051.7500      0.0000    856.4354     10.8052      7.1767     98.6220
  1052.0000      0.0000    845.9100     10.7391      6.3062     91.1688
  1052.2500      0.0000    835.2317     10.6960      6.6544     78.0387
  1052.5000      0.0000    826.0681     10.6478      5.8710     59.4189
  1052.7500      0.0000    812.0535     10.5943      5.0876     38.9073
  1053.0000      0.0000    779.4532     10.6170      7.0896     21.3529
  1053.2500      0.0000    716.6021     10.8630      8.7435      9.6388
  1053.5000      0.0000    626.4496     11.4409      9.8751      3.5293
  1053.7500      0.0000    528.6094     12.2931      6.5674      1.0375
  1054.0000      0.0000    446.9970     13.1618      5.7839      0.2426
  1054.2500      0.0000    395.7219     13.7165      3.9560      0.0442
  1054.5000      0.0000    376.4052     13.7642      6.3062      0.0057
  1054.7500      0.0000    385.5322     13.3644     11.0938      0.0000
  1055.0000      0.0000    421.0410     12.7528     13.0959   -999.2500
  1055.2500      0.0000    481.4079     12.1677     14.6627   -999.2500
  1055.5000      0.0000    559.8441     11.7367     10.7456   -999.2500
  1055.7500      0.0000    641.6237     11.4768      7.9601   -999.2500
  1056.0000      0.0000    709.4375     11.3450      7.6990   -999.2500
  1056.2500      0.0000    751.9706     11.2830      8.3953   -999.2500
  1056.5000      0.0000    766.2098     11.2469      7.7860   -999.2500
  1056.7500      0.0000    752.1624     11.2144      7.8731   -999.2500
  1057.0000      0.0000    708.5369     11.1404      8.3953   -999.2500
  1057.2500      0.0000    634.8970     10.8665   -999.2500   -999.2500
  1057.5000      0.0000    535.6303     10.0889   -999.2500   -999.2500
  1057.7500      0.0000    419.8597      8.5123   -999.2500   -999.2500
  1058.0000      0.0000    299.5356      6.1431   -999.2500   -999.2500
  1058.2500      0.0000    189.0150      3.4322   -999.2500   -999.2500
  1058.5000      0.0000    102.2700      1.0380   -999.2500   -999.2500
  1058.7500      0.0000     46.1629     -0.6040   -999.2500   -999.2500
  1059.0000      0.0000     17.0215     -1.4806   -999.2500   -999.2500
  1059.2500      0.0000      5.0496     -1.8452   -999.2500   -999.2500
  1059.5000      0.0000      1.1900     -1.9634   -999.2500   -999.2500
  1059.7500      0.0000      0.2202     -1.9932   -999.2500   -999.2500
  1060.0000      0.0000      0.0293     -1.9991   -999.2500   -999.2500
  1060.2500      0.0000   -999.2500   -999.2500   -999.2500   -999.2500
  1060.5000      0.0000   -999.2500   -999.2500   -999.2500   -999.2500
  1060.7500      0.0000   -999.2500   -999.2500   -999.2500   -999.2500
  1061.0000      0.0000   -999.2500   -999.2500   -999.2500   -999.2500
  1061.2500      0.0000   -999.2500   -999.2500   -999.2500   -999.2500
  1061.5000      0.0000   -999.2500   -999.2500   -999.2500   -999.2500
  1061.7500      0.0000   -999.2500   -999.2500   -999.2500   -999.2500
  1062.0000      0.0000   -999.2500   -999.2500   -999.2500   -999.2500
  1062.2500      0.0000   -999.2500   -999.2500   -999.2500   -999.2500
  1062.5000      0.0000   -999.2500   -999.2500   -999.2500   -999.2500
  1062.7500      0.0000   -999.2500   -999.2500   -999.2500   -999.2500
  1063.0000      0.0000   -999.2500   -999.2500   -999.2500   -999.2500
  1063.2500      0.0000   -999.2500   -999.2500   -999.2500   -999.2500
  1063.5000      0.0000   -999.2500   -999.2500   -999.2500   -999.2500
  1063.7500      0.0000   -999.2500   -999.2500   -999.2500   -999.2500
  1064.0000      0.0000   -999.2500   -999.2500   -999.2500   -999.2500
  1064.2500      0.0000   -999.2500   -999.2500   -999.2500   -999.2500
  1064.5000      0.0000   -999.2500   -999.2500   -999.2500   -999.2500
  1064.7500      0.0000   -999.2500   -999.2500   -999.2500   -999.2500
  1065.0000      0.0000   -999.2500   -999.2500   -999.2500   -999.2500
  1065.2500      0.0000   -999.2500   -999.2500   -999.2500   -999.2500
  1065.5000      0.0000   -999.2500   -999.2500   -999.2500   -999.2500
  1065.7500      0.0000   -999.2500   -999.2500   -999.2500   -999.2500
  1066.0000   -999.2500   -999.2500   -999.2500   -999.2500   -999.2500
  1066.2500   -999.2500   -999.2500   -999.2500   -999.2500   -999.2500
  1066.5000   -999.2500   -999.2500   -999.2500   -999.2500   -999.2500
