~Version Information
VERS.                      2.0: CWLS Log ASCII Standard - VERSION 2.0
WRAP.                       NO: One line per depth step
~Well Information Block
STRT.FT               500.0000: 
STOP.FT              2760.5000: 
STEP.FT                 0.1000: 
NULL.                -999.2500: 
COMP.          Petrogulf Corporation: COMPANY
WELL.              Silva 1-43V: WELL
FLD.           Purgatorie River: FIELD
LOC.           2010' FSL & 614' FEL: LOCATION
PROV.                 Colorado: PROVINCE
CNTY.               Las Animas: COUNTRY
SRVC.                Patterson: SERVICE COMPANY
DATE.          Mon Aug 29 08:02:37 2005: LOG DATE
UWI.                          : UNIQUE WELL ID
~Curve Information Block
DEPT.FT            0 000 00 00: Depth
DCAL.in                       : CDL Caliper
RHOB.g/cc                     : CDL Bulk Density
RHOC.g/cc                     : CDL Density Correction
DPOR.pu                       : CDL Density Porosity
GR.GAPI                       : Gamma Ray
NPOR.pu                       : Neutron Porosity
~Parameter Information Block
~A  Depth       DCAL        RHOB        RHOC        DPOR         GR         NPOR    
# ...
  2448.8000      7.9377      2.6899      0.0467     -2.4186     50.7482     28.3505
  2448.9000      7.9377      2.6909      0.0821     -2.4795     50.8532     27.8959
  2449.0000      7.9376      2.6743      0.0706     -1.4727     52.2027     27.6925
  2449.1000      7.9376      2.6492      0.0450      0.0465     53.5174     27.4648
  2449.2000      7.9376      2.6302      0.0527      1.1975     53.6910     26.9847
  2449.3000      7.9351      2.6123      0.0654      2.2856     54.5652     26.3432
  2449.4000      7.9351      2.5867      0.0261      3.8337     57.9907     25.8307
  2449.5000      7.9131      2.5618      0.0110      5.3481     60.6260     25.7101
  2449.6000      7.9131      2.5419      0.0637      6.5528     60.9201     25.8041
  2449.7000      7.9131      2.5145      0.0577      8.2117     61.4865     25.8201
  2449.8000      7.8514      2.4717      0.0805     10.8086     64.5702     25.9349
  2449.9000      7.8514      2.4263      0.0622     13.5580     69.1062     26.1802
  2450.0000      7.8751      2.3983      0.0803     15.2575     71.9477     26.3759
  2450.1000      7.8751      2.3891      0.1095     15.8110     73.4449     26.6358
  2450.2000      7.8751      2.3899      0.1095     15.7641     76.2911     27.0310
  2450.3000      7.8131      2.4000      0.1153     15.1488     81.2478     27.6409
  2450.4000      7.8131      2.4179      0.0969     14.0657     87.4167     28.5857
  2450.5000      7.8408      2.4299      0.1265     13.3386     93.6003     29.4068
  2450.6000      7.8408      2.4291      0.0862     13.3892     97.7285     29.5211
  2450.7000      7.8408      2.4258      0.0939     13.5896     99.2215     29.2958
  2450.8000      8.0272      2.4271      0.0865     13.5077     99.7617     29.2620
  2450.9000      8.0272      2.4298      0.0925     13.3473    100.3154     29.3904
  2451.0000      8.1067      2.4290      0.0724     13.3935    101.9585     29.4725
  2451.1000      8.1067      2.4295      0.0301     13.3625    104.1764     29.4628
  2451.2000      8.1067      2.4423      0.0541     12.5863    105.7089     29.4715
  2451.3000      8.1069      2.4660      0.0643     11.1513    107.8472     29.4859
  2451.4000      8.1069      2.4871      0.0997      9.8744    108.6626     29.4444
  2451.5000      8.0982      2.4907      0.1024      9.6571    106.2241     29.2806
  2451.6000      8.0982      2.4744      0.0754     10.6440    106.5928     29.0409
  2451.7000      8.0982      2.4590      0.0157     11.5741    110.1584     29.0851
  2451.8000      8.0819      2.4665      0.0469     11.1209    108.9871     29.4681
  2451.9000      8.0819      2.4941      0.0761      9.4466    103.8530     29.6236
  2452.0000      8.0309      2.5281      0.0812      7.3878    101.9439     29.2087
  2452.1000      8.0309      2.5627      0.0878      5.2880    102.8004     28.5629
  2452.2000      8.0309      2.5960      0.1153      3.2700    102.3215     28.0957
  2452.3000      7.9955      2.6206      0.1566      1.7806    100.8182     27.8114
  2452.4000      7.9955      2.6312      0.1545      1.1403     99.7088     27.7019
  2452.5000      7.9914      2.6298      0.1432      1.2258    101.0492     27.8196
  2452.6000      7.9914      2.6176      0.1225      1.9621    104.8928     27.7391
  2452.7000      7.9914      2.5977      0.1053      3.1699    105.9066     27.2191
  2452.8000      8.0007      2.5776      0.0678      4.3860    100.5215     26.7051
  2452.9000      8.0007      2.5625      0.0602      5.3051     93.0658     26.4849
  2453.0000      7.9484      2.5568      0.0312      5.6487     89.1510     26.4341
  2453.1000      7.9484      2.5609      0.0554      5.4026     88.7861     26.2150
  2453.2000      7.9484      2.5631      0.0833      5.2687     90.0686     25.5541
  2453.3000      8.0102      2.5609      0.0656      5.4007     90.6125     24.6050
  2453.4000      8.0102      2.5634      0.0871      5.2464     89.1158     23.9461
  2453.5000      8.0271      2.5652      0.1174      5.1420     88.2087     23.9800
  2453.6000      8.0271      2.5529      0.0900      5.8844     90.8065     24.4879
  2453.7000      8.0271      2.5308      0.0833      7.2249     95.2252     24.9534
  2453.8000      8.0226      2.5176      0.0570      8.0253     97.9449     25.1333
  2453.9000      8.0226      2.5241      0.0769      7.6285     98.3463     25.1936
  2454.0000      8.0026      2.5373      0.1037      6.8303     96.1243     25.3905
  2454.1000      8.0026      2.5372      0.0945      6.8377     92.9809     25.6950
  2454.2000      8.0026      2.5263      0.0502      7.4954     91.2518     25.9149
  2454.3000      8.0187      2.5211      0.0613      7.8146     91.4230     25.9377
  2454.4000      8.0187      2.5211      0.1065      7.8118     94.8961     25.6578
  2454.5000      8.0137      2.5168      0.0768      8.0722    100.6606     25.1858
  2454.6000      8.0137      2.5102      0.0716      8.4711    104.9711     24.6659
  2454.7000      8.0137      2.5057      0.0938      8.7482    105.3623     24.4049
  2454.8000      7.9855      2.5020      0.0935      8.9667    101.2651     24.9211
  2454.9000      7.9855      2.5014      0.0853      9.0078     96.0840     26.1061
  2455.0000      7.9827      2.5024      0.0913      8.9425     95.9268     27.2405
  2455.1000      7.9827      2.5046      0.0698      8.8092    101.5501     27.8087
  2455.2000      7.9827      2.5138      0.0698      8.2559    106.1681     27.8099
  2455.3000      8.0019      2.5248      0.0885      7.5877    104.5194     27.6137
  2455.4000      8.0019      2.5242      0.0799      7.6248     98.8539     27.4310
  2455.5000      8.0209      2.5143      0.0486      8.2215     93.6943     27.0453
  2455.6000      8.0209      2.5041      0.0909      8.8444     91.5293     26.3875
  2455.7000      8.0209      2.4796      0.0975     10.3274     91.9226     25.9493
  2455.8000      8.0163      2.4246      0.0409     13.6603     92.3280     26.0115
  2455.9000      8.0163      2.3449      0.0164     18.4901     91.5038     26.2596
  2456.0000      7.9908      2.2543      0.0150     23.9829     90.5126     26.7355
  2456.1000      7.9908      2.1699     -0.0281     29.0942     89.6513     27.6558
  2456.2000      7.9908      2.1083     -0.0708     32.8312     87.8338     28.4929
  2456.3000      8.0390      2.0587     -0.0441     35.8335     84.9443     28.8348
  2456.4000      8.0390      1.9904     -0.0090     39.9745     82.8365     28.8763
  2456.5000      8.0955      1.9050     -0.0524     45.1498     82.8011     28.8348
  2456.6000      8.0955      1.8401     -0.0212     49.0840     82.3522     29.0879
  2456.7000      8.0955      1.8114     -0.0002     50.8264     81.4626     29.8214
  2456.8000      8.1442      1.8057      0.0124     51.1691     81.3432     30.6210
  2456.9000      8.1442      1.8229     -0.0032     50.1288     80.8436     31.1450
  2457.0000      8.3687      1.8809      0.0473     46.6112     82.3027     31.4761
  2457.1000      8.3687      1.9824      0.1166     40.4625     87.4622     31.8199
  2457.2000      8.3687      2.1009      0.1043     33.2806     93.0757     32.2719
  2457.3000      8.4586      2.2014      0.1120     27.1870     94.2623     32.7062
  2457.4000      8.4586      2.2671      0.1501     23.2083     89.3115     32.8317
  2457.5000      8.3923      2.3109      0.0982     20.5501     82.9461     32.6627
  2457.6000      8.3923      2.3549      0.1313     17.8830     81.9668     32.5566
  2457.7000      8.3923      2.4027      0.0897     14.9889     87.1439     32.5578
  2457.8000      8.1479      2.4459      0.0688     12.3712     91.6134     32.2653
  2457.9000      8.1479      2.4752      0.0808     10.5917     92.1176     31.5019
  2458.0000      8.1000      2.4872      0.0818      9.8688     93.5290     30.5865
  2458.1000      8.1000      2.4900      0.0749      9.6956     97.0480     29.8911
  2458.2000      8.1000      2.4968      0.0702      9.2820     98.9072     29.5806
  2458.3000      8.0516      2.5132      0.0462      8.2924     98.6881     29.5179
