~Version Information
VERS.                      2.0: CWLS Log ASCII Standard - VERSION 2.0
WRAP.                       NO: One line per depth step
~Well Information Block
STRT.FT               472.0000: 
STOP.FT              2641.5000: 
STEP.FT                 0.1000: 
NULL.                -999.2500: 
COMP.          Pioneer Natural Resources: COMPANY
WELL.              Wagner 13-9: WELL
FLD.           Purgatoire River: FIELD
LOC.           1819' FSL & 1111' FWL: LOCATION
PROV.                 Colorado: PROVINCE
CNTY.               Las Animas: COUNTRY
SRVC.                Patterson: SERVICE COMPANY
DATE.          Tue Apr 19 08:56:38 2005: LOG DATE
UWI.           05 071 08302 00: UNIQUE WELL ID
~Curve Information Block
DEPT.FT            0 000 00 00: Depth
DCAL.in                       : CDL Caliper
RHOB.g/cc                     : CDL Bulk Density
RHOC.g/cc                     : CDL Density Correction
DPOR.pu                       : CDL Density Porosity
GR.GAPI                       : Gamma Ray
NPOR.pu                       : Neutron Porosity
~Parameter Information Block
~A  Depth       DCAL        RHOB        RHOC        DPOR         GR         NPOR    
# ...
  1624.0000      7.9866      2.4617      0.0424     11.4135     51.4618     16.8624
  1624.1000      7.9866      2.4499      0.0459     12.1300     52.5164     17.1205
  1624.2000      7.9866      2.4425      0.0539     12.5763     51.8854     17.2673
  1624.3000      7.9858      2.4468      0.0670     12.3178     49.3725     16.7554
  1624.4000      7.9858      2.4625      0.0493     11.3666     47.2534     15.7307
  1624.5000      7.9858      2.4840      0.0749     10.0603     45.1642     15.0978
  1624.6000      7.9858      2.5022      0.0785      8.9571     39.9387     15.0227
  1624.7000      7.9858      2.5121      0.0726      8.3579     35.2382     15.0274
  1624.8000      7.9863      2.5154      0.1107      8.1578     37.3724     15.1341
  1624.9000      7.9863      2.5120      0.0921      8.3655     43.0747     15.6695
  1625.0000      7.9866      2.5010      0.0606      9.0322     45.3308     16.2978
  1625.1000      7.9866      2.4886      0.0381      9.7803     44.6861     16.1536
  1625.2000      7.9866      2.4830      0.0650     10.1206     44.1264     15.1482
  1625.3000      7.9864      2.4831      0.0674     10.1154     43.0508     13.8977
  1625.4000      7.9864      2.4848      0.0740     10.0102     40.0752     13.1109
  1625.5000      7.9868      2.4891      0.0657      9.7542     38.4115     13.2131
  1625.6000      7.9868      2.4925      0.0908      9.5437     41.6271     13.7569
  1625.7000      7.9868      2.4853      0.0328      9.9805     47.1907     14.1112
  1625.8000      7.9870      2.4713      0.0260     10.8316     49.7769     14.3961
  1625.9000      7.9870      2.4685     -0.0046     10.9983     48.7071     15.0694
  1626.0000      7.9869      2.4788      0.0676     10.3785     48.3575     15.9980
  1626.1000      7.9869      2.4840      0.0594     10.0596     50.7247     16.6332
  1626.2000      7.9869      2.4831      0.0386     10.1170     53.4448     16.9128
  1626.3000      7.9868      2.4954      0.0323      9.3675     53.9042     16.9972
  1626.4000      7.9868      2.5299      0.0725      7.2766     52.5304     17.0040
  1626.5000      7.9843      2.5683      0.1095      4.9509     51.9943     17.2752
  1626.6000      7.9843      2.5834      0.1003      4.0347     52.6925     17.8392
  1626.7000      7.9843      2.5700      0.0658      4.8492     52.5909     18.0527
  1626.8000      7.9818      2.5440      0.0845      6.4266     51.5351     17.7892
  1626.9000      7.9818      2.5222      0.0612      7.7478     53.4133     17.5922
  1627.0000      7.9836      2.5114      0.0571      8.3990     58.7623     17.5756
  1627.1000      7.9836      2.5119      0.0118      8.3718     61.2114     17.4292
  1627.2000      7.9836      2.5237      0.0087      7.6559     58.3156     17.0603
  1627.3000      7.9855      2.5369      0.0366      6.8531     56.7523     16.8338
  1627.4000      7.9855      2.5383      0.0268      6.7691     59.6715     16.9960
  1627.5000      7.9852      2.5296      0.0388      7.2955     61.3512     17.0260
  1627.6000      7.9852      2.5211     -0.0018      7.8105     59.7718     16.6862
  1627.7000      7.9852      2.5244      0.0112      7.6108     58.7763     16.7103
  1627.8000      7.9845      2.5407      0.0547      6.6246     59.4608     17.6337
  1627.9000      7.9845      2.5565      0.0156      5.6686     60.5333     18.6032
  1628.0000      7.9851      2.5611      0.0442      5.3849     64.9440     18.5562
  1628.1000      7.9851      2.5566      0.0540      5.6616     75.6385     18.3422
  1628.2000      7.9851      2.5612      0.0293      5.3846     87.1509     19.3949
  1628.3000      7.9860      2.5864      0.0753      3.8518     92.2988     21.5457
  1628.4000      7.9860      2.6127      0.0873      2.2578     93.0227     23.1575
  1628.5000      7.9860      2.6172      0.0232      1.9853     96.8625     23.4646
  1628.6000      7.9860      2.6015      0.0407      2.9372    106.6452     23.1664
  1628.7000      7.9860      2.5801      0.0224      4.2382    119.3998     22.8735
  1628.8000      7.9852      2.5710      0.0319      4.7890    130.7688     23.0270
  1628.9000      7.9852      2.5848      0.0188      3.9515    139.0191     23.7846
  1629.0000      7.9847      2.6098      0.0697      2.4354    141.4886     24.4605
  1629.1000      7.9847      2.6242      0.0697      1.5613    134.0074     24.8707
  1629.2000      7.9847      2.6252      0.0515      1.5025    122.5056     25.2529
  1629.3000      7.9845      2.6231      0.1032      1.6284    118.4971     25.0489
  1629.4000      7.9845      2.6235      0.0724      1.6051    124.8507     24.1764
  1629.5000      7.9846      2.6341      0.0671      0.9658    135.8877     23.6081
  1629.6000      7.9846      2.6586      0.0915     -0.5195    141.5808     24.0098
  1629.7000      7.9846      2.6782      0.1267     -1.7076    134.2850     25.0300
  1629.8000      7.9850      2.6692      0.0692     -1.1648    121.5644     25.7086
  1629.9000      7.9850      2.6375      0.0512      0.7598    117.5964     25.4816
  1630.0000      7.9849      2.6072      0.0373      2.5917    120.8551     24.3703
  1630.1000      7.9849      2.5907      0.0392      3.5915    121.6732     22.7710
  1630.2000      7.9849      2.5888      0.0083      3.7096    119.9998     21.4973
  1630.3000      7.9849      2.6022      0.0242      2.8989    117.2667     21.0168
  1630.4000      7.9849      2.6172      0.1069      1.9886    110.5151     20.5966
  1630.5000      7.9855      2.6152      0.0568      2.1094    101.2675     19.6582
  1630.6000      7.9855      2.6013      0.0499      2.9498     93.6546     18.8328
  1630.7000      7.9855      2.5876      0.0152      3.7830     88.2621     18.4095
  1630.8000      7.9858      2.5771      0.0197      4.4162     86.8143     17.7186
  1630.9000      7.9858      2.5722     -0.0046      4.7179     89.6280     16.6515
  1631.0000      7.9853      2.5683      0.0280      4.9488     91.5546     16.2141
  1631.1000      7.9853      2.5574      0.0037      5.6116     91.1233     16.6167
  1631.2000      7.9853      2.5431     -0.0002      6.4814     88.3338     16.7088
  1631.3000      7.9850      2.5339     -0.0226      7.0368     83.1774     16.1828
  1631.4000      7.9850      2.5369     -0.0065      6.8541     79.7606     15.9487
  1631.5000      7.9852      2.5552      0.0090      5.7471     78.3200     15.9203
  1631.6000      7.9852      2.5763      0.0527      4.4664     76.0850     15.3297
  1631.7000      7.9852      2.5842      0.0443      3.9886     73.7782     14.6353
  1631.8000      7.9853      2.5817      0.0387      4.1374     72.9626     14.5220
  1631.9000      7.9853      2.5785      0.0371      4.3306     73.6761     14.7834
  1632.0000      7.9852      2.5714      0.0516      4.7644     75.3954     15.1426
  1632.1000      7.9852      2.5516      0.0350      5.9638     76.1275     15.7828
  1632.2000      7.9852      2.5272     -0.0003      7.4403     75.8494     16.3615
  1632.3000      7.9857      2.5203      0.0397      7.8630     77.9058     16.0149
  1632.4000      7.9857      2.5350      0.0122      6.9722     79.8703     15.1418
  1632.5000      7.9864      2.5465      0.0949      6.2721     75.8230     15.0437
  1632.6000      7.9864      2.5395      0.0176      6.6990     70.6848     16.0494
  1632.7000      7.9864      2.5364      0.0263      6.8848     71.5890     17.1315
  1632.8000      7.9864      2.5537      0.0002      5.8390     74.0055     17.2137
  1632.9000      7.9864      2.5711      0.0809      4.7840     71.0815     16.6988
  1633.0000      7.9859      2.5709      0.0378      4.7911     64.5681     16.5965
  1633.1000      7.9859      2.5662      0.0340      5.0762     59.7337     16.9614
  1633.2000      7.9859      2.5692      0.0570      4.8964     59.4214     17.0101
  1633.3000      7.9855      2.5783      0.0365      4.3478     64.4474     16.6838
  1633.4000      7.9855      2.5950      0.0517      3.3334     69.7148     16.5932
  1633.5000      7.9846      2.6119      0.1197      2.3114     68.7878     16.7944
