~Version Information
VERS.                      2.0: CWLS Log ASCII Standard - VERSION 2.0
WRAP.                       NO: One line per depth step
~Well Information Block
STRT.FT               390.0000: 
STOP.FT              2768.7000: 
STEP.FT                 0.1000: 
NULL.                -999.2500: 
COMP.          Pioneer Natural Resources: COMPANY
WELL.              Lynch 43-30: WELL
FLD.           Purgatoire River: FIELD
LOC.           1438' FSL & 429' FEL: LOCATION
PROV.                 Colorado: PROVINCE
CNTY.               Las Animas: COUNTRY
SRVC.                Patterson: SERVICE COMPANY
DATE.          Wed Oct 27 08:22:00 2004: LOG DATE
UWI.           05 071 08170 00: UNIQUE WELL ID
~Curve Information Block
DEPT.FT            0 000 00 00: Depth
DCAL.in                       : CDL Caliper
DPOR.pu                       : CDL Density Porosity
NPOR.pu                       : Neutron Porosity
RHOB.g/cc                     : CDL Bulk Density
RHOC.g/cc                     : CDL Density Correction
GR.GAPI                       : Gamma Ray
~Parameter Information Block
~A  Depth       DCAL        DPOR        NPOR        RHOB        RHOC         GR     
# ...
  1964.4000      7.8801      5.1170     24.1191      2.5656      0.0981    124.5846
  1964.5000      7.8771      5.5226     23.8575      2.5589      0.1058    122.7221
  1964.6000      7.8771      5.7922     23.3441      2.5544      0.0571    123.7339
  1964.7000      7.8771      5.5755     23.2240      2.5580      0.0928    124.9228
  1964.8000      7.8560      5.9220     23.8557      2.5523      0.1121    128.6235
  1964.9000      7.8560      7.3005     24.6748      2.5295      0.0863    135.2202
  1965.0000      7.8545      8.6172     25.1944      2.5078      0.0018    139.1905
  1965.1000      7.8545      9.1930     25.5764      2.4983      0.0183    137.9368
  1965.2000      7.8545      9.4743     25.8475      2.4937      0.0284    136.1220
  1965.3000      7.8223      9.8093     25.7968      2.4881      0.0121    137.5045
  1965.4000      7.8223      9.9898     25.7745      2.4852      0.0215    137.9761
  1965.5000      7.8545      9.7599     26.2047      2.4890      0.0352    137.1401
  1965.6000      7.8545      8.9596     26.9936      2.5022      0.0565    144.9021
  1965.7000      7.8545      7.8289     27.4783      2.5208      0.1092    160.0855
  1965.8000      7.8560      7.0641     27.1607      2.5334      0.0730    167.4253
  1965.9000      7.8560      7.0960     26.5565      2.5329      0.1339    165.0852
  1966.0000      7.8772      8.2114     26.4126      2.5145      0.0912    161.3594
  1966.1000      7.8772     10.4168     26.4601      2.4781      0.0637    157.3266
  1966.2000      7.8772     12.4794     26.0140      2.4441     -0.0271    153.2314
  1966.3000      7.8811     12.3185     25.3261      2.4467      0.0137    149.7128
  1966.4000      7.8811      9.4332     24.6316      2.4944      0.0462    145.0987
  1966.5000      7.8724      5.8405     23.8985      2.5536      0.1036    140.0256
  1966.6000      7.8724      3.8479     23.4624      2.5865      0.0948    134.7884
  1966.7000      7.8724      3.5086     22.9167      2.5921      0.0446    127.1638
  1966.8000      7.8183      3.4126     21.7769      2.5937      0.0607    116.1697
  1966.9000      7.8183      3.1362     20.6617      2.5983      0.1136    104.9601
  1967.0000      7.8922      3.1394     20.0633      2.5982      0.1030     98.1868
  1967.1000      7.8922      2.9572     19.9032      2.6012      0.0193     98.4705
  1967.2000      7.8922      2.0008     19.8326      2.6170      0.0986    101.0413
  1967.3000      7.8582      1.2996     19.6891      2.6286      0.0328     98.0406
  1967.4000      7.8582      1.9782     19.6491      2.6174      0.0374     92.5259
  1967.5000      7.8509      3.8689     19.6251      2.5862      0.0174     92.8451
  1967.6000      7.8509      5.8495     19.4683      2.5535     -0.0095     96.5883
  1967.7000      7.8509      6.9915     19.2921      2.5346     -0.0265     96.7287
  1967.8000      7.8503      7.2029     19.4231      2.5312     -0.0069     93.7567
  1967.9000      7.8503      6.6797     20.1593      2.5398     -0.0346     92.0363
  1968.0000      7.8536      5.8957     21.0827      2.5527      0.0416     94.0553
  1968.1000      7.8536      5.6292     21.3576      2.5571      0.0429    101.8965
  1968.2000      7.8536      5.8760     21.1784      2.5530      0.0300    114.6089
  1968.3000      7.8509      6.2083     21.4545      2.5476      0.0409    125.1371
  1968.4000      7.8509      6.4838     22.2618      2.5430      0.0343    126.5257
  1968.5000      7.8490      6.3370     22.7640      2.5454      0.0428    123.2442
  1968.6000      7.8490      5.5760     22.6216      2.5580      0.0579    122.2545
  1968.7000      7.8490      4.7492     22.5038      2.5716      0.0657    121.8981
  1968.8000      7.8548      4.8159     22.7266      2.5705      0.0948    120.3654
  1968.9000      7.8548      5.7727     22.7069      2.5547      0.0252    118.2758
  1969.0000      7.8253      6.1848     22.1971      2.5480      0.0527    118.2042
  1969.1000      7.8253      5.2150     21.8029      2.5640      0.0827    123.2175
  1969.2000      7.8253      3.6082     21.9505      2.5905      0.1054    131.3128
  1969.3000      7.8320      2.7027     22.2228      2.6054      0.1151    133.8497
  1969.4000      7.8320      3.1715     22.0648      2.5977      0.0581    125.2781
  1969.5000      7.8245      4.1067     21.5825      2.5822      0.0549    111.8451
  1969.6000      7.8245      4.1091     21.4372      2.5822      0.0160    102.5991
  1969.7000      7.8245      3.3404     21.9282      2.5949      0.1161     98.4588
  1969.8000      7.8249      2.6325     22.3128      2.6066      0.0578     97.0321
  1969.9000      7.8249      1.6741     21.9170      2.6224      0.0855     96.9095
  1970.0000      7.8139      0.7568     21.3762      2.6375      0.1084     97.4420
  1970.1000      7.8139      1.3797     21.3730      2.6272      0.1032    101.5128
  1970.2000      7.8139      3.5979     21.5470      2.5906      0.0418    111.4779
  1970.3000      7.7969      5.5088     21.3468      2.5591      0.0135    119.7976
  1970.4000      7.7969      6.2606     21.1525      2.5467      0.0532    118.9502
  1970.5000      7.8375      6.6233     21.4834      2.5407      0.0176    112.1843
  1970.6000      7.8375      6.7431     21.8551      2.5387     -0.0020    107.9744
  1970.7000      7.8375      6.3764     21.9105      2.5448      0.0289    112.6567
  1970.8000      7.8708      5.9753     21.9216      2.5514      0.0154    124.4345
  1970.9000      7.8708      6.2641     21.9216      2.5466      0.0383    133.5666
  1971.0000      7.8575      7.4564     21.7606      2.5270      0.0147    133.3497
  1971.1000      7.8575      8.9127     21.5717      2.5029     -0.0580    124.6885
  1971.2000      7.8575     10.1767     21.3111      2.4821     -0.0191    113.9137
  1971.3000      7.8732     11.1000     20.8706      2.4668     -0.0263    109.9948
  1971.4000      7.8732     10.9764     20.5175      2.4689     -0.0206    112.6267
  1971.5000      7.8613      9.7887     20.6060      2.4885      0.0175    113.1231
  1971.6000      7.8613      8.8171     21.3613      2.5045      0.0294    108.7654
  1971.7000      7.8613      8.5983     22.1308      2.5081     -0.0014    102.9319
  1971.8000      7.8425      8.3206     22.0356      2.5127      0.0496     98.0746
  1971.9000      7.8425      7.5326     21.3950      2.5257      0.0734     97.3917
  1972.0000      7.8333      6.4118     20.7335      2.5442      0.0857    102.6415
  1972.1000      7.8333      5.4385     20.4360      2.5603      0.1278    110.4051
  1972.2000      7.8333      5.2341     20.8122      2.5636      0.0908    115.1340
  1972.3000      7.8235      5.8109     21.6221      2.5541      0.0968    115.8886
  1972.4000      7.8235      6.6122     22.3946      2.5409      0.0748    117.4809
  1972.5000      7.8319      6.9030     22.8517      2.5361      0.0415    120.8150
  1972.6000      7.8319      6.6652     23.2437      2.5400      0.0956    121.5921
  1972.7000      7.8319      6.4109     23.7397      2.5442      0.0691    118.4018
  1972.8000      7.8825      6.1530     23.8912      2.5485      0.0651    117.5908
  1972.9000      7.8825      6.2036     23.2985      2.5476      0.0807    121.8623
  1973.0000      7.9449      6.8924     22.4785      2.5363      0.0422    122.8252
  1973.1000      7.9449      7.4438     22.1348      2.5272      0.0349    116.7461
  1973.2000      7.9449      7.2554     22.1623      2.5303      0.0674    111.8865
  1973.3000      7.9868      6.5193     22.3520      2.5424      0.0199    113.4236
  1973.4000      7.9868      5.6976     22.6897      2.5560      0.0659    115.9065
  1973.5000      7.9870      5.5348     22.7388      2.5587      0.0490    118.8088
  1973.6000      7.9870      6.4069     22.1747      2.5443      0.0549    126.5655
  1973.7000      7.9870      7.8812     21.6484      2.5200      0.0307    136.7493
  1973.8000      7.9819      8.8527     21.8315      2.5039      0.0321    141.3892
  1973.9000      7.9819      8.1865     22.4028      2.5149      0.0402    136.3438
