~Version Information
VERS.                      2.0: CWLS Log ASCII Standard - VERSION 2.0
WRAP.                       NO: One line per depth step
~Well Information Block
STRT.FT               582.2500: 
STOP.FT              2642.5000: 
STEP.FT                 0.2500: 
NULL.                -999.2500: 
COMP.          Petrogulf Corporation: COMPANY
WELL.           Montoya 12-41V: WELL
FLD.           Purgatorie River: FIELD
LOC.           1081' FNL & 605' FEL: LOCATION
CNTY.               Las Animas: COUNTY
SRVC.                         : SERVICE COMPANY
DATE.          Tue Aug 10 10:59:28 2004: LOG DATE
UWI.           05 071 08094 00: UNIQUE WELL ID
STAT.                 Colorado: STATE
~Curve Information Block
DEPT.FT            0 000 00 00: Depth
SP.mV                         : DIL Spontaneous Potential
RILD.Ohm-m                    : DIL Deep Resistivity
RILM.Ohm-m                    : DIL Medium Resistivity
RLL3.Ohm-m                    : DIL Shallow Resistivity
GR.GAPI                       : Gamma Ray
~Parameter Information Block
~A  Depth        SP         RILD        RILM        RLL3         GR     
# ...
  1002.2500    -71.4437     16.8171     20.3836     26.4837    142.3980
  1002.5000    -70.2884     17.1351     21.4783     29.4786    136.8395
  1002.7500    -69.0497     17.6569     22.7642     32.5638    134.6712
  1003.0000    -67.9619     18.3781     24.2255     35.5107    134.4593
  1003.2500    -67.1762     19.2837     25.8356     38.2339    135.4650
  1003.5000    -66.7242     20.3504     27.5561     40.7800    136.0459
  1003.7500    -66.5308     21.5456     29.3419     43.2275    134.6482
  1004.0000    -66.4617     22.8240     31.1498     45.5606    129.9580
  1004.2500    -66.3819     24.1293     32.9509     47.6111    126.3358
  1004.5000    -66.1946     25.4017     34.7415     49.1279    122.6002
  1004.7500    -65.8507     26.5930     36.5503     49.9489    121.8661
  1005.0000    -65.3418     27.6735     38.4354     50.1773    122.9112
  1005.2500    -64.6809     28.6258     40.4741     50.2470    124.3532
  1005.5000    -63.8819     29.4278     42.7469     50.8265    126.2374
  1005.7500    -62.9497     30.0476     45.3148     52.6002    126.3768
  1006.0000    -61.8830     30.4609     48.2039     56.0285    123.7257
  1006.2500    -60.6882     30.6879     51.3809     61.1827    120.0538
  1006.5000    -59.4021     30.8102     54.7382     67.6993    112.8691
  1006.7500    -58.1082     30.9508     58.0917     74.8487    107.9174
  1007.0000    -56.9381     31.2167     61.1918     81.6803    101.7371
  1007.2500    -56.0447     31.6485     63.7699     87.2103     98.9824
  1007.5000    -55.5631     32.1991     65.5977     90.6244     96.8346
  1007.7500    -55.5698     32.7567     66.5412     91.4657     96.2484
  1008.0000    -56.0550     33.2024     66.5855     89.7650     96.0349
  1008.2500    -56.9217     33.4645     65.8194     86.0533     96.4257
  1008.5000    -58.0038     33.5352     64.3989     81.2155     98.3393
  1008.7500    -59.1009     33.4377     62.5033     76.2150    100.6592
  1009.0000    -60.0136     33.1878     60.2982     71.7925    105.3535
  1009.2500    -60.5844     32.7721     57.9288     68.2678    108.7096
  1009.5000    -60.7277     32.1567     55.5009     65.5253    113.0132
  1009.7500    -60.4395     31.3067     53.0840     63.1663    115.2427
  1010.0000    -59.7979     30.2032     50.7088     60.7314    118.3701
  1010.2500    -58.9385     28.8599     48.3739     57.8882    120.7795
  1010.5000    -58.0228     27.3393     46.0526     54.5221    124.9028
  1010.7500    -57.2027     25.7552     43.7059     50.7286    127.7899
  1011.0000    -56.5972     24.2476     41.2938     46.7431    132.3827
  1011.2500    -56.2759     22.9410     38.7932     42.8438    135.7831
  1011.5000    -56.2542     21.9078     36.2084     39.2638    141.0149
  1011.7500    -56.4954     21.1538     33.5759     36.1352    143.8473
  1012.0000    -56.9227     20.6246     30.9580     33.4786    145.8452
  1012.2500    -57.4393     20.2286     28.4286     31.2298    145.6584
  1012.5000    -57.9562     19.8690     26.0588     29.2854    144.7440
  1012.7500    -58.4118     19.4719     23.9029     27.5470    144.9809
  1013.0000    -58.7813     18.9986     21.9938     25.9493    147.2642
  1013.2500    -59.0666     18.4408     20.3446     24.4689    149.1958
  1013.5000    -59.2836     17.8111     18.9532     23.1154    150.7992
  1013.7500    -59.4519     17.1413     17.8082     21.9168    150.9279
  1014.0000    -59.5938     16.4842     16.8937     20.9034    151.3865
  1014.2500    -59.7350     15.9063     16.1928     20.1012    152.6626
  1014.5000    -59.8968     15.4723     15.6902     19.5351    155.5061
  1014.7500    -60.0788     15.2288     15.3737     19.2566    157.2034
  1015.0000    -60.2402     15.1970     15.2356     19.4146    159.2082
  1015.2500    -60.3026     15.3737     15.2730     20.3858    160.7810
  1015.5000    -60.1663     15.7390     15.4888     22.8643    163.7671
  1015.7500    -59.7507     16.2698     15.8920     28.1990    165.1332
  1016.0000    -59.0258     16.9538     16.4978     38.5374    163.4314
  1016.2500    -58.0329     17.8003     17.3281     56.9248    158.6180
  1016.5000    -56.8734     18.8412     18.4128     87.0153    145.3445
  1016.7500    -55.6885     20.1189     19.7897    132.1009    132.8725
  1017.0000    -54.6240     21.6676     21.5067    193.3213    110.7738
  1017.2500    -53.7948     23.4956     23.6227    267.4852     95.7699
  1017.5000    -53.2590     25.5747     26.2082    345.7429     76.4922
  1017.7500    -53.0077     27.8384     29.3461    414.7025     67.1390
  1018.0000    -52.9781     30.1889     33.1353    460.7036     58.6526
  1018.2500    -53.0777     32.5071     37.6934    475.8656     56.0092
  1018.5000    -53.2217     34.6687     43.1686    462.6425     54.7855
  1018.7500    -53.3594     36.5588     49.7474    434.0491     54.6143
  1019.0000    -53.4883     38.0829     57.6486    408.7384     53.2784
  1019.2500    -53.6489     39.1669     67.0741    403.7467     50.7740
  1019.5000    -53.9014     39.7594     78.0646    428.5361     44.5115
  1019.7500    -54.2974     39.8561     90.1971    482.6233     39.6808
  1020.0000    -54.8577     39.5249    102.2026    556.5607     34.0807
  1020.2500    -55.5579     38.8995    111.7754    634.6657     32.5794
  1020.5000    -56.3399     38.1227    116.2408    698.3506     33.9198
  1020.7500    -57.1316     37.2802    114.0973    730.0204     36.5369
  1021.0000    -57.8763     36.3809    106.1632    717.6286     41.6800
  1021.2500    -58.5521     35.3900     94.8843    658.8193     45.6162
  1021.5000    -59.1805     34.2822     82.7637    562.4749     52.9052
  1021.7500    -59.8149     33.0700     71.4278    446.1176     59.3342
  1022.0000    -60.5096     31.7998     61.5913    329.7441     71.7839
  1022.2500    -61.2905     30.5250     53.3957    229.4022     81.4070
  1022.5000    -62.1274     29.2806     46.7078    153.2660     95.6674
  1022.7500    -62.9340     28.0713     41.3013    101.6530    103.7650
  1023.0000    -63.5911     26.8678     36.9391     69.8330    112.9602
  1023.2500    -63.9927     25.6227     33.4072     51.4780    117.5387
  1023.5000    -64.0822     24.3005     30.5257     41.0988    123.2528
  1023.7500    -63.8754     22.9106     28.1494     34.9805    126.7371
  1024.0000    -63.4423     21.5192     26.1672     31.0292    131.7215
  1024.2500    -62.8811     20.2238     24.4969     28.2007    134.8071
  1024.5000    -62.2846     19.1145     23.0807     25.9917    138.6547
  1024.7500    -61.7239     18.2460     21.8786     24.1639    140.4647
  1025.0000    -61.2468     17.6336     20.8618     22.5558    142.3030
  1025.2500    -60.8857     17.2643     20.0071     21.1430    143.5336
  1025.5000    -60.6651     17.1093     19.2928     19.9650    146.1876
  1025.7500    -60.5973     17.1314     18.6977     19.0947    148.2758
  1026.0000    -60.6811     17.2845     18.2004     18.5987    150.7878
  1026.2500    -60.8987     17.5114     17.7812     18.5011    151.7801
  1026.5000    -61.2206     17.7463     17.4236     18.7603    152.8757
  1026.7500    -61.6134     17.9308     17.1148     19.2651    153.7721
  1027.0000    -62.0464     18.0373     16.8470     19.8559    155.3076
  1027.2500    -62.4970     18.0849     16.6161     20.3670    156.1579
  1027.5000    -62.9536     18.1288     16.4217     20.6710    156.7699
  1027.7500    -63.4080     18.2303     16.2654     20.7078    156.4909
  1028.0000    -63.8554     18.4252     16.1498     20.4884    154.4108
  1028.2500    -64.2881     18.7069     16.0769     20.0783    151.7074
  1028.5000    -64.7003     19.0290     16.0466     19.5729    146.2081
  1028.7500    -65.0888     19.3224     16.0557     19.0773    142.3603
  1029.0000    -65.4582     19.5191     16.0958     18.6883    137.7697
  1029.2500    -65.8195     19.5736     16.1540     18.4765    135.9604
  1029.5000    -66.1797     19.4779     16.2138     18.4691    134.6947
  1029.7500    -66.5289     19.2676     16.2585     18.6399    134.0536
  1030.0000    -66.8364     19.0133     16.2752     18.9178    132.6384
