~Version Information
VERS.                      2.0: CWLS Log ASCII Standard - VERSION 2.0
WRAP.                       NO: One line per depth step
~Well Information Block
STRT.FT                -7.2500: 
STOP.FT               765.5000: 
STEP.FT                 0.2500: 
NULL.                -999.2500: 
COMP.          Pioneer Natural Resources: COMPANY
WELL.          Barrelman 41-27: WELL
FLD.           Purgatorie River: FIELD
LOC.           371' FNL & 493' FEL--: LOCATION
PROV.                       CO: PROVINCE
CNTY.               Las Animas: COUNTRY
SRVC.          Patterson Wireline: SERVICE COMPANY
DATE.          Wed May 25 09:32:20 2005: LOG DATE
UWI.           05 071 08334 00: UNIQUE WELL ID
~Curve Information Block
DEPT.FT            0 000 00 00: Depth
CCL.                          : Casing Collar Locator
TT3.usec                      : CBL 3' Travel Time
AMP3.mV                       : CBL 3' Amplitude
GR.GAPI                       : Gamma Ray
~Parameter Information Block
~A  Depth       CCL         TT3         AMP3         GR     
# ...
   126.7500      0.0000    786.1431      8.7537     36.6368
   127.0000      0.0000    789.1296      8.7719     36.4547
   127.2500      0.0000    792.6657      8.7950     37.0653
   127.5000      0.0000    795.6533      8.8240     38.1085
   127.7500      0.0000    796.9814      8.8547     39.0140
   128.0000      0.0000    796.4036      8.8760     39.5695
   128.2500      0.0000    794.9452      8.8763     40.1893
   128.5000      0.0000    794.4713      8.8508     41.6076
   128.7500      0.0000    796.4811      8.8036     44.2805
   129.0000      0.0000    800.7712      8.7444     48.1712
   129.2500      0.0000    805.1780      8.6845     53.2149
   129.5000      0.0000    807.0909      8.6338     59.7784
   129.7500      0.0000    805.7598      8.5967     68.1819
   130.0000      0.0000    803.0381      8.5698     77.6647
   130.2500      0.0000    801.3647      8.5459     86.2676
   130.5000      0.0000    800.9292      8.5219     92.1250
   130.7500      0.0000    799.3590      8.5023     94.9304
   131.0000      0.0000    794.3823      8.4922     96.0145
   131.2500      0.0000    786.4063      8.4861     96.7776
   131.5000      0.0000    778.7693      8.4588     97.1787
   131.7500      0.0000    776.4282      8.3632     96.2393
   132.0000      0.0000    783.6517      8.1472     93.8697
   132.2500      0.0000    801.0112      7.7980     91.3971
   132.5000      0.0000    824.4250      7.3825     90.1994
   132.7500      0.0000    848.5350      7.0205     90.4623
   133.0000      0.0000    871.0655      6.7972     91.4284
   133.2500      0.0000    893.6121      6.7054     92.3693
   133.5000     -2.0000    919.3925      6.6727     93.0184
   133.7500      0.0000    949.8087      6.6319     93.2736
   134.0000      0.0000    980.0546      6.5771     92.9664
   134.2500      0.0000    997.8435      6.5764     92.1093
   134.5000      0.0000    990.8735      6.7297     91.0694
   134.7500      0.0000    958.3070      7.0940     90.2561
   135.0000      0.0000    913.4847      7.6294     89.8292
   135.2500      0.0000    874.3774      8.2086     89.8018
   135.5000      0.0000    851.6774      8.6824     90.1160
   135.7500      0.0000    844.5899      8.9628     90.4461
   136.0000      0.0000    845.2991      9.0624     90.2198
   136.2500      0.0000    846.5010      9.0592     89.0334
   136.5000      0.0000    845.5394      9.0293     86.9039
   136.7500      0.0000    842.8657      9.0105     84.0555
   137.0000      0.0000    838.2155      9.0046     80.6295
   137.2500      0.0000    829.8766      8.9944     76.6604
   137.5000      0.0000    817.6183      8.9609     72.1981
   137.7500      0.0000    804.3490      8.8972     67.4496
   138.0000      0.0000    793.8026      8.8134     62.8451
   138.2500      0.0000    787.5091      8.7286     58.8773
   138.5000      0.0000    784.5513      8.6592     55.8131
   138.7500      0.0000    783.2422      8.6109     53.5753
   139.0000      0.0000    782.3133      8.5830     51.8353
   139.2500      0.0000    781.0057      8.5781     50.2429
   139.5000      0.0000    778.8889      8.6052     48.7095
   139.7500      0.0000    776.0338      8.6691     47.4657
   140.0000      0.0000    773.3196      8.7575     46.7721
   140.2500      0.0000    772.0909      8.8420     46.5580
   140.5000      0.0000    773.0435      8.8950     46.3575
   140.7500      0.0000    775.5455      8.9069     45.6779
   141.0000      0.0000    778.2677      8.8884     44.4488
   141.2500      0.0000    780.2911      8.8613     43.0105
   141.5000      0.0000    781.4595      8.8461     41.7123
   141.7500      0.0000    782.0023      8.8555     40.7456
   142.0000      0.0000    782.1602      8.8923     40.2607
   142.2500      0.0000    782.1041      8.9497     40.3665
   142.5000      0.0000    781.9679      9.0134     41.0782
   142.7500      0.0000    781.8470      9.0660     42.4319
   143.0000      0.0000    781.7864      9.0954     44.4984
   143.2500      0.0000    781.7896      9.1008     47.1446
   143.5000      0.0000    781.8427      9.0915     49.8969
   143.7500      0.0000    781.9254      9.0800     52.1773
   144.0000      0.0000    782.0174      9.0766     53.7786
   144.2500      0.0000    782.1083      9.0890     55.1770
   144.5000      0.0000    782.2062      9.1222     57.2850
   144.7500      0.0000    782.3313      9.1770     60.7184
   145.0000      0.0000    782.4984      9.2497     65.3102
   145.2500      0.0000    782.7092      9.3312     70.4054
   145.5000      0.0000    783.0243      9.4072     75.4552
   145.7500      0.0000    783.7577      9.4631     80.1391
   146.0000      0.0000    785.6959      9.4900     84.0911
   146.2500      0.0000    789.9726      9.4883     86.8095
   146.5000      0.0000    797.1061      9.4638     87.8456
   146.7500      0.0000    805.5488      9.4253     87.1135
   147.0000      0.0000    811.5611      9.3810     85.2751
   147.2500      0.0000    811.7150      9.3371     83.6502
   147.5000      0.0000    805.9645      9.2980     83.2510
   147.7500      0.0000    797.6904      9.2696     83.9270
   148.0000      0.0000    790.6780      9.2608     84.8008
   148.2500      0.0000    786.5676      9.2773     85.3363
   148.5000      0.0000    784.8796      9.3164     85.5628
   148.7500      0.0000    784.4265      9.3648     85.3572
   149.0000      0.0000    784.3358      9.4019     84.0020
   149.2500      0.0000    784.2581      9.4085     80.7259
   149.5000      0.0000    784.1741      9.3796     75.5275
   149.7500      0.0000    784.1458      9.3336     69.2779
   150.0000      0.0000    784.1556      9.3051     63.2169
   150.2500      0.0000    784.0942      9.3247     58.6193
   150.5000      0.0000    783.8666      9.4030     56.6580
   150.7500      0.0000    783.4905      9.5303     57.9030
   151.0000      0.0000    783.0721      9.6887     61.6387
   151.2500      0.0000    782.7009      9.8632     65.8789
   151.5000      0.0000    782.3907     10.0410     68.4600
   151.7500      0.0000    782.1226     10.2022     68.5042
   152.0000      0.0000    781.9214     10.3205     67.0391
   152.2500      0.0000    781.8668     10.3806     66.1194
   152.5000      0.0000    782.0294     10.3936     67.1573
   152.7500      0.0000    782.3691     10.3914     69.9358
   153.0000      0.0000    782.6611     10.4029     73.0313
   153.2500      0.0000    782.2856     10.4392     74.9849
   153.5000      0.0000    779.5931     10.4966     75.1393
   153.7500      0.0000    770.8839     10.5710     73.7470
   154.0000      0.0000    750.6088     10.6647     71.6009
   154.2500      0.0000    715.8970     10.7830     69.4626
   154.5000      0.0000    674.3641     10.9230     67.6645
   154.7500      0.0000    645.0217     11.0691     66.2672
   155.0000      0.0000    643.9353     11.2030     65.3733
   155.2500      0.0000    666.1121     11.3182     64.9719
   155.5000      0.0000    686.0013     11.4205     64.7781
   155.7500      0.0000    679.2529     11.5133     64.6428
   156.0000      0.0000    643.1796     11.5897     64.8366
   156.2500      0.0000    596.1357     11.6401     65.6663
   156.5000      0.0000    560.1016     11.6647     67.1837
   156.7500      0.0000    546.9805     11.6735     69.4304
   157.0000      0.0000    559.2637     11.6747     72.4563
   157.2500      0.0000    594.1416     11.6681     75.7540
   157.5000      0.0000    641.0829     11.6506     78.0055
   157.7500      0.0000    682.3635     11.6243     77.9238
   158.0000      0.0000    704.6985     11.5902     75.3808
   158.2500      0.0000    709.7332     11.5402     71.3653
   158.5000      0.0000    709.4166     11.4594     66.9572
   158.7500      0.0000    711.6600     11.3394     62.8578
   159.0000      0.0000    713.5148     11.1884     59.7709
   159.2500      0.0000    708.9398     11.0246     58.4256
   159.5000      0.0000    700.2883     10.8615     58.9033
   159.7500      0.0000    698.4112     10.7030     60.3767
   160.0000      0.0000    710.9048     10.5512     61.9505
