~Version Information
VERS.                      2.0: CWLS Log ASCII Standard - VERSION 2.0
WRAP.                       NO: One line per depth step
~Well Information Block
STRT.FT                 0.0000: 
STOP.FT              2384.7500: 
STEP.FT                 0.2500: 
NULL.                -999.2500: 
COMP.          Petrogulf Corporation: COMPANY
WELL.           McDaniel 9-34V: WELL
FLD.           Purgatorie River: FIELD
LOC.           620' FSL & 1800' FEL: LOCATION
STAT.                 Colorado: State
CNTY.               Las Animas: COUNTY
CTRY. USA : Country
SECT. 9 : Section
TOWN. 33S : Township
RANG. 67W : Range
SRVC.                Patterson: SERVICE COMPANY
DATE.          Thu Nov 10 12:28:18 2005: LOG DATE
API. 05-071-08333                         : UNIQUE WELL ID
~Curve Information Block
DEPT.FT            0 000 00 00: Depth
AMP3.mV                       : CBL 3' Amplitude
CCL.                          : Casing Collar Locator
GR.GAPI                       : Gamma Ray
TT3.usec                      : CBL 3' Travel Time
~Parameter Information Block
~A  Depth       AMP3        CCL          GR         TT3     
# ...
  1708.5000      4.5329      0.0000    113.7565    650.7598
  1708.7500      4.6334      0.0000    117.0902    646.0947
  1709.0000      4.6694      0.0000    119.3256    651.1664
  1709.2500      4.6054      0.0000    118.9811    660.6486
  1709.5000      4.4852      0.0000    115.6296    670.7280
  1709.7500      4.3687      0.0000    110.8467    677.4405
  1710.0000      4.2687      0.0000    107.3973    673.8901
  1710.2500      4.1779      0.0000    106.9995    658.3698
  1710.5000      4.1140      0.0000    109.1209    638.5255
  1710.7500      4.1003      0.0000    112.0939    622.5573
  1711.0000      4.1190      0.0000    114.7602    615.5280
  1711.2500      4.1155      0.0000    116.6751    619.3123
  1711.5000      4.0466      0.0000    117.4298    629.5236
  1711.7500      3.9020      0.0000    116.5619    641.8954
  1712.0000      3.7028      0.0000    114.1858    657.4357
  1712.2500      3.4955      0.0000    111.3834    673.8684
  1712.5000      3.3189      0.0000    109.6522    684.3635
  1712.7500      3.1843      0.0000    109.7164    685.5607
  1713.0000      3.0944      0.0000    110.9597    678.8843
  1713.2500      3.0600      0.0000    112.2393    668.4025
  1713.5000      3.0805      0.0000    113.0696    659.0671
  1713.7500      3.1197      0.0000    113.7953    653.4705
  1714.0000      3.1292      0.0000    114.7657    651.0643
  1714.2500      3.0882      0.0000    115.4947    650.6095
  1714.5000      3.0033      0.0000    114.5360    651.8620
  1714.7500      2.8863      0.0000    110.3613    655.7109
  1715.0000      2.7412      0.0000    102.8417    663.6425
  1715.2500      2.5791      0.0000     94.0541    676.6326
  1715.5000      2.4538      0.0000     87.2969    694.0648
  1715.7500      2.4356      0.0000     84.9983    712.3777
  1716.0000      2.5251      0.0000     87.3961    723.6037
  1716.2500      2.6267      0.0000     92.8781    718.2497
  1716.5000      2.6107      0.0000     99.2614    695.2771
  1716.7500      2.4138      0.0000    104.8230    667.4985
  1717.0000      2.1177      0.0000    108.6272    649.7826
  1717.2500      1.9022      0.0000    110.4976    645.8483
  1717.5000      1.8915      0.0000    110.9649    649.1919
  1717.7500      2.0719      0.0000    110.9277    650.0970
  1718.0000      2.3440      0.0000    110.7677    646.3001
  1718.2500      2.6203      0.0000    109.7865    646.1643
  1718.5000      2.8607      0.0000    106.9476    654.4930
  1718.7500      3.0355      0.0000    102.3382    667.2111
  1719.0000      3.1039      0.0000     97.5676    679.4609
  1719.2500      3.0737      0.0000     94.3555    685.9659
  1719.5000      3.0288      0.0000     92.8666    682.1597
  1719.7500      3.0437      0.0000     91.9735    671.3288
  1720.0000      3.1236     -2.0000     90.9900    662.2734
  1720.2500      3.2327      2.0000     90.3447    661.9641
  1720.5000      3.3386      0.0000     90.5504    671.0427
  1720.7500      3.4236      0.0000     91.2751    680.9429
  1721.0000      3.4791      0.0000     91.5668    682.4883
  1721.2500      3.5235      0.0000     90.5398    675.3967
  1721.5000      3.5781      0.0000     87.9922    663.2905
  1721.7500      3.6185      0.0000     84.8213    650.3046
  1722.0000      3.6438      0.0000     82.7189    644.3607
  1722.2500      3.7097      0.0000     83.0797    650.7492
  1722.5000      3.7973      0.0000     86.2253    663.2004
  1722.7500      3.8010      0.0000     91.6834    669.7728
  1723.0000      3.6698      0.0000     98.6045    664.4209
  1723.2500      3.4522      0.0000    105.5826    651.5630
  1723.5000      3.2181      0.0000    110.8224    640.5555
  1723.7500      3.0051      0.0000    113.3060    634.7377
  1724.0000      2.8514      0.0000    113.5970    631.0491
  1724.2500      2.8117      0.0000    113.0199    628.4459
  1724.5000      2.8941      0.0000    112.2390    629.1042
  1724.7500      3.0262      0.0000    110.9990    633.8472
  1725.0000      3.1151      0.0000    109.0331    640.3408
  1725.2500      3.1255      0.0000    106.7025    645.7465
  1725.5000      3.0996      0.0000    104.6716    650.8651
  1725.7500      3.1032      0.0000    103.2855    659.4525
  1726.0000      3.1600      0.0000    102.3421    670.5114
  1726.2500      3.2563      0.0000    101.1304    675.1929
  1726.5000      3.3888      0.0000     98.5976    669.1098
  1726.7500      3.5705      0.0000     93.8482    659.3162
  1727.0000      3.8114      0.0000     86.7467    651.0063
  1727.2500      4.1060      0.0000     78.0072    641.4694
  1727.5000      4.4263      0.0000     68.7785    629.6785
  1727.7500      4.7438      0.0000     60.1722    619.7795
  1728.0000      5.0551      0.0000     52.9031    616.8800
  1728.2500      5.3206      0.0000     47.3448    624.9260
  1728.5000      5.4064      0.0000     44.1919    641.2845
  1728.7500      5.1905      0.0000     44.7485    652.6413
  1729.0000      4.6954      0.0000     49.8957    649.9724
  1729.2500      4.0784      0.0000     58.8386    641.4016
  1729.5000      3.5275      0.0000     69.5465    637.6371
  1729.7500      3.1428      0.0000     80.3599    639.8539
  1730.0000      2.9125      0.0000     90.4377    646.2591
  1730.2500      2.7969      0.0000     98.8101    654.8783
  1730.5000      2.7691      0.0000    104.1566    663.2344
  1730.7500      2.7890      0.0000    105.9789    672.6023
  1731.0000      2.8088      0.0000    105.3582    683.4949
  1731.2500      2.8105      0.0000    104.0700    689.9376
  1731.5000      2.8154      0.0000    103.1864    688.0472
  1731.7500      2.8602      0.0000    102.6107    681.2088
  1732.0000      2.9639      0.0000    101.4820    672.2645
  1732.2500      3.1041      0.0000     98.7013    660.1062
  1732.5000      3.2240      0.0000     93.5098    645.2868
  1732.7500      3.2839      0.0000     86.2267    632.6187
  1733.0000      3.2888      0.0000     78.4216    627.4675
  1733.2500      3.2535      0.0000     71.9105    631.6774
  1733.5000      3.1943      0.0000     67.6234    641.4993
  1733.7500      3.1497      0.0000     65.6289    649.2010
  1734.0000      3.1599      0.0000     65.9616    649.4911
  1734.2500      3.2245      0.0000     69.0628    643.3652
  1734.5000      3.2928      0.0000     75.3815    634.3293
  1734.7500      3.3100      0.0000     84.5401    625.6193
  1735.0000      3.2728      0.0000     94.7948    620.6034
  1735.2500      3.2167      0.0000    103.5521    620.5147
  1735.5000      3.1702      0.0000    109.0357    623.8344
  1735.7500      3.1482      0.0000    111.5972    631.0012
  1736.0000      3.1557      0.0000    112.9759    644.3462
  1736.2500      3.1765      0.0000    114.2827    659.1593
  1736.5000      3.1876      0.0000    115.1331    663.1495
  1736.7500      3.1976      0.0000    114.7261    650.2435
  1737.0000      3.2381      0.0000    113.3010    627.8488
  1737.2500      3.2929      0.0000    112.1649    608.4589
  1737.5000      3.2952      0.0000    112.1719    599.3522
  1737.7500      3.2215      0.0000    112.5004    600.5190
  1738.0000      3.1197      0.0000    111.5276    608.4937
  1738.2500      3.0389      0.0000    109.0411    620.9296
  1738.5000      3.0022      0.0000    107.0209    637.3511
  1738.7500      3.0204      0.0000    107.7100    655.1061
  1739.0000      3.0811      0.0000    111.0360    668.8954
  1739.2500      3.1537      0.0000    114.4753    676.1691
  1739.5000      3.2197      0.0000    115.6136    678.3007
  1739.7500      3.2902      0.0000    114.3954    676.3615
  1740.0000      3.3839      0.0000    112.6574    669.4302
  1740.2500      3.4913      0.0000    111.9077    657.2665
  1740.5000      3.5799      0.0000    111.9763    642.8900
  1740.7500      3.6189      0.0000    111.6819    631.5703
  1741.0000      3.5971      0.0000    110.4177    626.4626
  1741.2500      3.5349      0.0000    108.9884    625.9901
  1741.5000      3.4665      0.0000    108.9715    626.9211
  1741.7500      3.4021      0.0000    111.1322    627.0104
