~Version Information
 VERS.                                  2.0 : CWLS LAS VERSION
 WRAP.                                   NO : WRAPING MODE
 SWARE .                 MController 2.5.0J : SOFTWARE VERSION
~Well Information
 WELL.                      Sumatra 34-22Tr : WELL
 COMP.    Pioneer Natural Resources USA Inc : COMPANY
 FLD.                      Purgatoire River : FIELD
 LOC.                SW/SE sec 22 T33S R67W : LOCATION
 DATE.                              6/08/05 : DATE(S) LOGGED
 SRVC.       Blanco Geological Services LLC : SERVICE COMPANY
 STAT.                                   CO : STATE
 CNTY.                           Las Animas : COUNTY
 CTRY.                                  USA : COUNTRY
 API.                       05-071-08383-00 : API NUMBER
 STRT.FT                             575.00 : START DEPTH
 STOP.FT                            1500.00 : STOP DEPTH
 STEP.FT                               1.00 : DEPTH INCREMENT
 NULL.                                -9999 : NULL VALUE
~Curve information
 DEPTH.FT                                   :
 ROP.MIN/FT                                 :
 GAS.UNITS                                  :
~ASCII Log data
# ...
      1175.0         0.50         26.3 
      1176.0         0.50         28.2 
      1177.0         0.37         28.6 
      1178.0         0.43         26.6 
      1179.0         0.50         25.1 
      1180.0         0.47         24.2 
      1181.0         0.45         24.2 
      1182.0         0.43         24.2 
      1183.0         0.33         23.7 
      1184.0         0.40         24.6 
      1185.0         0.43         24.7 
      1186.0         0.37         24.7 
      1187.0         0.33         25.0 
      1188.0         0.37         24.7 
      1189.0         0.40         24.0 
      1190.0         0.45         22.4 
      1191.0         4.18         80.3 
      1192.0         0.57         58.0 
      1193.0         0.57         44.2 
      1194.0         0.47         34.0 
      1195.0         0.58         30.5 
      1196.0         0.50         29.1 
      1197.0         0.50         31.2 
      1198.0         0.50         31.4 
      1199.0         0.43         29.0 
      1200.0         0.30         27.4 
      1201.0         0.30         28.1 
      1202.0         0.37         28.1 
      1203.0         0.42         27.6 
      1204.0         0.53         27.5 
      1205.0         0.47         26.7 
      1206.0         0.47         26.9 
      1207.0         0.40         26.7 
      1208.0         0.47         27.6 
      1209.0         0.37         28.1 
      1210.0         0.47         28.8 
      1211.0         0.52         28.4 
      1212.0         0.53         27.8 
      1213.0         0.33         34.4 
      1214.0         0.23         43.2 
      1215.0         0.23         46.1 
      1216.0         0.47         47.3 
      1217.0         0.47         46.4 
      1218.0         0.40         44.2 
      1219.0         0.48         42.5 
      1220.0         0.53         37.4 
      1221.0         2.72        110.8 
      1222.0         0.70        111.4 
      1223.0         0.30         63.5 
      1224.0         0.30         58.3 
      1225.0         0.63         56.2 
      1226.0         0.80         45.8 
      1227.0         1.08         36.9 
      1228.0         0.80         34.9 
      1229.0         0.80         34.5 
      1230.0         0.87         34.6 
      1231.0         0.78         34.1 
      1232.0         0.90         34.4 
      1233.0         0.67         34.6 
      1234.0         0.67         39.4 
      1235.0         0.50         40.7 
      1236.0         0.58         39.7 
      1237.0         0.57         37.0 
      1238.0         0.60         36.2 
      1239.0         0.60         35.5 
      1240.0         0.57         34.5 
      1241.0         0.60         34.2 
      1242.0         0.62         34.2 
      1243.0         0.60         34.0 
      1244.0         0.63         34.0 
      1245.0         0.67         33.8 
      1246.0         0.63         33.8 
      1247.0         0.75         33.5 
      1248.0         0.77         33.2 
      1249.0         0.83         32.9 
      1250.0         0.80         33.2 
      1251.0        12.00        355.1 
      1252.0         3.32         74.1 
      1253.0         0.67         57.2 
      1254.0         0.57         42.2 
      1255.0         0.47         36.3 
      1256.0         0.58         46.8 
      1257.0         0.63         46.0 
      1258.0         0.43         39.1 
      1259.0         0.47         35.7 
      1260.0         0.43         33.6 
      1261.0         0.43         32.1 
      1262.0         0.45         31.5 
      1263.0         0.43         30.6 
      1264.0         0.43         30.2 
      1265.0         0.47         30.1 
      1266.0         0.43         29.8 
      1267.0         0.47         29.8 
      1268.0         0.47         29.6 
      1269.0         0.43         29.5 
      1270.0         0.48         29.8 
      1271.0         0.47         29.6 
      1272.0         0.47         30.0 
      1273.0         0.47         30.1 
      1274.0         0.47         30.0 
      1275.0         0.47         30.1 
      1276.0         0.47         30.1 
      1277.0         0.52         29.9 
      1278.0         0.47         30.8 
      1279.0         0.47         30.3 
      1280.0         0.50         29.4 
      1281.0         3.52         75.6 
      1282.0         0.77         60.0 
      1283.0         0.63         49.1 
      1284.0         0.52         41.7 
      1285.0         0.53         35.2 
      1286.0         0.40         31.3 
      1287.0         0.33         31.7 
      1288.0         0.20         32.2 
      1289.0         0.33         32.4 
      1290.0         0.30         31.9 
      1291.0         0.23         31.3 
      1292.0         0.37         31.4 
      1293.0         0.35         30.4 
      1294.0         0.40         31.0 
      1295.0         0.37         30.3 
      1296.0         0.60         30.6 
      1297.0         0.70         29.8 
      1298.0         0.37         30.6 
      1299.0         0.30         30.7 
      1300.0         0.37         30.6 
      1301.0         0.62         29.6 
      1302.0         0.57         29.1 
      1303.0         0.47         29.0 
      1304.0         0.43         30.4 
      1305.0         0.53         29.8 
      1306.0         0.77         32.9 
      1307.0         0.52         33.8 
      1308.0         0.50         32.8 
      1309.0         0.47         30.9 
      1310.0         0.37         31.8 
      1311.0        13.17        391.5 
      1312.0         4.18        253.1 
      1313.0         0.57         48.3 
      1314.0         0.55         40.8 
      1315.0         0.53         37.0 
      1316.0         0.50         38.1 
      1317.0         0.67         36.9 
      1318.0         0.47         35.0 
      1319.0         0.60         32.8 
      1320.0         0.58         31.6 
      1321.0         0.53         30.0 
      1322.0         0.47         27.9 
      1323.0         0.37         27.3 
      1324.0         0.40         27.4 
      1325.0         0.43         27.7 
      1326.0         0.40         27.8 
      1327.0         0.37         27.9 
      1328.0         0.38         27.6 
      1329.0         0.43         27.8 
      1330.0         0.43         28.1 
      1331.0         0.50         28.6 
      1332.0         0.43         28.2 
      1333.0         0.40         28.1 
      1334.0         0.40         28.2 
      1335.0         0.43         28.2 
      1336.0         0.42         28.1 
      1337.0         0.53         28.5 
      1338.0         0.50         28.2 
      1339.0         0.50         27.5 
      1340.0         0.37         27.8 
      1341.0         3.62         81.0 
      1342.0         0.70         63.1 
      1343.0         0.48         52.6 
      1344.0         0.40         44.7 
      1345.0         0.37         40.2 
      1346.0         0.53         35.8 
      1347.0         0.57         30.4 
      1348.0         0.63         28.4 
      1349.0         0.72         29.3 
      1350.0         0.60         29.3 
      1351.0         0.57         28.0 
      1352.0         0.43         27.6 
      1353.0         0.37         29.4 
      1354.0         0.47         28.9 
      1355.0         0.50         29.6 
      1356.0         0.48         30.8 
      1357.0         0.47         30.0 
      1358.0         0.47         31.7 
      1359.0         0.43         32.3 
      1360.0         0.43         32.5 
      1361.0         0.40         31.9 
      1362.0         0.40         31.3 
      1363.0         0.40         30.7 
      1364.0         0.45         32.3 
      1365.0         0.53         33.0 
      1366.0         0.47         29.5 
      1367.0         0.33         30.0 
      1368.0         0.47         30.0 
      1369.0         0.50         29.8 
      1370.0         0.50         28.9 
      1371.0         4.90         88.7 
      1372.0         0.60         54.9 
      1373.0         0.33         47.7 
      1374.0         0.30         42.4 
