~Version Information
VERS.                      2.0: CWLS Log ASCII Standard - VERSION 2.0
WRAP.                       NO: One line per depth step
~Well Information Block
STRT.FT               875.6000: 
STOP.FT              2510.0000: 
STEP.FT                 0.1000: 
NULL.                -999.2500: 
COMP.          Petrogulf Corporation: COMPANY
WELL.          Collister 17-31 V: WELL
FLD.           Purgatoire River: FIELD
LOC.           910' FNL & 1594' FEL: LOCATION
PROV.                 Colorado: PROVINCE
CNTY.               Las Animas: COUNTRY
SRVC.                Patterson: SERVICE COMPANY
DATE.          Fri Dec 12 13:49:30 2003: LOG DATE
UWI.                          : UNIQUE WELL ID
~Curve Information Block
DEPT.FT            0 000 00 00: Depth
DCAL.in                       : CDL Caliper
DPOR.pu                       : CDL Density Porosity
NPOR.pu                       : Neutron Porosity
RHOB.g/cc                     : CDL Bulk Density
RHOC.g/cc                     : CDL Density Correction
GR.GAPI                       : Gamma Ray
~Parameter Information Block
~A  Depth       DCAL        DPOR        NPOR        RHOB        RHOC         GR     
# ...
  1000.4000      8.0831      5.1264     34.9017      2.5654      0.0980    123.3356
  1000.5000      8.0989      7.0775     34.5719      2.5332      0.0776    133.1192
  1000.6000      8.0989      6.6252     34.1016      2.5407      0.1470    139.0708
  1000.7000      8.0989      3.4292     33.9524      2.5934      0.0772    136.8226
  1000.8000      8.0672     -2.5506     33.8502      2.6921      0.0475    129.8190
  1000.9000      8.0672    -11.4254     33.6213      2.8385      0.1417    124.4528
  1001.0000      8.0075    -21.6047     33.4694      3.0065      0.3719    123.4326
  1001.1000      8.0075    -29.5699     33.1696      3.1379      0.4186    123.3092
  1001.2000      8.0075    -32.6925     32.5362      3.1894      0.4111    117.2448
  1001.3000      7.9513    -31.0206     31.6880      3.1618      0.3304    105.5204
  1001.4000      7.9513    -27.5207     30.6993      3.1041      0.1275     95.9213
  1001.5000      7.9717    -25.0097     29.9643      3.0627      0.1505     93.2484
  1001.6000      7.9717    -22.5723     29.7235      3.0224      0.0708     95.8451
  1001.7000      7.9717    -17.9508     29.5858      2.9462      0.0478     97.9884
  1001.8000      8.0250    -11.7563     29.2046      2.8440     -0.0764     95.2489
  1001.9000      8.0250     -7.2537     28.3834      2.7697     -0.1485     88.6618
  1002.0000      8.0508     -5.4902     27.2118      2.7406     -0.0423     85.0864
  1002.1000      8.0508     -3.8747     26.1061      2.7139     -0.0233     87.7852
  1002.2000      8.0508     -0.7841     25.1859      2.6629     -0.0088     88.2438
  1002.3000      8.0632      2.0014     24.3853      2.6170     -0.1109     83.8344
  1002.4000      8.0632      2.4299     23.6922      2.6099      0.0145     84.2276
  1002.5000      8.0834      1.4609     23.0428      2.6259      0.0898     92.1587
  1002.6000      8.0834      0.8476     22.5486      2.6360      0.0645    101.0617
  1002.7000      8.0834      1.0289     22.3794      2.6330      0.1152    105.0433
  1002.8000      8.0706      1.6468     22.5712      2.6228      0.1085    103.4324
  1002.9000      8.0706      1.4547     23.2015      2.6260      0.1446    100.2572
  1003.0000      8.0342     -0.1978     23.9718      2.6533      0.1506     98.6024
  1003.1000      8.0342     -1.8336     24.5974      2.6803      0.1904     99.0901
  1003.2000      8.0342     -2.1337     25.1170      2.6852      0.1809     99.6673
  1003.3000      7.9616     -2.8132     25.2802      2.6964      0.0821     95.5687
  1003.4000      7.9616     -6.0669     24.9038      2.7501      0.2154     89.9065
  1003.5000      7.9517    -10.0524     24.4327      2.8159      0.3118     88.3064
  1003.6000      7.9517    -11.1450     24.2899      2.8339      0.2724     85.7259
  1003.7000      7.9517     -9.0683     23.9312      2.7996      0.1985     79.7538
  1003.8000      7.9674     -6.6862     22.9335      2.7603      0.1126     77.5932
  1003.9000      7.9674     -5.9062     22.0870      2.7475      0.1265     80.1983
  1004.0000      8.0244     -6.0206     21.8386      2.7493      0.1402     81.3751
  1004.1000      8.0244     -6.2515     21.6119      2.7532      0.0863     81.1795
  1004.2000      8.0244     -6.7488     21.2352      2.7614      0.1660     81.9905
  1004.3000      8.0528     -7.0998     20.9369      2.7671      0.1580     82.6555
  1004.4000      8.0528     -6.6857     20.8374      2.7603      0.1808     84.7126
  1004.5000      8.0660     -5.5582     21.2795      2.7417      0.1933     88.6472
  1004.6000      8.0660     -4.3231     22.1534      2.7213      0.0942     91.4239
  1004.7000      8.0660     -3.1807     22.7109      2.7025      0.1407     93.4047
  1004.8000      8.0404     -1.5994     22.9109      2.6764      0.1415     95.8434
  1004.9000      8.0404      0.1000     23.2654      2.6484      0.0748     96.8844
  1005.0000      8.0105      1.2885     23.7408      2.6287      0.1116     94.7337
  1005.1000      8.0105      2.1905     24.3051      2.6139      0.1109     92.5374
  1005.2000      8.0105      2.7998     24.9472      2.6038      0.0850     94.5854
  1005.3000      7.9919      2.5875     25.5861      2.6073      0.0707     98.8551
  1005.4000      7.9919      1.8787     26.3727      2.6190      0.1899    101.3875
  1005.5000      8.0820      1.8536     27.1080      2.6194      0.1488    103.0395
  1005.6000      8.0820      2.2279     27.4228      2.6132      0.0771    105.9158
  1005.7000      8.0820      1.9531     27.3738      2.6178      0.1852    109.0214
  1005.8000      8.0566      1.3535     27.3533      2.6277      0.1887    110.1201
  1005.9000      8.0566      1.0127     27.4063      2.6333      0.2067    112.0222
  1006.0000      8.0178      1.1787     27.2512      2.6306      0.2485    117.7145
  1006.1000      8.0178      1.8163     26.9025      2.6200      0.1674    123.3272
  1006.2000      8.0178      2.0242     26.7749      2.6166      0.1563    124.4559
  1006.3000      7.9756      1.4048     26.9108      2.6268      0.1533    122.2188
  1006.4000      7.9756      1.0423     27.0253      2.6328      0.2071    122.5746
  1006.5000      8.0245      2.0346     27.1971      2.6164      0.2211    127.6322
  1006.6000      8.0245      4.1175     27.7363      2.5821      0.1560    129.5486
  1006.7000      8.0245      6.1154     28.4765      2.5491      0.0707    124.2460
  1006.8000      8.0589      7.0675     29.0855      2.5334      0.0842    121.2590
  1006.9000      8.0589      6.5485     29.4541      2.5420      0.0231    125.6274
  1007.0000      8.0770      4.3539     29.3025      2.5782      0.0500    130.9175
  1007.1000      8.0770      1.3747     28.5316      2.6273      0.1663    133.5030
  1007.2000      8.0770     -0.6072     27.7361      2.6600      0.1578    135.7781
  1007.3000      8.1244     -1.8455     27.6109      2.6805      0.0740    138.8086
  1007.4000      8.1244     -4.0654     28.3296      2.7171      0.1345    140.8126
  1007.5000      8.1539     -6.4653     29.4548      2.7567      0.2419    143.7486
  1007.6000      8.1539     -6.2798     30.2577      2.7536      0.2693    148.3986
  1007.7000      8.1539     -2.8825     30.2037      2.6976      0.1827    145.9427
  1007.8000      8.1479      1.1754     29.7398      2.6306      0.0205    135.0026
  1007.9000      8.1479      3.9291     29.8114      2.5852      0.0362    129.1959
  1008.0000      8.1649      6.1910     30.4569      2.5478      0.0682    133.2998
  1008.1000      8.1649      7.8337     31.1000      2.5207     -0.0846    141.5361
  1008.2000      8.1649      7.2794     31.6409      2.5299      0.0180    150.9772
  1008.3000      8.1602      5.7324     32.0518      2.5554      0.1397    157.0152
  1008.4000      8.1602      5.2222     31.9488      2.5638      0.0928    158.2209
  1008.5000      8.1770      4.8829     31.2664      2.5694      0.1135    157.8667
  1008.6000      8.1770      3.2580     30.4701      2.5962      0.2070    154.0825
  1008.7000      8.1770      0.9913     30.1495      2.6336      0.2420    144.4172
  1008.8000      8.1464     -0.3049     30.5577      2.6550      0.2100    136.0552
  1008.9000      8.1464     -0.1945     31.4625      2.6532      0.2018    135.6571
  1009.0000      8.1344      0.4695     32.2362      2.6423      0.1286    141.6799
  1009.1000      8.1344      0.8073     32.3014      2.6367      0.1152    147.6865
  1009.2000      8.1344      1.0176     31.6382      2.6332      0.1196    145.6044
  1009.3000      8.1053      1.8253     30.4930      2.6199      0.1078    135.4958
  1009.4000      8.1053      2.8098     29.1871      2.6036      0.0851    126.1409
  1009.5000      8.1079      2.8114     28.2674      2.6036      0.0737    123.1268
  1009.6000      8.1079      1.8873     27.5742      2.6189      0.0404    122.7055
  1009.7000      8.1079      1.1579     26.7612      2.6309      0.1698    121.1501
  1009.8000      8.1057      1.3474     26.5535      2.6278      0.0708    120.5589
  1009.9000      8.1057      2.0465     26.9011      2.6162      0.0970    122.5072
