~Version Information
VERS.                      2.0: CWLS Log ASCII Standard - VERSION 2.0
WRAP.                       NO: One line per depth step
~Well Information Block
STRT.FT               275.0000: 
STOP.FT               811.2000: 
STEP.FT                 0.1000: 
NULL.                -999.2500: 
COMP.          Pioneer Natural Resources: COMPANY
WELL.          Barrelman 41-27: WELL
FLD.           Purgatoire River: FIELD
LOC.           371' FNL & 493' FEL--: LOCATION
PROV.                 Colorado: PROVINCE
CNTY.               Las Animas: COUNTRY
SRVC.                Patterson: SERVICE COMPANY
DATE.          Fri May 20 11:50:01 2005: LOG DATE
UWI.           05 071 08334 00: UNIQUE WELL ID
~Curve Information Block
DEPT.FT            0 000 00 00: Depth
DCAL.in                       : CDL Caliper
RHOB.g/cc                     : CDL Bulk Density
RHOC.g/cc                     : CDL Density Correction
DPOR.pu                       : CDL Density Porosity
NPOR.pu                       : Neutron Porosity
GR.GAPI                       : Gamma Ray
~Parameter Information Block
~A  Depth       DCAL        RHOB        RHOC        DPOR        NPOR         GR     
# ...
   582.2000      8.0117      2.5639      0.0411      5.2179     19.1894     72.6218
   582.3000      8.0110      2.5878      0.0222      3.7672     17.2502     76.1860
   582.4000      8.0110      2.6158      0.0866      2.0700     16.4259     79.1736
   582.5000      8.0124      2.6263      0.0972      1.4374     17.1461     78.4745
   582.6000      8.0124      2.6152      0.0782      2.1082     17.9358     75.9613
   582.7000      8.0124      2.5974      0.0802      3.1885     17.3080     73.7220
   582.8000      8.0146      2.5844      0.0682      3.9753     16.1165     70.7061
   582.9000      8.0146      2.5753      0.0572      4.5245     15.4600     68.1244
   583.0000      8.0141      2.5679      0.0342      4.9780     14.7966     68.2875
   583.1000      8.0141      2.5620      0.0593      5.3312     14.4855     68.6947
   583.2000      8.0141      2.5558      0.0287      5.7069     15.8312     66.5583
   583.3000      8.0116      2.5471      0.0399      6.2340     18.3309     64.2105
   583.4000      8.0116      2.5362      0.0107      6.8950     19.5222     63.8293
   583.5000      8.0096      2.5321      0.0064      7.1447     19.1555     64.1481
   583.6000      8.0096      2.5406      0.0343      6.6311     18.9295     65.4175
   583.7000      8.0096      2.5510      0.0568      6.0019     19.5637     66.2794
   583.8000      8.0090      2.5548      0.0248      5.7727     20.5292     63.9268
   583.9000      8.0090      2.5610      0.0425      5.3950     21.1232     63.0443
   584.0000      8.0107      2.5735      0.0547      4.6392     21.3829     66.9824
   584.1000      8.0107      2.5787      0.0632      4.3227     21.5561     68.6234
   584.2000      8.0107      2.5650      0.0524      5.1524     21.0970     66.5619
   584.3000      8.0126      2.5368      0.0255      6.8590     19.2337     68.9614
   584.4000      8.0126      2.5071      0.0217      8.6625     17.1191     74.9851
   584.5000      8.0135      2.4834     -0.0001     10.0965     16.6233     75.2104
   584.6000      8.0135      2.4699     -0.0015     10.9145     17.9700     70.2579
   584.7000      8.0135      2.4728      0.0235     10.7402     19.6616     69.3849
   584.8000      8.0151      2.4930      0.0403      9.5126     20.5065     72.9110
   584.9000      8.0151      2.5196      0.0431      7.9046     20.9990     73.2475
   585.0000      8.0152      2.5333      0.0404      7.0746     20.8451     68.4350
   585.1000      8.0152      2.5255      0.0558      7.5482     18.6017     63.2835
   585.2000      8.0152      2.5115      0.0095      8.3938     15.4759     62.9749
   585.3000      8.0135      2.5129      0.0245      8.3098     14.2524     70.5464
   585.4000      8.0135      2.5289      0.0458      7.3378     15.5657     82.4601
   585.5000      8.0126      2.5407      0.0777      6.6260     18.3374     89.0401
   585.6000      8.0126      2.5351      0.0699      6.9637     20.1954     88.1760
   585.7000      8.0126      2.5214      0.0315      7.7951     20.7863     84.8694
   585.8000      8.0115      2.5171      0.0399      8.0538     21.2104     80.2780
   585.9000      8.0115      2.5269      0.0599      7.4578     21.2055     75.4908
   586.0000      8.0109      2.5473      0.0843      6.2242     20.1170     74.5899
   586.1000      8.0109      2.5702      0.1020      4.8336     18.6032     75.6436
   586.2000      8.0109      2.5830      0.0948      4.0635     17.4026     72.7785
   586.3000      8.0119      2.5798      0.0911      4.2545     16.1030     68.1253
   586.4000      8.0119      2.5760      0.0510      4.4871     14.8186     64.2696
   586.5000      8.0132      2.5861      0.0826      3.8746     14.6988     59.5889
   586.6000      8.0132      2.5999      0.0645      3.0372     15.9832     55.9213
   586.7000      8.0132      2.6051      0.0698      2.7206     17.6311     57.5696
   586.8000      8.0127      2.6001      0.0800      3.0251     18.6013     63.0132
   586.9000      8.0127      2.5924      0.0577      3.4882     18.4564     67.6400
   587.0000      8.0115      2.5952      0.0665      3.3197     16.8979     71.6694
   587.1000      8.0115      2.6024      0.0946      2.8859     15.0912     75.6515
   587.2000      8.0115      2.5965      0.0646      3.2445     14.8001     75.9408
   587.3000      8.0120      2.5803      0.0396      4.2216     16.4672     73.1404
   587.4000      8.0120      2.5654      0.0623      5.1279     18.2802     72.4456
   587.5000      8.0122      2.5528      0.0517      5.8895     17.7949     74.7491
   587.6000      8.0122      2.5453      0.0226      6.3448     16.3353     76.3593
   587.7000      8.0122      2.5498      0.0475      6.0720     15.8006     75.2813
   587.8000      8.0123      2.5655      0.0529      5.1228     16.4645     71.9165
   587.9000      8.0123      2.5854      0.0743      3.9153     17.6394     66.9962
   588.0000      8.0136      2.5974      0.0845      3.1883     18.3499     63.3745
   588.1000      8.0136      2.5895      0.0744      3.6639     18.5423     63.1879
   588.2000      8.0136      2.5694      0.0375      4.8869     18.5856     63.5510
   588.3000      8.0144      2.5586      0.0393      5.5390     18.3770     60.4296
   588.4000      8.0144      2.5633      0.0447      5.2570     17.8525     55.4705
   588.5000      8.0143      2.5750      0.0321      4.5474     17.4496     53.8114
   588.6000      8.0143      2.5864      0.0828      3.8568     17.7674     57.4105
   588.7000      8.0143      2.5876      0.0873      3.7800     18.5680     62.7955
   588.8000      8.0141      2.5745      0.0709      4.5782     18.7661     64.5267
   588.9000      8.0141      2.5524      0.0732      5.9148     18.3599     64.3328
   589.0000      8.0141      2.5306      0.0397      7.2386     18.6113     65.9932
   589.1000      8.0141      2.5172      0.0443      8.0468     19.8928     67.3799
   589.2000      8.0141      2.5074      0.0634      8.6405     21.2809     66.7190
   589.3000      8.0193      2.4852      0.0644      9.9876     22.4556     63.5304
   589.4000      8.0193      2.4357      0.0473     12.9867     23.8957     60.1123
   589.5000      8.0299      2.3496      0.0051     18.2055     25.5617     60.2400
   589.6000      8.0299      2.2317     -0.0304     25.3489     27.1112     62.0416
   589.7000      8.0299      2.0992     -0.0787     33.3801     27.8578     61.8367
   589.8000      8.0396      1.9646     -0.1077     41.5392     27.2981     59.4237
   589.9000      8.0396      1.8309     -0.1596     49.6414     26.9962     57.9624
   590.0000      8.0528      1.7008     -0.1843     57.5264     28.5621     58.1773
   590.1000      8.0528      1.5844     -0.1935     64.5828     30.6393     56.3451
   590.2000      8.0528      1.5063     -0.1687     69.3170     31.2245     52.0284
   590.3000      8.0705      1.4978     -0.1130     69.8315     29.5065     47.9133
   590.4000      8.0705      1.5706      0.0419     65.4152     26.4595     46.0848
   590.5000      8.0989      1.7005      0.1660     57.5453     25.4630     48.4945
   590.6000      8.0989      1.8453      0.2356     48.7694     27.7744     54.5676
   590.7000      8.0989      1.9767      0.2722     40.8039     30.3864     61.4897
   590.8000      8.1745      2.0920      0.3084     33.8171     30.6827     68.6883
   590.9000      8.1745      2.1960      0.3468     27.5149     30.0834     76.1589
   591.0000      8.2868      2.2826      0.3389     22.2648     30.1905     81.6986
   591.1000      8.2868      2.3486      0.2974     18.2640     30.6839     86.6005
   591.2000      8.2868      2.4003      0.2414     15.1334     30.7911     95.1229
   591.3000      8.2987      2.4331      0.2214     13.1457     29.7227    106.7103
   591.4000      8.2987      2.4354      0.1594     13.0067     27.3283    115.3102
   591.5000      8.1717      2.4156      0.0936     14.2039     25.2880    117.3966
   591.6000      8.1717      2.4003      0.0656     15.1306     25.4850    116.8683
   591.7000      8.1717      2.4047      0.0753     14.8667     27.6991    118.1919
