~Version Information
VERS.                      2.0: CWLS Log ASCII Standard - VERSION 2.0
WRAP.                       NO: One line per depth step
~Well Information Block
STRT.FT               250.0000: 
STOP.FT               894.7000: 
STEP.FT                 0.1000: 
NULL.                -999.2500: 
COMP.          Pioneer Natural Resources: COMPANY
WELL.          Santisteven 13-22: WELL
FLD.           Purgatoire River: FIELD
LOC.           1861' FSL & 992' FWL----: LOCATION
PROV.                 Colorado: PROVINCE
CNTY.               Las Animas: COUNTRY
SRVC.                Patterson: SERVICE COMPANY
DATE.          Mon Apr 04 11:05:36 2005: LOG DATE
UWI.           05 071 08337 00: UNIQUE WELL ID
~Curve Information Block
DEPT.FT            0 000 00 00: Depth
DCAL.in                       : CDL Caliper
RHOB.g/cc                     : CDL Bulk Density
RHOC.g/cc                     : CDL Density Correction
DPOR.pu                       : CDL Density Porosity
NPOR.pu                       : Neutron Porosity
GR.GAPI                       : Gamma Ray
~Parameter Information Block
~A  Depth       DCAL        RHOB        RHOC        DPOR        NPOR         GR     
# ...
   701.2000      8.0552      2.5834      0.0346      4.0381     22.2210     87.6203
   701.3000      8.0559      2.5733      0.0157      4.6457     21.9524     89.5437
   701.4000      8.0559      2.5669      0.0176      5.0355     21.6804     91.0379
   701.5000      8.0558      2.5764     -0.0020      4.4623     21.5184     93.9828
   701.6000      8.0558      2.5965      0.0424      3.2422     21.5649     96.7468
   701.7000      8.0558      2.6116      0.0541      2.3276     21.7530     96.5548
   701.8000      8.0569      2.6115      0.0633      2.3334     21.6936     95.0550
   701.9000      8.0569      2.5988      0.0536      3.1021     21.4413     92.9771
   702.0000      8.0570      2.5889      0.0243      3.7056     21.5513     88.9768
   702.1000      8.0570      2.5912      0.0663      3.5633     21.8489     83.6409
   702.2000      8.0570      2.5939      0.0756      3.3982     21.8064     79.6361
   702.3000      8.0570      2.5855      0.0775      3.9074     21.5857     77.6339
   702.4000      8.0570      2.5755      0.0326      4.5141     21.4068     76.1327
   702.5000      8.0577      2.5771      0.0477      4.4163     21.2606     75.7712
   702.6000      8.0577      2.5818      0.0863      4.1303     21.3178     78.2408
   702.7000      8.0577      2.5730      0.0680      4.6647     21.5200     82.6499
   702.8000      8.0561      2.5521      0.0343      5.9318     21.6192     86.1502
   702.9000      8.0561      2.5385      0.0416      6.7592     21.6448     86.3021
   703.0000      8.0538      2.5522      0.0098      5.9266     21.8388     83.9798
   703.1000      8.0538      2.5912      0.0826      3.5633     22.0497     83.1369
   703.2000      8.0538      2.6274      0.1082      1.3705     21.8551     83.0157
   703.3000      8.0526      2.6394      0.0811      0.6426     21.5044     80.8229
   703.4000      8.0526      2.6322      0.0614      1.0798     21.4153     80.2565
   703.5000      8.0520      2.6194      0.0574      1.8574     21.4194     83.6218
   703.6000      8.0520      2.6086      0.0293      2.5099     21.3064     85.8191
   703.7000      8.0520      2.5999      0.0558      3.0374     21.2658     84.7766
   703.8000      8.0521      2.5881      0.0295      3.7503     21.4571     84.4321
   703.9000      8.0521      2.5724      0.0075      4.7054     21.6000     83.9858
   704.0000      8.0546      2.5576      0.0209      5.5977     21.5351     78.5977
   704.1000      8.0546      2.5514     -0.0011      5.9757     21.5381     73.0525
   704.2000      8.0546      2.5508      0.0140      6.0141     21.8199     75.4508
   704.3000      8.0579      2.5441      0.0113      6.4173     22.0506     81.4721
   704.4000      8.0579      2.5363     -0.0254      6.8892     21.8668     83.8259
   704.5000      8.0581      2.5414      0.0187      6.5826     21.6938     83.6148
   704.6000      8.0581      2.5559      0.0175      5.7045     21.9550     83.2909
   704.7000      8.0581      2.5671      0.0512      5.0218     22.2767     82.0681
   704.8000      8.0556      2.5737      0.0265      4.6251     22.2334     80.2838
   704.9000      8.0556      2.5813      0.0756      4.1609     21.7792     80.2377
   705.0000      8.0544      2.5909      0.0623      3.5824     21.0864     82.1571
   705.1000      8.0544      2.6012      0.0788      2.9595     20.4911     82.2547
   705.2000      8.0544      2.6062      0.0893      2.6528     20.1377     80.2343
   705.3000      8.0540      2.6010      0.0722      2.9714     20.0170     81.0942
   705.4000      8.0540      2.5936      0.0665      3.4154     20.1562     85.3980
   705.5000      8.0531      2.5956      0.0475      3.2964     20.3716     87.6421
   705.6000      8.0531      2.6067      0.0835      2.6249     20.5312     87.9657
   705.7000      8.0531      2.6205      0.0597      1.7908     20.7000     88.9767
   705.8000      8.0526      2.6319      0.0585      1.0960     20.9046     89.2982
   705.9000      8.0526      2.6309      0.0548      1.1553     21.1887     90.4379
   706.0000      8.0519      2.6151      0.0226      2.1136     21.3781     94.8794
   706.1000      8.0519      2.5964      0.0369      3.2459     21.1391    101.5846
   706.2000      8.0519      2.5820      0.0187      4.1199     20.6963    106.1370
   706.3000      8.0518      2.5736     -0.0027      4.6273     20.6457    102.6861
   706.4000      8.0518      2.5673      0.0163      5.0100     21.0113     93.5086
   706.5000      8.0521      2.5582     -0.0088      5.5647     21.3210     86.7912
   706.6000      8.0521      2.5531     -0.0046      5.8713     21.3314     85.2108
   706.7000      8.0521      2.5541      0.0273      5.8110     21.1528     87.1073
   706.8000      8.0546      2.5581      0.0059      5.5717     20.8403     91.1822
   706.9000      8.0546      2.5691     -0.0039      4.9054     20.6743     93.9454
   707.0000      8.0563      2.5808      0.0438      4.1960     21.1285     90.6359
   707.1000      8.0563      2.5843      0.0058      3.9848     22.1344     83.5657
   707.2000      8.0563      2.5871      0.0517      3.8101     23.0759     79.8977
   707.3000      8.0537      2.5907      0.0530      3.5931     23.4993     80.0014
   707.4000      8.0537      2.5862      0.0536      3.8681     23.6170     80.5593
   707.5000      8.0507      2.5816      0.0087      4.1449     23.7587     78.7376
   707.6000      8.0507      2.5944      0.0601      3.3723     23.8803     72.6305
   707.7000      8.0507      2.6169      0.0911      2.0063     23.9035     66.1366
   707.8000      8.0527      2.6248      0.1123      1.5258     23.9768     63.8998
   707.9000      8.0527      2.6096      0.0737      2.4463     24.3820     66.6443
   708.0000      8.0571      2.5912     -0.0038      3.5658     24.8555     73.4908
   708.1000      8.0571      2.5920      0.0205      3.5137     24.7435     82.3091
   708.2000      8.0571      2.6035      0.0669      2.8212     24.2671     88.9141
   708.3000      8.0597      2.6080      0.0102      2.5473     24.1541     87.4767
   708.4000      8.0597      2.6098      0.0040      2.4377     24.4205     79.7467
   708.5000      8.0646      2.6161      0.0417      2.0543     24.6893     74.9545
   708.6000      8.0646      2.6277      0.0725      1.3543     25.0787     76.1007
   708.7000      8.0646      2.6407      0.0762      0.5619     25.6678     79.8055
   708.8000      8.0744      2.6422      0.0806      0.4697     25.8791     83.4667
   708.9000      8.0744      2.6225      0.0556      1.6689     25.5603     84.8978
   709.0000      8.0814      2.5910      0.0382      3.5766     25.5592     86.2061
   709.1000      8.0814      2.5691     -0.0035      4.9032     26.1732     90.2460
   709.2000      8.0814      2.5643     -0.0003      5.1965     26.5821     90.0132
   709.3000      8.0826      2.5569      0.0343      5.6432     26.3744     82.7013
   709.4000      8.0826      2.5299      0.0014      7.2784     25.9474     78.4360
   709.5000      8.0812      2.4944     -0.0125      9.4327     25.6573     82.2029
   709.6000      8.0812      2.4670     -0.0095     11.0910     25.5476     89.6759
   709.7000      8.0812      2.4502      0.0201     12.1075     25.2980     97.5299
   709.8000      8.0803      2.4438     -0.0064     12.4960     24.6870    105.9428
   709.9000      8.0803      2.4478      0.0357     12.2543     23.7437    115.3909
   710.0000      8.0801      2.4558      0.0557     11.7687     22.5781    121.9292
   710.1000      8.0801      2.4660      0.0274     11.1539     21.5180    125.0849
   710.2000      8.0801      2.4786      0.0927     10.3880     20.8332    128.1906
   710.3000      8.0802      2.4890      0.0581      9.7593     20.3159    128.8496
   710.4000      8.0802      2.4919      0.1047      9.5824     19.7028    125.8500
   710.5000      8.0823      2.4854      0.0642      9.9750     19.3282    123.3830
   710.6000      8.0823      2.4785      0.0876     10.3942     19.5276    124.8543
   710.7000      8.0823      2.4838      0.0473     10.0706     20.1073    133.8427
