~Version Information
VERS.                      2.0: CWLS Log ASCII Standard - VERSION 2.0
WRAP.                       NO: One line per depth step
~Well Information Block
STRT.FT                -8.2500: 
STOP.FT              1119.7500: 
STEP.FT                 0.2500: 
NULL.                -999.2500: 
COMP.          Pioneer Natural Resources: COMPANY
WELL.             Linda T 32-3: WELL
FLD.           Purgatorie River: FIELD
LOC.           1350' FNL & 2290' FEL------: LOCATION
PROV.                       CO: PROVINCE
CNTY.               Las Animas: COUNTRY
SRVC.                         : SERVICE COMPANY
DATE.          Thu Feb 10 08:20:40 2005: LOG DATE
UWI.          005 071 08215   : UNIQUE WELL ID
~Curve Information Block
DEPT.FT            0 000 00 00: Depth
CCL.                          : Casing Collar Locator
TT3.usec                      : CBL 3' Travel Time
AMP3.mV                       : CBL 3' Amplitude
GR.GAPI                       : Gamma Ray
~Parameter Information Block
~A  Depth       CCL         TT3         AMP3         GR     
# ...
   427.2500      0.0000    701.9444     10.3554     72.8988
   427.5000      0.0000    658.7638     10.3441     75.5281
   427.7500      0.0000    595.5395     10.2752     76.9441
   428.0000      0.0000    529.5808     10.1590     76.7124
   428.2500      0.0000    486.9494     10.0026     75.7045
   428.5000      0.0000    487.2095      9.8167     75.8255
   428.7500      0.0000    530.4478      9.6195     78.4254
   429.0000      0.0000    597.3403      9.4331     83.4029
   429.2500      0.0000    662.2538      9.2724     89.7329
   429.5000      0.0000    708.4830      9.1355     96.2515
   429.7500      0.0000    733.7075      9.0069    101.8735
   430.0000      0.0000    744.4612      8.8731    105.7724
   430.2500      0.0000    748.1265      8.7309    107.7406
   430.5000      0.0000    749.1506      8.5844    108.1029
   430.7500      0.0000    749.3187      8.4376    107.1265
   431.0000      0.0000    749.0809      8.2938    104.8112
   431.2500      0.0000    748.3740      8.1589    101.5084
   431.5000      0.0000    746.8453      8.0437     98.5392
   431.7500      0.0000    743.8608      7.9620     97.7482
   432.0000      0.0000    738.8159      7.9235    100.2070
   432.2500      0.0000    731.8176      7.9300    105.3058
   432.5000      0.0000    724.1498      7.9773    110.9964
   432.7500      0.0000    717.8088      8.0637    114.9917
   433.0000      0.0000    714.3413      8.1940    116.1869
   433.2500      0.0000    713.9610      8.3732    115.2875
   433.5000      0.0000    715.5829      8.5958    114.1456
   433.7500      0.0000    717.6541      8.8466    114.2373
   434.0000      0.0000    719.0757      9.1084    115.2918
   434.2500      0.0000    719.4030      9.3644    115.2908
   434.5000      0.0000    718.4586      9.5905    112.4428
   434.7500      0.0000    716.3211      9.7556    107.3660
   435.0000      0.0000    713.7194      9.8366    102.8288
   435.2500      0.0000    711.9989      9.8268    101.2139
   435.5000      0.0000    712.5425      9.7157    102.5277
   435.7500      0.0000    716.1466      9.4663    104.5254
   436.0000      0.0000    722.5626      9.0337    104.1736
   436.2500      0.0000    730.4597      8.4190     99.4406
   436.5000      0.0000    738.2165      7.7012     90.6501
   436.7500      0.0000    744.9786      7.0075     80.3046
   437.0000      0.0000    750.7622      6.4523     71.2564
   437.2500      0.0000    755.5001      6.0961     64.9359
   437.5000      0.0000    758.4071      5.9415     61.1808
   437.7500      0.0000    758.7036      5.9481     59.2670
   438.0000      0.0000    756.9078      6.0498     58.8930
   438.2500      0.0000    754.8990      6.1814     60.4906
   438.5000     -2.0000    754.0329      6.3135     64.8971
   438.7500     -2.0000    753.1930      6.4678     72.5995
   439.0000      0.0000    748.6928      6.7111     83.0571
   439.2500      0.0000    736.4533      7.1304     94.7646
   439.5000      0.0000    716.3110      7.7684    105.8076
   439.7500      0.0000    696.0709      8.5340    114.2958
   440.0000      0.0000    688.5555      9.2067    118.9668
   440.2500      0.0000    700.4753      9.5926    120.1527
   440.5000      0.0000    725.4384      9.6679    119.9236
   440.7500      0.0000    750.5620      9.5417    120.5168
   441.0000      0.0000    767.5676      9.3187    122.6162
   441.2500      0.0000    775.4213      9.0457    125.4626
   441.5000      0.0000    776.0262      8.7545    128.1245
   441.7500      0.0000    771.3620      8.4953    130.0829
   442.0000      0.0000    763.7728      8.3102    131.0189
   442.2500      0.0000    756.0574      8.1958    130.6828
   442.5000      0.0000    750.2608      8.1142    128.7870
   442.7500      0.0000    746.9152      8.0390    124.8177
   443.0000      0.0000    745.4539      7.9801    118.3670
   443.2500      0.0000    745.0659      7.9666    110.0414
   443.5000      0.0000    745.1136      8.0164    101.7134
   443.7500      0.0000    745.1990      8.1201     95.4990
   444.0000      0.0000    745.1600      8.2435     92.5287
   444.2500      0.0000    745.0569      8.3488     92.7147
   444.5000      0.0000    745.0582      8.4232     95.2627
   444.7500      0.0000    745.2952      8.4831     99.1610
   445.0000      0.0000    745.8052      8.5418    103.5957
   445.2500      0.0000    746.6322      8.5868    108.1851
   445.5000      0.0000    747.6057      8.6011    112.7428
   445.7500      0.0000    747.4447      8.6005    116.9672
   446.0000      0.0000    742.7515      8.6399    120.5080
   446.2500      0.0000    729.2177      8.7845    123.0789
   446.5000      0.0000    706.4704      9.0693    124.2773
   446.7500      0.0000    682.1853      9.4688    123.7139
   447.0000      0.0000    667.8600      9.9024    121.7932
   447.2500      0.0000    667.1595     10.2863    120.1819
   447.5000      0.0000    670.7912     10.5887    120.8075
   447.7500      0.0000    666.7080     10.8267    124.0610
   448.0000      0.0000    653.5844     11.0244    128.1001
   448.2500      0.0000    638.9227     11.2021    130.0806
   448.5000      0.0000    623.7338     11.4040    128.4404
   448.7500      0.0000    596.0271     11.7024    124.4290
   449.0000      0.0000    544.4554     12.1590    121.3296
   449.2500      0.0000    474.6032     12.7872    121.7820
   449.5000      0.0000    406.2960     13.5480    125.7507
   449.7500      0.0000    356.5710     14.3642    130.7309
   450.0000      0.0000    328.9732     15.1339    133.3974
   450.2500      0.0000    317.0866     15.7641    131.3925
   450.5000      0.0000    313.0390     16.2212    124.5901
   450.7500      0.0000    311.8984     16.5532    115.2045
   451.0000      0.0000    311.5901     16.8529    106.3394
   451.2500      0.0000    311.4571     17.1967    100.0330
   451.5000      0.0000    311.3462     17.6070     96.5325
   451.7500      0.0000    311.2255     18.0555     95.0969
   452.0000      0.0000    311.0999     18.4891     94.9602
   452.2500      0.0000    310.9856     18.8541     95.4771
   452.5000      0.0000    310.9106     19.1067     95.9391
   452.7500      0.0000    310.8999     19.2136     95.6716
   453.0000      0.0000    310.9581     19.1597     94.2260
   453.2500      0.0000    311.0673     18.9610     91.4316
   453.5000      0.0000    311.1982     18.6593     87.5362
   453.7500      0.0000    311.3239     18.2981     83.4506
   454.0000      0.0000    311.4281     17.9079     80.5835
   454.2500      0.0000    311.5111     17.5096     79.8864
   454.5000      0.0000    311.5921     17.1109     80.9362
   454.7500      0.0000    311.7091     16.6873     82.2548
   455.0000      0.0000    311.9119     16.1829     82.7559
   455.2500      0.0000    312.2673     15.5486     82.7152
   455.5000      0.0000    312.8998     14.7926     83.1907
   455.7500      0.0000    314.3332     13.9937     84.8685
   456.0000      0.0000    318.4095     13.2576     87.8612
   456.2500      0.0000    329.7732     12.6483     92.1433
   456.5000      0.0000    356.3394     12.1578     97.3983
   456.7500      0.0000    405.8868     11.7319    102.6121
   457.0000      0.0000    478.6454     11.3199    106.5035
   457.2500      0.0000    562.4890     10.9085    108.4169
   457.5000      0.0000    638.2214     10.5260    108.6713
   457.7500      0.0000    691.8031     10.2172    108.2854
   458.0000      0.0000    721.5633     10.0055    108.3149
   458.2500      0.0000    734.7692      9.8710    109.1413
   458.5000      0.0000    739.7788      9.7702    110.4512
   458.7500      0.0000    741.6868      9.6815    111.8983
   459.0000      0.0000    742.5833      9.6254    113.4448
   459.2500      0.0000    743.1931      9.6357    114.8656
   459.5000      0.0000    743.7642      9.7156    115.3408
   459.7500      0.0000    744.3033      9.8250    114.1429
   460.0000      0.0000    744.7043      9.9071    111.9160
   460.2500      0.0000    744.9345      9.9282    110.6071
   460.5000      0.0000    745.0571      9.8965    111.5936
