~Version Information
VERS.                      2.0: CWLS Log ASCII Standard - VERSION 2.0
WRAP.                       NO: One line per depth step
~Well Information Block
STRT.FT               702.7000: 
STOP.FT              2529.2000: 
STEP.FT                 0.1000: 
NULL.                -999.2500: 
COMP.          Pioneer Natural Resources: COMPANY
WELL.          Aztec Federal 41-15: WELL
FLD.           Purgatorie River: FIELD
LOC.           706' FNL & 1253' FEL: LOCATION
CNTY.               Las Animas: COUNTY
SRVC.          Superior Well Services: SERVICE COMPANY
DATE.          Tue Mar 18 09-36-47 2008: LOG DATE
UWI.           05-071-08342-00: UNIQUE WELL ID
STAT.                       CO: STATE
~Curve Information Block
DEPT.FT            0 000 00 00: Depth
DCAL.in                       : CDL Caliper
DPOR.pu                       : CDL Density Porosity
GR.GAPI                       : Gamma Ray
RHOB.g/cc                     : CDL Bulk Density
RHOC.g/cc                     : CDL Density Correction
~Parameter Information Block
~A  Depth       DCAL        DPOR         GR         RHOB        RHOC    
# ...
  1800.3000      7.8585      4.8364    142.3070      2.5702      0.0979
  1800.4000      7.8725      4.2718    140.8394      2.5795      0.1278
  1800.5000      7.8883      3.6136    141.8362      2.5904      0.1585
  1800.6000      7.9054      3.2588    144.6758      2.5962      0.1748
  1800.7000      7.9229      4.0342    147.0687      2.5834      0.1659
  1800.8000      7.9398      6.6056    148.3032      2.5410      0.1359
  1800.9000      7.9550     11.4707    148.0424      2.4607      0.0969
  1801.0000      7.9674     17.1731    146.3056      2.3666      0.0733
  1801.1000      7.9757     21.4185    144.0903      2.2966      0.0812
  1801.2000      7.9793     24.6425    142.0264      2.2434      0.1056
  1801.3000      7.9781     28.3045    138.9418      2.1830      0.1370
  1801.4000      7.9738     32.9999    132.9755      2.1055      0.1729
  1801.5000      7.9695     39.0429    123.7085      2.0058      0.1923
  1801.6000      7.9694     46.1231    114.2620      1.8890      0.1832
  1801.7000      7.9776     53.2820    109.2403      1.7708      0.1589
  1801.8000      7.9966     59.8711    108.2423      1.6621      0.1384
  1801.9000      8.0266     65.7001    105.6378      1.5659      0.1242
  1802.0000      8.0643     69.9430     98.5786      1.4959      0.1083
  1802.1000      8.1035     71.7453     90.5956      1.4662      0.0892
  1802.2000      8.1361     71.6052     84.6237      1.4685      0.0708
  1802.3000      8.1540     70.8243     80.6493      1.4814      0.0493
  1802.4000      8.1525     69.7634     79.9352      1.4989      0.0178
  1802.5000      8.1316     67.8681     84.1100      1.5302     -0.0243
  1802.6000      8.0964     64.9357     89.0537      1.5786     -0.0743
  1802.7000      8.0553     60.5582     90.5278      1.6508     -0.1179
  1802.8000      8.0162     53.4030     91.7919      1.7688     -0.1252
  1802.9000      7.9836     43.6998     96.5731      1.9290     -0.0897
  1803.0000      7.9575     33.7012    101.6060      2.0939     -0.0425
  1803.1000      7.9343     24.9642    103.5025      2.2381     -0.0114
  1803.2000      7.9105     17.3306    104.1395      2.3640      0.0064
  1803.3000      7.8844     10.9421    105.0459      2.4695      0.0239
  1803.4000      7.8579      6.8923    105.7883      2.5363      0.0365
  1803.5000      7.8342      5.4002    106.4267      2.5609      0.0363
  1803.6000      7.8166      5.7648    106.8397      2.5549      0.0252
  1803.7000      7.8062      6.4775    106.4602      2.5431      0.0173
  1803.8000      7.8020      6.2277    105.9474      2.5472      0.0220
  1803.9000      7.8021      5.1198    104.6291      2.5655      0.0339
  1804.0000      7.8046      4.2490    101.7767      2.5799      0.0421
  1804.1000      7.8084      4.2288    100.4799      2.5802      0.0412
  1804.2000      7.8131      4.7089    102.2272      2.5723      0.0364
  1804.3000      7.8181      5.1434    103.8223      2.5651      0.0389
  1804.4000      7.8221      5.4919    103.5057      2.5594      0.0477
  1804.5000      7.8229      5.6555    103.1953      2.5567      0.0528
  1804.6000      7.8184      5.1837    104.6260      2.5645      0.0530
  1804.7000      7.8076      4.5137    108.0529      2.5755      0.0516
  1804.8000      7.7920      4.6433    111.3591      2.5734      0.0437
  1804.9000      7.7752      5.3489    111.4981      2.5617      0.0294
  1805.0000      7.7617      5.9583    108.8667      2.5517      0.0180
  1805.1000      7.7547      6.7168    107.0585      2.5392      0.0133
  1805.2000      7.7553      7.5786    107.2350      2.5250      0.0149
  1805.3000      7.7620      7.9098    107.6521      2.5195      0.0206
  1805.4000      7.7721      7.8995    108.7592      2.5197      0.0259
  1805.5000      7.7832      7.7903    112.4355      2.5215      0.0279
  1805.6000      7.7938      7.3509    116.9675      2.5287      0.0274
  1805.7000      7.8037      6.9978    117.2242      2.5345      0.0283
  1805.8000      7.8126      6.7432    111.4426      2.5387      0.0356
  1805.9000      7.8200      5.9729    105.3609      2.5514      0.0514
  1806.0000      7.8250      4.8249    105.5774      2.5704      0.0725
  1806.1000      7.8265      3.7216    111.9126      2.5886      0.0915
  1806.2000      7.8241      2.9007    119.7893      2.6021      0.0993
  1806.3000      7.8186      2.3639    126.0492      2.6110      0.0982
  1806.4000      7.8113      2.4832    129.2812      2.6090      0.0935
  1806.5000      7.8039      3.7937    129.4679      2.5874      0.0853
  1806.6000      7.7975      5.5422    128.8994      2.5586      0.0777
  1806.7000      7.7927      6.7022    130.7951      2.5394      0.0727
  1806.8000      7.7898      7.5421    133.7901      2.5256      0.0713
  1806.9000      7.7889      9.5597    133.7965      2.4923      0.0769
  1807.0000      7.7906     12.9632    130.8708      2.4361      0.0870
  1807.1000      7.7956     15.2533    126.8943      2.3983      0.1042
  1807.2000      7.8044     15.3002    126.0288      2.3975      0.1311
  1807.3000      7.8176     15.0642    130.5503      2.4014      0.1516
  1807.4000      7.8353     17.2753    134.8629      2.3650      0.1342
  1807.5000      7.8572     22.5151    133.6582      2.2785      0.0687
  1807.6000      7.8819     28.2495    128.8636      2.1839     -0.0046
  1807.7000      7.9071     32.0781    124.4435      2.1207     -0.0478
  1807.8000      7.9292     34.0902    120.2605      2.0875     -0.0704
  1807.9000      7.9444     33.8884    115.8759      2.0908     -0.0821
  1808.0000      7.9503     29.5157    111.9986      2.1630     -0.0687
  1808.1000      7.9467     21.4420    110.1355      2.2962     -0.0307
  1808.2000      7.9359     13.9281    110.7802      2.4202      0.0046
  1808.3000      7.9218      9.8790    111.4009      2.4870      0.0217
  1808.4000      7.9078      8.1148    111.3380      2.5161      0.0294
  1808.5000      7.8960      6.8953    112.2494      2.5362      0.0347
  1808.6000      7.8870      5.8303    112.6217      2.5538      0.0354
  1808.7000      7.8803      5.4102    111.0493      2.5607      0.0273
  1808.8000      7.8753      5.8230    108.7333      2.5539      0.0121
  1808.9000      7.8716      6.3815    107.8247      2.5447      0.0021
  1809.0000      7.8689      6.3292    110.0755      2.5456      0.0063
  1809.1000      7.8669      5.3554    114.4253      2.5616      0.0169
  1809.2000      7.8650      4.1113    116.2854      2.5822      0.0192
  1809.3000      7.8622      3.9429    113.3382      2.5849      0.0055
  1809.4000      7.8572      4.8945    110.6527      2.5692     -0.0194
  1809.5000      7.8491      5.1561    110.6782      2.5649     -0.0389
  1809.6000      7.8383      3.3629    108.6103      2.5945     -0.0321
  1809.7000      7.8262      0.8968    102.4037      2.6352     -0.0033
  1809.8000      7.8152     -0.2171     94.7480      2.6536      0.0164
  1809.9000      7.8072     -0.4665     89.9542      2.6577      0.0199
  1810.0000      7.8030     -1.1975     90.3260      2.6698      0.0272
  1810.1000      7.8022     -2.5443     90.8497      2.6920      0.0488
  1810.2000      7.8034     -3.6672     88.6759      2.7105      0.0726
  1810.3000      7.8053     -2.8430     86.6679      2.6969      0.0762
  1810.4000      7.8066     -0.7282     85.5379      2.6620      0.0629
  1810.5000      7.8067      0.1317     85.1501      2.6478      0.0572
  1810.6000      7.8055     -0.2471     86.9845      2.6541      0.0611
  1810.7000      7.8036     -1.0761     90.9408      2.6678      0.0647
  1810.8000      7.8013     -2.0742     94.4780      2.6842      0.0695
  1810.9000      7.7986     -2.3432     94.5544      2.6887      0.0742
  1811.0000      7.7955     -1.3825     89.8140      2.6728      0.0679
  1811.1000      7.7920      0.6603     83.3150      2.6391      0.0454
  1811.2000      7.7884      2.5508     80.7630      2.6079      0.0243
  1811.3000      7.7852      2.8250     82.4193      2.6034      0.0233
  1811.4000      7.7829      2.1012     83.6082      2.6153      0.0318
