~Version Information
VERS.                      2.0: CWLS Log ASCII Standard - VERSION 2.0
WRAP.                       NO: One line per depth step
~Well Information Block
STRT.FT               640.0000: 
STOP.FT               927.0000: 
STEP.FT                 0.2500: 
NULL.                -999.2500: 
COMP.          Pioneer Natural Resources: COMPANY
WELL.          Claim Jumper 41-22: WELL
FLD.           Purgatoire River: FIELD
LOC.           1120' FNL & 977' FEL: LOCATION
PROV.                 Colorado: PROVINCE
CNTY.               Las Animas: COUNTRY
SRVC.                Patterson: SERVICE COMPANY
DATE.          Wed Jun 22 15:44:21 2005: LOG DATE
UWI.           05-071-08405-00: UNIQUE WELL ID
~Curve Information Block
DEPT.FT            0 000 00 00: Depth
DIR.Ohm-m                     : IEL Induction Resistivity
GR.GAPI                       : Gamma Ray
~Parameter Information Block
~A  Depth       DIR          GR     
# ...
   695.7500     15.5280     81.0468
   696.0000     15.6678     84.9567
   696.2500     15.8474     89.9314
   696.5000     16.0124     97.2345
   696.7500     16.1155     99.7650
   697.0000     16.1336     98.3434
   697.2500     16.0603     94.6143
   697.5000     15.8919     87.5563
   697.7500     15.6317     83.3484
   698.0000     15.3049     79.7490
   698.2500     14.9606     80.1364
   698.5000     14.6540     85.6044
   698.7500     14.4276     91.7289
   699.0000     14.3043    101.7257
   699.2500     14.2906    107.4557
   699.5000     14.3809    113.8527
   699.7500     14.5583    116.8309
   700.0000     14.7954    119.5355
   700.2500     15.0553    120.0878
   700.5000     15.2969    119.2169
   700.7500     15.4832    117.9807
   701.0000     15.5942    116.3663
   701.2500     15.6380    116.0390
   701.5000     15.6497    116.9483
   701.7500     15.6785    118.2554
   702.0000     15.7718    120.6291
   702.2500     15.9667    122.1630
   702.5000     16.2862    124.0655
   702.7500     16.7339    124.9584
   703.0000     17.2863    125.3570
   703.2500     17.8894    124.6420
   703.5000     18.4680    121.8963
   703.7500     18.9501    119.3302
   704.0000     19.2901    115.2738
   704.2500     19.4763    112.4645
   704.5000     19.5210    107.0518
   704.7500     19.4474    101.9895
   705.0000     19.2825     92.3818
   705.2500     19.0544     85.6958
   705.5000     18.7885     77.7486
   705.7500     18.5025     74.9600
   706.0000     18.2028     75.2548
   706.2500     17.8866     78.2179
   706.5000     17.5487     85.6548
   706.7500     17.1843     91.6265
   707.0000     16.7878    100.3561
   707.2500     16.3526    105.2551
   707.5000     15.8759    110.4393
   707.7500     15.3685    112.1502
   708.0000     14.8567    111.8204
   708.2500     14.3750    109.9479
   708.5000     13.9541    106.2482
   708.7500     13.6136    104.3129
   709.0000     13.3595    102.7528
   709.2500     13.1862    101.6831
   709.5000     13.0782     97.8425
   709.7500     13.0125     93.5517
   710.0000     12.9651     86.7462
   710.2500     12.9208     83.8512
   710.5000     12.8836     83.6831
   710.7500     12.8769     85.8853
   711.0000     12.9345     90.4367
   711.2500     13.0860     93.3260
   711.5000     13.3466     97.3475
   711.7500     13.7130    100.2230
   712.0000     14.1639    104.8532
   712.2500     14.6653    107.4599
   712.5000     15.1830    108.6103
   712.7500     15.6987    106.3530
   713.0000     16.2209     97.7794
   713.2500     16.7827     89.5433
   713.5000     17.4273     76.4643
   713.7500     18.1912     68.7749
   714.0000     19.0952     59.7471
   714.2500     20.1418     55.4449
   714.5000     21.3172     52.0677
   714.7500     22.5922     52.3628
   715.0000     23.9280     56.5275
   715.2500     25.2873     60.7325
   715.5000     26.6425     66.4059
   715.7500     27.9609     68.5079
   716.0000     29.1789     68.7235
   716.2500     30.2019     67.4375
   716.5000     30.9477     64.2959
   716.7500     31.3928     61.6614
   717.0000     31.5724     57.4360
   717.2500     31.5467     54.9740
   717.5000     31.3770     52.5899
   717.7500     31.1243     51.9980
   718.0000     30.8543     52.4754
   718.2500     30.6285     53.5331
   718.5000     30.4820     55.4496
   718.7500     30.3993     56.1924
   719.0000     30.3019     55.5427
   719.2500     30.0730     54.0841
   719.5000     29.6152     51.7038
   719.7500     28.9066     50.8182
   720.0000     28.0088     51.1846
   720.2500     27.0283     52.4561
   720.5000     26.0724     55.3014
   720.7500     25.2249     57.4737
   721.0000     24.5406     60.8522
   721.2500     24.0436     63.1366
   721.5000     23.7245     66.4031
   721.7500     23.5380     68.3046
   722.0000     23.4117     70.7423
   722.2500     23.2737     72.2835
   722.5000     23.0897     74.7511
   722.7500     22.8846     76.4074
   723.0000     22.7254     78.1691
   723.2500     22.6775     78.2908
   723.5000     22.7673     76.5648
   723.7500     22.9718     74.6315
   724.0000     23.2370     71.9055
   724.2500     23.5076     70.5762
   724.5000     23.7511     68.7700
   724.7500     23.9628     67.1151
   725.0000     24.1566     63.5674
   725.2500     24.3520     60.8252
   725.5000     24.5640     57.4400
   725.7500     24.7990     56.4915
   726.0000     25.0564     57.5933
   726.2500     25.3323     59.4602
   726.5000     25.6200     61.9899
   726.7500     25.9062     62.6179
   727.0000     26.1710     62.0908
   727.2500     26.3971     61.5437
   727.5000     26.5854     61.8085
   727.7500     26.7585     63.1117
   728.0000     26.9397     66.4034
   728.2500     27.1224     68.6578
   728.5000     27.2564     70.3976
   728.7500     27.2675     69.9382
   729.0000     27.0964     67.3219
   729.2500     26.7314     65.0768
   729.5000     26.2171     62.1510
   729.7500     25.6349     60.8886
   730.0000     25.0740     60.3650
   730.2500     24.6069     60.9195
   730.5000     24.2790     62.4080
   730.7500     24.1075     63.1436
   731.0000     24.0800     63.1217
   731.2500     24.1543     62.5834
   731.5000     24.2697     62.0865
   731.7500     24.3731     62.4253
   732.0000     24.4418     63.7278
   732.2500     24.4826     64.5460
   732.5000     24.5104     64.8082
   732.7500     24.5322     64.3025
   733.0000     24.5508     63.2244
   733.2500     24.5772     62.7041
   733.5000     24.6295     62.2111
   733.7500     24.7159     61.6955
   734.0000     24.8137     60.1212
   734.2500     24.8678     58.6673
   734.5000     24.8165     56.6816
   734.7500     24.6358     55.8899
   735.0000     24.3685     55.6761
   735.2500     24.1089     56.0824
   735.5000     23.9560     57.2799
   735.7500     23.9700     58.3621
   736.0000     24.1561     60.2901
   736.2500     24.4771     61.7328
   736.5000     24.8737     64.1041
   736.7500     25.2738     65.8286
   737.0000     25.5911     68.5896
   737.2500     25.7357     70.4359
   737.5000     25.6506     72.7906
   737.7500     25.3493     73.6246
   738.0000     24.9148     72.8210
   738.2500     24.4552     70.7282
   738.5000     24.0528     66.2979
   738.7500     23.7378     63.5763
   739.0000     23.4939     61.0655
   739.2500     23.2819     60.4933
   739.5000     23.0654     61.1918
   739.7500     22.8288     62.8776
   740.0000     22.5822     67.2667
   740.2500     22.3543     70.8541
   740.5000     22.1811     75.5992
   740.7500     22.0901     77.5509
   741.0000     22.0865     78.1636
   741.2500     22.1458     77.2410
   741.5000     22.2219     74.9050
   741.7500     22.2707     73.5215
   742.0000     22.2751     72.8063
   742.2500     22.2523     73.3946
   742.5000     22.2356     75.1691
   742.7500     22.2463     76.1606
   743.0000     22.2815     76.2921
   743.2500     22.3208     75.5128
   743.5000     22.3451     74.0673
   743.7500     22.3514     73.4125
   744.0000     22.3573     72.6519
   744.2500     22.3943     71.6882
   744.5000     22.4919     68.8450
   744.7500     22.6616     66.3454
   745.0000     22.8911     63.3668
   745.2500     23.1552     62.6835
   745.5000     23.4349     63.4128
   745.7500     23.7300     64.3886
   746.0000     24.0539     65.8976
   746.2500     24.4208     66.9471
   746.5000     24.8377     68.4494
   746.7500     25.3087     69.0732
   747.0000     25.8434     69.0629
   747.2500     26.4600     68.4703
   747.5000     27.1775     66.7974
   747.7500     28.0017     65.0366
   748.0000     28.9086     61.1713
   748.2500     29.8332     57.8702
   748.5000     30.6775     52.7291
   748.7500     31.3480     50.0394
   749.0000     31.8033     48.2741
   749.2500     32.0703     48.5514
   749.5000     32.2061     49.9017
   749.7500     32.2437     50.7704
   750.0000     32.1657     52.1321
   750.2500     31.9204     53.6139
   750.5000     31.4564     57.1630
   750.7500     30.7449     60.0965
   751.0000     29.7874     64.2309
   751.2500     28.6212     66.2710
