~Version Information
VERS.                      2.0: CWLS Log ASCII Standard - VERSION 2.0
WRAP.                       NO: One line per depth step
~Well Information Block
STRT.FT               510.0000: 
STOP.FT              1861.5000: 
STEP.FT                 0.1000: 
NULL.                -999.2500: 
COMP.          Pioneer Natural Resources: COMPANY
WELL.           Guajardo 24-16: WELL
FLD.           Purgatoire River: FIELD
LOC.           883' FSL & 2147' FWL: LOCATION
PROV.                 Colorado: PROVINCE
CNTY.               Las Animas: COUNTRY
SRVC.                Patterson: SERVICE COMPANY
DATE.          Mon Aug 08 09:13:01 2005: LOG DATE
UWI.           05 071 08377 00: UNIQUE WELL ID
~Curve Information Block
DEPT.FT            0 000 00 00: Depth
DCAL.in                       : CDL Caliper
RHOB.g/cc                     : CDL Bulk Density
RHOC.g/cc                     : CDL Density Correction
DPOR.pu                       : CDL Density Porosity
GR.GAPI                       : Gamma Ray
NPOR.pu                       : Neutron Porosity
~Parameter Information Block
~A  Depth       DCAL        RHOB        RHOC        DPOR         GR         NPOR    
# ...
  1047.6000      8.0503      2.5763      0.0526      4.4656     89.2635     25.0389
  1047.7000      8.0503      2.5962      0.0474      3.2635     95.5280     25.2752
  1047.8000      8.0433      2.5938      0.0636      3.4086    102.7138     25.1244
  1047.9000      8.0433      2.5772      0.0176      4.4146    102.8385     24.7568
  1048.0000      8.0483      2.5627      0.0317      5.2911     95.7059     24.8080
  1048.1000      8.0483      2.5594     -0.0030      5.4890     91.2406     25.2179
  1048.2000      8.0483      2.5672      0.0260      5.0195     95.3692     25.0856
  1048.3000      8.0436      2.5738      0.0511      4.6156    104.6914     23.8004
  1048.4000      8.0436      2.5692      0.0480      4.8991    112.6043     22.4973
  1048.5000      8.0398      2.5575      0.0259      5.6065    117.4089     23.3368
  1048.6000      8.0398      2.5548     -0.0168      5.7714    123.0558     25.0967
  1048.7000      8.0398      2.5743      0.0205      4.5891    128.3980     26.0641
  1048.8000      8.0387      2.5999      0.0902      3.0391    127.9335     26.1264
  1048.9000      8.0387      2.6059      0.0489      2.6703    123.1022     25.9044
  1049.0000      8.0454      2.5989      0.0457      3.0945    119.3840     26.0569
  1049.1000      8.0454      2.5993      0.0390      3.0743    116.3865     26.5985
  1049.2000      8.0454      2.6104      0.0880      2.3990    110.2936     27.0150
  1049.3000      8.0354      2.6194      0.0998      1.8524    105.1626     27.0167
  1049.4000      8.0354      2.6185      0.0417      1.9090    107.1495     26.7717
  1049.5000      8.0342      2.6119      0.0768      2.3091    114.1023     26.5145
  1049.6000      8.0342      2.5971      0.1178      3.2053    119.9849     26.2863
  1049.7000      8.0342      2.5766      0.0299      4.4465    122.3312     26.1611
  1049.8000      8.0306      2.5653      0.0412      5.1347    123.2754     26.2013
  1049.9000      8.0306      2.5639     -0.0147      5.2189    122.7195     26.3826
  1050.0000      8.0354      2.5603      0.0199      5.4382    119.1989     26.8105
  1050.1000      8.0354      2.5409      0.0275      6.6129    116.5670     27.5164
  1050.2000      8.0354      2.4931      0.0485      9.5067    115.6653     27.9972
  1050.3000      8.0548      2.4110     -0.0359     14.4874    113.4685     27.7556
  1050.4000      8.0548      2.3055     -0.0672     20.8794    114.1507     27.1166
  1050.5000      8.0868      2.1887     -0.0664     27.9552    122.0293     26.5546
  1050.6000      8.0868      2.0546     -0.0997     36.0858    129.9828     26.0911
  1050.7000      8.0868      1.8990     -0.1317     45.5161    131.4149     25.5014
  1050.8000      8.1253      1.7404     -0.1790     55.1254    129.1617     24.7949
  1050.9000      8.1253      1.5975     -0.1697     63.7852    124.8245     24.6308
  1051.0000      8.1388      1.4693     -0.1368     71.5602    116.9323     25.6172
  1051.1000      8.1388      1.3692     -0.1744     77.6257    107.0898     26.9892
  1051.2000      8.1388      1.3345      0.0083     79.7263     96.5523     27.8070
  1051.3000      8.1842      1.3626      0.2293     78.0271     84.7360     28.3064
  1051.4000      8.1842      1.4036      0.2532     75.5421     74.3901     29.0884
  1051.5000      8.3565      1.4398      0.1994     73.3447     69.1366     29.9440
  1051.6000      8.3565      1.4975      0.2134     69.8503     68.0241     30.8327
  1051.7000      8.3565      1.5938      0.2401     64.0101     68.9736     32.1354
  1051.8000      8.4624      1.7243      0.2688     56.1042     74.1759     33.9050
  1051.9000      8.4624      1.8676      0.2858     47.4212     83.1259     35.6945
  1052.0000      8.3527      1.9988      0.2798     39.4680     92.0869     36.6875
  1052.1000      8.3527      2.1165      0.2816     32.3318     99.3045     36.7276
  1052.2000      8.3527      2.2353      0.2917     25.1312    102.9034     36.3925
  1052.3000      8.2243      2.3487      0.3080     18.2599    101.8976     36.2385
  1052.4000      8.2243      2.4265      0.3120     13.5482    100.0603     36.4834
  1052.5000      8.2041      2.4571      0.1610     11.6901    101.5838     36.4113
  1052.6000      8.2041      2.4566      0.1268     11.7229    106.0633     34.9804
  1052.7000      8.2041      2.4459      0.0654     12.3721    112.0862     33.2889
  1052.8000      8.1769      2.4480      0.0604     12.2397    117.5845     32.6353
  1052.9000      8.1769      2.4678      0.0355     11.0422    120.0247     32.1271
  1053.0000      8.1313      2.4938      0.0026      9.4672    119.6325     30.9462
  1053.1000      8.1313      2.5178      0.0363      8.0143    118.9570     30.2721
  1053.2000      8.1313      2.5311      0.0368      7.2055    120.9128     30.8518
  1053.3000      8.1027      2.5317      0.0420      7.1688    126.0017     31.5957
  1053.4000      8.1027      2.5263      0.0851      7.4942    134.2484     31.1558
  1053.5000      8.1031      2.5234      0.0288      7.6751    141.6883     29.9384
  1053.6000      8.1031      2.5274      0.0424      7.4280    143.7312     29.0383
  1053.7000      8.1031      2.5341      0.0778      7.0257    142.2807     28.6750
  1053.8000      8.0908      2.5409      0.0011      6.6129    140.6666     28.5558
  1053.9000      8.0908      2.5511      0.0421      5.9964    139.1359     28.5612
  1054.0000      8.0787      2.5566      0.0579      5.6602    136.2312     28.4044
  1054.1000      8.0787      2.5533      0.0098      5.8611    133.4409     27.9903
  1054.2000      8.0787      2.5528      0.0140      5.8902    131.5600     27.3888
  1054.3000      8.0910      2.5589      0.0186      5.5225    125.9353     26.4287
  1054.4000      8.0910      2.5637      0.0190      5.2296    116.5896     25.8117
  1054.5000      8.0817      2.5642      0.0401      5.2019    113.0449     26.7650
  1054.6000      8.0817      2.5730      0.0116      4.6694    116.0202     28.8718
  1054.7000      8.0817      2.6164      0.0342      2.0372    115.2547     30.5758
  1054.8000      8.0797      2.7010      0.0531     -3.0907    109.3349     31.0105
  1054.9000      8.0797      2.8004      0.1120     -9.1141    104.0963     30.7441
  1055.0000      8.0795      2.8941      0.1089    -14.7926    101.6464     30.1379
  1055.1000      8.0795      2.9863      0.1380    -20.3827     98.7329     29.5020
  1055.2000      8.0795      3.0619      0.1969    -24.9614     92.1469     29.3517
  1055.3000      8.0819      3.0853      0.1487    -26.3815     85.7755     29.5490
  1055.4000      8.0819      3.0468      0.0990    -24.0473     84.0695     29.0730
  1055.5000      8.0812      2.9578      0.0337    -18.6518     83.7555     27.5390
  1055.6000      8.0812      2.8376     -0.1349    -11.3725     81.2943     26.0333
  1055.7000      8.0812      2.7155     -0.2166     -3.9689     82.4069     25.7278
  1055.8000      8.0650      2.6046     -0.2022      2.7534     90.5238     26.6159
  1055.9000      8.0650      2.5097     -0.2397      8.5025    100.3073     27.4907
  1056.0000      8.0776      2.4504     -0.1955     12.0985    107.6724     27.3120
  1056.1000      8.0776      2.4349     -0.0617     13.0366    113.2681     26.4026
  1056.2000      8.0776      2.4501     -0.0157     12.1179    119.4679     26.4516
  1056.3000      8.1157      2.4762      0.0252     10.5329    127.4661     28.2873
  1056.4000      8.1157      2.4924      0.0895      9.5491    136.8143     30.7783
  1056.5000      8.1358      2.4868      0.0689      9.8907    146.2772     31.8599
  1056.6000      8.1358      2.4694      0.0503     10.9429    150.0286     31.6819
  1056.7000      8.1358      2.4592     -0.0033     11.5611    146.2012     31.7338
  1056.8000      8.1452      2.4610     -0.0056     11.4575    139.8460     32.1981
  1056.9000      8.1452      2.4620      0.0391     11.3964    134.6657     32.2220
  1057.0000      8.1511      2.4440      0.0101     12.4822    133.4040     31.6724
  1057.1000      8.1511      2.3961      0.0442     15.3871    136.8348     31.0388
