~Version Information
VERS.                      2.0: CWLS Log ASCII Standard - VERSION 2.0
WRAP.                       NO: One line per depth step
~Well Information Block
STRT.FT               -16.5000: 
STOP.FT              1695.5000: 
STEP.FT                 0.2500: 
NULL.                -999.2500: 
COMP.          Pioneer Natural Resources: COMPANY
WELL.          Rancher 12-35 Tr: WELL
FLD.           Purgatorie River: FIELD
LOC.           2242' FNL & 308' FWL SWNW 35 32S 67W: LOCATION
PROV.                       CO: PROVINCE
CNTY.               Las Animas: COUNTRY
SRVC.                         : SERVICE COMPANY
DATE.         Fri Jul 08 09:39:00 2005: LOG DATE
UWI.                071 08430 : UNIQUE WELL ID
~Curve Information Block
DEPT.FT            0 000 00 00: Depth
CCL.                          : Casing Collar Locator
TT3.usec                      : CBL 3' Travel Time
AMP3.mV                       : CBL 3' Amplitude
GR.GAPI                       : Gamma Ray
~Parameter Information Block
~A  Depth       CCL         TT3         AMP3         GR     
# ...
  1223.0000      0.0000    799.5573      6.5734     37.6581
  1223.2500      0.0000    795.7421      6.6432     36.1230
  1223.5000      0.0000    792.5547      6.6412     36.4597
  1223.7500      0.0000    790.3345      6.5484     39.4014
  1224.0000      0.0000    790.3041      6.3954     45.3449
  1224.2500      0.0000    793.4101      6.2495     54.2180
  1224.5000      0.0000    799.1121      6.1539     65.1446
  1224.7500      0.0000    805.3323      6.0969     76.5957
  1225.0000      0.0000    809.8876      6.0433     87.2000
  1225.2500      0.0000    812.2684      5.9831     96.1984
  1225.5000      0.0000    813.8084      5.9357    102.9969
  1225.7500      0.0000    815.9584      5.9096    106.8027
  1226.0000      0.0000    818.7815      5.8839    107.2635
  1226.2500      0.0000    821.3070      5.8409    105.2774
  1226.5000      0.0000    822.7966      5.7972    102.7176
  1226.7500      0.0000    823.2878      5.7764    101.3989
  1227.0000      0.0000    823.2427      5.7618    102.5196
  1227.2500      0.0000    823.0753      5.7091    106.5346
  1227.5000      0.0000    822.9848      5.6096    112.7590
  1227.7500      0.0000    823.0290      5.5185    119.1600
  1228.0000      0.0000    823.2166      5.4971    123.1759
  1228.2500      0.0000    823.5147      5.5347    123.3007
  1228.5000      0.0000    823.8182      5.5479    120.2788
  1228.7500      0.0000    824.0021      5.4699    116.8244
  1229.0000      0.0000    824.0287      5.3256    115.7251
  1229.2500      0.0000    823.9918      5.2011    117.9214
  1229.5000      0.0000    824.0402      5.1460    122.4782
  1229.7500      0.0000    824.2728      5.1315    127.9855
  1230.0000      0.0000    824.7272      5.1125    133.3804
  1230.2500      0.0000    825.4980      5.0946    137.8224
  1230.5000      0.0000    826.7792      5.1130    140.8472
  1230.7500      0.0000    828.5679      5.1625    142.8280
  1231.0000      0.0000    830.1335      5.1869    144.7079
  1231.2500      0.0000    829.9717      5.1484    147.0269
  1231.5000      0.0000    826.4411      5.0788    149.5036
  1231.7500      0.0000    818.4841      5.0412    151.4048
  1232.0000      0.0000    806.1639      5.0553    151.7343
  1232.2500      0.0000    791.1374      5.0872    149.2115
  1232.5000      0.0000    776.4033      5.1058    143.0730
  1232.7500      0.0000    764.7034      5.1159    134.3869
  1233.0000      0.0000    756.8265      5.1317    125.9658
  1233.2500      0.0000    751.2322      5.1531    120.4057
  1233.5000      0.0000    745.2751      5.1760    118.3020
  1233.7500      0.0000    737.2550      5.1931    118.4636
  1234.0000      0.0000    727.4812      5.1813    119.3686
  1234.2500      0.0000    717.3712      5.1185    120.1324
  1234.5000      0.0000    708.5054      5.0199    120.6537
  1234.7500      0.0000    702.8293      4.9349    121.5227
  1235.0000      0.0000    702.0155      4.9061    123.7508
  1235.2500      0.0000    705.8144      4.9375    127.9478
  1235.5000      0.0000    712.3120      4.9960    133.4115
  1235.7500      0.0000    720.0914      5.0421    138.2189
  1236.0000      0.0000    728.8918      5.0610    140.5488
  1236.2500      0.0000    738.3625      5.0567    140.0122
  1236.5000      0.0000    747.9221      5.0285    137.6921
  1236.7500      0.0000    758.1846      4.9780    135.0147
  1237.0000      0.0000    770.7735      4.9360    132.7163
  1237.2500      0.0000    785.6930      4.9489    130.6867
  1237.5000      0.0000    800.1911      5.0242    128.3387
  1237.7500      0.0000    811.0575      5.1126    125.0405
  1238.0000      0.0000    817.2184      5.1564    120.5410
  1238.2500      0.0000    819.6815      5.1347    115.3662
  1238.5000      0.0000    819.9062      5.0609    110.9220
  1238.7500      0.0000    818.8316      4.9634    109.1024
  1239.0000      0.0000    817.0872      4.8741    111.3339
  1239.2500      0.0000    815.3627      4.7989    117.4216
  1239.5000      0.0000    814.0341      4.6936    125.3212
  1239.7500      0.0000    812.6010      4.5061    132.3975
  1240.0000      0.0000    810.3606      4.2558    137.0639
  1240.2500      0.0000    807.7283      4.0328    139.1975
  1240.5000      0.0000    805.9015      3.9004    139.3678
  1240.7500      0.0000    805.2637      3.8288    138.1030
  1241.0000      0.0000    805.4711      3.7573    135.7262
  1241.2500      0.0000    807.0473      3.6922    132.4693
  1241.5000      0.0000    811.2175      3.6909    128.7470
  1241.7500      0.0000    817.7997      3.7582    125.4456
  1242.0000     -3.0000    824.6388      3.8106    123.7892
  1242.2500     -3.0000    829.6667      3.7595    124.6427
  1242.5000      0.0000    832.3561      3.6127    127.8830
  1242.7500      0.0000    832.5893      3.4822    132.4842
  1243.0000      0.0000    829.3798      3.4905    137.0364
  1243.2500      0.0000    821.9601      3.6717    140.1919
  1243.5000      0.0000    811.5490      3.9547    141.2462
  1243.7500      0.0000    800.8495      4.2315    140.7768
  1244.0000      0.0000    791.9037      4.4353    140.3258
  1244.2500      0.0000    785.1339      4.5699    140.8780
  1244.5000      0.0000    780.1594      4.6882    141.8604
  1244.7500      0.0000    776.7647      4.8311    141.9664
  1245.0000      0.0000    774.9727      4.9769    140.7974
  1245.2500      0.0000    774.7027      5.0673    139.3877
  1245.5000      0.0000    775.8091      5.0728    138.9893
  1245.7500      0.0000    778.3742      5.0010    139.4308
  1246.0000      0.0000    782.7003      4.8529    139.0542
  1246.2500      0.0000    789.0159      4.6295    136.3856
  1246.5000      0.0000    797.0190      4.3848    131.4893
  1246.7500      0.0000    805.4901      4.2151    125.6837
  1247.0000      0.0000    812.3589      4.1671    120.3785
  1247.2500      0.0000    815.3822      4.1979    116.1849
  1247.5000      0.0000    813.2383      4.2543    112.6466
  1247.7500      0.0000    806.8354      4.3584    108.6123
  1248.0000      0.0000    799.6341      4.5780    103.1224
  1248.2500      0.0000    795.4733      4.9353     96.3160
  1248.5000      0.0000    795.1694      5.3726     89.6175
  1248.7500      0.0000    795.8354      5.7880     84.9418
  1249.0000      0.0000    794.2704      6.0772     83.8279
  1249.2500      0.0000    790.6848      6.1763     87.4002
  1249.5000      0.0000    788.4042      6.1156     96.3882
  1249.7500      0.0000    790.0997      6.0249    110.1119
  1250.0000      0.0000    795.2643      6.0422    125.6992
  1250.2500      0.0000    801.5219      6.2026    139.3600
  1250.5000      0.0000    807.2640      6.4276    148.6325
  1250.7500      0.0000    812.3709      6.6266    153.1075
  1251.0000      0.0000    817.0990      6.7837    153.4877
  1251.2500      0.0000    821.2186      6.9329    150.9906
  1251.5000      0.0000    824.2615      7.0884    147.4759
  1251.7500      0.0000    826.1324      7.2400    144.9007
  1252.0000      0.0000    827.2538      7.3991    143.9646
  1252.2500      0.0000    828.2985      7.5974    143.5689
  1252.5000      0.0000    829.8403      7.8359    141.9362
  1252.7500      0.0000    831.9615      8.0704    138.2771
  1253.0000      2.1478    833.9941      8.2548    133.4857
  1253.2500     -1.9583    834.9231      8.3701    129.3766
  1253.5000      2.2302    834.3785      8.3964    127.1889
  1253.7500      0.0000    832.9003      8.2947    126.7168
  1254.0000      0.0000    830.7061      8.0579    126.9374
  1254.2500      0.0000    826.5044      7.7573    127.1937
  1254.5000      0.0000    818.6714      7.4833    127.2752
  1254.7500      0.0000    808.1234      7.2492    126.4624
  1255.0000      0.0000    798.6394      7.0066    123.4167
  1255.2500      0.0000    792.6910      6.7473    117.5946
  1255.5000      0.0000    788.1081      6.5266    110.3634
  1255.7500      0.0000    781.3594      6.3790    104.2765
  1256.0000      0.0000    773.0239      6.2684    101.2704
  1256.2500      0.0000    766.4172      6.1427    101.4855
