~Version Information
VERS.                      2.0: CWLS Log ASCII Standard - VERSION 2.0
WRAP.                       NO: One line per depth step
~Well Information Block
STRT.FT                -4.0000: 
STOP.FT              2638.2500: 
STEP.FT                 0.2500: 
NULL.                -999.2500: 
COMP.          Petrogulf Corporation: COMPANY
WELL.            Montoya 6-14V: WELL
FLD.           Purgatorie River: FIELD
LOC.           318' FSL & 882' FWL--: LOCATION
PROV.                       CO: PROVINCE
CNTY.               Las Animas: COUNTRY
SRVC.                         : SERVICE COMPANY
DATE.          Mon May 02 08:32:04 2005: LOG DATE
UWI.      005 071 08020: UNIQUE WELL ID
~Curve Information Block
DEPT.FT            0 000 00 00: Depth
AMP3.mV                       : CBL 3' Amplitude
CCL.                          : Casing Collar Locator
GR.GAPI                       : Gamma Ray
TT3.usec                      : CBL 3' Travel Time
~Parameter Information Block
~A  Depth       AMP3        CCL          GR         TT3     
# ...
   699.5000     11.2752      0.0000     67.9770    525.6456
   699.7500     11.5288      0.0000     65.4763    542.7200
   700.0000     11.4737      0.0000     62.4764    579.0584
   700.2500     11.3002      0.0000     58.6492    615.9077
   700.5000     11.1854      0.0000     54.1620    638.1683
   700.7500     11.1895      0.0000     49.7032    642.7817
   701.0000     11.2811      0.0000     45.8697    637.2997
   701.2500     11.3960      0.0000     42.8292    632.0352
   701.5000     11.4781      0.0000     40.6967    631.8145
   701.7500     11.5115      0.0000     39.8508    634.2755
   702.0000     11.5294      0.0000     40.4946    635.9377
   702.2500     11.5738      0.0000     41.9436    638.2125
   702.5000     11.6480      0.0000     42.8239    645.8859
   702.7500     11.7183      0.0000     42.3965    660.5826
   703.0000     11.7639      0.0000     41.5094    676.5777
   703.2500     11.8133      0.0000     41.8111    682.1537
   703.5000     11.9336      0.0000     44.0095    665.3336
   703.7500     12.1842      0.0000     47.1054    621.3001
   704.0000     12.5751      0.0000     49.2971    556.5564
   704.2500     13.0635      0.0000     49.5127    485.2342
   704.5000     13.5828      0.0000     48.0632    420.7009
   704.7500     14.0727      0.0000     46.0548    370.3615
   705.0000     14.4858      0.0000     44.4177    335.9816
   705.2500     14.7852      0.0000     43.3123    315.7285
   705.5000     14.9587      0.0000     42.1582    305.7365
   705.7500     15.0444      0.0000     40.3811    301.7191
   706.0000     15.1286      0.0000     38.4033    300.4336
   706.2500     15.2937      0.0000     37.6744    300.3406
   706.5000     15.5466      0.0000     39.5033    301.8389
   706.7500     15.7943      0.0000     44.0997    307.8221
   707.0000     15.8974      0.0000     50.8544    324.0982
   707.2500     15.7605      0.0000     59.0450    357.6434
   707.5000     15.3839      0.0000     67.8976    411.4474
   707.7500     14.8486      0.0000     76.3193    479.2270
   708.0000     14.2608      0.0000     83.2521    546.4955
   708.2500     13.7016      0.0000     88.4762    599.0406
   708.5000     13.2117      0.0000     92.5885    630.7819
   708.7500     12.8117      0.0000     96.0313    643.6754
   709.0000     12.5261      0.0000     98.5296    642.2342
   709.2500     12.3760      0.0000     99.5372    630.0619
   709.5000     12.3488      0.0000     98.8696    610.4860
   709.7500     12.3856      0.0000     96.8374    587.6786
   710.0000     12.4060      0.0000     93.9049    565.8077
   710.2500     12.3483      0.0000     90.3343    547.7185
   710.5000     12.1959      0.0000     86.3538    534.8116
   710.7500     11.9808      0.0000     82.6189    527.3138
   711.0000     11.7599      0.0000     80.0659    523.9421
   711.2500     11.5759      0.0000     79.1387    522.0532
   711.5000     11.4350      0.0000     79.3415    519.3147
   711.7500     11.3181      0.0000     79.5706    515.1136
   712.0000     11.2090      0.0000     79.0035    510.0385
   712.2500     11.1155      0.0000     78.1260    504.8088
   712.5000     11.0601      0.0000     78.7513    500.1249
   712.7500     11.0497      0.0000     82.4575    496.7162
   713.0000     11.0579      0.0000     88.9187    494.9227
   713.2500     11.0446      0.0000     96.0353    494.4706
   713.5000     10.9944      0.0000    101.5840    494.8747
   713.7500     10.9340      0.0000    104.4872    496.0081
   714.0000     10.9109      0.0000    104.8004    498.2122
   714.2500     10.9547      0.0000    103.1651    501.6826
   714.5000     11.0546      0.0000    100.4221    505.7341
   714.7500     11.1735      0.0000     97.2770    509.2279
   715.0000     11.2785      0.0000     94.0338    512.2316
   715.2500     11.3576      0.0000     90.7827    516.5717
   715.5000     11.4090      0.0000     87.8559    523.6362
   715.7500     11.4237      0.0000     85.9640    531.9119
   716.0000     11.3883      0.0000     85.8734    537.7656
   716.2500     11.3058      0.0000     88.0570    538.7128
   716.5000     11.2052      0.0000     92.4675    535.4094
   716.7500     11.1230      0.0000     98.2205    530.7682
   717.0000     11.0692      0.0000    103.3153    527.6697
   717.2500     11.0159      0.0000    105.4965    527.1583
   717.5000     10.9212      0.0000    104.2903    528.0223
   717.7500     10.7656      0.0000    101.9297    527.8007
   718.0000     10.5622      0.0000    101.5817    524.3130
   718.2500     10.3320      0.0000    104.7561    516.5488
   718.5000     10.0766      0.0000    110.4351    504.7062
   718.7500      9.7815      0.0000    115.9751    490.0439
   719.0000      9.4432      0.0000    118.5803    474.8887
   719.2500      9.0869      0.0000    116.8302    462.1088
   719.5000      8.7514      0.0000    111.7319    453.7727
   719.7500      8.4604      0.0000    106.2224    450.0594
   720.0000      8.2089      0.0000    102.9790    449.2270
   720.2500      7.9747      0.0000    102.4943    448.3722
   720.5000      7.7457      0.0000    103.3198    444.8199
   720.7500      7.5501      0.0000    103.9469    438.1702
   721.0000      7.4644      0.0000    104.0967    431.6117
   721.2500      7.5749      0.0000    104.1523    430.5231
   721.5000      7.9073      0.0000    103.7222    438.8069
   721.7500      8.3866      0.0000    101.3566    456.0948
   722.0000      8.8691      0.0000     95.9447    478.1616
   722.2500      9.2236      0.0000     88.1103    499.5201
   722.5000      9.3995      0.0000     79.7851    515.8694
   722.7500      9.4371      0.0000     72.5631    525.5822
   723.0000      9.4214      0.0000     66.8595    530.3589
   723.2500      9.4228      0.0000     62.4490    534.3057
   723.5000      9.4693      0.0000     59.2210    540.9839
   723.7500      9.5553      0.0000     57.3701    549.8248
   724.0000      9.6566      0.0000     57.3210    555.3902
   724.2500      9.7374      0.0000     59.5918    551.7344
   724.5000      9.7549      0.0000     64.2376    538.2776
   724.7500      9.6766      0.0000     70.2509    520.5881
   725.0000      9.5038      0.0000     75.9028    505.4327
   725.2500      9.2798      0.0000     79.8888    496.1618
   725.5000      9.0742      0.0000     82.0425    492.3132
   725.7500      8.9489      0.0000     83.1835    491.4819
   726.0000      8.9318      0.0000     84.6207    490.9959
   726.2500      9.0113      0.0000     87.4688    489.2420
   726.5000      9.1480      0.0000     91.7659    486.4353
   726.7500      9.2913      0.0000     96.1314    484.1124
   727.0000      9.3947      0.0000     98.7503    483.8396
   727.2500      9.4294      0.0000     98.9912    486.1360
   727.5000      9.3863      0.0000     97.8671    489.9962
   727.7500      9.2672      0.0000     96.8312    493.0493
   728.0000      9.0743      0.0000     96.4245    492.5514
   728.2500      8.8132      0.0000     96.1695    486.9174
   728.5000      8.5029      0.0000     95.2509    476.9085
   728.7500      8.1711      0.0000     93.0158    465.4074
   729.0000      7.8368      0.0000     89.3140    455.5914
   729.2500      7.5007      0.0000     84.8875    448.8966
   729.5000      7.1581      0.0000     81.3055    444.6029
   729.7500      6.8211      0.0000     80.0881    441.1298
   730.0000      6.5219      0.0000     81.5961    437.5604
   730.2500      6.2908      0.0000     84.7230    434.0801
   730.5000      6.1270      0.0000     87.7048    431.2959
   730.7500      5.9929      0.0000     89.4129    429.3865
   731.0000      5.8446      0.0000     89.9289    427.8799
   731.2500      5.6715      0.0000     89.9206    426.0853
   731.5000      5.5023      0.0000     89.8750    423.7714
   731.7500      5.3740      0.0000     90.1153    421.6066
   732.0000      5.3048      0.0000     90.8688    420.8550
   732.2500      5.2943      0.0000     91.7350    422.5828
   732.5000      5.3338      0.0000     91.6005    427.4705
   732.7500      5.4157      0.0000     89.8463    436.3158
