~Version Information
VERS.                      2.0: CWLS Log ASCII Standard - VERSION 2.0
WRAP.                       NO: One line per depth step
~Well Information Block
STRT.FT               850.0000: 
STOP.FT              1609.7000: 
STEP.FT                 0.1000: 
NULL.                -999.2500: 
COMP.          Petrogulf Corporation: COMPANY
WELL.          Great Plains 22-21R: WELL
FLD.           Purgatorie River: FIELD
LOC.           73' FNL & 1992' FWL: LOCATION
PROV.                 Colorado: PROVINCE
CNTY.               Las Animas: COUNTRY
SRVC.                Patterson: SERVICE COMPANY
DATE.          Wed Sep 14 12:10:29 2005: LOG DATE
UWI.                          : UNIQUE WELL ID
~Curve Information Block
DEPT.FT            0 000 00 00: Depth
NPOR.pu                       : Neutron Porosity
GR.GAPI                       : Gamma Ray
CCL.                          : Casing Collar Locator
~Parameter Information Block
~A  Depth       NPOR         GR         CCL     
# ...
  1150.6000     25.3593    122.4285      0.0000
  1150.7000     25.3593    122.4285      0.0000
  1150.8000     25.1622    113.6808      0.0000
  1150.9000     25.1622    113.6808      0.0000
  1151.0000     24.9906    105.3346      0.0000
  1151.1000     24.9906    105.3346      0.0000
  1151.2000     24.9906    105.3346      0.0000
  1151.3000     24.8143     97.5019      0.0000
  1151.4000     24.8143     97.5019      0.0000
  1151.5000     24.5768     89.8275      0.0000
  1151.6000     24.5768     89.8275     -1.0000
  1151.7000     24.5768     89.8275      1.0000
  1151.8000     24.2150     82.2431      0.0000
  1151.9000     24.2150     82.2431      0.0000
  1152.0000     23.6941     75.0884      0.0000
  1152.1000     23.6941     75.0884      0.0000
  1152.2000     23.6941     75.0884      0.0000
  1152.3000     23.0380     68.5966      0.0000
  1152.4000     23.0380     68.5966      0.0000
  1152.5000     22.3231     62.7886      0.0000
  1152.6000     22.3231     62.7886      0.0000
  1152.7000     22.3231     62.7886      0.0000
  1152.8000     21.6324     57.7668      0.0000
  1152.9000     21.6324     57.7668      0.0000
  1153.0000     21.0154     53.7952      0.0000
  1153.1000     21.0154     53.7952      0.0000
  1153.2000     21.0154     53.7952      0.0000
  1153.3000     20.4942     51.1990      0.0000
  1153.4000     20.4942     51.1990      0.0000
  1153.5000     20.0848     50.2820      0.0000
  1153.6000     20.0848     50.2820      0.0000
  1153.7000     20.0848     50.2820      0.0000
  1153.8000     19.7974     51.2075      0.0000
  1153.9000     19.7974     51.2075      0.0000
  1154.0000     19.6284     54.0098      0.0000
  1154.1000     19.6284     54.0098      0.0000
  1154.2000     19.6284     54.0098      0.0000
  1154.3000     19.5697     58.7268      0.0000
  1154.4000     19.5697     58.7268      0.0000
  1154.5000     19.6249     65.2615      0.0000
  1154.6000     19.6249     65.2615      0.0000
  1154.7000     19.6249     65.2615      0.0000
  1154.8000     19.8187     72.9687      0.0000
  1154.9000     19.8187     72.9687      0.0000
  1155.0000     20.2010     80.6540      0.0000
  1155.1000     20.2010     80.6540      0.0000
  1155.2000     20.2010     80.6540      0.0000
  1155.3000     20.8335     87.3016      0.0000
  1155.4000     20.8335     87.3016      0.0000
  1155.5000     21.7502     92.8303      0.0000
  1155.6000     21.7502     92.8303      0.0000
  1155.7000     21.7502     92.8303      0.0000
  1155.8000     22.9196     98.0659      0.0000
  1155.9000     22.9196     98.0659      0.0000
  1156.0000     24.2449    103.9687      0.0000
  1156.1000     24.2449    103.9687      0.0000
  1156.2000     24.2449    103.9687      0.0000
  1156.3000     25.5909    110.7995      0.0000
  1156.4000     25.5909    110.7995      0.0000
  1156.5000     26.7947    117.8088      0.0000
  1156.6000     26.7947    117.8088      0.0000
  1156.7000     26.7947    117.8088      0.0000
  1156.8000     27.6816    123.5420      0.0000
  1156.9000     27.6816    123.5420      0.0000
  1157.0000     28.1118    126.5493      0.0000
  1157.1000     28.1118    126.5493      0.0000
  1157.2000     28.1118    126.5493      0.0000
  1157.3000     28.0398    126.1604      0.0000
  1157.4000     28.0398    126.1604      0.0000
  1157.5000     27.5517    122.9021      0.0000
  1157.6000     27.5517    122.9021      0.0000
  1157.7000     27.5517    122.9021      0.0000
  1157.8000     26.8577    118.2522      0.0000
  1157.9000     26.8577    118.2522      0.0000
  1158.0000     26.2183    113.8841      0.0000
  1158.1000     26.2183    113.8841      0.0000
  1158.2000     26.2183    113.8841      0.0000
  1158.3000     25.8303    110.9443      0.0000
  1158.4000     25.8303    110.9443      0.0000
  1158.5000     25.7523    109.8545      0.0000
  1158.6000     25.7523    109.8545      0.0000
  1158.7000     25.7523    109.8545      0.0000
  1158.8000     25.9125    110.5993      0.0000
  1158.9000     25.9125    110.5993      0.0000
  1159.0000     26.1684    113.0630      0.0000
  1159.1000     26.1684    113.0630      0.0000
  1159.2000     26.1684    113.0630      0.0000
  1159.3000     26.3842    117.2187      0.0000
  1159.4000     26.3842    117.2187      0.0000
  1159.5000     26.4900    123.0845      0.0000
  1159.6000     26.4900    123.0845      0.0000
  1159.7000     26.4900    123.0845      0.0000
  1159.8000     26.4971    130.2335      0.0000
  1159.9000     26.4971    130.2335      0.0000
  1160.0000     26.4584    137.2745      0.0000
  1160.1000     26.4584    137.2745      0.0000
  1160.2000     26.4584    137.2745      0.0000
  1160.3000     26.4093    142.3368      0.0000
  1160.4000     26.4093    142.3368      0.0000
  1160.5000     26.3468    144.3383      0.0000
  1160.6000     26.3468    144.3383      0.0000
  1160.7000     26.3468    144.3383      0.0000
  1160.8000     26.2592    143.5481      0.0000
  1160.9000     26.2592    143.5481      0.0000
  1161.0000     26.1603    141.0337      0.0000
  1161.1000     26.1603    141.0337      0.0000
  1161.2000     26.1603    141.0337      0.0000
  1161.3000     26.0792    137.9085      0.0000
  1161.4000     26.0792    137.9085      0.0000
  1161.5000     26.0112    134.8404      0.0000
  1161.6000     26.0112    134.8404      0.0000
  1161.7000     26.0112    134.8404      0.0000
  1161.8000     25.8882    131.7286      0.0000
  1161.9000     25.8882    131.7286      0.0000
  1162.0000     25.6098    127.6798      0.0000
  1162.1000     25.6098    127.6798      0.0000
  1162.2000     25.6098    127.6798      0.0000
  1162.3000     25.1103    121.5277      0.0000
  1162.4000     25.1103    121.5277      0.0000
  1162.5000     24.3977    112.8158      0.0000
  1162.6000     24.3977    112.8158      0.0000
  1162.7000     24.3977    112.8158      0.0000
  1162.8000     23.5498    102.5801      0.0000
  1162.9000     23.5498    102.5801      0.0000
  1163.0000     22.7014     93.1401      0.0000
  1163.1000     22.7014     93.1401      0.0000
  1163.2000     22.7014     93.1401      0.0000
  1163.3000     22.0315     87.0406      0.0000
  1163.4000     22.0315     87.0406      0.0000
  1163.5000     21.7214     85.9625      0.0000
  1163.6000     21.7214     85.9625      0.0000
  1163.7000     21.7214     85.9625      0.0000
  1163.8000     21.8867     90.1326      0.0000
  1163.9000     21.8867     90.1326      0.0000
  1164.0000     22.5192     98.3000      0.0000
  1164.1000     22.5192     98.3000      0.0000
  1164.2000     22.5192     98.3000      0.0000
  1164.3000     23.4578    108.2971      0.0000
  1164.4000     23.4578    108.2971      0.0000
  1164.5000     24.4107    117.8079      0.0000
  1164.6000     24.4107    117.8079      0.0000
  1164.7000     24.4107    117.8079      0.0000
  1164.8000     25.0596    124.9125      0.0000
  1164.9000     25.0596    124.9125      0.0000
  1165.0000     25.2124    128.4560      0.0000
  1165.1000     25.2124    128.4560      0.0000
  1165.2000     25.2124    128.4560      0.0000
  1165.3000     24.8894    128.2480      0.0000
  1165.4000     24.8894    128.2480      0.0000
  1165.5000     24.2800    124.7265      0.0000
  1165.6000     24.2800    124.7265      0.0000
  1165.7000     24.2800    124.7265      0.0000
  1165.8000     23.6267    118.4093      0.0000
  1165.9000     23.6267    118.4093      0.0000
  1166.0000     23.1196    110.1072      0.0000
  1166.1000     23.1196    110.1072      0.0000
  1166.2000     23.1196    110.1072      0.0000
  1166.3000     22.8490    101.6507      0.0000
  1166.4000     22.8490    101.6507      0.0000
  1166.5000     22.8166     95.5886      0.0000
  1166.6000     22.8166     95.5886      0.0000
  1166.7000     22.8166     95.5886      0.0000
  1166.8000     22.9730     93.6379      0.0000
  1166.9000     22.9730     93.6379      0.0000
  1167.0000     23.2540     95.6371      0.0000
  1167.1000     23.2540     95.6371      0.0000
  1167.2000     23.2540     95.6371      0.0000
