~Version Information
VERS.                      2.0: CWLS Log ASCII Standard - VERSION 2.0
WRAP.                       NO: One line per depth step
~Well Information Block
STRT.FT               650.0000: 
STOP.FT              2087.0000: 
STEP.FT                 0.2500: 
NULL.                -999.2500: 
COMP.          Pioneer Natural Resources: COMPANY
WELL.           Galloway 32-13: WELL
FLD.           Purgatoire River: FIELD
LOC.           1809' FNL & 2004' FEL: LOCATION
PROV.                 Colorado: PROVINCE
CNTY.               Las Animas: COUNTRY
SRVC.                Patterson: SERVICE COMPANY
DATE.          Fri Jul 08 15:50:04 2005: LOG DATE
UWI.           05 071 08423 00: UNIQUE WELL ID
~Curve Information Block
DEPT.FT            0 000 00 00: Depth
SN.Ohm-m                      : IEL Short Normal
SP.mV                         : IEL Spontaneous Potential
DIR.Ohm-m                     : IEL Induction Resistivity
GR.GAPI                       : Gamma Ray
~Parameter Information Block
~A  Depth        SN          SP         DIR          GR     
# ...
  1789.0000     22.8524     77.4563     19.0385    101.7969
  1789.2500     21.5508     77.8705     18.3725    102.3945
  1789.5000     20.8524     78.1744     17.7864    103.6142
  1789.7500     20.4948     78.3867     17.2881    104.5864
  1790.0000     20.3495     78.5150     16.8931    105.5535
  1790.2500     20.3500     78.5675     16.6198    105.3894
  1790.5000     20.4520     78.5575     16.4820    103.3779
  1790.7500     20.6810     78.4989     16.4829    100.8178
  1791.0000     21.0649     78.4013     16.6166     95.4701
  1791.2500     21.5329     78.2757     16.8775     91.1218
  1791.5000     22.0277     78.1429     17.2683     83.9227
  1791.7500     22.6842     78.0329     17.7998     79.2605
  1792.0000     23.7295     77.9723     18.4798     73.7015
  1792.2500     25.2301     77.9752     19.2957     71.2565
  1792.5000     27.0088     78.0458     20.2039     68.9360
  1792.7500     28.7165     78.1861     21.1371     67.7239
  1793.0000     29.9755     78.3970     22.0374     65.8491
  1793.2500     30.5680     78.6733     22.8975     64.6677
  1793.5000     30.5766     78.9973     23.7760     63.7181
  1793.7500     30.3480     79.3363     24.7623     63.9627
  1794.0000     30.2280     79.6502     25.9126     65.3650
  1794.2500     30.3203     79.9075     27.2005     66.4445
  1794.5000     30.5416     80.1026     28.5151     67.4663
  1794.7500     30.8483     80.2561     29.7092     67.5592
  1795.0000     31.3477     80.4004     30.6667     66.8938
  1795.2500     32.1422     80.5591     31.3493     66.1931
  1795.5000     33.1747     80.7384     31.8028     65.5561
  1795.7500     34.3611     80.9299     32.1289     65.7384
  1796.0000     35.6660     81.1204     32.4390     66.6315
  1796.2500     36.9595     81.2976     32.8027     67.1022
  1796.5000     38.0577     81.4520     33.2239     66.9923
  1796.7500     38.8628     81.5741     33.6426     66.4316
  1797.0000     39.3068     81.6544     33.9518     65.4246
  1797.2500     39.3064     81.6892     34.0275     65.0668
  1797.5000     38.8588     81.6877     33.7947     65.5330
  1797.7500     38.1112     81.6711     33.3151     66.4060
  1798.0000     37.3098     81.6585     32.7973     67.6508
  1798.2500     36.6496     81.6482     32.4757     68.0336
  1798.5000     36.1908     81.6116     32.4549     68.3753
  1798.7500     35.9218     81.5044     32.6510     69.1772
  1799.0000     35.8002     81.2859     32.8721     72.1215
  1799.2500     35.7142     80.9363     32.9692     75.0895
  1799.5000     35.5171     80.4652     32.9221     79.7200
  1799.7500     35.1195     79.9100     32.7904     81.9832
  1800.0000     34.4959     79.3203     32.6161     83.2917
  1800.2500     33.6788     78.7344     32.3899     83.0439
  1800.5000     32.7843     78.1624     32.0911     82.3614
  1800.7500     31.9619     77.5810     31.7343     82.4003
  1801.0000     31.2930     76.9414     31.3684     83.3009
  1801.2500     30.7722     76.1826     31.0362     83.9028
  1801.5000     30.3830     75.2479     30.7459     83.6629
  1801.7500     30.1345     74.0970     30.4732     82.4912
  1802.0000     30.0132     72.7147     30.1920     79.7607
  1802.2500     29.9432     71.1153     29.9015     77.8611
  1802.5000     29.8294     69.3430     29.6277     75.6427
  1802.7500     29.6311     67.4683     29.4004     74.8040
  1803.0000     29.3692     65.5812     29.2240     74.6248
  1803.2500     29.0901     63.7833     29.0665     75.2066
  1803.5000     28.8284     62.1720     28.8795     77.0132
  1803.7500     28.5742     60.8116     28.6355     78.7112
  1804.0000     28.2790     59.7030     28.3496     81.6286
  1804.2500     27.8659     58.7892     28.0620     83.5379
  1804.5000     27.2899     58.0043     27.8026     85.7875
  1804.7500     26.6358     57.3218     27.5672     86.5819
  1805.0000     26.0619     56.7581     27.3231     86.6215
  1805.2500     25.6509     56.3370     27.0327     86.2069
  1805.5000     25.3797     56.0593     26.6752     85.8661
  1805.7500     25.2087     55.9024     26.2552     86.2474
  1806.0000     25.1398     55.8470     25.7993     87.6336
  1806.2500     25.1721     55.8994     25.3453     88.4473
  1806.5000     25.2566     56.0862     24.9315     87.9290
  1806.7500     25.3219     56.4224     24.5886     85.9506
  1807.0000     25.3042     56.8829     24.3371     81.4813
  1807.2500     25.1614     57.4027     24.1878     78.8905
  1807.5000     24.8971     57.9062     24.1455     78.0053
  1807.7500     24.5668     58.3407     24.2102     80.1013
  1808.0000     24.2750     58.6932     24.3719     86.3999
  1808.2500     24.1234     58.9859     24.6046     91.0327
  1808.5000     24.1177     59.2598     24.8669     95.1547
  1808.7500     24.1861     59.5529     25.1176     94.7004
  1809.0000     24.2886     59.8815     25.3339     89.1185
  1809.2500     24.4529     60.2373     25.5168     83.0557
  1809.5000     24.7324     60.5942     25.6796     72.8389
  1809.7500     25.1635     60.9195     25.8352     66.7593
  1810.0000     25.7456     61.1814     25.9896     60.5011
  1810.2500     26.4364     61.3538     26.1407     58.4057
  1810.5000     27.1328     61.4206     26.2757     57.5350
  1810.7500     27.6809     61.3745     26.3704     57.9374
  1811.0000     27.9763     61.2109     26.4058     59.6886
  1811.2500     28.0444     60.9211     26.3951     61.5913
  1811.5000     27.9708     60.4953     26.3913     65.3392
  1811.7500     27.7909     59.9417     26.4531     68.3087
  1812.0000     27.5026     59.3053     26.5873     73.7315
  1812.2500     27.1285     58.6602     26.7226     78.3650
  1812.5000     26.7120     58.0692     26.7510     86.7796
  1812.7500     26.3142     57.5447     26.6098     92.3417
  1813.0000     25.9966     57.0627     26.3227     97.7091
  1813.2500     25.7356     56.6409     25.9547     98.0837
  1813.5000     25.4480     56.4150     25.5381     94.1920
  1813.7500     25.1264     56.6194     25.0503     90.0303
  1814.0000     24.8671     57.4595     24.4581     84.1605
  1814.2500     24.7376     58.9548     23.7770     81.5670
  1814.5000     24.6569     60.8657     23.0820     80.3924
  1814.7500     24.4589     62.7755     22.4678     81.4251
  1815.0000     24.0677     64.2927     22.0019     85.3352
  1815.2500     23.5875     65.2281     21.7081     89.1153
  1815.5000     23.1694     65.6145     21.5723     95.4815
  1815.7500     22.8029     65.5973     21.5562     99.4787
  1816.0000     22.3780     65.3256     21.6091    104.1642
  1816.2500     21.9188     64.9149     21.6780    106.1369
  1816.5000     21.5810     64.4552     21.7177    107.3895
  1816.7500     21.4624     64.0213     21.7000    107.4491
  1817.0000     21.5598     63.6711     21.6224    107.4500
  1817.2500     21.8709     63.4354     21.5140    107.8855
  1817.5000     22.3815     63.3078     21.4322    109.1348
  1817.7500     22.9750     63.2390     21.4447    109.8414
  1818.0000     23.5299     63.1505     21.6039    109.4891
  1818.2500     24.0530     62.9676     21.9280    107.6390
  1818.5000     24.5630     62.6503     22.3942    101.7247
  1818.7500     24.9572     62.1971     22.9472     95.8467
  1819.0000     25.1404     61.6247     23.5166     85.7543
  1819.2500     25.1605     60.9518     24.0359     79.5690
  1819.5000     25.1342     60.1993     24.4529     72.8233
  1819.7500     25.1361     59.3964     24.7320     70.1231
  1820.0000     25.1856     58.5792     24.8522     67.8273
  1820.2500     25.2505     57.7787     24.8113     66.8506
  1820.5000     25.2363     57.0058     24.6316     65.7716
  1820.7500     25.0564     56.2444     24.3618     65.4104
  1821.0000     24.7330     55.4593     24.0664     65.8681
  1821.2500     24.3761     54.6111     23.8021     67.1049
  1821.5000     24.0890     53.6686     23.5939     70.3868
  1821.7500     23.8999     52.6101     23.4215     73.0687
  1822.0000     23.7343     51.4142     23.2264     76.5034
  1822.2500     23.4925     50.0487     22.9458     77.8571
