~Version Information
VERS.                      2.0: CWLS Log ASCII Standard - VERSION 2.0
WRAP.                       NO: One line per depth step
~Well Information Block
STRT.FT               965.2500: 
STOP.FT              2602.5000: 
STEP.FT                 0.2500: 
NULL.                -999.2500: 
COMP.          Petrogulf Corporation: COMPANY
WELL.             Valejo 8-12V: WELL
FLD.           Purgatorie River: FIELD
LOC.           1510' FNL & 1460' FWL: LOCATION
CNTY.               Las Animas: COUNTY
SRVC.                         : SERVICE COMPANY
DATE.          Fri Nov 14 05:32:33 2003: LOG DATE
UWI.                          : UNIQUE WELL ID
STAT.                 Colorado: STATE
~Curve Information Block
DEPT.FT            0 000 00 00: Depth
RILD.Ohm-m                    : DIL Deep Resistivity
RILM.Ohm-m                    : DIL Medium Resistivity
RLL3.Ohm-m                    : DIL Shallow Resistivity
SP.mV                         : DIL Spontaneous Potential
GR.GAPI                       : Gamma Ray
~Parameter Information Block
~A  Depth       RILD        RILM        RLL3         SP          GR     
# ...
  1917.2500     11.0857     12.6634     20.3661    -28.0081     99.7893
  1917.5000     11.2262     12.3401     18.4385    -27.9154    105.5183
  1917.7500     11.3466     12.0288     16.6752    -27.8838    108.4835
  1918.0000     11.4599     11.7856     15.2912    -27.9359    111.4397
  1918.2500     11.5782     11.6513     14.3782    -28.0790    112.5204
  1918.5000     11.7075     11.6508     13.9100    -28.2970    113.0581
  1918.7500     11.8480     11.7964     13.8284    -28.5556    112.9536
  1919.0000     11.9986     12.0904     14.1597    -28.8177    112.5012
  1919.2500     12.1612     12.5291     15.0972    -29.0551    111.7827
  1919.5000     12.3436     13.1068     16.9920    -29.2541    108.9314
  1919.7500     12.5590     13.8206     20.1969    -29.4147    105.4010
  1920.0000     12.8253     14.6711     24.7835    -29.5460     98.2496
  1920.2500     13.1651     15.6611     30.3267    -29.6598     93.1189
  1920.5000     13.6060     16.7946     36.0133    -29.7645     86.2296
  1920.7500     14.1795     18.0810     41.0188    -29.8603     82.6172
  1921.0000     14.9100     19.5468     44.7531    -29.9379     78.8790
  1921.2500     15.7933     21.2413     46.8333    -29.9805     77.3962
  1921.5000     16.7724     23.2246     47.2350    -29.9732     76.2930
  1921.7500     17.7261     25.5249     46.8639    -29.9109     76.0497
  1922.0000     18.4920     28.0553     47.7984    -29.8026     76.0675
  1922.2500     18.9225     30.4936     52.2697    -29.6684     76.1771
  1922.5000     18.9470     32.2067     60.7297    -29.5353     76.3220
  1922.7500     18.5962     32.4384     70.6179    -29.4298     76.4879
  1923.0000     17.9772     30.8501     77.2139    -29.3691     77.4151
  1923.2500     17.2237     27.8822     76.3732    -29.3530     78.8479
  1923.5000     16.4526     24.4126     67.2675    -29.3624     82.2774
  1923.7500     15.7442     21.1541     52.9606    -29.3680     85.1313
  1924.0000     15.1415     18.4341     38.3079    -29.3453     89.8541
  1924.2500     14.6590     16.3054     26.9926    -29.2907     93.3828
  1924.5000     14.2912     14.7086     20.0676    -29.2240     99.8308
  1924.7500     14.0193     13.5693     16.5929    -29.1734    105.0472
  1925.0000     13.8166     12.8324     15.1024    -29.1508    113.3268
  1925.2500     13.6551     12.4627     14.5804    -29.1430    118.0062
  1925.5000     13.5113     12.4327     14.6768    -29.1311    122.0270
  1925.7500     13.3696     12.7102     15.5641    -29.1133    122.3963
  1926.0000     13.2202     13.2496     17.7473    -29.1109    119.9382
  1926.2500     13.0562     13.9862     21.7962    -29.1551    116.6181
  1926.5000     12.8739     14.8305     27.8423    -29.2673    109.4484
  1926.7500     12.6751     15.6654     34.9628    -29.4465    103.6448
  1927.0000     12.4669     16.3514     41.0632    -29.6681     95.0537
  1927.2500     12.2575     16.7523     43.8204    -29.8942     90.4514
  1927.5000     12.0498     16.7786     42.2335    -30.0865     85.8780
  1927.7500     11.8377     16.4210     37.3510    -30.2172     84.0131
  1928.0000     11.6076     15.7476     31.3711    -30.2758     82.2608
  1928.2500     11.3432     14.8687     26.0559    -30.2698     81.8242
  1928.5000     11.0316     13.8967     21.9728    -30.2200     82.9926
  1928.7500     10.6688     12.9214     18.8843    -30.1497     85.3399
  1929.0000     10.2617     12.0011     16.4514    -30.0744     90.9358
  1929.2500      9.8264     11.1642     14.5428    -29.9966     95.3632
  1929.5000      9.3844     10.4184     13.1527    -29.9104    101.7454
  1929.7500      8.9582      9.7604     12.2443    -29.8115    105.3877
  1930.0000      8.5680      9.1839     11.7017    -29.7018    109.6883
  1930.2500      8.2284      8.6831     11.3728    -29.5839    111.6737
  1930.5000      7.9455      8.2547     11.1266    -29.4556    113.1944
  1930.7500      7.7160      7.8974     10.8810    -29.3147    113.4307
  1931.0000      7.5290      7.6121     10.6072    -29.1682    113.5261
  1931.2500      7.3728      7.3991     10.3293    -29.0337    113.9218
  1931.5000      7.2423      7.2566     10.1165    -28.9314    114.9601
  1931.7500      7.1412      7.1783     10.0591    -28.8724    115.3493
  1932.0000      7.0782      7.1535     10.2270    -28.8499    114.4364
  1932.2500      7.0611      7.1694     10.6174    -28.8400    112.7469
  1932.5000      7.0932      7.2142     11.1179    -28.8114    109.3259
  1932.7500      7.1743      7.2814     11.5365    -28.7405    107.0338
  1933.0000      7.3026      7.3728     11.7158    -28.6221    104.4984
  1933.2500      7.4776      7.4988     11.6545    -28.4690    103.8519
  1933.5000      7.7004      7.6761     11.5119    -28.3059    104.5980
  1933.7500      7.9717      7.9246     11.4848    -28.1612    105.7764
  1934.0000      8.2879      8.2649     11.6790    -28.0562    107.2185
  1934.2500      8.6385      8.7164     12.0984    -27.9945    107.3392
  1934.5000      9.0047      9.2964     12.7672    -27.9630    106.0352
  1934.7500      9.3652     10.0166     13.9006    -27.9478    104.4175
  1935.0000      9.7022     10.8742     15.9665    -27.9501    100.9856
  1935.2500     10.0042     11.8348     19.4564    -27.9846     97.5893
  1935.5000     10.2637     12.8125     24.3513    -28.0659     90.0151
  1935.7500     10.4728     13.6648     29.6553    -28.1965     83.6137
  1936.0000     10.6232     14.2314     33.5827    -28.3663     74.2369
  1936.2500     10.7098     14.4104     34.5410    -28.5579     69.8086
  1936.5000     10.7324     14.2141     32.1979    -28.7496     67.6449
  1936.7500     10.6928     13.7495     27.6675    -28.9159     69.0472
  1937.0000     10.5911     13.1496     22.6684    -29.0340     73.7812
  1937.2500     10.4259     12.5188     18.4793    -29.0961     77.7203
  1937.5000     10.2007     11.9181     15.5268    -29.1152     83.7986
  1937.7500      9.9293     11.3737     13.6550    -29.1133     87.4453
  1938.0000      9.6321     10.8913     12.5592    -29.1026     91.2746
  1938.2500      9.3269     10.4653     11.9945    -29.0775     92.4966
  1938.5000      9.0231     10.0858     11.7761    -29.0206     93.0929
  1938.7500      8.7241      9.7421     11.7454    -28.9167     93.3737
  1939.0000      8.4329      9.4257     11.7770    -28.7658     94.2692
  1939.2500      8.1559      9.1319     11.7979    -28.5815     95.1234
  1939.5000      7.9011      8.8588     11.7888    -28.3812     96.3125
  1939.7500      7.6751      8.6068     11.7657    -28.1803     96.7878
  1940.0000      7.4820      8.3770     11.7474    -27.9945     97.1555
  1940.2500      7.3222      8.1706     11.7240    -27.8398     97.7023
  1940.5000      7.1932      7.9880     11.6621    -27.7215     99.8746
  1940.7500      7.0883      7.8278     11.5468    -27.6244    102.1277
  1941.0000      6.9977      7.6863     11.4114    -27.5183    105.5567
  1941.2500      6.9100      7.5573     11.3145    -27.3765    107.2594
  1941.5000      6.8158      7.4339     11.2925    -27.1944    108.6031
  1941.7500      6.7108      7.3100     11.3335    -26.9933    108.7177
  1942.0000      6.5973      7.1820     11.3871    -26.8059    107.9352
  1942.2500      6.4833      7.0486     11.3904    -26.6512    107.2283
  1942.5000      6.3789      6.9102     11.2918    -26.5240    107.3175
  1942.7500      6.2926      6.7693     11.0644    -26.4074    108.8083
  1943.0000      6.2293      6.6317     10.7153    -26.2939    112.5833
  1943.2500      6.1902      6.5067     10.2913    -26.1952    114.6793
  1943.5000      6.1743      6.4062      9.8724    -26.1362    114.9202
  1943.7500      6.1798      6.3428      9.5436    -26.1429    113.2447
  1944.0000      6.2040      6.3271      9.3582    -26.2307    110.3757
  1944.2500      6.2429      6.3666      9.3193    -26.3980    109.4566
  1944.5000      6.2922      6.4647      9.4038    -26.6274    109.5324
  1944.7500      6.3477      6.6205      9.6194    -26.8936    109.7124
  1945.0000      6.4075      6.8279     10.0525    -27.1756    108.9906
