~Version Information
 VERS.                      2.0: CWLS Log ASCII Standard - VERSION 2.0
 WRAP.                       NO: One line per depth step
 ~Well Information Block
 STRT.FT               115.0000: 
 STOP.FT              1768.2500: 
 STEP.FT                 0.2500: 
 NULL.                -999.2500: 
 COMP.          Petrogulf Corporation: COMPANY
 WELL.           Parsons 23-15V: WELL
 FLD.           Purgatorie River: FIELD
 LOC.           2095' FSL & 1817' FWL--API 05 071 07556 00----: LOCATION
 CNTY.               Las Animas: COUNTY
 SRVC.                         : SERVICE COMPANY
 DATE.          Fri Apr 19 16:58:41 2002: LOG DATE
 UWI.                          : UNIQUE WELL ID
 STAT.                       CO: STATE
 PROV.                         :Province
 ~Curve Information Block
 DEPT.FT            0 000 00 00: Depth
 SP.mV                         : DIL Spontaneous Potential
 RILD.Ohm-m                    : DIL Deep Resistivity
 RILM.Ohm-m                    : DIL Medium Resistivity
 RLL3.Ohm-m                    : DIL Shallow Resistivity
 GR.GAPI                       : Gamma Ray
 ~Parameter Information Block
 ~A  Depth        SP         RILD        RILM        RLL3         GR     
# ...
  1095.0000   -200.7791     15.2071     16.0988     21.0845    139.2093
  1095.2500   -200.8870     15.7241     17.3361     28.0594    124.3797
  1095.5000   -201.0696     16.1296     18.6424     37.9704    107.7981
  1095.7500   -201.3217     16.4128     19.8780     49.3612     94.2850
  1096.0000   -201.6185     16.5874     20.8600     59.6724     86.8821
  1096.2500   -201.9259     16.6858     21.4214     65.9650     85.8701
  1096.5000   -202.2149     16.7459     21.4869     66.0336     90.2999
  1096.7500   -202.4660     16.7922     21.1110     59.6165     99.4180
  1097.0000   -202.6668     16.8232     20.4442     48.8289    112.1423
  1097.2500   -202.8099     16.8117     19.6570     37.1239    126.1189
  1097.5000   -202.8943     16.7181     18.8768     27.4576    138.3541
  1097.7500   -202.9256     16.5109     18.1635     21.1199    146.8489
  1098.0000   -202.9130     16.1818     17.5176     17.8360    151.3952
  1098.2500   -202.8674     15.7486     16.9054     16.5676    153.1271
  1098.5000   -202.8011     15.2468     16.2881     16.2440    153.7093
  1098.7500   -202.7274     14.7174     15.6443     16.1194    154.5844
  1099.0000   -202.6570     14.1982     14.9792     15.8233    156.3181
  1099.2500   -202.6014     13.7185     14.3187     15.2702    158.5241
  1099.5000   -202.5754     13.2980     13.6972     14.5433    160.5076
  1099.7500   -202.5924     12.9469     13.1443     13.7904    162.0069
  1100.0000   -202.6541     12.6675     12.6789     13.1444    163.4182
  1100.2500   -202.7444     12.4568     12.3083     12.6821    165.3479
  1100.5000   -202.8338     12.3087     12.0298     12.4233    167.6939
  1100.7500   -202.8879     12.2158     11.8348     12.3481    169.1302
  1101.0000   -202.8769     12.1704     11.7129     12.4101    167.9519
  1101.2500   -202.7847     12.1649     11.6550     12.5431    163.8492
  1101.5000   -202.6154     12.1931     11.6561     12.6751    158.8407
  1101.7500   -202.3886     12.2500     11.7158     12.7547    156.0623
  1102.0000   -202.1276     12.3327     11.8366     12.7843    157.0545
  1102.2500   -201.8520     12.4402     12.0207     12.8409    160.1672
  1102.5000   -201.5794     12.5732     12.2654     13.0642    162.0477
  1102.7500   -201.3252     12.7332     12.5589     13.5975    160.7429
  1103.0000   -201.0983     12.9204     12.8784     14.4895    157.0432
  1103.2500   -200.9014     13.1350     13.1944     15.5991    153.1171
  1103.5000   -200.7385     13.3782     13.4790     16.5933    150.6060
  1103.7500   -200.6210     13.6528     13.7180     17.1047    150.0776
  1104.0000   -200.5626     13.9624     13.9175     16.9677    151.3633
  1104.2500   -200.5693     14.3093     14.1020     16.3374    153.6571
  1104.5000   -200.6320     14.6940     14.3053     15.5822    155.5101
  1104.7500   -200.7308     15.1140     14.5596     15.0591    155.6413
  1105.0000   -200.8442     15.5644     14.8885     14.9569    154.1277
  1105.2500   -200.9550     16.0382     15.3071     15.2803    152.1506
  1105.5000   -201.0513     16.5288     15.8265     15.9301    150.0395
  1105.7500   -201.1275     17.0311     16.4612     16.8409    146.1786
  1106.0000   -201.1848     17.5417     17.2339     18.1707    138.5419
  1106.2500   -201.2301     18.0571     18.1730     20.4571    126.9898
  1106.5000   -201.2719     18.5724     19.3017     24.5095    113.6526
  1106.7500   -201.3171     19.0803     20.6208     30.8137    101.5770
  1107.0000   -201.3693     19.5689     22.0925     38.6852     93.3869
  1107.2500   -201.4306     20.0184     23.6339     46.0520     90.5329
  1107.5000   -201.5042     20.3983     25.1224     50.5604     92.7997
  1107.7500   -201.5967     20.6684     26.4129     51.2946     98.3624
  1108.0000   -201.7177     20.7859     27.3566     49.4041    104.7794
  1108.2500   -201.8765     20.7175     27.8154     46.9819    110.3180
  1108.5000   -202.0756     20.4516     27.6788     45.4018    114.6190
  1108.7500   -202.3014     20.0057     26.8958     44.5857    118.5245
  1109.0000   -202.5214     19.4239     25.5186     43.4460    123.4861
  1109.2500   -202.6953     18.7664     23.7163     40.8359    130.7504
  1109.5000   -202.7932     18.0949     21.7292     36.3323    140.5580
  1109.7500   -202.8056     17.4602     19.7898     30.4745    151.9928
  1110.0000   -202.7404     16.8971     18.0641     24.4190    163.6296
  1110.2500   -202.6154     16.4254     16.6387     19.3004    174.1208
  1110.5000   -202.4527     16.0523     15.5377     15.7337    182.2098
  1110.7500   -202.2754     15.7744     14.7478     13.7168    186.7543
  1111.0000   -202.1037     15.5812     14.2396     12.8713    187.0350
  1111.2500   -201.9522     15.4601     13.9814     12.7619    182.8522
  1111.5000   -201.8307     15.4034     13.9479     13.1022    174.4521
  1111.7500   -201.7496     15.4124     14.1237     13.8513    162.7374
  1112.0000   -201.7235     15.4959     14.5036     15.2830    149.4015
  1112.2500   -201.7693     15.6656     15.0885     17.9891    136.3457
  1112.5000   -201.9006     15.9310     15.8793     22.6191    124.7314
  1112.7500   -202.1192     16.2980     16.8672     29.2641    114.6438
  1113.0000   -202.4097     16.7693     18.0265     36.8856    105.6707
  1113.2500   -202.7416     17.3449     19.3125     43.5247     97.5994
  1113.5000   -203.0794     18.0204     20.6695     47.4429     90.5337
  1113.7500   -203.3950     18.7839     22.0446     48.2481     84.7743
  1114.0000   -203.6731     19.6122     23.3985     46.9171     80.8813
  1114.2500   -203.9121     20.4683     24.7011     44.7899     79.6098
  1114.5000   -204.1200     21.2998     25.9141     42.6159     81.4421
  1114.7500   -204.3079     22.0421     26.9773     40.4198     86.0766
  1115.0000   -204.4815     22.6245     27.8145     37.9694     92.3716
  1115.2500   -204.6381     22.9821     28.3626     35.1849     98.9538
  1115.5000   -204.7710     23.0682     28.6004     32.2038    105.0070
  1115.7500   -204.8744     22.8628     28.5494     29.2979    110.3906
  1116.0000   -204.9460     22.3774     28.2427     26.8082    115.1895
  1116.2500   -204.9900     21.6548     27.6929     25.0249    119.4642
  1116.5000   -205.0186     20.7612     26.8854     24.0094    123.3850
  1116.7500   -205.0477     19.7711     25.8006     23.5516    127.4337
  1117.0000   -205.0878     18.7521     24.4449     23.3100    132.4197
  1117.2500   -205.1371     17.7558     22.8692     22.9456    138.9645
  1117.5000   -205.1821     16.8169     21.1651     22.1594    146.6750
  1117.7500   -205.2054     15.9545     19.4434     20.7629    154.1332
  1118.0000   -205.1929     15.1739     17.8065     18.8212    160.1619
  1118.2500   -205.1359     14.4695     16.3288     16.6731    164.9888
  1118.5000   -205.0295     13.8293     15.0488     14.7255    169.8043
  1118.7500   -204.8730     13.2406     13.9730     13.2141    175.3291
  1119.0000   -204.6736     12.6939     13.0846     12.1525    181.1682
  1119.2500   -204.4500     12.1845     12.3548     11.4382    186.6490
  1119.5000   -204.2313     11.7111     11.7517     10.9628    191.9351
  1119.7500   -204.0502     11.2740     11.2471     10.6589    197.6863
  1120.0000   -203.9332     10.8723     10.8198     10.4983    203.4658
  1120.2500   -203.8947     10.5052     10.4544     10.4620    207.1776
  1120.5000   -203.9380     10.1718     10.1397     10.5080    206.7362
  1120.7500   -204.0602      9.8729      9.8659     10.5685    202.1463
  1121.0000   -204.2551      9.6101      9.6244     10.5813    195.6498
  1121.2500   -204.5108      9.3845      9.4080     10.5246    190.1464
  1121.5000   -204.8068      9.1963      9.2118     10.4224    187.6722
  1121.7500   -205.1153      9.0443      9.0327     10.3138    188.6972
  1122.0000   -205.4083      8.9252      8.8697     10.2175    192.0195
  1122.2500   -205.6648      8.8345      8.7236     10.1271    195.3736
  1122.5000   -205.8730      8.7664      8.5973     10.0367    196.7347
  1122.7500   -206.0292      8.7154      8.4941      9.9573    195.4285
