~Version Information
VERS.                      2.0: CWLS Log ASCII Standard - VERSION 2.0
WRAP.                       NO: One line per depth step
~Well Information Block
STRT.FT               300.0000: 
STOP.FT               871.2500: 
STEP.FT                 0.2500: 
NULL.                -999.2500: 
COMP.          Pioneer Natural Resources: COMPANY
WELL.            Hustler 12-17: WELL
FLD.           Purgatoire River: FIELD
LOC.           2150' FNL & 450' FWL: LOCATION
PROV.                 Colorado: PROVINCE
CNTY.               Las Animas: COUNTRY
SRVC.                Patterson: SERVICE COMPANY
DATE.          Mon Dec 20 09:25:34 2004: LOG DATE
UWI.           05 071 08236 00: UNIQUE WELL ID
~Curve Information Block
DEPT.FT            0 000 00 00: Depth
SN.Ohm-m                      : IEL Short Normal
SP.mV                         : IEL Spontaneous Potential
DIR.Ohm-m                     : IEL Induction Resistivity
GR.GAPI                       : Gamma Ray
~Parameter Information Block
~A  Depth        SN          SP         DIR          GR     
# ...
   769.0000    645.9807   -800.0005     12.6461    150.2872
   769.2500    645.9807   -800.0005     12.4645    150.9146
   769.5000    645.9807   -800.0005     12.3707    153.7121
   769.7500    645.9807   -800.0005     12.4011    155.8298
   770.0000    645.9807   -800.0005     12.5566    156.7408
   770.2500    645.9807   -800.0005     12.8050    154.9587
   770.5000    645.9807   -800.0005     13.0980    149.5129
   770.7500    645.9807   -800.0005     13.3985    145.2681
   771.0000    645.9807   -800.0005     13.6961    139.4286
   771.2500    645.9807   -800.0005     13.9995    136.0361
   771.5000    645.9807   -800.0005     14.3154    131.9567
   771.7500    645.9807   -800.0005     14.6316    130.6195
   772.0000    645.9807   -800.0005     14.9182    132.1431
   772.2500    645.9807   -800.0005     15.1413    135.4774
   772.5000    645.9807   -800.0005     15.2778    141.6090
   772.7500    645.9807   -800.0005     15.3216    144.7157
   773.0000    645.9807   -800.0005     15.2841    147.0561
   773.2500    645.9807   -800.0005     15.1950    148.0814
   773.5000    645.9807   -800.0005     15.0994    150.6707
   773.7500    645.9807   -800.0005     15.0465    153.0081
   774.0000    645.9807   -800.0005     15.0728    155.6375
   774.2500    645.9807   -800.0005     15.1907    155.7243
   774.5000    645.9807   -800.0005     15.3911    152.2086
   774.7500    645.9807   -800.0005     15.6561    147.2433
   775.0000    645.9807   -800.0005     15.9747    136.8697
   775.2500    645.9807   -800.0005     16.3491    129.4934
   775.5000    645.9807   -800.0005     16.7901    120.6496
   775.7500    645.9807   -800.0005     17.3050    117.1485
   776.0000    645.9807   -800.0005     17.8865    114.9589
   776.2500    645.9807   -800.0005     18.5072    114.4322
   776.5000    645.9807   -800.0005     19.1211    113.2187
   776.7500    645.9807   -800.0005     19.6724    111.7372
   777.0000    645.9807   -800.0005     20.1075    109.2968
   777.2500    645.9807   -800.0005     20.3876    108.4219
   777.5000    645.9807   -800.0005     20.4980    109.1658
   777.7500    645.9807   -800.0005     20.4501    110.7774
   778.0000    645.9807   -800.0005     20.2750    113.6516
   778.2500    645.9807   -800.0005     20.0151    115.3914
   778.5000    645.9807   -800.0005     19.7154    117.8822
   778.7500    645.9807   -800.0005     19.4129    120.0043
   779.0000    645.9807   -800.0005     19.1233    125.1988
   779.2500    645.9807   -800.0005     18.8304    130.5870
   779.5000    645.9807   -800.0005     18.4857    140.9099
   779.7500    645.9807   -800.0005     18.0282    147.7377
   780.0000    645.9807   -800.0005     17.4170    155.0819
   780.2500    645.9807   -800.0005     16.6601    157.6669
   780.5000    645.9807   -800.0005     15.8157    159.8873
   780.7500    645.9807   -800.0005     14.9660    161.6394
   781.0000    645.9807   -800.0005     14.1857    165.6190
   781.2500    645.9807   -800.0005     13.5236    168.8177
   781.5000    645.9807   -800.0005     12.9993    173.4355
   781.7500    645.9807   -800.0005     12.6079    176.0194
   782.0000    645.9807   -800.0005     12.3275    178.3706
   782.2500    645.9807   -800.0005     12.1289    178.0569
   782.5000    645.9807   -800.0005     11.9894    173.5811
   782.7500    645.9807   -800.0005     11.9032    168.3578
   783.0000    645.9807   -800.0005     11.8827    159.7337
   783.2500    645.9807   -800.0005     11.9463    154.8406
   783.5000    645.9807   -800.0005     12.1025    149.4860
   783.7500    645.9807   -800.0005     12.3402    147.1542
   784.0000    645.9807   -800.0005     12.6327    145.9697
   784.2500    645.9807   -800.0005     12.9480    147.1426
   784.5000    645.9807   -800.0005     13.2599    151.2375
   784.7500    645.9807   -800.0005     13.5516    154.1791
   785.0000    645.9807   -800.0005     13.8138    156.3731
   785.2500    645.9807   -800.0005     14.0423    155.5989
   785.5000    645.9807   -800.0005     14.2385    151.1905
   785.7500    645.9807   -800.0005     14.4136    146.6342
   786.0000    645.9807   -800.0005     14.5905    138.8986
   786.2500    645.9807   -800.0005     14.7987    134.3324
   786.5000    645.9807   -800.0005     15.0644    130.2987
   786.7500    645.9807   -800.0005     15.4001    130.0607
   787.0000    645.9807   -800.0005     15.8013    132.9774
   787.2500    645.9807   -800.0005     16.2450    136.2215
   787.5000    645.9807   -800.0005     16.6915    141.3367
   787.7500    645.9807   -800.0005     17.0890    144.4492
   788.0000    645.9807   -800.0005     17.3876    149.2326
   788.2500    645.9807   -800.0005     17.5589    153.1455
   788.5000    645.9807   -800.0005     17.6085    160.4120
   788.7500    645.9807   -800.0005     17.5700    165.6147
   789.0000    645.9807   -800.0005     17.4845    172.1203
   789.2500    645.9807   -800.0005     17.3818    174.4040
   789.5000    645.9807   -800.0005     17.2772    173.3411
   789.7500    645.9807   -800.0005     17.1820    169.7807
   790.0000    645.9807   -800.0005     17.1130    162.4676
   790.2500    645.9807   -800.0005     17.0912    158.1059
   790.5000    645.9807   -800.0005     17.1323    154.0538
   790.7500    645.9807   -800.0005     17.2380    152.7851
   791.0000    645.9807   -800.0005     17.3944    151.9038
   791.2500    645.9807   -800.0005     17.5753    151.7271
   791.5000    645.9807   -800.0005     17.7462    152.3339
   791.7500    645.9807   -800.0005     17.8720    153.4215
   792.0000    645.9807   -800.0005     17.9302    155.6538
   792.2500    645.9807   -800.0005     17.9215    157.1025
   792.5000    645.9807   -800.0005     17.8682    158.8398
   792.7500    645.9807   -800.0005     17.7974    159.8613
   793.0000    645.9807   -800.0005     17.7252    161.5770
   793.2500    645.9807   -800.0005     17.6506    162.8636
   793.5000    645.9807   -800.0005     17.5609    164.7347
   793.7500    645.9807   -800.0005     17.4413    165.8066
   794.0000    645.9807   -800.0005     17.2844    167.3414
   794.2500    645.9807   -800.0005     17.0965    168.6927
   794.5000    645.9807   -800.0005     16.8968    171.6783
   794.7500    645.9807   -800.0005     16.7085    174.1268
   795.0000    645.9807   -800.0005     16.5481    177.7241
   795.2500    645.9807   -800.0005     16.4198    179.7130
   795.5000    645.9807   -800.0005     16.3180    181.4986
   795.7500    645.9807   -800.0005     16.2301    181.4627
   796.0000    645.9807   -800.0005     16.1390    179.3520
   796.2500    645.9807   -800.0005     16.0263    177.0915
   796.5000    645.9807   -800.0005     15.8809    173.7817
   796.7500    645.9807   -800.0005     15.7048    172.0533
   797.0000    645.9807   -800.0005     15.5121    169.9220
   797.2500    645.9807   -800.0005     15.3179    168.3764
   797.5000    645.9807   -800.0005     15.1276    165.0522
   797.7500    645.9807   -800.0005     14.9359    161.7807
   798.0000    645.9807   -800.0005     14.7367    155.6345
   798.2500    645.9807   -800.0005     14.5363    151.8891
   798.5000    645.9807   -800.0005     14.3561    149.4170
   798.7500    645.9807   -800.0005     14.2219    150.4380
   799.0000    645.9807   -800.0005     14.1474    154.3793
   799.2500    645.9807   -800.0005     14.1270    157.0430
   799.5000    645.9807   -800.0005     14.1420    159.4048
   799.7500    645.9807   -800.0005     14.1762    159.7873
   800.0000    645.9807   -800.0005     14.2285    159.1095
   800.2500    645.9807   -800.0005     14.3131    158.0941
   800.5000    645.9807   -800.0005     14.4454    155.9375
   800.7500    645.9807   -800.0005     14.6222    154.2640
   801.0000    645.9807   -800.0005     14.8124    152.1536
   801.2500    645.9807   -800.0005     14.9684    151.5258
   801.5000    645.9807   -800.0005     15.0572    152.0663
   801.7500    645.9807   -800.0005     15.0832    153.1507
   802.0000    645.9807   -800.0005     15.0820    154.9933
   802.2500    645.9807   -800.0005     15.0906    155.8640
