~Version Information
VERS.                      2.0: CWLS Log ASCII Standard - VERSION 2.0
WRAP.                       NO: One line per depth step
~Well Information Block
STRT.FT                -8.2500: 
STOP.FT              2209.7500: 
STEP.FT                 0.2500: 
NULL.                -999.2500: 
COMP.          Petrogulf Corporation: COMPANY
WELL.          Alexander 9-43V: WELL
FLD.           Purgatorie River: FIELD
LOC.                          : LOCATION
CNTY.               Las Animas: COUNTY
SRVC.                         : SERVICE COMPANY
DATE.          Wed May 28 09:25:28 2003: LOG DATE
UWI.           05 071 07727 00: UNIQUE WELL ID
STAT.                 Colorado: STATE
~Curve Information Block
DEPT.FT            0 000 00 00: Depth
CCL.                          : Casing Collar Locator
TT3.usec                      : CBL 3' Travel Time
AMP3.mV                       : CBL 3' Amplitude
GR.GAPI                       : Gamma Ray
~Parameter Information Block
~A  Depth       CCL         TT3         AMP3         GR     
    -8.2500   -999.2500   -999.2500   -999.2500    108.3765
    -8.0000   -999.2500   -999.2500   -999.2500    111.8916
    -7.7500   -999.2500   -999.2500   -999.2500    115.3489
    -7.5000   -999.2500   -999.2500   -999.2500    118.5104
    -7.2500   -999.2500   -999.2500   -999.2500    121.9169
    -7.0000   -999.2500   -999.2500   -999.2500    126.2905
    -6.7500   -999.2500   -999.2500   -999.2500    131.6921
    -6.5000   -999.2500   -999.2500   -999.2500    137.0392
    -6.2500   -999.2500   -999.2500   -999.2500    140.4379
    -6.0000   -999.2500   -999.2500   -999.2500    140.3441
    -5.7500   -999.2500   -999.2500   -999.2500    136.6868
    -5.5000   -999.2500   -999.2500   -999.2500    131.0680
    -5.2500   -999.2500   -999.2500   -999.2500    125.9576
    -5.0000   -999.2500   -999.2500   -999.2500    123.2744
    -4.7500   -999.2500   -999.2500   -999.2500    123.3319
    -4.5000   -999.2500   -999.2500   -999.2500    125.1779
    -4.2500   -999.2500   -999.2500   -999.2500    127.8225
    -4.0000   -999.2500   -999.2500   -999.2500    130.7455
    -3.7500   -999.2500   -999.2500   -999.2500    133.3495
    -3.5000   -999.2500   -999.2500   -999.2500    134.6711
    -3.2500   -999.2500   1424.3911      2.2183    134.0138
    -3.0000   -999.2500   1424.3976      2.1583    131.6692
    -2.7500   -999.2500   1424.4214      2.1285    128.8682
    -2.5000   -999.2500   1424.4484      2.1394    126.9755
    -2.2500   -999.2500   1424.4598      2.1802    126.6167
    -2.0000   -999.2500   1424.4484      2.2267    127.4100
    -1.7500   -999.2500   1424.4219      2.2584    128.2409
    -1.5000   -999.2500   1424.3998      2.2718    127.7479
    -1.2500   -999.2500   1424.3998      2.2757    125.1661
    -1.0000      0.0000   1424.4484      2.2737    121.2915
    -0.7500      0.0000   1424.4598      2.2602    118.1811
    -0.5000      0.0000   1424.4484      2.2401    117.1705
    -0.2500      0.0000   1424.4219      2.2244    117.3757
     0.0000      0.0000   1424.3999      2.2198    116.8501
     0.2500      0.0000   1424.4001      2.2208    115.0914
     0.5000      0.0000   1424.4237      2.2175    113.6650
     0.7500      0.0000   1424.4553      2.2105    114.1543
     1.0000      0.0000   1424.4799      2.2089    116.1815
     1.2500      0.0000   1424.4927      2.2173    117.7693
     1.5000      0.0000   1424.4963      2.2302    117.1624
     1.7500      0.0000   1424.4927      2.2403    114.1235
     2.0000      5.0000   1424.4794      2.2430    109.8824
     2.2500      0.0000   1424.4531      2.2351    105.9234
     2.5000     -5.0000   1424.4150      2.2191    102.4917
     2.7500      5.0000   1424.3737      2.2048     98.2357
     3.0000     -5.0000   1424.3378      2.1989     91.4574
     3.2500      5.0000   1424.3115      2.1965     81.6617
     3.5000      2.9834   1424.3063      2.1895     70.0130
     3.7500      0.0000   1424.3452      2.1815     58.6522
     4.0000      0.0000   1424.4380      2.1825     49.6472
     4.2500      0.0000   1424.5532      2.1933     44.1860
     4.5000      0.0000   1424.6343      2.2044     42.4300
     4.7500      0.0000   1424.6489      2.2120     43.9450
     5.0000      0.0000   1424.6122      2.2208     48.0884
     5.2500      0.0000   1424.5625      2.2298     53.9650
     5.5000      0.0000   1424.5266      2.2260     60.4187
     5.7500      0.0000   1424.5087      2.2019     66.5298
     6.0000      0.0000   1424.5022      2.1728     72.1168
     6.2500      0.0000   1424.5005      2.1664     77.4576
     6.5000      0.0000   1424.5000      2.1969     82.5167
     6.7500      0.0000   1424.5000      2.2509     86.7204
     7.0000      0.0000   1424.5000      2.2981     89.4549
     7.2500      0.0000   1424.5000      2.3131     90.5498
     7.5000      0.0000   1424.5000      2.2877     90.3897
     7.7500      0.0000   1424.5000      2.2307     89.7316
     8.0000      0.0000   1424.5000      2.1624     89.1600
     8.2500      0.0000   1424.5000      2.1085     88.4616
     8.5000      0.0000   1424.5000      2.0910     86.9433
     8.7500      0.0000   1424.5000      2.1178     84.7731
     9.0000      0.0000   1424.5000      2.1795     83.4357
     9.2500      0.0000   1424.5000      2.2584     84.1035
     9.5000      0.0000   1424.5000      2.3397     85.8217
     9.7500      0.0000   1424.5000      2.4134     86.0601
    10.0000      0.0000   1424.4995      2.4678     83.1846
    10.2500      0.0000   1424.4977      2.4862     78.0356
    10.5000      0.0000   1424.4908      2.4560     72.9365
    10.7500      0.0000   1424.4712      2.3831     69.4760
    11.0000      0.0000   1424.4283      2.2985     67.6720
    11.2500      0.0000   1424.3590      2.2446     67.1251
    11.5000      0.0000   1424.2797      2.2501     68.1239
    11.7500      0.0000   1424.2264      2.3113     71.1048
    12.0000      0.0000   1424.2330      2.3939     75.4512
    12.2500      0.0000   1424.3063      2.4529     79.3407
    12.5000      0.0000   1424.4237      2.4566     80.8629
    12.7500      0.0000   1424.5493      2.4023     79.3494
    13.0000      0.0000   1424.6472      2.3168     75.8126
    13.2500      0.0000   1424.6903      2.2418     72.1642
    13.5000      0.0000   1424.6737      2.2127     69.9063
    13.7500      0.0000   1424.6201      2.2403     69.3526
    14.0000      0.0000   1424.5629      2.3067     69.8038
    14.2500      0.0000   1424.5200      2.3740     70.3092
    14.5000      0.0000   1424.4886      2.4036     70.3196
    14.7500      0.0000   1424.4432      2.3762     69.8247
    15.0000      0.0000   1424.3114      2.3020     69.1721
    15.2500      0.0000   1423.7571      2.2136     68.8048
    15.5000      0.0000   1421.5259      2.1469     68.8430
    15.7500      0.0000   1414.1033      2.1302     68.7447
    16.0000      0.0000   1394.0112      2.2043     67.6032
    16.2500      0.0000   1349.2830      2.5114     64.9299
    16.5000      0.0000   1266.0225      3.4772     61.0828
    16.7500      0.0000   1134.7789      6.0051     57.0021
    17.0000      0.0000    959.0871     11.3665     53.6806
    17.2500      0.0000    760.9001     20.4377     51.7274
    17.5000      0.0000    575.2107     32.6044     51.1020
    17.7500      0.0000    432.9329     45.5023     51.1103
    18.0000      0.0000    344.9503     56.2917     50.7727
    18.2500      0.0000    301.4764     63.4064     49.4807
    18.5000      0.0000    284.4490     67.1068     47.5386
    18.7500      0.0000    279.2212     68.6400     46.0481
    19.0000      0.0000    278.0059     69.1801     46.0000
    19.2500      0.0000    277.8118     69.4002     47.2980
    19.5000      0.0000    277.7779     69.5771     48.8192
    19.7500      0.0000    277.7277     69.8015     49.5870
    20.0000      0.0000    277.6611     70.0771     49.6133
    20.2500      0.0000    277.6164     70.3355     49.3939
    20.5000      0.0000    277.6057     70.4461     49.1142
    20.7500      0.0000    277.6118     70.2310     48.8457
    21.0000      0.0000    277.6150     69.4319     49.0557
    21.2500      0.0000    277.6255     67.6754     50.2432
    21.5000      0.0000    277.6999     64.5805     52.1486
    21.7500      0.0000    277.9571     60.0177     53.7496
    22.0000      0.0000    278.6383     54.2836     54.1046
    22.2500      0.0000    280.2135     47.9831     53.0821
    22.5000      0.0000    283.3971     41.7318     51.3205
    22.7500      0.0000    288.8214     35.9464     49.5951
    23.0000      0.0000    296.3772     30.8121     48.3746
    23.2500      0.0000    304.8777     26.3464     47.9162
    23.5000      0.0000    312.7024     22.4781     48.3743
    23.7500      0.0000    318.9849     19.1207     49.5767
    24.0000      0.0000    324.0371     16.2221     50.9350
    24.2500      0.0000    328.4899     13.7786     51.8324
    24.5000      0.0000    332.2033     11.8163     52.1126
    24.7500      0.0000    334.3883     10.3567     52.1381
    25.0000      0.0000    334.9662      9.3812     52.3180
