~Version Information
VERS.                      2.0: CWLS Log ASCII Standard - VERSION 2.0
WRAP.                       NO: One line per depth step
~Well Information Block
STRT.FT               840.0000: 
STOP.FT              2019.0000: 
STEP.FT                 0.2500: 
NULL.                -999.2500: 
COMP.          Petrogulf Corporation: COMPANY
WELL.           Lavedure 7-44R: WELL
FLD.           Purgatorie River: FIELD
LOC.           946' FSL & 521' FEL: LOCATION
PROV.                 Colorado: PROVINCE
CNTY.               Las Animas: COUNTRY
SRVC.                Patterson: SERVICE COMPANY
DATE.          Mon Sep 26 08:35:42 2005: LOG DATE
UWI.                          : UNIQUE WELL ID
~Curve Information Block
DEPT.FT            0 000 00 00: Depth
SP.mV                         : DIL Spontaneous Potential
RILD.Ohm-m                    : DIL Deep Resistivity
RILM.Ohm-m                    : DIL Medium Resistivity
RLL3.Ohm-m                    : DIL Shallow Resistivity
GR.GAPI                       : Gamma Ray
~Parameter Information Block
~A  Depth        SP         RILD        RILM        RLL3         GR     
# ...
  1988.0000    190.5269     26.4782     29.7771     27.9755     25.1036
  1988.2500    192.1254     26.3443     28.7174     26.3625     40.3956
  1988.5000    193.4752     25.9325     28.5900     26.1714     60.4312
  1988.7500    194.6147     26.1272     27.9757     27.0465     66.8149
  1989.0000    195.5090     25.3320     28.5460     28.4575     58.2658
  1989.2500    196.1688     25.0013     27.9385     29.2853     59.4952
  1989.5000    196.8637     24.5405     27.7670     29.6726     61.5005
  1989.7500    197.6236     24.2122     27.1144     29.2874     66.8180
  1990.0000    198.4398     24.0470     27.1041     28.2463     71.1476
  1990.2500    199.2938     24.3102     26.6258     27.5510     77.0710
  1990.5000    200.4501     23.8552     26.4418     27.7140     68.7727
  1990.7500    201.8344     23.7111     26.3104     29.2892     75.7402
  1991.0000    203.4379     23.8869     26.1386     29.8526     69.3258
  1991.2500    205.2107     24.1251     26.7284     28.5005     56.4752
  1991.5000    207.1746     23.8483     27.5370     27.4352     73.8953
  1991.7500    209.2502     23.5958     28.1437     27.1989     68.6387
  1992.0000    211.5507     22.2972     29.2341     26.6229     77.6193
  1992.2500    214.1431     21.4777     30.5527     26.7462     76.9017
  1992.5000    216.7954     20.1832     31.1642     28.6484     89.7286
  1992.7500    219.5731     18.2792     30.6367     36.0000     94.7017
  1993.0000    222.3857     16.5829     28.7610     53.2601     93.0349
  1993.2500    225.2271     15.4588     25.5442     67.9008     83.4148
  1993.5000    228.0609     14.3944     20.7077     63.6275     47.4400
  1993.7500    230.9113     13.6214     16.5258     40.6021     41.7034
  1994.0000    233.6472     12.7602     13.6078     17.8713     40.5785
  1994.2500    235.5612     12.1389     11.5622      9.3883     39.0265
  1994.5000    236.4800     11.6256     10.4246      8.0541     59.8034
  1994.7500    236.7946     11.0912      9.6231      7.9462     76.8373
  1995.0000    236.9216     10.6241      9.2225      7.9845     86.7406
  1995.2500    236.9772     10.1312      8.9871      8.0698     37.8609
  1995.5000    237.0403      9.6117      8.6725      8.4500      0.2338
  1995.7500    237.0940      9.0914      8.5003      9.0481      0.0000
  1996.0000    237.0197      8.7302      8.2743      9.5433   -999.2500
  1996.2500    236.9923      8.4654      8.0418      9.5923   -999.2500
  1996.5000    237.0312      8.2647      7.8486      9.2519   -999.2500
  1996.7500    237.0675      8.1517      7.7058      9.1688   -999.2500
  1997.0000    236.9664      8.1325      7.6987      8.9155   -999.2500
  1997.2500    236.7790      8.1948      7.7687      9.0307   -999.2500
  1997.5000    236.5247      8.2828      7.8796      9.2994   -999.2500
  1997.7500    236.0427      8.3611      7.9938      9.2154   -999.2500
  1998.0000    235.4679      8.4713      8.1771      9.1721   -999.2500
  1998.2500    234.8263      8.5585      8.4316      9.3011   -999.2500
  1998.5000    234.0374      8.6108      8.6297      9.8330   -999.2500
  1998.7500    233.0257      8.6816      8.7887     10.7395   -999.2500
  1999.0000    231.8714      8.7073      9.0017     11.7216   -999.2500
  1999.2500    230.4930      8.7046      9.0572     11.7892   -999.2500
  1999.5000    228.7291      8.6257      8.9442     11.3064   -999.2500
  1999.7500    226.6984      8.3795      8.8046     10.4311   -999.2500
  2000.0000    224.3303      8.2536      8.6994      9.6356   -999.2500
  2000.2500    221.9102      8.3627      8.6992      9.4773   -999.2500
  2000.5000    220.0185      8.4815      8.7084      9.2279   -999.2500
  2000.7500    218.4689      8.5848      8.8405      8.8283   -999.2500
  2001.0000    217.0744      8.7392      9.1395      8.9002   -999.2500
  2001.2500    215.8220      8.9077      9.4656      9.3811   -999.2500
  2001.5000    214.9102      9.0296      9.8063     10.4485   -999.2500
  2001.7500    214.2444      9.1116     10.1238     11.3293   -999.2500
  2002.0000    213.6765      9.2235     10.5215     11.7143   -999.2500
  2002.2500    213.0853      9.3698     10.9754     12.5464   -999.2500
  2002.5000    212.6952      9.4432     11.3914     13.5893   -999.2500
  2002.7500    212.6232      9.5247     11.8901     14.6022   -999.2500
  2003.0000    212.7973      9.6091     12.1547     15.7707   -999.2500
  2003.2500    213.0313      9.8765     12.4364     16.7207   -999.2500
  2003.5000    213.4541     10.4077     12.4309     17.0682   -999.2500
  2003.7500    213.9530     10.6282     12.4832     15.9014   -999.2500
  2004.0000    214.3931     10.9209     12.4295     14.3387   -999.2500
  2004.2500    214.6291     11.0394     12.3154     13.4919   -999.2500
  2004.5000    214.6263     11.2359     12.1395     12.7137   -999.2500
  2004.7500    214.3960     11.2605     12.1412     12.2535   -999.2500
  2005.0000    214.1985     11.2221     12.1615     12.0302   -999.2500
  2005.2500    214.0596     11.2363     12.1137     12.1506   -999.2500
  2005.5000    213.6937     11.0903     12.1397     12.4330   -999.2500
  2005.7500    213.0311     10.8810     12.1941     12.7538   -999.2500
  2006.0000    212.2173     10.8399     12.1234     12.9230   -999.2500
  2006.2500    188.8047     11.8627     12.0558     12.7747   -999.2500
  2006.5000     22.5417     53.5762     11.7535     12.6283   -999.2500
  2006.7500      0.0557     98.6506     11.5631     12.5202   -999.2500
  2007.0000   -999.2500    205.3098     11.4356     12.3840   -999.2500
  2007.2500   -999.2500    207.3097     11.1057     12.2446   -999.2500
  2007.5000   -999.2500    210.8946     10.9156     11.7896   -999.2500
  2007.7500   -999.2500    211.2349     10.8382     10.9767   -999.2500
  2008.0000   -999.2500    210.3015     10.7281     10.6143   -999.2500
  2008.2500   -999.2500    210.3264     10.7756     10.6525   -999.2500
  2008.5000   -999.2500    207.4012     10.6969     10.9526   -999.2500
  2008.7500   -999.2500    203.2751     10.8552     11.2436   -999.2500
  2009.0000   -999.2500    202.3841     11.0256     11.8140   -999.2500
  2009.2500   -999.2500    221.5545     10.9877     12.5741   -999.2500
  2009.5000   -999.2500   1239.8456     10.8776     13.2770   -999.2500
  2009.7500   -999.2500   3249.6829     10.7809     13.3727   -999.2500
  2010.0000   -999.2500 100000.0000     11.9415     13.1129   -999.2500
  2010.2500   -999.2500 100000.0000     58.9357     12.4245   -999.2500
  2010.5000   -999.2500 100000.0000    124.8710     11.4247   -999.2500
  2010.7500   -999.2500 100000.0000    620.8331     11.2560   -999.2500
  2011.0000   -999.2500 100000.0000    616.7388     11.1289   -999.2500
  2011.2500   -999.2500 100000.0000    612.6590     10.5041   -999.2500
  2011.5000   -999.2500 100000.0000    596.3804     10.4402   -999.2500
  2011.7500   -999.2500 100000.0000    586.0858     11.0605   -999.2500
  2012.0000   -999.2500 100000.0000    579.0303     12.8393   -999.2500
  2012.2500   -999.2500 100000.0000    562.2590     14.8029   -999.2500
  2012.5000   -999.2500 100000.0000    555.7645     15.8595   -999.2500
  2012.7500   -999.2500 100000.0000    547.7217     16.1926   -999.2500
  2013.0000   -999.2500 100000.0000    541.7375     16.5123   -999.2500
  2013.2500   -999.2500 100000.0000    543.5459     17.2439   -999.2500
  2013.5000   -999.2500   -999.2500    539.5588     19.2390   -999.2500
  2013.7500   -999.2500   -999.2500    547.5688     20.5502   -999.2500
  2014.0000   -999.2500   -999.2500    556.2843     19.0911   -999.2500
  2014.2500   -999.2500   -999.2500    554.4523     15.1287   -999.2500
  2014.5000   -999.2500   -999.2500    548.9935     12.3460   -999.2500
  2014.7500   -999.2500   -999.2500    544.0698     12.0888   -999.2500
  2015.0000   -999.2500   -999.2500    603.1875     13.0712   -999.2500
  2015.2500   -999.2500   -999.2500   3202.5522     13.6147   -999.2500
  2015.5000   -999.2500   -999.2500   7680.3481      0.7813   -999.2500
  2015.7500   -999.2500   -999.2500 100000.0000     -0.9956   -999.2500
