~Version Information
VERS.                      2.0: CWLS Log ASCII Standard - VERSION 2.0
WRAP.                       NO: One line per depth step
~Well Information Block
STRT.FT               270.0000: 
STOP.FT              1771.7000: 
STEP.FT                 0.1000: 
NULL.                -999.2500: 
COMP.          Pioneer Natural Resources: COMPANY
WELL.           Labrador 34-30: WELL
FLD.           Purgatoire River: FIELD
LOC.           926' FSL & 2080' FEL: LOCATION
PROV.                 Colorado: PROVINCE
CNTY.               Las Animas: COUNTRY
SRVC.                Patterson: SERVICE COMPANY
DATE.          Mon Dec 06 08:24:34 2004: LOG DATE
UWI.           05 071 08202 00: UNIQUE WELL ID
~Curve Information Block
DEPT.FT            0 000 00 00: Depth
DCAL.in                       : CDL Caliper
RHOB.g/cc                     : CDL Bulk Density
RHOC.g/cc                     : CDL Density Correction
DPOR.pu                       : CDL Density Porosity
NPOR.pu                       : Neutron Porosity
GR.GAPI                       : Gamma Ray
~Parameter Information Block
~A  Depth       DCAL        RHOB        RHOC        DPOR        NPOR         GR     
# ...
  1642.8000      7.9345      2.4636      0.0486     11.2940     19.9668    111.3941
  1642.9000      7.9345      2.4793      0.0419     10.3441     20.0557    117.7784
  1643.0000      7.9299      2.4908      0.0464      9.6506     20.1103    120.5723
  1643.1000      7.9299      2.4858      0.1017      9.9491     20.1627    122.2315
  1643.2000      7.9299      2.4600      0.0256     11.5132     20.0901    126.9424
  1643.3000      7.9266      2.4390     -0.0100     12.7870     19.8386    129.5016
  1643.4000      7.9266      2.4390      0.0477     12.7889     19.6395    129.9788
  1643.5000      7.9269      2.4438      0.0603     12.4956     19.5264    134.2508
  1643.6000      7.9269      2.4398      0.0400     12.7398     19.4127    139.3306
  1643.7000      7.9269      2.4323      0.0290     13.1945     19.3969    139.2518
  1643.8000      7.9276      2.4320      0.0113     13.2119     19.5801    137.2510
  1643.9000      7.9276      2.4430      0.0401     12.5434     19.8751    140.7344
  1644.0000      7.9268      2.4539      0.0840     11.8849     20.2176    148.9233
  1644.1000      7.9268      2.4504      0.0678     12.0951     20.5160    152.4193
  1644.2000      7.9268      2.4362      0.0516     12.9560     20.4476    147.7378
  1644.3000      7.9265      2.4288      0.0397     13.4045     19.9399    143.8969
  1644.4000      7.9265      2.4426      0.0420     12.5674     19.4197    142.5788
  1644.5000      7.9262      2.4653      0.0951     11.1925     19.3560    137.5948
  1644.6000      7.9262      2.4666      0.1058     11.1123     19.6366    128.9169
  1644.7000      7.9262      2.4532     -0.0292     11.9300     19.8168    122.9180
  1644.8000      7.9263      2.4565      0.0530     11.7288     19.8541    123.8392
  1644.9000      7.9263      2.4693      0.0724     10.9493     19.9270    128.3026
  1645.0000      7.9271      2.4683      0.0695     11.0145     20.0347    131.9557
  1645.1000      7.9271      2.4550      0.0416     11.8165     20.0522    133.6819
  1645.2000      7.9271      2.4424      0.0405     12.5828     19.8563    130.2309
  1645.3000      7.9253      2.4356      0.0661     12.9942     19.5382    120.6412
  1645.4000      7.9253      2.4366      0.0240     12.9325     19.3266    113.9580
  1645.5000      7.9241      2.4474      0.0646     12.2799     19.3574    116.7436
  1645.6000      7.9241      2.4620      0.0595     11.3964     19.6199    122.5299
  1645.7000      7.9241      2.4727      0.0712     10.7456     19.6971    124.6134
  1645.8000      7.9249      2.4792      0.0574     10.3532     19.3394    123.4514
  1645.9000      7.9249      2.4867      0.0517      9.8944     19.1025    120.9378
  1646.0000      7.9245      2.4960      0.0800      9.3337     19.5482    118.4433
  1646.1000      7.9245      2.4988      0.0654      9.1644     20.4570    116.1437
  1646.2000      7.9245      2.4860      0.0998      9.9374     21.0981    115.5022
  1646.3000      7.9242      2.4629      0.0275     11.3389     21.0820    116.6132
  1646.4000      7.9242      2.4531      0.0424     11.9343     20.7544    114.2269
  1646.5000      7.9246      2.4644      0.0472     11.2479     20.4675    108.7832
  1646.6000      7.9246      2.4761      0.1065     10.5415     20.2037    106.6080
  1646.7000      7.9246      2.4728      0.0811     10.7407     20.0857    107.9517
  1646.8000      7.9246      2.4641      0.0435     11.2663     20.2707    108.4449
  1646.9000      7.9246      2.4581      0.0513     11.6305     20.5343    107.5819
  1647.0000      7.9250      2.4480      0.0743     12.2402     20.4829    109.7939
  1647.1000      7.9250      2.4361      0.0240     12.9665     20.1511    115.3323
  1647.2000      7.9250      2.4366      0.0516     12.9360     19.6744    118.1627
  1647.3000      7.9266      2.4553      0.0470     11.8011     18.9722    116.5366
  1647.4000      7.9266      2.4784      0.0652     10.4005     18.4292    116.8660
  1647.5000      7.9265      2.4803      0.1071     10.2854     18.4672    121.9346
  1647.6000      7.9265      2.4593      0.0292     11.5548     18.8037    128.8270
  1647.7000      7.9265      2.4386      0.0264     12.8130     19.1008    137.7609
  1647.8000      7.9244      2.4248      0.0275     13.6510     19.3654    145.1339
  1647.9000      7.9244      2.4182      0.0016     14.0476     19.5436    143.2670
  1648.0000      7.9244      2.4276      0.0431     13.4780     19.4297    135.7108
  1648.1000      7.9244      2.4499      0.0589     12.1253     19.2629    131.1342
  1648.2000      7.9244      2.4728      0.0620     10.7401     19.5593    131.5337
  1648.3000      7.9255      2.4888      0.0591      9.7668     19.9686    132.1186
  1648.4000      7.9255      2.4879      0.1186      9.8271     19.8297    128.1495
  1648.5000      7.9241      2.4649      0.0517     11.2173     19.4681    122.9879
  1648.6000      7.9241      2.4420     -0.0038     12.6077     19.2066    121.5701
  1648.7000      7.9241      2.4402      0.0317     12.7169     18.8737    122.4215
  1648.8000      7.9222      2.4559      0.0439     11.7628     18.6540    121.5704
  1648.9000      7.9222      2.4759      0.0577     10.5543     18.6872    119.8109
  1649.0000      7.9243      2.4844      0.0979     10.0352     18.7453    119.8591
  1649.1000      7.9243      2.4832      0.0482     10.1099     18.8145    122.0673
  1649.2000      7.9243      2.4930      0.0348      9.5123     19.0880    124.5386
  1649.3000      7.9271      2.5174      0.0902      8.0354     19.4280    123.8839
  1649.4000      7.9271      2.5413      0.0900      6.5906     19.5895    116.9056
  1649.5000      7.9288      2.5554      0.1229      5.7331     19.7420    107.0431
  1649.6000      7.9288      2.5633      0.0896      5.2524     20.1797    103.5615
  1649.7000      7.9288      2.5737      0.0505      4.6264     20.6599    107.6606
  1649.8000      7.9305      2.5869      0.0363      3.8213     20.8178    112.0965
  1649.9000      7.9305      2.6027      0.0467      2.8693     21.0904    111.5758
  1650.0000      7.9321      2.6223      0.0626      1.6760     21.9878    106.2115
  1650.1000      7.9321      2.6326      0.0696      1.0530     23.1100    100.7721
  1650.2000      7.9321      2.6230     -0.0126      1.6383     23.8029    100.9912
  1650.3000      7.9338      2.6105     -0.0051      2.3920     24.1789    105.8976
  1650.4000      7.9338      2.6165      0.0345      2.0281     24.5425    113.0672
  1650.5000      7.9334      2.6395      0.0537      0.6364     24.8558    123.0762
  1650.6000      7.9334      2.6554      0.0823     -0.3260     25.1811    132.3768
  1650.7000      7.9334      2.6427      0.0632      0.4402     25.4573    134.2488
  1650.8000      7.9319      2.6063      0.0488      2.6461     25.3123    127.2292
  1650.9000      7.9319      2.5643      0.0386      5.1965     24.7374    118.7140
  1651.0000      7.9366      2.5284     -0.0137      7.3709     24.2213    113.3574
  1651.1000      7.9366      2.5049     -0.0102      8.7965     23.9449    111.3222
  1651.2000      7.9366      2.4904     -0.0361      9.6746     23.6704    115.4303
  1651.3000      7.9462      2.4759     -0.0253     10.5495     23.2541    124.6314
  1651.4000      7.9462      2.4669     -0.0632     11.0948     22.8169    131.6221
  1651.5000      7.9469      2.4750     -0.0022     10.6083     22.5057    132.2874
  1651.6000      7.9469      2.4929      0.0123      9.5220     22.3245    129.4146
  1651.7000      7.9469      2.5073      0.0456      8.6467     22.2197    127.7169
  1651.8000      7.9429      2.5100      0.0945      8.4827     22.0287    129.2504
  1651.9000      7.9429      2.4981      0.0461      9.2037     21.5965    130.9616
  1652.0000      7.9468      2.4802      0.0222     10.2914     21.0463    127.9536
  1652.1000      7.9468      2.4641      0.0466     11.2693     20.6397    121.7902
  1652.2000      7.9468      2.4488      0.0179     12.1911     20.3954    117.6194
  1652.3000      7.9493      2.4408      0.0187     12.6778     20.2980    117.2559
