~Version Information
VERS.                      2.0: CWLS Log ASCII Standard - VERSION 2.0
WRAP.                       NO: One line per depth step
~Well Information Block
STRT.FT               250.0000: 
STOP.FT              1573.7000: 
STEP.FT                 0.1000: 
NULL.                -999.2500: 
COMP.          Pioneer Natural Resources: COMPANY
WELL.          Big Cat Federal 44-1: WELL
FLD.           Purgatoire River: FIELD
LOC.           197' FSL & 973' FEL--: LOCATION
CNTY.               Las Animas: COUNTY
SRVC.                Patterson: SERVICE COMPANY
DATE.          Mon Apr 24 08:33:37 2006: LOG DATE
UWI.           05 071 08042 00: UNIQUE WELL ID
STAT.                 Colorado: STATE
~Curve Information Block
DEPT.FT            0 000 00 00: Depth
DCAL.in                       : CDL Caliper
RHOB.g/cc                     : CDL Bulk Density
RHOC.g/cc                     : CDL Density Correction
DPOR.pu                       : CDL Density Porosity
NPOR.pu                       : Neutron Porosity
GR.GAPI                       : Gamma Ray
~Parameter Information Block
~A  Depth       DCAL        RHOB        RHOC        DPOR        NPOR         GR     
# ...
   595.6000      8.1293      2.5512      0.0696      5.9864     23.2524    118.8229
   595.7000      8.1293      2.5455      0.0335      6.3312     23.2766    115.6554
   595.8000      8.1290      2.5399      0.0342      6.6739     23.4805    114.4316
   595.9000      8.1290      2.5361     -0.0083      6.9052     23.7687    116.0642
   596.0000      8.1303      2.5416      0.0233      6.5717     23.6206    117.0879
   596.1000      8.1303      2.5664      0.0388      5.0663     23.1503    116.8340
   596.2000      8.1303      2.6128      0.0700      2.2546     23.1128    117.3945
   596.3000      8.1308      2.6651      0.1204     -0.9157     23.4072    120.7471
   596.4000      8.1308      2.7033      0.0730     -3.2311     23.3620    125.1952
   596.5000      8.1303      2.7238      0.0825     -4.4744     22.9525    124.1360
   596.6000      8.1303      2.7319      0.0766     -4.9629     22.7881    119.8753
   596.7000      8.1303      2.7297      0.1020     -4.8292     23.2617    120.1762
   596.8000      8.1305      2.7174      0.0877     -4.0855     24.2297    120.0360
   596.9000      8.1305      2.7048      0.0190     -3.3196     25.1663    115.8747
   597.0000      8.1312      2.6944      0.0464     -2.6904     25.5282    115.7505
   597.1000      8.1312      2.6647     -0.0217     -0.8896     25.2078    120.7689
   597.2000      8.1312      2.6090     -0.0746      2.4824     24.7812    123.4293
   597.3000      8.1292      2.5563     -0.1358      5.6781     24.6784    120.7903
   597.4000      8.1292      2.5289     -0.0820      7.3379     24.2847    115.6563
   597.5000      8.1254      2.5101      0.0365      8.4780     23.3772    112.4293
   597.6000      8.1254      2.4823      0.0074     10.1664     22.7732    114.4485
   597.7000      8.1254      2.4645     -0.0010     11.2400     22.6171    119.7612
   597.8000      8.1255      2.4743      0.0021     10.6510     22.3965    121.7043
   597.9000      8.1255      2.4954      0.0544      9.3684     22.2481    118.1753
   598.0000      8.1282      2.5104      0.0243      8.4616     22.5271    113.6078
   598.1000      8.1282      2.5281      0.0461      7.3883     23.0941    111.8813
   598.2000      8.1282      2.5585      0.0643      5.5446     23.5703    113.9915
   598.3000      8.1280      2.5893      0.0887      3.6799     23.7478    119.0400
   598.4000      8.1280      2.6073      0.0633      2.5853     23.8093    124.7432
   598.5000      8.1275      2.6145      0.0676      2.1541     24.0915    128.4436
   598.6000      8.1275      2.6116      0.0889      2.3288     24.4346    129.5889
   598.7000      8.1275      2.5987      0.0650      3.1106     24.3598    130.2852
   598.8000      8.1288      2.5832      0.0479      4.0487     23.7409    132.9411
   598.9000      8.1288      2.5675      0.0371      4.9978     23.0085    137.2722
   599.0000      8.1300      2.5405      0.0513      6.6343     22.5882    137.5108
   599.1000      8.1300      2.5040     -0.0308      8.8503     22.6043    132.6767
   599.2000      8.1300      2.4820      0.0055     10.1814     23.0365    130.8228
   599.3000      8.1310      2.4782      0.0229     10.4102     23.2560    133.5306
   599.4000      8.1310      2.4718      0.0300     10.7995     22.9271    133.7583
   599.5000      8.1312      2.4584      0.0058     11.6130     22.6544    132.2946
   599.6000      8.1312      2.4507      0.0179     12.0781     22.6498    134.3209
   599.7000      8.1312      2.4450      0.0384     12.4224     22.3720    134.6822
   599.8000      8.1295      2.4263      0.0365     13.5602     21.6324    129.4172
   599.9000      8.1295      2.3972      0.0241     15.3197     20.8080    124.4720
   600.0000      8.1276      2.3698      0.0231     16.9836     20.5029    123.0547
   600.1000      8.1276      2.3441      0.0274     18.5366     20.9129    123.1513
   600.2000      8.1276      2.3152      0.0072     20.2927     21.2223    124.9735
   600.3000      8.1278      2.2795      0.0144     22.4544     20.8206    126.2078
   600.4000      8.1278      2.2275     -0.0007     25.6053     20.3854    122.6218
   600.5000      8.1299      2.1467      0.0088     30.5057     20.1951    117.1966
   600.6000      8.1299      2.0393     -0.0502     37.0147     19.5283    113.8324
   600.7000      8.1299      1.9252     -0.0825     43.9254     18.2619    111.2858
   600.8000      8.1298      1.8237     -0.0807     50.0765     16.7810    109.4583
   600.9000      8.1298      1.7423     -0.0482     55.0141     14.9602    108.0254
   601.0000      8.1253      1.6784     -0.0107     58.8838     12.7072    105.5589
   601.1000      8.1253      1.6268     -0.0081     62.0122     10.6564    103.5929
   601.2000      8.1253      1.5834      0.0292     64.6447      9.2477    101.0937
   601.3000      8.1193      1.5486      0.0227     66.7523      8.1748     95.7881
   601.4000      8.1193      1.5278      0.0638     68.0102      7.2733     90.9842
   601.5000      8.1158      1.5252      0.0868     68.1719      6.6692     89.2851
   601.6000      8.1158      1.5469      0.0872     66.8546      6.4437     88.9657
   601.7000      8.1158      1.6037      0.0959     63.4141      6.6080     89.5251
   601.8000      8.1149      1.6968      0.1257     57.7680      6.9146     94.5161
   601.9000      8.1149      1.8064      0.1875     51.1252      7.0321    104.2924
   602.0000      8.1163      1.9033      0.1880     45.2523      6.9202    113.8833
   602.1000      8.1163      1.9793      0.1401     40.6511      6.8725    120.1146
   602.2000      8.1163      2.0563      0.1212     35.9816      7.1175    121.4164
   602.3000      8.1195      2.1573      0.1968     29.8628      7.7482    116.3448
   602.4000      8.1195      2.2725      0.2574     22.8774      8.8986    109.7396
   602.5000      8.1240      2.3678      0.2885     17.1009     10.3478    110.0143
   602.6000      8.1240      2.4223      0.2123     13.8008     11.3900    114.6410
   602.7000      8.1240      2.4491      0.1633     12.1765     11.8565    115.1440
   602.8000      8.1273      2.4624      0.1463     11.3671     12.1998    113.0026
   602.9000      8.1273      2.4606      0.0882     11.4814     12.7360    112.9649
   603.0000      8.1290      2.4476      0.0967     12.2690     13.6257    113.4591
   603.1000      8.1290      2.4274      0.0755     13.4934     14.5677    113.1147
   603.2000      8.1290      2.4015      0.0389     15.0615     14.8748    113.9768
   603.3000      8.1303      2.3779      0.0149     16.4903     14.7284    115.9126
   603.4000      8.1303      2.3621      0.0372     17.4477     14.9025    116.9753
   603.5000      8.1306      2.3529      0.0381     18.0031     15.4741    116.8380
   603.6000      8.1306      2.3470      0.0768     18.3646     15.7731    119.1967
   603.7000      8.1306      2.3387      0.0370     18.8662     15.3900    123.5832
   603.8000      8.1304      2.3332      0.0209     19.1996     14.8499    123.5677
   603.9000      8.1304      2.3418      0.0649     18.6805     14.7135    120.2478
   604.0000      8.1304      2.3627      0.0831     17.4134     15.1372    117.4155
   604.1000      8.1304      2.3840      0.1448     16.1185     15.7882    113.2754
   604.2000      8.1304      2.3979      0.1105     15.2790     15.8761    108.8614
   604.3000      8.1307      2.4076      0.0875     14.6907     15.3768    107.2728
   604.4000      8.1307      2.4120      0.0985     14.4244     15.1895    106.9464
   604.5000      8.1310      2.3991      0.0870     15.2053     15.7745    108.1974
   604.6000      8.1310      2.3689      0.0202     17.0339     16.7949    112.9281
   604.7000      8.1310      2.3376      0.0057     18.9313     17.4893    118.4317
   604.8000      8.1331      2.3120      0.0303     20.4865     17.4479    123.9378
   604.9000      8.1331      2.2831      0.0111     22.2370     17.3185    130.2794
   605.0000      8.1397      2.2434      0.0246     24.6419     17.5329    134.5102
   605.1000      8.1397      2.1947     -0.0053     27.5923     17.5688    134.9052
