~Version Information
VERS.                      2.0: CWLS Log ASCII Standard - VERSION 2.0
WRAP.                       NO: One line per depth step
~Well Information Block
STRT.FT                -8.2500: 
STOP.FT              2209.7500: 
STEP.FT                 0.2500: 
NULL.                -999.2500: 
COMP.          Petrogulf Corporation: COMPANY
WELL.          Alexander 9-43V: WELL
FLD.           Purgatorie River: FIELD
LOC.                          : LOCATION
CNTY.               Las Animas: COUNTY
SRVC.                         : SERVICE COMPANY
DATE.          Wed May 28 09:25:28 2003: LOG DATE
UWI.           05 071 07727 00: UNIQUE WELL ID
STAT.                 Colorado: STATE
~Curve Information Block
DEPT.FT            0 000 00 00: Depth
CCL.                          : Casing Collar Locator
TT3.usec                      : CBL 3' Travel Time
AMP3.mV                       : CBL 3' Amplitude
GR.GAPI                       : Gamma Ray
~Parameter Information Block
~A  Depth       CCL         TT3         AMP3         GR     
# ...
  1298.2500      0.0000    453.4386      5.5248    157.2912
  1298.5000      0.0000    463.3318      5.4805    161.1211
  1298.7500      0.0000    475.7763      5.3869    162.1399
  1299.0000      0.0000    491.3370      5.2687    158.7110
  1299.2500      0.0000    508.6571      5.1877    150.0345
  1299.5000      0.0000    523.1777      5.1947    137.4996
  1299.7500      0.0000    528.4616      5.3158    123.9484
  1300.0000      0.0000    519.1805      5.5514    111.6597
  1300.2500      0.0000    495.2415      5.8586    101.5312
  1300.5000      0.0000    465.4083      6.1391     94.0859
  1300.7500      0.0000    445.3232      6.2846     90.3676
  1301.0000      0.0000    447.6102      6.2542     91.3548
  1301.2500      0.0000    471.3931      6.0966     96.7279
  1301.5000      0.0000    502.0015      5.8960    104.4086
  1301.7500      0.0000    522.0317      5.7134    111.4994
  1302.0000      0.0000    522.9802      5.5860    116.1020
  1302.2500      0.0000    507.3333      5.5505    118.5636
  1302.5000      0.0000    482.8232      5.6317    120.8323
  1302.7500      0.0000    457.0213      5.8010    124.5147
  1303.0000      0.0000    435.4791      5.9692    129.6711
  1303.2500      0.0000    421.6157      6.0457    135.1870
  1303.5000      0.0000    416.9592      6.0106    139.7024
  1303.7500      0.0000    421.7608      5.9265    142.1027
  1304.0000      0.0000    435.1913      5.8842    141.7727
  1304.2500      0.0000    454.5469      5.9347    138.9310
  1304.5000      0.0000    474.7586      6.0548    134.5523
  1304.7500      0.0000    490.0408      6.1684    129.6514
  1305.0000      0.0000    497.5105      6.2035    124.8144
  1305.2500      0.0000    499.6043      6.1436    120.4407
  1305.5000      0.0000    502.4955      6.0386    116.9918
  1305.7500      0.0000    512.1609      5.9621    114.8483
  1306.0000      0.0000    532.0660      5.9537    114.2928
  1306.2500      0.0000    562.1741      5.9936    115.7402
  1306.5000      0.0000    596.9301      6.0286    119.6374
  1306.7500      0.0000    624.8129      6.0221    125.9152
  1307.0000      0.0000    633.0118      5.9820    133.4844
  1307.2500      0.0000    614.7996      5.9471    140.2271
  1307.5000      0.0000    574.5806      5.9527    143.6382
  1307.7500      0.0000    527.7773      6.0125    141.9834
  1308.0000      0.0000    493.8158      6.1179    135.1706
  1308.2500      0.0000    484.5570      6.2389    124.5691
  1308.5000      0.0000    496.4650      6.3324    112.1830
  1308.7500      0.0000    513.9174      6.3639    100.0655
  1309.0000      0.0000    521.8874      6.3210     90.0663
  1309.2500      0.0000    517.2031      6.2061     83.4937
  1309.5000      0.0000    508.3559      6.0274     80.7818
  1309.7500      0.0000    504.6264      5.8018     81.5749
  1310.0000      0.0000    506.3270      5.5556     85.1447
  1310.2500      0.0000    506.2544      5.3193     90.6197
  1310.5000      0.0000    498.6793      5.1265     96.9153
  1310.7500      0.0000    484.2879      5.0111    102.8476
  1311.0000      0.0000    467.6075      4.9880    107.7019
  1311.2500      0.0000    452.7545      5.0265    111.6297
  1311.5000      0.0000    441.7762      5.0555    115.1091
  1311.7500      0.0000    435.0676      5.0135    117.8845
  1312.0000      0.0000    432.3537      4.8949    118.6434
  1312.2500      0.0000    433.6541      4.7398    115.9117
  1312.5000      0.0000    439.3045      4.5855    109.3000
  1312.7500      0.0000    448.4482      4.4474    100.0602
  1313.0000      0.0000    457.4002      4.3389     90.6879
  1313.2500      0.0000    460.5296      4.2820     83.8571
  1313.5000      0.0000    454.2388      4.2824     81.2594
  1313.7500      0.0000    440.3118      4.3063     82.9144
  1314.0000      0.0000    424.6485      4.2986     87.1604
  1314.2500      0.0000    412.7207      4.2280     91.4108
  1314.5000      0.0000    406.7628      4.1167     93.5582
  1314.7500      0.0000    406.7019      4.0286     93.0400
  1315.0000      0.0000    412.2489      4.0250     90.6776
  1315.2500      0.0000    423.0839      4.1231     87.7044
  1315.5000      0.0000    437.4265      4.2899     84.9961
  1315.7500      0.0000    452.0588      4.4728     83.0127
  1316.0000      0.0000    465.1010      4.6347     82.2780
  1316.2500      0.0000    477.7619      4.7642     83.7657
  1316.5000      0.0000    491.3628      4.8592     88.5702
  1316.7500      0.0000    503.1422      4.9130     97.0059
  1317.0000      0.0000    507.1207      4.9215    107.9619
  1317.2500      0.0000    499.4378      4.9017    119.0962
  1317.5000      0.0000    481.9564      4.8884    127.8484
  1317.7500      0.0000    460.8242      4.9030    132.8243
  1318.0000      0.0000    442.2961      4.9312    134.5286
  1318.2500      0.0000    429.8445      4.9464    134.5921
  1318.5000      0.0000    424.1426      4.9557    134.0696
  1318.7500      0.0000    424.4698      5.0053    132.4925
  1319.0000      0.0000    429.8474      5.1238    128.5343
  1319.2500      0.0000    439.6401      5.2815    121.4862
  1319.5000      0.0000    453.7240      5.4245    112.1597
  1319.7500      0.0000    471.3270      5.5338    102.3415
  1320.0000      0.0000    488.7776      5.6347     93.3589
  1320.2500      0.0000    499.4449      5.7566     85.4391
  1320.5000      0.0000    498.7452      5.8967     78.6404
  1320.7500      0.0000    489.9141      6.0089     74.0084
  1321.0000      0.0000    482.0264      6.0207     73.2858
  1321.2500      0.0000    481.0443      5.8823     77.4420
  1321.5000      0.0000    484.9029      5.6217     85.7511
  1321.7500      0.0000    487.4508      5.3439     96.2713
  1322.0000      0.0000    484.9410      5.1615    106.9245
  1322.2500      0.0000    478.9688      5.1163    116.1679
  1322.5000      0.0000    474.7947      5.1673    123.2102
  1322.7500      0.0000    476.4591      5.2447    128.0180
  1323.0000      0.0000    482.4904      5.3109    130.7201
  1323.2500      0.0000    486.1519      5.3776    130.5760
  1323.5000      0.0000    479.9947      5.4797    126.0278
  1323.7500      0.0000    460.6998      5.6477    116.4549
  1324.0000      0.0000    431.0978      5.8918    103.8172
  1324.2500      0.0000    398.8644      6.1780     92.0971
  1324.5000      0.0000    372.6909      6.4121     84.8405
  1324.7500      0.0000    357.8836      6.4813     83.1069
  1325.0000      0.0000    354.4967      6.3445     85.6389
  1325.2500      0.0000    359.4876      6.0797     90.6577
  1325.5000      0.0000    370.4417      5.8311     97.1424
  1325.7500      0.0000    386.8316      5.7078    104.5304
  1326.0000      0.0000    407.8751      5.7265    111.8909
  1326.2500      0.0000    430.0678      5.8236    117.8473
  1326.5000      0.0000    447.6476      5.9117    121.0975
  1326.7500      0.0000    455.6440      5.9384    120.9089
  1327.0000      0.0000    452.6122      5.9142    117.7039
  1327.2500      0.0000    441.0865      5.8901    113.5877
  1327.5000      0.0000    425.9407      5.9110    111.5596
  1327.7500      0.0000    411.9768      5.9883    113.3043
  1328.0000      0.0000    402.3203      6.0947    118.1367
  1328.2500      0.0000    398.1518      6.1783    124.5297
  1328.5000      0.0000    399.1413      6.1939    131.6724
  1328.7500      0.0000    404.0266      6.1402    138.8193
  1329.0000      0.0000    411.3912      6.0608    144.3820
  1329.2500      0.0000    420.4336      6.0120    147.0791
  1329.5000      0.0000    431.1596      6.0244    147.5410
  1329.7500      0.0000    443.6450      6.0825    147.7454
  1330.0000      0.0000    456.9603      6.1403    149.0547
  1330.2500      0.0000    469.1805      6.1672    151.5196
  1330.5000      0.0000    478.6304      6.1795    154.7863
  1330.7500      0.0000    484.6161      6.2118    158.7031
  1331.0000      0.0000    486.9101      6.2658    162.8433
  1331.2500      0.0000    485.2020      6.3065    166.1353
  1331.5000      0.0000    479.0889      6.3098    167.3867
