~Version Information
VERS.                      2.0: CWLS Log ASCII Standard - VERSION 2.0
WRAP.                       NO: One line per depth step
~Well Information Block
STRT.FT               380.0000: 
STOP.FT               899.2000: 
STEP.FT                 0.1000: 
NULL.                -999.2500: 
COMP.          Pioneer Natural Resources: COMPANY
WELL.          Prospector 12-19: WELL
FLD.           Purgatoire River: FIELD
LOC.           2262' FNL & 634' FWL: LOCATION
PROV.                 Colorado: PROVINCE
CNTY.               Las Animas: COUNTRY
SRVC.                Patterson: SERVICE COMPANY
DATE.          Mon Apr 25 09:33:09 2005: LOG DATE
UWI.           05 071 08191 00: UNIQUE WELL ID
~Curve Information Block
DEPT.FT            0 000 00 00: Depth
DCAL.in                       : CDL Caliper
RHOB.g/cc                     : CDL Bulk Density
RHOC.g/cc                     : CDL Density Correction
DPOR.pu                       : CDL Density Porosity
GR.GAPI                       : Gamma Ray
NPOR.pu                       : Neutron Porosity
~Parameter Information Block
~A  Depth       DCAL        RHOB        RHOC        DPOR         GR         NPOR    
# ...
   485.6000      8.1481      2.4395      0.1716     12.7589    117.7789     30.0351
   485.7000      8.1481      2.4333      0.0608     13.1329    122.4657     30.0317
   485.8000      8.1513      2.4297      0.0671     13.3489    122.9389     29.7950
   485.9000      8.1513      2.4361      0.1087     12.9640    117.6822     29.6869
   486.0000      8.0835      2.4388      0.1087     12.8012    111.9795     29.1266
   486.1000      8.0835      2.4362      0.0657     12.9558    112.0033     27.9751
   486.2000      8.0835      2.4421      0.0582     12.5999    117.4942     27.0309
   486.3000      8.1042      2.4584      0.0779     11.6103    119.9168     26.8414
   486.4000      8.1042      2.4732      0.0978     10.7181    115.8256     26.8326
   486.5000      8.0746      2.4755      0.0419     10.5781    109.8665     26.1245
   486.6000      8.0746      2.4629      0.0362     11.3399    104.9247     24.6203
   486.7000      8.0746      2.4484     -0.0173     12.2153    102.3935     23.0440
   486.8000      8.0140      2.4534      0.0172     11.9122    104.3126     22.3019
   486.9000      8.0140      2.4715      0.0924     10.8189    111.8637     22.2985
   487.0000      7.9644      2.4742      0.0763     10.6554    121.6071     22.2382
   487.1000      7.9644      2.4588      0.0815     11.5888    127.2578     22.2730
   487.2000      7.9644      2.4408      0.0720     12.6801    125.9762     23.1882
   487.3000      7.9266      2.4287      0.0418     13.4150    120.2105     25.0968
   487.4000      7.9266      2.4313      0.0656     13.2573    115.3859     26.7399
   487.5000      7.8880      2.4440      0.1248     12.4821    113.0953     26.8310
   487.6000      7.8880      2.4413      0.1118     12.6476    111.6818     25.9386
   487.7000      7.8880      2.4237     -0.0063     13.7159    110.7497     25.3944
   487.8000      7.9535      2.4224      0.0484     13.7951    109.0033     25.9107
   487.9000      7.9535      2.4391      0.0944     12.7824    106.5834     27.3143
   488.0000      8.0501      2.4539      0.0514     11.8838    108.1468     28.3352
   488.1000      8.0501      2.4650      0.0782     11.2095    111.5658     28.3615
   488.2000      8.0501      2.4792      0.0595     10.3502    110.1276     27.9287
   488.3000      8.1198      2.4994      0.1102      9.1256    105.1506     26.9235
   488.4000      8.1198      2.5206      0.1289      7.8397    103.2638     25.2708
   488.5000      8.1185      2.5365      0.1251      6.8801    103.4910     24.2304
   488.6000      8.1185      2.5412      0.1546      6.5965    100.8781     24.6897
   488.7000      8.1185      2.5316      0.0841      7.1784     97.5407     26.1666
   488.8000      8.1499      2.5152      0.0897      8.1718     97.5303     27.5931
   488.9000      8.1499      2.4984      0.0546      9.1893    100.4613     28.4019
   489.0000      8.2339      2.4804      0.0541     10.2774    103.8999     28.8857
   489.1000      8.2339      2.4556      0.0558     11.7791    107.3333     29.3217
   489.2000      8.2339      2.4275      0.0189     13.4874    113.7297     29.3072
   489.3000      8.2874      2.4161      0.0282     14.1786    126.1154     29.2178
   489.4000      8.2874      2.4303      0.0602     13.3167    141.6579     29.8542
   489.5000      8.2375      2.4547      0.0848     11.8363    151.8573     30.6792
   489.6000      8.2375      2.4791      0.0738     10.3549    151.0033     30.6114
   489.7000      8.2375      2.5003      0.1234      9.0702    143.4423     29.6322
   489.8000      8.2098      2.5055      0.1565      8.7579    137.2133     28.3729
   489.9000      8.2098      2.4982      0.0980      9.1986    134.8689     27.3970
   490.0000      8.2451      2.5025      0.0907      8.9373    133.3467     26.9971
   490.1000      8.2451      2.5246      0.1216      7.5990    130.3320     27.2630
   490.2000      8.2451      2.5516      0.1345      5.9648    127.7837     27.9366
   490.3000      8.2736      2.5764      0.1522      4.4616    126.4692     28.3982
   490.4000      8.2736      2.5973      0.1184      3.1964    124.7506     28.3409
   490.5000      8.1391      2.6078      0.1346      2.5550    123.4300     28.1126
   490.6000      8.1391      2.6002      0.0661      3.0207    122.1132     27.6479
   490.7000      8.1391      2.5743      0.0780      4.5897    118.0750     26.9916
   490.8000      8.1221      2.5462      0.0428      6.2931    111.6534     27.0313
   490.9000      8.1221      2.5425     -0.0094      6.5125    105.7628     27.8297
   491.0000      8.1124      2.5686      0.0215      4.9344    100.2431     28.3651
   491.1000      8.1124      2.5955      0.0478      3.3034     95.7340     28.0402
   491.2000      8.1124      2.5968      0.0123      3.2222     95.8096     27.1791
   491.3000      8.0760      2.5761     -0.0197      4.4765    103.0248     26.5467
   491.4000      8.0760      2.5491      0.0339      6.1176    115.4848     25.8892
   491.5000      8.0469      2.5226     -0.0056      7.7234    127.4000     24.7370
   491.6000      8.0469      2.4963     -0.0422      9.3165    132.1225     23.9810
   491.7000      8.0469      2.4596      0.0022     11.5410    126.5746     23.8488
   491.8000      8.0150      2.4035     -0.0085     14.9420    117.4509     23.7425
   491.9000      8.0150      2.3427     -0.0333     18.6225    114.5639     23.4848
   492.0000      8.0131      2.2873     -0.0301     21.9789    119.6065     23.2147
   492.1000      8.0131      2.2321     -0.0506     25.3276    126.7583     23.5989
   492.2000      8.0131      2.1903     -0.0198     27.8629    131.9082     25.1514
   492.3000      8.0276      2.1831      0.0114     28.2996    136.7272     27.2364
   492.4000      8.0276      2.2058      0.0644     26.9203    140.1788     28.7558
   492.5000      8.0283      2.2369      0.0832     25.0342    141.1783     29.3745
   492.6000      8.0283      2.2654      0.1401     23.3106    144.6779     29.4143
   492.7000      8.0283      2.2931      0.1451     21.6276    148.2907     29.3437
   492.8000      8.0515      2.3262      0.1392     19.6263    142.9667     29.2903
   492.9000      8.0515      2.3638      0.1681     17.3443    131.1060     29.4021
   493.0000      8.0680      2.3924      0.1472     15.6134    123.4274     30.0057
   493.1000      8.0680      2.3940      0.1211     15.5154    125.2130     30.8315
   493.2000      8.0680      2.3672      0.0968     17.1394    131.1966     31.0819
   493.3000      8.0711      2.3334      0.0745     19.1874    135.1107     30.5574
   493.4000      8.0711      2.3118      0.0865     20.4945    139.7866     30.0666
   493.5000      8.2146      2.3025      0.0310     21.0590    144.6946     30.1394
   493.6000      8.2146      2.3061      0.0492     20.8403    145.4028     30.4637
   493.7000      8.2146      2.3286      0.0935     19.4771    144.7841     30.7219
   493.8000      8.2890      2.3666      0.1097     17.1760    145.3228     30.7725
   493.9000      8.2890      2.4049      0.1740     14.8547    145.1222     30.7249
   494.0000      8.3346      2.4296      0.2032     13.3550    143.7455     30.7125
   494.1000      8.3346      2.4429      0.2415     12.5534    145.8322     30.5371
   494.2000      8.3346      2.4512      0.2395     12.0485    152.5758     30.3899
   494.3000      8.4046      2.4520      0.2552     11.9979    156.9595     30.5867
   494.4000      8.4046      2.4515      0.1192     12.0299    151.5217     30.7310
   494.5000      8.3872      2.4578      0.1271     11.6462    139.8428     31.0024
   494.6000      8.3872      2.4558      0.1210     11.7723    132.9549     31.9274
   494.7000      8.3872      2.4352      0.0963     13.0168    133.4090     32.7055
   494.8000      8.3838      2.4126      0.0618     14.3880    135.6683     32.4022
   494.9000      8.3838      2.4090      0.0204     14.6033    136.5605     31.1106
   495.0000      8.1053      2.4283      0.0877     13.4373    136.3195     29.8024
   495.1000      8.1053      2.4498      0.1053     12.1309    131.9825     29.3070
