~Version Information
VERS.                      2.0: CWLS Log ASCII Standard - VERSION 2.0
WRAP.                       NO: One line per depth step
~Well Information Block
STRT.FT                -9.0000: 
STOP.FT              2130.0000: 
STEP.FT                 0.2500: 
NULL.                -999.2500: 
COMP.          Pioneer Natural Resources: COMPANY
WELL.               King 22-13: WELL
FLD.           Purgatorie River: FIELD
LOC.           2419' FNL & 1806' FWL: LOCATION
PROV.                 Colorado: PROVINCE
CNTY.               Las Animas: COUNTRY
SRVC.                Patterson: SERVICE COMPANY
DATE.          Wed Apr 20 09:20:28 2005: LOG DATE
UWI.           05-071-08318-00: UNIQUE WELL ID
~Curve Information Block
DEPT.FT            0 000 00 00: Depth
CCL.                          : Casing Collar Locator
TT3.usec                      : CBL 3' Travel Time
AMP3.mV                       : CBL 3' Amplitude
GR.GAPI                       : Gamma Ray
~Parameter Information Block
~A  Depth       CCL         TT3         AMP3         GR     
# ...
   962.5000      0.0000    831.8110      6.8504    113.1882
   962.7500      0.0000    829.9999      6.3425    112.8763
   963.0000      0.0000    827.1607      5.9579    113.0455
   963.2500      0.0000    824.5275      5.7030    113.2734
   963.5000      0.0000    824.1621      5.5557    112.5134
   963.7500      0.0000    828.9463      5.4811    110.0290
   964.0000      0.0000    839.9604      5.4443    106.7959
   964.2500      0.0000    853.4619      5.4198    105.3284
   964.5000      0.0000    861.6735      5.3924    107.8042
   964.7500      0.0000    858.1268      5.3519    114.2943
   965.0000      0.0000    842.3413      5.2922    122.3578
   965.2500      0.0000    818.8517      5.2188    128.2367
   965.5000      0.0000    793.0112      5.1455    129.3165
   965.7500      0.0000    769.2734      5.0834    126.2725
   966.0000      0.0000    752.0125      5.0330    122.5162
   966.2500      0.0000    745.1152      4.9913    120.9184
   966.5000      0.0000    749.9215      4.9627    121.1576
   966.7500      0.0000    764.1652      4.9623    120.7096
   967.0000      0.0000    782.8734      5.0054    118.0816
   967.2500      0.0000    800.1754      5.0939    114.3113
   967.5000      0.0000    811.2619      5.2124    111.4861
   967.7500      0.0000    813.9839      5.3398    110.6700
   968.0000      0.0000    809.5901      5.4600    111.1337
   968.2500      0.0000    803.0721      5.5577    110.8839
   968.5000      0.0000    803.6861      5.6069    108.2915
   968.7500      0.0000    822.6450      5.5761    103.8127
   969.0000      0.0000    864.4543      5.4580     99.8337
   969.2500      0.0000    917.4632      5.2958     98.5391
   969.5000      0.0000    957.8735      5.1665    100.1338
   969.7500      0.0000    968.9326      5.1226    102.8751
   970.0000      5.0000    954.3016      5.1514    104.3521
   970.2500     -5.0000    929.9099      5.1935    103.0114
   970.5000     -5.0000    907.4178      5.1950     99.2345
   970.7500      0.0000    889.0460      5.1388     95.1882
   971.0000      0.0000    873.2231      5.0439     93.2834
   971.2500      0.0000    859.1928      4.9469     94.4813
   971.5000      0.0000    846.9142      4.8783     97.8471
   971.7500      0.0000    836.8366      4.8458    101.4511
   972.0000      0.0000    830.5278      4.8401    103.6750
   972.2500      0.0000    829.2999      4.8501    104.0605
   972.5000      0.0000    832.2948      4.8699    103.1686
   972.7500      0.0000    837.0665      4.8936    101.6163
   973.0000      0.0000    841.5842      4.9145     99.4291
   973.2500      0.0000    845.0892      4.9261     96.6343
   973.5000      0.0000    847.8433      4.9246     94.1511
   973.7500      0.0000    850.6182      4.9127     93.4551
   974.0000      0.0000    854.0345      4.8993     95.1945
   974.2500      0.0000    858.0222      4.8920     98.4120
   974.5000      0.0000    862.1060      4.8895    101.3515
   974.7500      0.0000    866.0437      4.8827    102.8883
   975.0000      0.0000    869.3880      4.8647    102.9369
   975.2500      0.0000    870.2116      4.8422    101.7130
   975.5000      0.0000    865.4374      4.8346     99.2784
   975.7500      0.0000    853.6629      4.8595     96.0225
   976.0000      0.0000    837.3861      4.9162     93.0316
   976.2500      0.0000    821.5905      4.9845     91.4187
   976.5000      0.0000    810.1091      5.0404     91.2437
   976.7500      0.0000    803.6471      5.0722     91.3318
   977.0000      0.0000    800.7365      5.0845     90.3492
   977.2500      0.0000    799.6282      5.0897     87.9796
   977.5000      0.0000    799.2284      5.0965     84.8205
   977.7500      0.0000    799.0021      5.1047     81.5498
   978.0000      0.0000    798.6112      5.1086     78.7974
   978.2500      0.0000    797.6975      5.1039     77.4791
   978.5000      0.0000    795.9166      5.0888     78.3624
   978.7500      0.0000    793.2769      5.0598     81.1890
   979.0000      0.0000    790.4666      5.0124     84.6715
   979.2500      0.0000    788.4788      4.9499     87.5123
   979.5000      0.0000    787.6263      4.8863     89.2232
   979.7500      0.0000    787.2994      4.8381     89.8875
   980.0000      0.0000    787.0591      4.8145     89.4978
   980.2500      0.0000    787.4697      4.8164     87.8822
   980.5000      0.0000    789.4229      4.8400     85.1448
   980.7500      0.0000    793.2572      4.8750     81.8446
   981.0000      0.0000    799.3364      4.9048     78.7843
   981.2500      0.0000    809.0723      4.9114     76.6779
   981.5000      0.0000    824.0778      4.8828     75.6973
   981.7500      0.0000    843.5109      4.8189     75.2060
   982.0000      0.0000    862.7137      4.7350     74.2108
   982.2500      0.0000    875.4692      4.6575     72.2156
   982.5000      0.0000    877.9334      4.6077     69.6161
   982.7500      0.0000    870.4612      4.5901     67.3690
   983.0000      0.0000    856.6083      4.5951     66.3649
   983.2500      0.0000    841.1199      4.6097     67.0317
   983.5000      0.0000    827.9670      4.6242     69.3215
   983.7500      0.0000    818.7469      4.6344     72.8356
   984.0000      0.0000    812.5223      4.6406     76.8850
   984.2500      0.0000    807.5662      4.6455     80.5285
   984.5000      0.0000    803.2193      4.6505     82.8011
   984.7500      0.0000    799.8768      4.6545     83.1615
   985.0000      0.0000    797.7740      4.6563     81.8858
   985.2500      0.0000    796.3701      4.6571     80.0060
   985.5000      0.0000    794.8436      4.6604     78.7252
   985.7500      0.0000    793.0055      4.6684     78.6940
   986.0000      0.0000    791.8810      4.6796     79.6592
   986.2500      0.0000    793.2338      4.6903     80.7052
   986.5000      0.0000    798.0644      4.7004     80.8847
   986.7500      0.0000    805.5307      4.7165     79.8484
   987.0000      0.0000    813.7435      4.7448     78.0763
   987.2500      0.0000    821.5590      4.7823     76.4532
   987.5000      0.0000    829.0959      4.8178     75.4673
   987.7500      0.0000    836.4487      4.8429     74.8550
   988.0000      0.0000    842.5093      4.8588     74.2097
   988.2500      0.0000    845.5616      4.8717     73.8658
   988.5000      0.0000    844.6542      4.8822     74.7667
   988.7500      0.0000    840.1895      4.8822     77.1629
   989.0000      0.0000    834.0554      4.8592     79.6669
   989.2500      0.0000    829.7576      4.8072     80.1462
   989.5000      0.0000    831.0555      4.7327     77.7780
   989.7500      0.0000    838.9771      4.6538     73.8578
   990.0000      0.0000    850.7492      4.5899     70.3407
   990.2500      0.0000    862.4860      4.5506     68.0701
   990.5000      0.0000    872.2341      4.5322     66.8265
   990.7500      0.0000    880.0213      4.5208     66.5607
   991.0000      0.0000    886.3138      4.4987     67.7995
   991.2500      0.0000    891.5555      4.4534     70.8620
   991.5000      0.0000    896.6058      4.3902     75.1913
   991.7500      0.0000    902.3488      4.3352     79.6207
   992.0000      0.0000    908.2211      4.3188     83.0884
   992.2500      0.0000    911.4680      4.3514     85.0351
   992.5000      0.0000    908.8097      4.4184     85.6682
   992.7500      0.0000    899.5532      4.4937     86.3294
   993.0000      0.0000    886.6606      4.5555     89.0933
   993.2500      0.0000    874.4655      4.5917     95.0475
   993.5000      0.0000    866.0776      4.6001    102.8994
   993.7500      0.0000    863.1157      4.5892    109.8163
   994.0000      0.0000    866.0562      4.5743    113.6862
   994.2500      0.0000    873.4896      4.5694    114.2819
   994.5000      0.0000    882.1398      4.5795    112.4492
   994.7500      0.0000    888.8815      4.6036    108.7768
   995.0000      0.0000    892.5742      4.6386    103.3654
   995.2500      0.0000    893.8603      4.6801     96.6169
   995.5000      0.0000    893.8108      4.7205     89.7541
   995.7500      0.0000    892.9968      4.7494     84.3122
