~Version Information
VERS.                      2.0: CWLS Log ASCII Standard - VERSION 2.0
WRAP.                       NO: One line per depth step
~Well Information Block
STRT.FT               340.0000: 
STOP.FT              1542.5000: 
STEP.FT                 0.2500: 
NULL.                -999.2500: 
COMP.          Petrogulf Corporation: COMPANY
WELL.            Montoya 7-21R: WELL
FLD.           Purgatorie River: FIELD
LOC.           445' FNL & 1942' FWL: LOCATION
PROV.                 Colorado: PROVINCE
CNTY.               Las Animas: COUNTRY
SRVC.                Patterson: SERVICE COMPANY
DATE.          Thu Sep 15 10:37:42 2005: LOG DATE
UWI.                          : UNIQUE WELL ID
~Curve Information Block
DEPT.FT            0 000 00 00: Depth
SP.mV                         : DIL Spontaneous Potential
RILD.Ohm-m                    : DIL Deep Resistivity
RILM.Ohm-m                    : DIL Medium Resistivity
RLL3.Ohm-m                    : DIL Shallow Resistivity
GR.GAPI                       : Gamma Ray
~Parameter Information Block
~A  Depth        SP         RILD        RILM        RLL3         GR     
# ...
  1348.0000    213.3632     10.2615     11.7815     17.3989    140.7969
  1348.2500    213.1754     10.3905     12.1208     18.5377    147.3869
  1348.5000    213.0077     10.5134     12.2051     17.9023    129.5662
  1348.7500    212.8462     10.6331     12.2422     15.7570    116.4161
  1349.0000    212.6487     10.6612     12.0033     13.8351    133.9426
  1349.2500    212.4587     10.7121     11.8216     12.4042    132.9401
  1349.5000    212.4273     10.6050     11.5517     11.5759    144.6895
  1349.7500    212.5169     10.4596     11.2520     10.4573    158.0531
  1350.0000    212.4999     10.2521     10.9175      9.8439    180.7996
  1350.2500    212.2893     10.0337     10.7196     10.2124    169.0684
  1350.5000    211.8940      9.8174     10.5220     10.3821    181.9485
  1350.7500    211.4235      9.4068     10.4035     10.8216    171.0676
  1351.0000    210.8020      9.1126     10.1239     12.0312    141.9207
  1351.2500    210.0492      8.8811      9.7599     12.9864    156.6223
  1351.5000    209.3564      8.6276      9.3735     11.9694    167.1808
  1351.7500    208.7558      8.3441      8.9694      9.9453    171.4557
  1352.0000    208.1296      8.2245      8.6089      8.9697    146.6577
  1352.2500    207.3942      8.1819      8.4149      9.1102    171.4748
  1352.5000    206.7158      8.0363      8.2792      9.6121    186.1794
  1352.7500    206.1184      7.9855      8.1356      9.7427    195.0076
  1353.0000    205.6447      7.9440      8.0477      9.7311    191.4349
  1353.2500    205.2715      7.9287      7.9302      9.8001    179.5990
  1353.5000    205.1385      7.9374      7.8839      9.5383    166.4455
  1353.7500    205.2291      7.8940      7.8077      9.3144    156.3493
  1354.0000    205.5273      7.8183      7.7655      9.1985    154.2066
  1354.2500    206.0112      7.8557      7.7832      9.0593    142.5596
  1354.5000    206.7226      7.9073      7.8004      9.1575    141.7240
  1354.7500    207.5392      7.9292      7.8490      9.2294    146.4126
  1355.0000    208.1572      8.0237      7.9622      9.1021    148.7887
  1355.2500    208.7256      8.1129      8.0356      8.9349    117.5920
  1355.5000    208.9443      8.2375      8.1472      9.4421    119.5609
  1355.7500    208.7877      8.3074      8.2535     10.0484    136.2310
  1356.0000    208.4588      8.4460      8.5240     10.4000    123.6778
  1356.2500    208.0687      8.6173      8.7990     10.4327    110.3150
  1356.5000    207.7042      8.7900      9.0100     10.7366    123.0643
  1356.7500    207.2605      8.9148      9.2287     11.4939    124.9983
  1357.0000    206.7756      9.0152      9.5232     11.9399    123.6542
  1357.2500    206.3969      9.1111      9.8056     12.2146    152.8070
  1357.5000    206.1580      9.2963      9.9099     12.3471    149.3889
  1357.7500    205.8539      9.4523     10.0632     12.3208    170.9044
  1358.0000    205.4674      9.6351     10.2449     12.2312    165.4872
  1358.2500    205.1934      9.7634     10.3686     11.8516    165.1641
  1358.5000    205.1039      9.9416     10.4694     11.7145    169.5265
  1358.7500    205.0272      9.9781     10.6993     11.8780    170.0493
  1359.0000    204.9619     10.1227     10.8761     12.2181    183.9223
  1359.2500    204.7783     10.1919     11.0584     12.8979    186.9486
  1359.5000    204.4947     10.1784     11.1269     14.1077    170.2785
  1359.7500    203.9579     10.1664     11.1293     14.9203    168.6882
  1360.0000    203.4088     10.2369     11.0755     14.5165    146.8503
  1360.2500    202.6904     10.2328     10.7800     13.3408    133.6902
  1360.5000    201.8329     10.3040     10.5667     12.5043    152.4031
  1360.7500    200.9676     10.5331     10.4454     11.7602    156.7167
  1361.0000    199.9084     10.6581     10.4561     11.3026    144.3862
  1361.2500    198.8377     10.9108     10.4231     11.2141    133.2891
  1361.5000    197.7521     11.3702     10.5832     11.7765    145.3461
  1361.7500    196.8615     11.5495     10.9492     12.3897    152.7902
  1362.0000    196.1156     11.9763     11.3379     12.4990    175.6114
  1362.2500    195.5251     12.3674     11.7482     12.5240    193.9401
  1362.5000    194.9990     12.9212     12.5208     12.8592    158.4189
  1362.7500    194.5713     13.5396     13.1302     14.7182    159.0463
  1363.0000    194.3235     14.0401     14.4130     18.7490    174.7415
  1363.2500    194.1923     14.6702     15.5858     24.9397    174.4496
  1363.5000    194.1387     15.1744     17.5453     34.9725    153.5629
  1363.7500    194.1021     16.1787     18.8099     47.0960    139.0305
  1364.0000    194.0785     17.0099     20.0981     49.0726    107.8468
  1364.2500    194.0635     18.0578     21.7731     44.7797    101.8017
  1364.5000    193.8290     19.4520     23.2704     40.9728    100.5678
  1364.7500    193.4343     20.7380     24.8353     38.5021     94.9336
  1365.0000    192.8821     22.6113     26.2183     37.9808     70.7221
  1365.2500    192.1742     23.7516     28.4975     38.9647     64.5378
  1365.5000    191.4807     24.6983     30.8841     40.7935     76.4657
  1365.7500    190.7719     26.1400     32.7794     42.4959     78.4118
  1366.0000    190.0325     27.2013     34.0005     42.5003     80.0962
  1366.2500    189.3982     27.6459     34.0670     41.7387     77.5758
  1366.5000    188.7904     28.3781     35.2015     41.1635     68.0201
  1366.7500    188.1263     29.3351     35.7059     41.0310     70.2119
  1367.0000    187.5577     29.0267     36.0589     41.3729     84.8573
  1367.2500    187.1088     29.5847     36.3539     42.0528     76.5341
  1367.5000    186.8413     29.4203     38.1360     43.3099     71.8031
  1367.7500    186.7321     30.7647     39.0236     44.9303     69.4834
  1368.0000    186.6477     30.8293     37.4575     46.3932     77.7207
  1368.2500    186.5630     31.1421     37.4160     47.9545     65.7404
  1368.5000    186.5352     31.4373     37.8929     49.6301     58.7149
  1368.7500    186.6164     31.6123     38.3588     50.8497     63.6229
  1369.0000    186.6840     33.2790     38.8776     50.7778     69.8308
  1369.2500    186.8132     33.7254     39.8880     49.5485     72.3554
  1369.5000    187.0169     34.6820     40.0313     48.0083     66.8783
  1369.7500    187.2399     34.8791     39.7053     46.9548     74.0897
  1370.0000    187.4272     35.1969     40.9505     46.0356     70.6901
  1370.2500    187.5401     35.8893     42.1015     46.8974     66.6968
  1370.5000    187.6244     35.0584     44.1297     50.2736     60.8412
  1370.7500    187.8893     36.2710     45.2706     55.4219     50.9106
  1371.0000    188.2832     36.4290     43.5276     61.1899     75.9516
  1371.2500    188.7221     37.5405     44.9315     63.2827     83.4393
  1371.5000    189.1454     37.2549     44.5371     60.1921     67.7807
  1371.7500    189.6850     37.5360     44.9130     55.4851     73.2071
  1372.0000    190.2853     37.5096     45.7275     51.5809     49.9486
  1372.2500    190.9088     37.9186     45.5687     50.1772     52.9489
  1372.5000    191.5599     37.6122     43.9959     50.5536     62.7354
  1372.7500    192.2475     37.8240     44.9699     51.9373     63.7163
  1373.0000    192.9622     38.0614     43.3776     51.3517     59.5243
  1373.2500    193.5638     37.6512     43.3310     48.7522     63.0250
  1373.5000    193.9562     39.1773     42.3295     46.3869     56.9939
  1373.7500    194.2028     37.3335     41.9529     45.6104     54.2428
  1374.0000    194.4487     38.3971     42.1799     46.1088     54.4794
  1374.2500    194.7779     38.7700     41.9725     46.6483     56.9819
  1374.5000    195.2465     37.9658     42.2543     46.0469     67.2537
  1374.7500    195.7282     38.2810     42.4673     44.7243     67.2874
  1375.0000    196.1342     37.9486     43.7224     44.9121     61.9769
  1375.2500    196.6104     37.0395     42.9229     47.6444     70.4815
  1375.5000    197.1926     37.4741     43.0951     50.7975     66.9560
  1375.7500    197.9549     36.9764     42.5655     53.0019     62.3944
