~Version Information
 VERS.                                  2.0 : CWLS LAS VERSION
 WRAP.                                   NO : WRAPING MODE
 SWARE .                 MController 2.5.0N : SOFTWARE VERSION
~Well Information
 WELL.                   Sand Pebbles 13-33 : WELL
 COMP.    Pioneer Natural Resources USA Inc : COMPANY
 FLD.                      Purgatoire River : FIELD
 LOC.                 NW/SW Sec 33 T32S R67W : LOCATION
 DATE.                           3/08-10/05 : DATE(S) LOGGED
 SRVC.         Blanco Geological Services LLC : SERVICE COMPANY
 STAT.                                   CO : STATE
 CNTY.                           Las Animas : COUNTY
 CTRY.                                  USA : COUNTRY
 API.                       05-071-08224-00 : API NUMBER
 STRT.FT                             655.00 : START DEPTH
 STOP.FT                            2730.00 : STOP DEPTH
 STEP.FT                               1.00 : DEPTH INCREMENT
 NULL.                                -9999 : NULL VALUE
~Curve information
 DEPTH.FT                                   :
 ROP.MIN/FT                                 :
 GAS.UNITS                                  :
~ASCII Log data
# ...
      2455.0         0.73         30.5 
      2456.0         0.50         28.2 
      2457.0         0.47         29.5 
      2458.0         0.37         32.9 
      2459.0         0.23         34.5 
      2460.0         0.25         33.0 
      2461.0        14.70         71.8 
      2462.0         1.10         39.0 
      2463.0         0.92          5.0 
      2464.0         0.97         17.0 
      2465.0         0.97         64.3 
      2466.0         0.93        101.3 
      2467.0         0.92        155.4 
      2468.0         0.77        124.4 
      2469.0         0.73         34.0 
      2470.0         0.73         18.6 
      2471.0         0.95         33.0 
      2472.0         0.83         39.8 
      2473.0         0.83         38.7 
      2474.0         0.73         29.3 
      2475.0         1.05         21.6 
      2476.0         1.03         27.0 
      2477.0         0.83         27.5 
      2478.0         0.57         28.1 
      2479.0         0.58         26.0 
      2480.0         0.53         25.5 
      2481.0         0.60         27.0 
      2482.0         0.60         31.9 
      2483.0         0.40         34.4 
      2484.0         0.20         35.8 
      2485.0         0.30         34.5 
      2486.0         0.27         32.4 
      2487.0         0.32         28.9 
      2488.0         0.30         26.0 
      2489.0         0.13         25.6 
      2490.0         0.27         24.8 
      2491.0        10.52         73.4 
      2492.0         0.47         79.8 
      2493.0         0.67         90.7 
      2494.0         0.53         72.5 
      2495.0         0.48         43.8 
      2496.0         0.50         21.0 
      2497.0         0.63         11.8 
      2498.0         0.70          6.1 
      2499.0         0.57          4.8 
      2500.0         0.70          8.2 
      2501.0         0.52         20.2 
      2502.0         0.30         33.3 
      2503.0         0.47         61.1 
      2504.0         0.23         74.7 
      2505.0         0.37         89.4 
      2506.0         0.53        102.5 
      2507.0         0.53        117.7 
      2508.0         0.52        130.1 
      2509.0         0.47        134.5 
      2510.0         0.63        107.0 
      2511.0         0.70         34.6 
      2512.0         0.67         13.2 
      2513.0         0.73          8.3 
      2514.0         0.65         11.9 
      2515.0         0.70         22.6 
      2516.0         0.70         30.2 
      2517.0         0.63         31.3 
      2518.0         0.63         31.6 
      2519.0         0.58         32.5 
      2520.0         0.50         34.0 
      2521.0        12.70         59.2 
      2522.0         0.47         61.6 
      2523.0         0.80         64.5 
      2524.0         0.73         72.9 
      2525.0         0.67         15.0 
      2526.0         0.75          1.8 
      2527.0         0.57         16.4 
      2528.0         0.60         62.8 
      2529.0         0.47        108.8 
      2530.0         0.37        147.6 
      2531.0         0.33        186.5 
      2532.0         0.27        214.6 
      2533.0         0.62        266.1 
      2534.0         0.63        302.0 
      2535.0         0.40        331.4 
      2536.0         0.30        360.7 
      2537.0         0.27        363.6 
      2538.0         0.30        304.4 
      2539.0         0.47        164.5 
      2540.0         0.72         37.7 
      2541.0         0.70         13.1 
      2542.0         0.67         17.1 
      2543.0         0.60         28.9 
      2544.0         0.80         40.5 
      2545.0         0.62         37.7 
      2546.0         0.77         33.5 
      2547.0         0.50         39.4 
      2548.0         0.53         67.6 
      2549.0         0.77         91.7 
      2550.0         0.67         46.4 
      2551.0        16.25         99.1 
      2552.0         0.88         44.0 
      2553.0         0.63          4.4 
      2554.0         0.70          1.6 
      2555.0         0.70          4.5 
      2556.0         0.67          8.4 
      2557.0         0.72         16.1 
      2558.0         0.67         30.6 
      2559.0         0.77         34.7 
      2560.0         0.47         33.1 
      2561.0         0.43         35.8 
      2562.0         0.37         39.0 
      2563.0         0.68         42.0 
      2564.0         0.80         44.1 
      2565.0         0.80         32.5 
      2566.0         0.90         21.4 
      2567.0         0.92         21.8 
      2568.0         0.93         27.7 
      2569.0         1.03         40.8 
      2570.0         1.05         39.9 
      2571.0         0.80         17.6 
      2572.0         1.07         14.3 
      2573.0         1.07         19.8 
      2574.0         1.12         25.2 
      2575.0         1.00         30.5 
      2576.0         0.97         31.5 
      2577.0         1.02         24.3 
      2578.0         1.00         22.1 
      2579.0         1.00         21.2 
      2580.0         0.98         22.7 
      2581.0        11.15         63.2 
      2582.0         1.97         38.2 
      2583.0         1.75          4.2 
      2584.0         1.50         24.2 
      2585.0         1.45         39.8 
      2586.0         1.43         20.0 
      2587.0         1.35         28.5 
      2588.0         1.50         30.1 
      2589.0         1.32         23.9 
      2590.0         1.33         29.8 
      2591.0         1.23         25.3 
      2592.0         1.18         27.6 
      2593.0         1.07         24.6 
      2594.0         1.33         23.8 
      2595.0         0.95         22.7 
      2596.0         0.97         25.7 
      2597.0         1.00         28.3 
      2598.0         1.02         30.5 
      2599.0         1.07         27.1 
      2600.0         1.07         25.3 
      2601.0         1.22         24.8 
      2602.0         1.17         24.8 
      2603.0         1.03         24.9 
      2604.0         0.98         23.3 
      2605.0         1.37         30.0 
      2606.0         1.67         22.8 
      2607.0         1.85         21.9 
      2608.0         1.23         25.0 
      2609.0         0.92         27.1 
      2610.0         0.63         22.8 
      2611.0        14.40         85.9 
      2612.0         1.00         31.1 
      2613.0         0.98          3.5 
      2614.0         1.07          8.0 
      2615.0         1.07         16.8 
      2616.0         1.02         27.1 
      2617.0         1.00         32.8 
      2618.0         1.00         38.8 
      2619.0         0.95         39.2 
      2620.0         0.90         34.1 
      2621.0         0.90         24.4 
      2622.0         0.87         18.2 
      2623.0         1.12         17.7 
      2624.0         1.10         20.0 
      2625.0         0.90         20.3 
      2626.0         0.98         19.9 
      2627.0         0.97         19.9 
      2628.0         1.00         18.7 
      2629.0         0.93         18.4 
      2630.0         0.98         19.1 
      2631.0         1.07         18.9 
      2632.0         1.03         18.8 
      2633.0         1.08         18.6 
      2634.0         1.03         21.9 
      2635.0         0.97         25.5 
      2636.0         1.12         28.2 
      2637.0         1.03         24.6 
      2638.0         1.03         22.7 
      2639.0         1.05         22.3 
      2640.0         0.97         25.4 
      2641.0        13.17         73.9 
      2642.0         1.00         81.9 
      2643.0         0.93          9.8 
      2644.0         0.95          5.4 
      2645.0         0.93         11.3 
      2646.0         0.93         28.8 
      2647.0         0.95         42.1 
      2648.0         0.97         42.0 
      2649.0         0.90         38.4 
      2650.0         0.90         35.1 
      2651.0         0.95         21.1 
      2652.0         1.07         21.8 
      2653.0         0.70         25.3 
      2654.0         0.50         27.1 
