~Version Information
VERS.                      2.0: CWLS Log ASCII Standard - VERSION 2.0
WRAP.                       NO: One line per depth step
~Well Information Block
STRT.FT               350.0000: 
STOP.FT              1390.0000: 
STEP.FT                 0.1000: 
NULL.                -999.2500: 
COMP.          Petrogulf Corporation: COMPANY
WELL.             Leier 17-42R: WELL
FLD.           Purgatorie River: FIELD
LOC.           2398' FNL & 1109' FEL: LOCATION
PROV.                 Colorado: PROVINCE
CNTY.               Las Animas: COUNTRY
SRVC.                Patterson: SERVICE COMPANY
DATE.          Tue Oct 18 07:06:44 2005: LOG DATE
UWI.                          : UNIQUE WELL ID
~Curve Information Block
DEPT.FT            0 000 00 00: Depth
DCAL.in                       : CDL Caliper
RHOB.g/cc                     : CDL Bulk Density
RHOC.g/cc                     : CDL Density Correction
DPOR.pu                       : CDL Density Porosity
GR.GAPI                       : Gamma Ray
NPOR.pu                       : Neutron Porosity
~Parameter Information Block
~A  Depth       DCAL        RHOB        RHOC        DPOR         GR         NPOR    
# ...
  1031.6000      8.0301      2.3205      0.0528     19.9706    145.4043     32.3209
  1031.7000      8.0301      2.3455      0.0211     18.4535    147.2464     32.3637
  1031.8000      7.9664      2.3821      0.0538     16.2385    147.8418     32.3388
  1031.9000      7.9664      2.4234      0.1094     13.7305    149.7381     32.0197
  1032.0000      7.9581      2.4551      0.0957     11.8107    152.6940     31.5762
  1032.1000      7.9581      2.4749      0.0950     10.6107    155.4247     31.2777
  1032.2000      7.9581      2.4928      0.0536      9.5292    157.6825     31.1545
  1032.3000      7.9664      2.5169      0.0779      8.0649    158.1656     31.0361
  1032.4000      7.9664      2.5463      0.0892      6.2864    155.6493     30.9014
  1032.5000      7.9565      2.5735      0.0701      4.6346    150.8116     30.8694
  1032.6000      7.9565      2.5916      0.0697      3.5378    147.8686     30.9160
  1032.7000      7.9565      2.5984      0.0624      3.1293    150.4757     30.7527
  1032.8000      7.9528      2.5992      0.0663      3.0763    153.8963     30.2169
  1032.9000      7.9528      2.6000      0.0831      3.0274    151.6789     29.4825
  1033.0000      7.9379      2.6016      0.0472      2.9350    146.5461     28.7908
  1033.1000      7.9379      2.6014      0.0449      2.9471    143.9530     28.4868
  1033.2000      7.9379      2.5935      0.0758      3.4244    143.4915     28.7941
  1033.3000      7.9396      2.5807      0.0217      4.1997    141.2668     29.3607
  1033.4000      7.9396      2.5789      0.0371      4.3093    136.2958     29.6603
  1033.5000      7.9390      2.5979      0.0177      3.1568    132.3738     29.7202
  1033.6000      7.9390      2.6324      0.0709      1.0638    131.6553     29.7527
  1033.7000      7.9390      2.6662      0.0612     -0.9831    132.9427     29.6279
  1033.8000      7.9443      2.6919      0.0435     -2.5421    135.5570     29.4816
  1033.9000      7.9443      2.7126      0.0819     -3.7927    139.6052     29.6581
  1034.0000      7.9396      2.7310      0.0826     -4.9098    143.2536     29.9174
  1034.1000      7.9396      2.7500      0.0905     -6.0632    144.2034     29.8144
  1034.2000      7.9396      2.7609      0.1121     -6.7193    142.8598     29.4199
  1034.3000      7.9275      2.7471      0.1041     -5.8823    140.4321     29.0772
  1034.4000      7.9275      2.7110      0.0883     -3.6947    138.9506     28.8009
  1034.5000      7.9166      2.6744      0.0567     -1.4810    141.1524     28.6026
  1034.6000      7.9166      2.6475      0.0718      0.1485    145.0097     28.6129
  1034.7000      7.9166      2.6233      0.0262      1.6187    146.7099     28.7778
  1034.8000      7.9178      2.6010     -0.0228      2.9667    147.0585     28.9301
  1034.9000      7.9178      2.5866      0.0034      3.8399    147.0573     28.7550
  1035.0000      7.9432      2.5813      0.0032      4.1619    145.3171     28.3701
  1035.1000      7.9432      2.5787      0.0551      4.3195    142.6142     28.3554
  1035.2000      7.9432      2.5695      0.1016      4.8763    142.0079     28.7378
  1035.3000      7.9444      2.5578      0.0228      5.5865    145.3617     29.0762
  1035.4000      7.9444      2.5509      0.0711      6.0049    148.9930     29.2373
  1035.5000      7.9400      2.5322      0.0800      7.1378    147.4301     29.3601
  1035.6000      7.9400      2.4940     -0.0065      9.4539    140.5791     29.4698
  1035.7000      7.9400      2.4539      0.0421     11.8856    133.7547     29.5464
  1035.8000      7.9247      2.4123      0.0351     14.4055    132.5145     29.5251
  1035.9000      7.9247      2.3594     -0.0191     17.6126    135.6246     29.4130
  1036.0000      7.9268      2.3005      0.0219     21.1842    136.7933     29.4534
  1036.1000      7.9268      2.2377     -0.0111     24.9882    134.8132     29.6623
  1036.2000      7.9268      2.1713     -0.0638     29.0105    132.0502     29.9441
  1036.3000      7.9266      2.1197     -0.0694     32.1381    129.1490     30.3721
  1036.4000      7.9266      2.1032     -0.0604     33.1372    126.1541     30.7978
  1036.5000      7.9237      2.1161      0.0232     32.3546    124.6276     30.9766
  1036.6000      7.9237      2.1380      0.0551     31.0297    125.4298     30.9824
  1036.7000      7.9237      2.1663      0.0634     29.3132    126.4639     31.0743
  1036.8000      7.9409      2.2112      0.1562     26.5932    127.8354     31.3273
  1036.9000      7.9409      2.2717      0.1660     22.9251    132.9781     31.6673
  1037.0000      7.9517      2.3407      0.1244     18.7469    141.6193     31.9675
  1037.1000      7.9517      2.4117      0.1235     14.4442    148.8467     31.9463
  1037.2000      7.9517      2.4743      0.1362     10.6486    151.4240     31.5820
  1037.3000      7.9391      2.5186      0.1140      7.9633    150.3594     31.4222
  1037.4000      7.9391      2.5457      0.0953      6.3198    149.0410     31.7257
  1037.5000      7.9320      2.5663      0.0797      5.0751    149.0165     31.9618
  1037.6000      7.9320      2.5871      0.0562      3.8094    148.6017     31.7335
  1037.7000      7.9320      2.6022      0.0697      2.8980    147.5650     31.2222
  1037.8000      7.9249      2.6019      0.0080      2.9167    148.8402     30.6518
  1037.9000      7.9249      2.5919     -0.0248      3.5241    154.6047     30.1359
  1038.0000      7.9369      2.5823     -0.0405      4.1002    163.3935     29.7306
  1038.1000      7.9369      2.5693      0.0006      4.8932    171.0452     29.3756
  1038.2000      7.9369      2.5432      0.0027      6.4713    175.0771     29.0592
  1038.3000      7.9443      2.5081     -0.0376      8.5989    174.6769     29.0202
  1038.4000      7.9443      2.4810     -0.0294     10.2402    168.1329     29.4157
  1038.5000      7.9498      2.4742     -0.0194     10.6515    159.6167     29.8173
  1038.6000      7.9498      2.4809      0.0174     10.2475    156.2841     29.6968
  1038.7000      7.9498      2.4843      0.0398     10.0395    155.5001     29.1602
  1038.8000      7.9541      2.4819     -0.0037     10.1896    151.2006     28.6912
  1038.9000      7.9541      2.4856      0.0095      9.9648    146.6366     28.4228
  1039.0000      7.9438      2.5006      0.0332      9.0520    146.3934     28.2485
  1039.1000      7.9438      2.5118      0.0922      8.3752    149.3959     28.3360
  1039.2000      7.9438      2.4979      0.0718      9.2202    154.4669     28.8534
  1039.3000      7.9382      2.4631      0.0372     11.3288    161.7522     29.4962
  1039.4000      7.9382      2.4313      0.0148     13.2550    167.6301     29.7842
  1039.5000      7.9431      2.4143     -0.0033     14.2820    166.9623     29.8078
  1039.6000      7.9431      2.4081      0.0354     14.6577    160.2718     29.9584
  1039.7000      7.9431      2.4048      0.0430     14.8627    151.3981     30.2068
  1039.8000      7.9304      2.4006      0.0670     15.1144    144.6261     30.1872
  1039.9000      7.9304      2.3943      0.0409     15.4952    142.4737     30.0498
  1040.0000      7.9211      2.3854      0.0419     16.0374    142.8127     30.2515
  1040.1000      7.9211      2.3805      0.0251     16.3315    143.4390     30.4606
  1040.2000      7.9211      2.3874      0.0771     15.9122    145.5503     30.2369
  1040.3000      7.9321      2.4067      0.0372     14.7477    148.6601     30.0315
  1040.4000      7.9321      2.4386      0.0209     12.8127    150.2352     30.1742
  1040.5000      7.9344      2.4738      0.0527     10.6804    149.2884     30.2819
  1040.6000      7.9344      2.4931      0.0627      9.5089    146.7743     30.2111
  1040.7000      7.9344      2.4984      0.0433      9.1852    145.4137     30.1583
  1040.8000      7.9454      2.5096      0.0469      8.5084    147.9335     30.0975
  1040.9000      7.9454      2.5334      0.0568      7.0639    151.5929     29.9388
  1041.0000      7.9375      2.5592      0.0573      5.5049    150.1691     29.7857
  1041.1000      7.9375      2.5684      0.1154      4.9442    145.1710     29.7519
