~Version Information
VERS.                      2.0: CWLS Log ASCII Standard - VERSION 2.0
WRAP.                       NO: One line per depth step
~Well Information Block
STRT.FT               523.0000: 
STOP.FT              1709.0000: 
STEP.FT                 0.1000: 
NULL.                -999.2500: 
COMP.          Evergreen Operating Corporation: COMPANY
WELL.            Rimrock 14-29: WELL
FLD.           Purgatorie River: FIELD
LOC.           945' FSL & 604' FWL: LOCATION
PROV.                 Colorado: PROVINCE
CNTY.               Las Animas: COUNTRY
SRVC.                         : SERVICE COMPANY
DATE.          Tue Sep 21 04:15:40 2004: LOG DATE
UWI.           05 071 08136 00: UNIQUE WELL ID
~Curve Information Block
DEPT.FT            0 000 00 00: Depth
DCAL.in                       : CDL Caliper
RHOB.g/cc                     : CDL Bulk Density
RHOC.g/cc                     : CDL Density Correction
DPOR.pu                       : CDL Density Porosity
GR.GAPI                       : Gamma Ray
NPOR.pu                       : Neutron Porosity
~Parameter Information Block
~A  Depth       DCAL        RHOB        RHOC        DPOR         GR         NPOR    
# ...
  1147.0000      7.8374      2.4171     -0.0130     14.1131     76.2016     16.2282
  1147.1000      7.8374      2.4125      0.0076     14.3953     74.2134     16.0657
  1147.2000      7.8374      2.4069      0.0182     14.7358     71.7702     16.7520
  1147.3000      7.8505      2.3876      0.0267     15.9013     74.9487     18.2589
  1147.4000      7.8505      2.3610      0.0337     17.5124     81.9484     19.8660
  1147.5000      7.8461      2.3477      0.0230     18.3226     85.7387     20.8472
  1147.6000      7.8461      2.3610      0.0343     17.5145     84.5945     21.2292
  1147.7000      7.8461      2.3973      0.0904     15.3145     84.3084     21.4023
  1147.8000      7.8363      2.4472      0.0721     12.2889     87.2635     21.6279
  1147.9000      7.8363      2.4972      0.1693      9.2596     90.8928     22.0857
  1148.0000      7.8531      2.5309      0.1832      7.2173     94.5699     22.8029
  1148.1000      7.8531      2.5583      0.1655      5.5570     97.1420     23.4712
  1148.2000      7.8531      2.5980      0.2221      3.1513     98.7342     23.5564
  1148.3000      7.8668      2.6317      0.2177      1.1073    101.6107     23.0249
  1148.4000      7.8668      2.6242      0.1551      1.5607    107.0961     22.3628
  1148.5000      7.8423      2.5719      0.0285      4.7313    114.7848     21.8428
  1148.6000      7.8423      2.5055     -0.0013      8.7567    123.3256     21.6323
  1148.7000      7.8423      2.4568     -0.0494     11.7093    131.7634     21.8152
  1148.8000      7.8520      2.4342     -0.0185     13.0764    136.7750     22.1232
  1148.9000      7.8520      2.4272     -0.0107     13.5003    136.5492     22.5107
  1149.0000      7.8406      2.4299     -0.0115     13.3376    139.3119     23.4374
  1149.1000      7.8406      2.4418     -0.0010     12.6212    152.5589     24.8902
  1149.2000      7.8406      2.4574      0.0449     11.6722    167.5492     26.0527
  1149.3000      7.8279      2.4748      0.0790     10.6201    171.2168     26.6032
  1149.4000      7.8279      2.5003      0.0995      9.0708    164.1357     26.9485
  1149.5000      7.8387      2.5380      0.1445      6.7888    154.7648     27.2698
  1149.6000      7.8387      2.5778      0.1774      4.3772    147.3448     27.4204
  1149.7000      7.8387      2.6068      0.1324      2.6197    141.7602     27.5454
  1149.8000      7.8378      2.6245      0.1045      1.5435    136.8128     27.7962
  1149.9000      7.8378      2.6334      0.1448      1.0049    131.1048     27.7557
  1150.0000      7.8335      2.6292      0.1401      1.2634    125.9086     27.1798
  1150.1000      7.8335      2.6161      0.1124      2.0543    123.8014     26.6193
  1150.2000      7.8335      2.6052      0.1054      2.7156    123.2042     26.2896
  1150.3000      7.8280      2.5976      0.0535      3.1778    119.5108     25.7709
  1150.4000      7.8280      2.5919      0.0360      3.5203    112.2519     25.1075
  1150.5000      7.8424      2.5952      0.0061      3.3197    106.6615     24.7147
  1150.6000      7.8424      2.6075      0.0516      2.5761    106.7671     24.7610
  1150.7000      7.8424      2.6123      0.0430      2.2859    109.9468     25.0227
  1150.8000      7.8627      2.6031      0.0451      2.8417    109.7530     25.0255
  1150.9000      7.8627      2.5895      0.0081      3.6693    104.7231     24.6946
  1151.0000      7.8469      2.5764      0.0739      4.4590    100.5198     24.3881
  1151.1000      7.8469      2.5591      0.0895      5.5089    101.8291     24.3836
  1151.2000      7.8469      2.5438      0.0214      6.4364    108.2391     24.7169
  1151.3000      7.8437      2.5487      0.0289      6.1389    114.9207     25.0576
  1151.4000      7.8437      2.5759      0.0433      4.4924    115.3414     24.9871
  1151.5000      7.8469      2.6094      0.0912      2.4594    108.9407     24.5277
  1151.6000      7.8469      2.6320      0.1054      1.0919     99.8402     23.9219
  1151.7000      7.8469      2.6402      0.0679      0.5967     93.5884     23.4459
  1151.8000      7.8510      2.6432      0.1025      0.4117     94.4750     23.4025
  1151.9000      7.8510      2.6432      0.1142      0.4103     98.6670     23.5869
  1152.0000      7.8591      2.6345      0.1268      0.9379    100.2440     23.5432
  1152.1000      7.8591      2.6154      0.0950      2.0968     98.4740     23.3808
  1152.2000      7.8591      2.5907      0.0365      3.5944     98.3596     23.3624
  1152.3000      7.8409      2.5677      0.0172      4.9894    106.3012     23.4732
  1152.4000      7.8409      2.5570     -0.0094      5.6394    120.1170     23.6723
  1152.5000      7.8458      2.5650      0.0036      5.1494    128.9968     23.8503
  1152.6000      7.8458      2.5800      0.0686      4.2398    128.4120     23.9893
  1152.7000      7.8458      2.5871      0.0590      3.8130    127.9807     24.1243
  1152.8000      7.8631      2.5831      0.0557      4.0530    133.3402     24.1346
  1152.9000      7.8631      2.5637      0.0588      5.2288    138.9668     23.9694
  1153.0000      7.8790      2.5325      0.0264      7.1208    141.3345     23.5832
  1153.1000      7.8790      2.5100      0.0084      8.4860    139.2742     22.8189
  1153.2000      7.8790      2.5101      0.0264      8.4762    135.0253     21.7562
  1153.3000      7.8595      2.5257      0.0829      7.5324    135.0894     20.8858
  1153.4000      7.8595      2.5371      0.0962      6.8414    141.0590     20.4715
  1153.5000      7.8569      2.5330      0.0568      7.0911    148.5988     20.2907
  1153.6000      7.8569      2.5133      0.0926      8.2821    152.9465     20.2028
  1153.7000      7.8569      2.4843      0.0625     10.0416    152.9558     20.3003
  1153.8000      7.8609      2.4596      0.0725     11.5370    151.4260     20.4859
  1153.9000      7.8609      2.4430      0.0608     12.5460    151.1983     20.4460
  1154.0000      7.8707      2.4286      0.0529     13.4180    155.2978     20.2899
  1154.1000      7.8707      2.4163      0.0825     14.1649    162.4766     20.5577
  1154.2000      7.8707      2.4084      0.0736     14.6441    166.5581     21.2844
  1154.3000      7.8689      2.4091      0.0740     14.5984    166.0018     22.0752
  1154.4000      7.8689      2.4176      0.1142     14.0836    160.9323     22.7280
  1154.5000      7.8606      2.4275      0.1140     13.4873    152.2779     23.1643
  1154.6000      7.8606      2.4410      0.1356     12.6689    146.9684     23.4298
  1154.7000      7.8606      2.4609      0.1676     11.4612    148.2703     23.8055
  1154.8000      7.8706      2.4800      0.1510     10.3002    148.1573     24.2365
  1154.9000      7.8706      2.4936      0.1303      9.4812    143.8654     24.4504
  1155.0000      7.8608      2.5001      0.1233      9.0854    142.8718     24.5490
  1155.1000      7.8608      2.4980      0.1201      9.2114    144.5713     24.5984
  1155.2000      7.8608      2.4892      0.1235      9.7436    142.8196     24.5395
  1155.3000      7.8721      2.4720      0.1229     10.7865    138.9014     24.4796
  1155.4000      7.8721      2.4410      0.0714     12.6647    134.9953     24.4588
  1155.5000      7.8641      2.4013      0.0257     15.0739    129.9403     24.2958
  1155.6000      7.8641      2.3677      0.0069     17.1078    127.6013     23.9380
  1155.7000      7.8641      2.3510      0.0246     18.1204    131.6753     23.6247
  1155.8000      7.8771      2.3494      0.0095     18.2170    139.0903     23.4519
  1155.9000      7.8771      2.3529      0.0454     18.0069    144.2621     23.1392
  1156.0000      7.8734      2.3521      0.0750     18.0561    145.5192     22.4314
  1156.1000      7.8734      2.3461      0.0657     18.4174    144.2969     21.4690
  1156.2000      7.8734      2.3390      0.0451     18.8483    141.8316     20.8232
  1156.3000      7.8737      2.3299      0.1008     19.3984    137.9330     20.9863
  1156.4000      7.8737      2.3121      0.0975     20.4763    130.9086     21.5978
  1156.5000      7.8913      2.2825      0.1168     22.2709    123.4304     21.9783
