~Version Information
VERS.                      2.0: CWLS Log ASCII Standard - VERSION 2.0
WRAP.                       NO: One line per depth step
~Well Information Block
STRT.FT               806.0000: 
STOP.FT              1812.2000: 
STEP.FT                 0.1000: 
NULL.                -999.2500: 
COMP.          Pioneer Natural Resources: COMPANY
WELL.            Hill 33-22 Tr: WELL
FLD.           Purgatoire River: FIELD
LOC.           1573' FSL & 1585' FEL: LOCATION
PROV.                 Colorado: PROVINCE
CNTY.               Las Animas: COUNTRY
SRVC.                Patterson: SERVICE COMPANY
DATE.          Thu Apr 14 12:25:33 2005: LOG DATE
UWI.           05 071 08316 00: UNIQUE WELL ID
~Curve Information Block
DEPT.FT            0 000 00 00: Depth
DCAL.in                       : CDL Caliper
RHOB.g/cc                     : CDL Bulk Density
RHOC.g/cc                     : CDL Density Correction
DPOR.pu                       : CDL Density Porosity
GR.GAPI                       : Gamma Ray
NPOR.pu                       : Neutron Porosity
~Parameter Information Block
~A  Depth       DCAL        RHOB        RHOC        DPOR         GR         NPOR    
# ...
   873.2000      8.1286      2.1679      0.0790     29.2190    134.4721     17.7808
   873.3000      8.2380      2.0985      0.1247     33.4256    131.9339     17.8602
   873.4000      8.2380      2.0167      0.1375     38.3805    130.5018     17.7797
   873.5000      8.1396      1.9204      0.1556     44.2158    129.8053     17.4536
   873.6000      8.1396      1.8002      0.0760     51.5028    126.7721     16.5592
   873.7000      8.1396      1.6692      0.0777     59.4418    118.8837     15.3531
   873.8000      8.1217      1.5526      0.0319     66.5106    108.9793     14.7069
   873.9000      8.1217      1.4707     -0.0336     71.4733    100.9401     15.0807
   874.0000      8.1376      1.4506     -0.0278     72.6899     94.8160     16.0757
   874.1000      8.1376      1.5114      0.0160     69.0075     89.2020     16.8989
   874.2000      8.1376      1.6313      0.1489     61.7405     84.9735     17.3509
   874.3000      8.1973      1.7604      0.2025     53.9178     82.9506     18.1186
   874.4000      8.1973      1.8728      0.1939     47.1008     83.1301     19.6395
   874.5000      8.2973      1.9792      0.2852     40.6565     85.8922     21.4016
   874.6000      8.2973      2.0891      0.3038     33.9956     91.6754     22.8248
   874.7000      8.2973      2.2061      0.3170     26.9012     99.5844     23.8552
   874.8000      8.3309      2.3353      0.2985     19.0722    106.5642     24.6536
   874.9000      8.3309      2.4628      0.2094     11.3427    110.0557     25.3040
   875.0000      8.2942      2.5564      0.2550      5.6698    109.8006     25.8579
   875.1000      8.2942      2.6067      0.1278      2.6257    106.7211     26.2351
   875.2000      8.2942      2.6329      0.1252      1.0338    104.4739     26.3847
   875.3000      8.1497      2.6421      0.1158      0.4794    104.9845     26.4106
   875.4000      8.1497      2.6269      0.1146      1.3979    105.6938     26.2163
   875.5000      8.0406      2.5936      0.0045      3.4181    104.7974     25.6084
   875.6000      8.0406      2.5651     -0.0267      5.1438    101.5967     24.7339
   875.7000      8.0406      2.5510      0.0186      5.9998     97.4803     24.0081
   875.8000      8.0307      2.5392     -0.0153      6.7179     93.1150     23.4717
   875.9000      8.0307      2.5234     -0.0177      7.6748     89.0478     22.6915
   876.0000      8.0344      2.5027      0.0151      8.9263     91.2306     21.9140
   876.1000      8.0344      2.4752     -0.0224     10.5918     97.3852     21.7107
   876.2000      8.0344      2.4500     -0.0545     12.1214     95.8366     21.6813
   876.3000      8.0416      2.4443     -0.0941     12.4693     86.6820     21.3894
   876.4000      8.0416      2.4620      0.0094     11.3951     79.6253     21.0197
   876.5000      7.9807      2.4866      0.0570      9.9005     78.0823     20.7596
   876.6000      7.9807      2.5050      0.0281      8.7867     78.8916     20.5890
   876.7000      7.9807      2.5121      0.0774      8.3572     79.3195     20.5249
   876.8000      7.9429      2.5020      0.0914      8.9683     78.2259     20.5511
   876.9000      7.9429      2.4787      0.0599     10.3845     74.5328     20.5867
   877.0000      7.9258      2.4549      0.0812     11.8218     68.8147     20.6742
   877.1000      7.9258      2.4456      0.0398     12.3849     62.9915     20.5833
   877.2000      7.9258      2.4615      0.0510     11.4247     59.9153     19.9971
   877.3000      7.9123      2.4937      0.1095      9.4744     61.2001     19.3919
   877.4000      7.9123      2.5180      0.1247      7.9979     65.0446     19.2654
   877.5000      7.9102      2.5286      0.0981      7.3585     67.9082     19.3541
   877.6000      7.9102      2.5411      0.1080      6.6013     68.5570     19.4105
   877.7000      7.9102      2.5594      0.1237      5.4929     68.3561     19.5156
   877.8000      7.9180      2.5720      0.1131      4.7270     68.4630     19.6723
   877.9000      7.9180      2.5712      0.1225      4.7732     67.3255     19.9927
   878.0000      7.9293      2.5548      0.0449      5.7707     61.4198     20.4618
   878.1000      7.9293      2.5250      0.0462      7.5757     53.8000     20.6883
   878.2000      7.9293      2.4949      0.0446      9.4024     52.9136     20.6091
   878.3000      7.9554      2.4782      0.0572     10.4149     60.3148     20.4686
   878.4000      7.9554      2.4715      0.0568     10.8194     67.4352     20.3678
   878.5000      7.9637      2.4589      0.0613     11.5809     67.6306     20.4771
   878.6000      7.9637      2.4442      0.0253     12.4700     65.5385     20.8834
   878.7000      7.9637      2.4532      0.0380     11.9248     67.8187     21.5090
   878.8000      7.9644      2.4920      0.0974      9.5751     71.9537     22.1229
   878.9000      7.9644      2.5372      0.0975      6.8338     71.0998     22.3440
   879.0000      7.9693      2.5647      0.1767      5.1690     65.9384     22.2268
   879.1000      7.9693      2.5673      0.1338      5.0138     63.6718     22.0937
   879.2000      7.9693      2.5585      0.1310      5.5441     65.9779     22.0327
   879.3000      7.9276      2.5556      0.1736      5.7219     67.4034     22.1733
   879.4000      7.9276      2.5600      0.1529      5.4539     67.2855     22.6486
   879.5000      7.9133      2.5584      0.1715      5.5538     70.0202     23.0494
   879.6000      7.9133      2.5378      0.1408      6.8021     73.4914     22.8280
   879.7000      7.9133      2.5005      0.0776      9.0583     73.1084     22.3835
   879.8000      7.9323      2.4626     -0.0034     11.3556     70.8589     22.2117
   879.9000      7.9323      2.4382      0.0167     12.8378     69.1539     22.0601
   880.0000      7.9659      2.4361      0.0539     12.9653     68.9223     21.7333
   880.1000      7.9659      2.4633      0.0754     11.3133     70.6851     21.4904
   880.2000      7.9659      2.5153      0.1304      8.1611     70.7303     21.3024
   880.3000      7.9236      2.5778      0.1376      4.3777     67.7599     20.9075
   880.4000      7.9236      2.6366      0.2253      0.8114     65.8689     20.6855
   880.5000      7.8999      2.6753      0.2255     -1.5324     64.7890     21.0236
   880.6000      7.8999      2.6811      0.2456     -1.8848     61.1191     21.3762
   880.7000      7.8999      2.6645      0.1641     -0.8817     54.9048     21.0525
   880.8000      7.8990      2.6570      0.0763     -0.4270     48.3389     20.3807
   880.9000      7.8990      2.6686      0.1086     -1.1259     44.9539     20.1949
   881.0000      7.9221      2.6832      0.0545     -2.0092     45.8461     20.5140
   881.1000      7.9221      2.6913      0.0822     -2.5059     48.5805     20.8475
   881.2000      7.9221      2.6892      0.0709     -2.3733     51.7135     21.1032
   881.3000      7.9466      2.6778      0.0660     -1.6866     54.4103     21.2706
   881.4000      7.9466      2.6601      0.0705     -0.6122     56.6319     21.0980
   881.5000      7.9572      2.6318      0.0637      1.1008     59.3957     20.5073
   881.6000      7.9572      2.5976      0.0484      3.1767     63.2679     19.9149
   881.7000      7.9572      2.5702      0.0367      4.8355     67.2996     19.8953
   881.8000      7.9391      2.5471      0.0778      6.2336     70.5876     20.2681
   881.9000      7.9391      2.5146      0.0419      8.2039     71.7205     20.3930
   882.0000      7.9470      2.4801     -0.0503     10.2954     70.2589     20.2635
   882.1000      7.9470      2.4697     -0.0346     10.9282     68.3644     20.3202
   882.2000      7.9470      2.4881      0.0054      9.8138     67.1126     20.6309
   882.3000      7.9448      2.5151      0.0527      8.1774     66.5715     20.8653
   882.4000      7.9448      2.5377      0.0510      6.8059     67.6480     20.7511
   882.5000      7.9185      2.5506      0.1177      6.0255     71.4414     20.3551
   882.6000      7.9185      2.5492      0.0248      6.1091     77.6413     19.9427
   882.7000      7.9185      2.5418      0.0516      6.5573     82.7522     19.5764
