~Version Information
VERS.                      2.0: CWLS Log ASCII Standard - VERSION 2.0
WRAP.                       NO: One line per depth step
~Well Information Block
STRT.FT               -10.0000: 
STOP.FT              2297.5000: 
STEP.FT                 0.2500: 
NULL.                -999.2500: 
COMP.          Pioneer Natural Resources: COMPANY
WELL.              Bobsy 34-11: WELL
FLD.           Purgatorie River: FIELD
LOC.           1937' FEL & 451' FSL----------: LOCATION
PROV.                       CO: PROVINCE
CNTY.               Las Animas: COUNTRY
SRVC.          Patterson Wireline: SERVICE COMPANY
DATE.          Mon Apr 18 09:37:11 2005: LOG DATE
UWI.           05 071 08330 00: UNIQUE WELL ID
~Curve Information Block
DEPT.FT            0 000 00 00: Depth
CCL.                          : Casing Collar Locator
TT3.usec                      : CBL 3' Travel Time
AMP3.mV                       : CBL 3' Amplitude
GR.GAPI                       : Gamma Ray
~Parameter Information Block
~A  Depth       CCL         TT3         AMP3         GR     
# ...
  1497.5000      0.0000    657.2941      3.4203    119.0841
  1497.7500      0.0000    663.1509      3.5917    120.7461
  1498.0000      0.0000    677.2232      3.9088    119.1801
  1498.2500      0.0000    691.4141      4.2599    114.3165
  1498.5000      0.0000    699.9329      4.5496    107.9074
  1498.7500      0.0000    700.9349      4.7321    102.5750
  1499.0000      0.0000    694.5372      4.8147    100.1560
  1499.2500      0.0000    682.3105      4.8487    100.6294
  1499.5000      0.0000    668.4541      4.8973    102.2425
  1499.7500      0.0000    658.1849      4.9862    102.7017
  1500.0000      0.0000    653.0330      5.0869    100.8234
  1500.2500      0.0000    649.7634      5.1524     97.4895
  1500.5000      0.0000    645.5872      5.1554     94.8200
  1500.7500      0.0000    642.0677      5.0871     94.1850
  1501.0000      0.0000    641.5961      4.9457     95.1393
  1501.2500      0.0000    642.5585      4.7553     96.2273
  1501.5000      0.0000    640.7979      4.5817     96.4916
  1501.7500      0.0000    634.5646      4.4957     96.1361
  1502.0000      0.0000    625.5833      4.5150     96.0620
  1502.2500      0.0000    615.6147      4.6015     96.9878
  1502.5000      0.0000    604.5143      4.7080     98.9578
  1502.7500      0.0000    592.4732      4.8013    101.3610
  1503.0000      0.0000    582.2338      4.8500    103.1870
  1503.2500      0.0000    576.6528      4.8275    103.5721
  1503.5000      0.0000    574.5742      4.7343    102.5080
  1503.7500      0.0000    572.0670      4.5960    100.8075
  1504.0000      0.0000    569.0123      4.4385     99.1976
  1504.2500      0.0000    572.1554      4.2776     97.8973
  1504.5000      0.0000    588.4894      4.1284     97.2326
  1504.7500      0.0000    615.3430      4.0165     97.9889
  1505.0000      0.0000    639.3486      3.9757    100.6400
  1505.2500      0.0000    646.2519      4.0199    104.4170
  1505.5000      0.0000    631.5402      4.1061    107.4255
  1505.7500      0.0000    603.5010      4.1492    107.7731
  1506.0000      0.0000    578.1969      4.1069    104.8901
  1506.2500      0.0000    569.7225      4.0381     99.9856
  1506.5000      0.0000    582.4103      4.0490     95.0362
  1506.7500     -2.0000    611.2961      4.1869     91.1829
  1507.0000     -2.0000    649.0617      4.4150     88.3350
  1507.2500     -2.0000    690.7550      4.6790     86.2836
  1507.5000      0.0000    732.3362      4.9640     85.5285
  1507.7500      0.0000    767.9808      5.2817     86.5313
  1508.0000      0.0000    791.8084      5.6154     88.6291
  1508.2500      0.0000    802.3774      5.8925     90.5229
  1508.5000      0.0000    803.9863      6.0310     91.7367
  1508.7500      0.0000    803.2762      6.0204     92.8050
  1509.0000      0.0000    805.0072      5.9317     93.9299
  1509.2500      0.0000    810.2267      5.8401     94.3161
  1509.5000      0.0000    816.8019      5.7641     93.2066
  1509.7500      0.0000    820.6891      5.6909     91.0081
  1510.0000      0.0000    817.0825      5.6292     89.1015
  1510.2500      0.0000    801.1769      5.6131     88.9850
  1510.5000      0.0000    769.3090      5.6621     91.5842
  1510.7500      0.0000    721.0585      5.7565     96.5625
  1511.0000      0.0000    661.5632      5.8514    101.8786
  1511.2500      0.0000    601.5009      5.9034    104.7312
  1511.5000      0.0000    553.0380      5.8888    103.7958
  1511.7500      0.0000    524.4061      5.8091    100.4943
  1512.0000      0.0000    518.4677      5.6875     97.6925
  1512.2500      0.0000    535.5461      5.5577     97.3401
  1512.5000      0.0000    574.5905      5.4459     99.5391
  1512.7500      0.0000    629.8217      5.3489    103.1577
  1513.0000      0.0000    688.6207      5.2300    106.5662
  1513.2500      0.0000    736.5838      5.0478    108.2072
  1513.5000      0.0000    765.6377      4.7860    107.4431
  1513.7500      0.0000    776.3073      4.4541    104.9838
  1514.0000      0.0000    773.0109      4.0816    102.1450
  1514.2500      0.0000    759.4175      3.7275     99.8883
  1514.5000      0.0000    739.1389      3.4758     98.7956
  1514.7500      0.0000    719.2158      3.3886     99.3970
  1515.0000      0.0000    709.2678      3.4648    101.8870
  1515.2500      0.0000    714.5477      3.6560    105.5727
  1515.5000      0.0000    731.2138      3.9147    108.9838
  1515.7500      0.0000    750.6263      4.2106    110.7245
  1516.0000      0.0000    766.5759      4.5065    110.3690
  1516.2500      0.0000    776.2626      4.7466    108.6706
  1516.5000      0.0000    777.1638      4.8809    106.9512
  1516.7500      0.0000    767.2073      4.8912    106.2475
  1517.0000      0.0000    747.8145      4.7948    106.9138
  1517.2500      0.0000    724.2180      4.6378    108.7309
  1517.5000      0.0000    702.4496      4.4866    111.1601
  1517.7500      0.0000    686.8457      4.4010    113.5557
  1518.0000      0.0000    679.2083      4.3992    115.4047
  1518.2500      0.0000    678.5699      4.4567    116.5601
  1518.5000      0.0000    681.8846      4.5442    117.2654
  1518.7500      0.0000    686.0749      4.6446    117.9405
  1519.0000      0.0000    689.7867      4.7268    119.0306
  1519.2500      0.0000    693.3474      4.7435    120.8165
  1519.5000      0.0000    697.4364      4.6842    122.9327
  1519.7500      0.0000    701.9092      4.6044    124.2714
  1520.0000      0.0000    705.6486      4.5609    123.8648
  1520.2500      0.0000    707.2678      4.5343    121.7060
  1520.5000      0.0000    705.8259      4.4634    118.4620
  1520.7500      0.0000    701.2175      4.3526    114.8768
  1521.0000      0.0000    694.5836      4.2921    111.8652
  1521.2500      0.0000    688.4987      4.3523    110.7181
  1521.5000      0.0000    685.9352      4.4984    112.3844
  1521.7500      0.0000    688.2671      4.6393    116.1345
  1522.0000      0.0000    694.2217      4.7313    119.2316
  1522.2500      0.0000    700.9907      4.7926    118.7320
  1522.5000      0.0000    706.2775      4.8388    114.0921
  1522.7500      0.0000    709.1741      4.8491    107.6995
  1523.0000      0.0000    709.4285      4.8014    102.6013
  1523.2500      0.0000    706.2945      4.7150    100.0582
  1523.5000      0.0000    698.6019      4.6587     99.3774
  1523.7500      0.0000    686.8008      4.7183     99.4034
  1524.0000      0.0000    675.1525      4.9339     99.6531
  1524.2500      0.0000    670.1824      5.2503    100.3423
  1524.5000      0.0000    675.1722      5.5430    101.7498
  1524.7500      0.0000    686.8884      5.7152    103.5242
  1525.0000      0.0000    698.9136      5.7737    104.5373
  1525.2500      0.0000    707.1769      5.7999    103.6183
  1525.5000      0.0000    711.5265      5.8574    100.5919
  1525.7500      0.0000    713.6913      5.9504     96.6268
  1526.0000      0.0000    715.4374      6.0580     93.4563
  1526.2500      0.0000    718.1609      6.1694     92.0174
  1526.5000      0.0000    722.7239      6.2805     91.7672
  1526.7500      0.0000    728.9852      6.3837     91.4125
  1527.0000      0.0000    736.1300      6.4701     90.1620
  1527.2500      0.0000    744.1135      6.5294     88.1897
  1527.5000      0.0000    754.0200      6.5548     86.2682
  1527.7500      0.0000    765.5326      6.5564     85.2893
  1528.0000      0.0000    774.8936      6.5569     86.0040
  1528.2500      0.0000    777.6526      6.5687     88.8513
  1528.5000      0.0000    773.0899      6.5870     93.6598
  1528.7500      0.0000    763.6212      6.6008     99.3954
  1529.0000      0.0000    750.6100      6.5870    104.4997
  1529.2500      0.0000    733.7211      6.5031    107.8335
  1529.5000      0.0000    714.0901      6.3169    109.4225
  1529.7500      0.0000    695.3612      6.0449    110.3759
  1530.0000      0.0000    681.1225      5.7466    111.9432
  1530.2500      0.0000    672.6607      5.4826    114.1504
  1530.5000      0.0000    669.3585      5.2818    115.3596
  1530.7500      0.0000    670.2925      5.1360    113.8359
