~Version Information
VERS.                      2.0: CWLS Log ASCII Standard - VERSION 2.0
WRAP.                       NO: One line per depth step
~Well Information Block
STRT.FT               375.0000: 
STOP.FT              2795.7000: 
STEP.FT                 0.1000: 
NULL.                -999.2500: 
COMP.          Pioneer Natural Resources: COMPANY
WELL.              Getem 21-23: WELL
FLD.           Purgatoire River: FIELD
LOC.           2623' FWL & 790' FNL--: LOCATION
PROV.                 Colorado: PROVINCE
CNTY.               Las Animas: COUNTRY
SRVC.                Patterson: SERVICE COMPANY
DATE.          Mon Jun 20 07:26:21 2005: LOG DATE
UWI.           05 071 08411 00: UNIQUE WELL ID
~Curve Information Block
DEPT.FT            0 000 00 00: Depth
DCAL.in                       : CDL Caliper
RHOB.g/cc                     : CDL Bulk Density
RHOC.g/cc                     : CDL Density Correction
DPOR.pu                       : CDL Density Porosity
NPOR.pu                       : Neutron Porosity
GR.GAPI                       : Gamma Ray
~Parameter Information Block
~A  Depth       DCAL        RHOB        RHOC        DPOR        NPOR         GR     
# ...
  1488.6000      7.9726      2.6666      0.0803     -1.0051     27.6082    104.3932
  1488.7000      7.9726      2.6614      0.0889     -0.6921     28.1817    107.2217
  1488.8000      7.9750      2.6622      0.0780     -0.7365     28.6313    111.7399
  1488.9000      7.9750      2.6658      0.0510     -0.9603     28.7935    115.1121
  1489.0000      7.9769      2.6604      0.0742     -0.6281     29.0862    114.8385
  1489.1000      7.9769      2.6380      0.0167      0.7262     29.6792    111.4124
  1489.2000      7.9769      2.6119      0.0198      2.3083     30.1936    107.8801
  1489.3000      7.9785      2.5955      0.0358      3.3020     30.3350    107.7880
  1489.4000      7.9785      2.5863      0.0271      3.8600     30.3333    110.8505
  1489.5000      7.9796      2.5837     -0.0116      4.0160     30.3374    113.8740
  1489.6000      7.9796      2.5928      0.0158      3.4637     30.3754    115.6659
  1489.7000      7.9796      2.6114     -0.0001      2.3396     30.5217    115.1352
  1489.8000      7.9789      2.6371     -0.0014      0.7815     30.6356    111.6693
  1489.9000      7.9789      2.6713      0.0384     -1.2907     30.5288    108.4141
  1490.0000      7.9797      2.7024      0.0466     -3.1787     30.2942    107.1104
  1490.1000      7.9797      2.7087      0.0431     -3.5568     30.2306    106.9691
  1490.2000      7.9797      2.6871      0.0435     -2.2491     30.1820    107.8498
  1490.3000      7.9812      2.6532      0.0372     -0.1962     29.7026    108.1221
  1490.4000      7.9812      2.6234     -0.0228      1.6145     28.9364    108.8291
  1490.5000      7.9808      2.6103      0.0132      2.4052     28.5171    114.2691
  1490.6000      7.9808      2.6091     -0.0046      2.4800     28.5751    120.8742
  1490.7000      7.9808      2.5981      0.0074      3.1443     28.4456    121.8624
  1490.8000      7.9795      2.5593      0.0196      5.4978     28.0180    119.0279
  1490.9000      7.9795      2.4996     -0.0362      9.1127     27.8830    118.8736
  1491.0000      7.9784      2.4501     -0.0177     12.1163     27.9786    123.7664
  1491.1000      7.9784      2.4313     -0.0277     13.2527     27.6945    129.4476
  1491.2000      7.9784      2.4382     -0.0011     12.8342     26.8023    130.2833
  1491.3000      7.9771      2.4572      0.0213     11.6878     25.6666    127.6709
  1491.4000      7.9771      2.4866      0.0256      9.9050     24.6791    123.9268
  1491.5000      7.9755      2.5215      0.0803      7.7901     23.9631    118.0472
  1491.6000      7.9755      2.5321      0.1558      7.1460     23.5010    113.0377
  1491.7000      7.9755      2.5140      0.0537      8.2438     23.4526    113.6961
  1491.8000      7.9744      2.5148      0.0575      8.1954     23.8123    116.1491
  1491.9000      7.9744      2.5567      0.1579      5.6544     24.1776    114.9682
  1492.0000      7.9734      2.5969      0.2463      3.2167     24.3256    113.1878
  1492.1000      7.9734      2.5910      0.1870      3.5757     24.3945    114.9562
  1492.2000      7.9734      2.5595      0.0371      5.4844     24.7155    116.2645
  1492.3000      7.9719      2.5575      0.0363      5.6034     25.4180    112.7903
  1492.4000      7.9719      2.5904      0.0943      3.6122     26.2200    110.0115
  1492.5000      7.9710      2.6167      0.0922      2.0197     26.8526    111.7027
  1492.6000      7.9710      2.6188      0.1042      1.8906     27.3476    115.5271
  1492.7000      7.9710      2.6192      0.0683      1.8668     27.6412    119.8652
  1492.8000      7.9693      2.6301      0.0916      1.2083     27.6453    123.5580
  1492.9000      7.9693      2.6352      0.0784      0.8968     27.1859    125.0649
  1493.0000      7.9670      2.6291      0.0928      1.2651     26.2821    124.4180
  1493.1000      7.9670      2.6218      0.1025      1.7108     25.3097    121.7281
  1493.2000      7.9670      2.6150      0.0979      2.1230     24.5234    117.5944
  1493.3000      7.9675      2.6069      0.0913      2.6121     24.1628    115.4185
  1493.4000      7.9675      2.6016      0.0888      2.9325     24.1692    115.6918
  1493.5000      7.9702      2.6069      0.0702      2.6092     24.1778    114.4478
  1493.6000      7.9702      2.6234      0.0914      1.6099     23.9560    111.3292
  1493.7000      7.9702      2.6326      0.1110      1.0551     23.8366    111.8643
  1493.8000      7.9720      2.6199      0.0732      1.8255     24.3690    116.0704
  1493.9000      7.9720      2.6121     -0.0049      2.2945     25.3660    113.7911
  1494.0000      7.9706      2.6419      0.0324      0.4926     26.2215    102.7282
  1494.1000      7.9706      2.6803      0.1181     -1.8381     26.3318     95.0741
  1494.2000      7.9706      2.6781      0.0799     -1.7060     25.4841     97.9167
  1494.3000      7.9678      2.6403      0.0344      0.5869     24.4968    103.4823
  1494.4000      7.9678      2.5996      0.0202      3.0563     23.9872    103.2044
  1494.5000      7.9675      2.5722      0.0189      4.7143     23.6445     98.0024
  1494.6000      7.9675      2.5613      0.0176      5.3774     23.2776     91.9037
  1494.7000      7.9675      2.5650      0.0457      5.1488     22.8652     88.6006
  1494.8000      7.9648      2.5718      0.0591      4.7422     22.4562     90.5511
  1494.9000      7.9648      2.5609      0.0577      5.3996     22.3839     93.0705
  1495.0000      7.9420      2.5276      0.0198      7.4205     22.5962     89.5180
  1495.1000      7.9420      2.4963     -0.0259      9.3175     22.8729     84.4429
  1495.2000      7.9420      2.4875      0.0319      9.8477     23.1656     83.0368
  1495.3000      7.8900      2.4892      0.0369      9.7439     23.1182     81.1477
  1495.4000      7.8900      2.4839      0.0218     10.0678     22.7382     76.7871
  1495.5000      7.8349      2.4746      0.0010     10.6303     22.7305     73.5891
  1495.6000      7.8349      2.4692      0.0242     10.9552     23.2169     72.6587
  1495.7000      7.8349      2.4710     -0.0065     10.8459     23.3895     70.7788
  1495.8000      7.8072      2.4848      0.0223     10.0117     22.8162     66.5976
  1495.9000      7.8072      2.5045      0.0562      8.8178     21.9641     65.1490
  1496.0000      7.8015      2.5181      0.0721      7.9928     21.4807     68.0446
  1496.1000      7.8015      2.5253      0.0801      7.5601     21.5866     70.8278
  1496.2000      7.8015      2.5276      0.1043      7.4193     21.9881     73.0953
  1496.3000      7.8002      2.5282      0.0503      7.3829     22.2607     75.6956
  1496.4000      7.8002      2.5360      0.0712      6.9088     22.2221     76.5617
  1496.5000      7.7991      2.5431      0.1023      6.4796     21.7935     74.1751
  1496.6000      7.7991      2.5300      0.0842      7.2712     21.1384     69.2697
  1496.7000      7.7991      2.4988      0.0525      9.1660     20.8521     65.2419
  1496.8000      7.7991      2.4745     -0.0046     10.6339     21.0216     65.9650
  1496.9000      7.7991      2.4774      0.0447     10.4614     20.9967     68.9050
  1497.0000      7.7982      2.5014      0.0707      9.0049     20.6993     66.9420
  1497.1000      7.7982      2.5272      0.0769      7.4420     20.5441     60.2426
  1497.2000      7.7982      2.5378      0.1010      6.8000     20.4115     56.4327
  1497.3000      7.7970      2.5294      0.0852      7.3085     20.0107     59.0861
  1497.4000      7.7970      2.5199      0.0930      7.8857     19.5596     63.1594
  1497.5000      7.7968      2.5233      0.1179      7.6794     19.1957     62.8800
  1497.6000      7.7968      2.5309      0.1379      7.2165     18.7237     60.3128
  1497.7000      7.7968      2.5345      0.1199      7.0007     18.3456     61.3941
  1497.8000      7.7958      2.5338      0.1505      7.0436     18.3030     66.6173
  1497.9000      7.7958      2.5236      0.1473      7.6579     18.2897     70.8467
  1498.0000      7.7969      2.5058      0.1038      8.7421     17.8171     71.3715
  1498.1000      7.7969      2.4939      0.0954      9.4577     17.1382     69.5131
