~Version Information
VERS.                      2.0: CWLS Log ASCII Standard - VERSION 2.0
WRAP.                       NO: One line per depth step
~Well Information Block
STRT.FT                -9.7500: 
STOP.FT              2566.5000: 
STEP.FT                 0.2500: 
NULL.                -999.2500: 
COMP.          Petrogulf Corporation: COMPANY
WELL.             Valejo 8-12V: WELL
FLD.           Purgatorie River: FIELD
LOC.           1510' FNL & 1460' FWL: LOCATION
CNTY.               Las Animas: COUNTY
SRVC.                         : SERVICE COMPANY
DATE.          Tue Nov 18 14:36:15 2003: LOG DATE
UWI.                          : UNIQUE WELL ID
STAT.                 Colorado: STATE
~Curve Information Block
DEPT.FT            0 000 00 00: Depth
CCL.                          : Casing Collar Locator
TT3.usec                      : CBL 3' Travel Time
AMP3.mV                       : CBL 3' Amplitude
GR.GAPI                       : Gamma Ray
~Parameter Information Block
~A  Depth       CCL         TT3         AMP3         GR     
# ...
  1363.7500      0.0000    743.0269      5.2437    120.5965
  1364.0000      0.0000    748.6143      5.3172    119.4318
  1364.2500      0.0000    750.1736      5.4916    119.0156
  1364.5000      0.0000    748.6964      5.7445    119.9346
  1364.7500      0.0000    747.1044      5.9744    122.0094
  1365.0000      0.0000    747.3990      6.1431    124.1779
  1365.2500      0.0000    749.4109      6.2998    125.2770
  1365.5000      0.0000    751.8240      6.4589    125.2882
  1365.7500      0.0000    753.6837      6.5407    125.7662
  1366.0000      0.0000    754.8244      6.4806    128.5881
  1366.2500      0.0000    755.4628      6.3454    134.1434
  1366.5000      0.0000    755.8470      6.2717    141.1020
  1366.7500      0.0000    756.2862      6.2966    147.7802
  1367.0000      0.0000    757.3850      6.3168    153.1940
  1367.2500      0.0000    760.3292      6.2380    157.0820
  1367.5000      0.0000    766.9724      6.1108    159.5395
  1367.7500      0.0000    779.1998      6.0672    160.6220
  1368.0000      0.0000    797.4854      6.1498    160.2840
  1368.2500      0.0000    819.7216      6.2656    158.9385
  1368.5000      0.0000    841.7044      6.3208    157.6888
  1368.7500      0.0000    859.0540      6.3383    157.2430
  1369.0000      0.0000    868.9796      6.4052    156.7916
  1369.2500      0.0000    870.9730      6.5339    154.8712
  1369.5000      0.0000    866.6520      6.6314    151.5197
  1369.7500      0.0000    858.9515      6.6160    148.7081
  1370.0000      0.0000    850.6052      6.5262    148.1422
  1370.2500      0.0000    842.8396      6.4684    149.2827
  1370.5000      0.0000    835.6340      6.4546    150.1277
  1370.7500      0.0000    829.4210      6.3431    149.4208
  1371.0000      0.0000    825.5818      5.9769    147.4508
  1371.2500      0.0000    823.8367      5.3579    145.2581
  1371.5000      0.0000    819.6948      4.6546    143.7789
  1371.7500      0.0000    807.8445      4.0489    143.2232
  1372.0000      0.0000    789.9664      3.6033    142.4346
  1372.2500      0.0000    776.0859      3.2734    138.9900
  1372.5000      0.0000    775.0754      3.0073    130.6217
  1372.7500      0.0000    785.7091      2.8014    117.0161
  1373.0000      0.0000    799.2175      2.6708    100.4772
  1373.2500      0.0000    807.8672      2.6018     84.7372
  1373.5000      0.0000    808.4224      2.5504     72.6205
  1373.7500      0.0000    800.2041      2.4824     64.5827
  1374.0000      0.0000    784.0472      2.4054     59.5335
  1374.2500      0.0000    763.0686      2.3580     56.6319
  1374.5000      0.0000    742.1244      2.3604     55.7697
  1374.7500      0.0000    725.9154      2.3830     56.7145
  1375.0000      0.0000    717.7213      2.3758     58.6315
  1375.2500      0.0000    719.2034      2.3318     60.6857
  1375.5000      0.0000    730.4803      2.3012     62.8552
  1375.7500      0.0000    750.1894      2.3298     65.9083
  1376.0000      0.0000    775.4489      2.3989     70.3937
  1376.2500      0.0000    801.3526      2.4450     75.5833
  1376.5000      0.0000    820.7460      2.4333     79.5568
  1376.7500      0.0000    826.4774      2.3942     80.4313
  1377.0000      0.0000    816.1556      2.3816     77.5937
  1377.2500      0.0000    795.3032      2.4060     71.9151
  1377.5000      0.0000    775.2964      2.4186     64.9339
  1377.7500      0.0000    767.2249      2.3659     57.8354
  1378.0000      0.0000    775.6324      2.2559     51.0909
  1378.2500      0.0000    795.6301      2.1642     44.8680
  1378.5000      0.0000    815.6116      2.1659     39.4887
  1378.7500      0.0000    824.7629      2.2598     35.3616
  1379.0000      0.0000    820.1983      2.3669     32.6308
  1379.2500     -2.0000    807.7222      2.4036     31.1478
  1379.5000      0.0000    795.7692      2.3544     30.8037
  1379.7500      0.0000    788.5120      2.2786     31.6510
  1380.0000      0.0000    784.6883      2.2522     33.5289
  1380.2500      0.0000    782.1104      2.3014     35.6737
  1380.5000      0.0000    781.1976      2.3795     36.9607
  1380.7500      0.0000    783.5733      2.4054     36.6854
  1381.0000      0.0000    789.2835      2.3271     35.1352
  1381.2500      0.0000    796.8544      2.1676     33.4616
  1381.5000      0.0000    804.7297      2.0198     32.9839
  1381.7500      0.0000    811.1115      1.9857     34.2833
  1382.0000      0.0000    813.1562      2.0976     36.6116
  1382.2500      0.0000    807.9920      2.2882     38.2752
  1382.5000      0.0000    794.9558      2.4357     37.9082
  1382.7500      0.0000    776.7263      2.4448     35.6152
  1383.0000      0.0000    758.7405      2.3084     32.9927
  1383.2500      0.0000    747.2863      2.1151     31.9942
  1383.5000      0.0000    746.7204      1.9935     33.5602
  1383.7500      0.0000    757.3751      2.0200     37.1905
  1384.0000      0.0000    776.0209      2.1631     41.8325
  1384.2500      0.0000    797.9938      2.3111     47.3035
  1384.5000      0.0000    818.3070      2.3544     54.9643
  1384.7500      0.0000    831.6912      2.2548     66.7597
  1385.0000      0.0000    833.6813      2.0718     83.0875
  1385.2500      0.0000    822.7424      1.9413    101.4896
  1385.5000      0.0000    801.5070      2.0111    117.8729
  1385.7500      0.0000    776.5482      2.3550    129.2540
  1386.0000      0.0000    756.7434      2.9243    135.2738
  1386.2500      0.0000    749.8168      3.5809    137.6373
  1386.5000      0.0000    758.3936      4.1778    138.9236
  1386.7500      0.0000    778.4794      4.6141    141.5466
  1387.0000      0.0000    801.7853      4.8438    146.4298
  1387.2500      0.0000    820.4347      4.8701    151.9685
  1387.5000      0.0000    830.9197      4.7525    154.8042
  1387.7500      0.0000    834.6999      4.6096    152.4668
  1388.0000      0.0000    835.4105      4.5812    145.5644
  1388.2500      0.0000    835.5542      4.7450    137.2846
  1388.5000      0.0000    835.5557      5.0529    130.8401
  1388.7500      0.0000    834.9464      5.3626    127.5824
  1389.0000      0.0000    833.5591      5.5405    127.2552
  1389.2500      0.0000    831.7019      5.5300    129.1444
  1389.5000      0.0000    829.7754      5.3430    132.3268
  1389.7500      0.0000    827.8167      5.0188    135.1254
  1390.0000      0.0000    825.2092      4.5996    135.1573
  1390.2500      0.0000    820.8813      4.1285    130.5668
  1390.5000      0.0000    814.2513      3.6635    121.4140
  1390.7500      0.0000    806.4536      3.2908    109.5951
  1391.0000      0.0000    800.7808      3.1164     97.4150
  1391.2500      0.0000    801.2944      3.2251     86.6714
  1391.5000      0.0000    809.8447      3.6270     78.9178
  1391.7500      0.0000    824.1520      4.2282     75.4543
  1392.0000      0.0000    839.3519      4.8605     76.3105
  1392.2500      0.0000    851.0782      5.3569     79.6816
  1392.5000      0.0000    856.2074      5.6174     83.0908
  1392.7500      0.0000    851.9350      5.6231     85.1638
  1393.0000      0.0000    836.7604      5.4075     86.0048
  1393.2500      0.0000    812.8599      5.0276     86.0096
  1393.5000      0.0000    786.1296      4.5509     84.8278
  1393.7500      0.0000    763.3940      4.0494     81.7760
  1394.0000      0.0000    749.7700      3.5917     77.1205
  1394.2500      0.0000    748.1351      3.2320     72.5952
  1394.5000      0.0000    759.7561      2.9928     70.2442
  1394.7500      0.0000    783.7496      2.8513     70.7394
  1395.0000      0.0000    814.9484      2.7540     73.2371
  1395.2500      0.0000    843.5327      2.6651     76.7386
  1395.5000      0.0000    859.2075      2.6053     80.9472
  1395.7500      0.0000    856.7471      2.6260     85.8784
  1396.0000      0.0000    837.4474      2.7388     91.4715
  1396.2500      0.0000    806.7619      2.8841     97.5821
  1396.5000      0.0000    772.2870      2.9848    103.6676
  1396.7500      0.0000    742.9073      3.0204    108.4065
  1397.0000      0.0000    726.8653      3.0304    110.0321
