~Version Information
VERS.                      2.0: CWLS Log ASCII Standard - VERSION 2.0
WRAP.                       NO: One line per depth step
~Well Information Block
STRT.FT               -14.2500: 
STOP.FT              2177.5000: 
STEP.FT                 0.2500: 
NULL.                -999.2500: 
COMP.          Evergreen Operating Corp.: COMPANY
WELL.            Triumph 13-10: WELL
FLD.           Purgatorie River: FIELD
LOC.           1551' FSL & 522' FWL--: LOCATION
PROV.                       CO: PROVINCE
CNTY.               Las Animas: COUNTRY
SRVC.                         : SERVICE COMPANY
DATE.          Sat Aug 21 09:27:32 2004: LOG DATE
UWI.           005 071 08108 : UNIQUE WELL ID
~Curve Information Block
DEPT.FT            0 000 00 00: Depth
CCL.                          : Casing Collar Locator
TT3.usec                      : CBL 3' Travel Time
AMP3.mV                       : CBL 3' Amplitude
GR.GAPI                       : Gamma Ray
~Parameter Information Block
~A  Depth       CCL         TT3         AMP3         GR     
# ...
  1828.2500      0.0000    656.1094      3.0944     49.0582
  1828.5000      0.0000    659.3789      2.9646     49.0692
  1828.7500      0.0000    664.3832      2.9797     48.0121
  1829.0000      0.0000    669.6150      3.1209     45.9604
  1829.2500      2.0000    674.4182      3.2871     43.6514
  1829.5000      2.0000    678.3787      3.3878     41.9404
  1829.7500      0.0000    680.1709      3.4161     41.3414
  1830.0000      0.0000    678.2548      3.4388     41.9618
  1830.2500      0.0000    673.0375      3.5045     43.6052
  1830.5000      0.0000    667.5236      3.5751     45.7432
  1830.7500      0.0000    665.1959      3.5831     47.4545
  1831.0000      0.0000    667.2495      3.5402     47.8252
  1831.2500      0.0000    671.9837      3.5295     46.6989
  1831.5000      0.0000    676.6855      3.5811     44.8183
  1831.7500      0.0000    679.7971      3.6111     43.0032
  1832.0000      0.0000    681.1737      3.5128     41.3757
  1832.2500      0.0000    680.7750      3.2765     39.6445
  1832.5000      0.0000    678.1414      3.0017     38.1161
  1832.7500      0.0000    673.7118      2.8046     38.0359
  1833.0000      0.0000    670.1024      2.7298     40.6590
  1833.2500      0.0000    670.6815      2.7476     46.0955
  1833.5000      0.0000    675.9874      2.8208     53.0637
  1833.7500      0.0000    682.3081      2.9496     59.4349
  1834.0000      0.0000    685.0402      3.1286     63.0681
  1834.2500      0.0000    683.2325      3.2818     62.6402
  1834.5000      2.0000    679.7140      3.3039     58.0060
  1834.7500      2.0000    676.5559      3.1918     50.0631
  1835.0000     -2.0000    671.4210      3.0938     40.6444
  1835.2500     -1.5155    659.2993      3.2127     32.1649
  1835.5000      2.0000    637.7021      3.6801     26.5018
  1835.7500      0.0000    608.9282      4.5396     24.0761
  1836.0000      0.0000    576.2866      5.8494     24.2529
  1836.2500     -1.7059    539.1761      7.8448     26.3642
  1836.5000      0.0000    494.3405     10.9500     30.0217
  1836.7500      0.0000    442.2550     15.3979     34.6471
  1837.0000      0.0000    390.0098     20.6683     39.1906
  1837.2500      0.0000    346.6459     25.5641     42.5760
  1837.5000      0.0000    316.6487     29.2612     44.4366
  1837.7500      0.0000    298.3214     32.2438     45.2065
  1838.0000      0.0000    287.0237     35.9021     45.3006
  1838.2500      0.0000    278.9943     41.2094     44.4679
  1838.5000      0.0000    272.7651     47.8977     42.3557
  1838.7500      0.0000    268.2954     54.7250     39.5750
  1839.0000      0.0000    265.6202     60.2991     37.6282
  1839.2500      0.0000    264.3268     63.7048     37.4969
  1839.5000      0.0000    263.8238     64.6965     38.6300
  1839.7500      0.0000    263.6758     63.7118     39.7367
  1840.0000      0.0000    263.6780     61.8272     40.2947
  1840.2500      0.0000    263.7460     60.3521     40.7322
  1840.5000      0.0000    263.8430     59.9592     41.2962
  1840.7500      0.0000    263.9886     60.0983     41.4301
  1841.0000      0.0000    264.3188     59.4245     40.5033
  1841.2500      0.0000    265.1777     56.8648     38.7610
  1841.5000      0.0000    267.2620     52.2553     37.2630
  1841.7500      0.0000    271.9748     46.1433     37.1077
  1842.0000      0.0000    281.9154     39.2947     39.0453
  1842.2500      0.0000    301.1825     32.4651     43.6555
  1842.5000      0.0000    334.1326     26.3633     51.1385
  1842.7500      0.0000    380.6186     21.4997     60.5179
  1843.0000      0.0000    429.9050     18.0032     69.4867
  1843.2500     -1.5057    462.6177     15.6646     75.6343
  1843.5000      0.0000    465.6541     14.1314     77.8537
  1843.7500      2.0000    446.4458     13.0221     76.4997
  1844.0000      0.0000    427.9212     12.0027     72.5879
  1844.2500      0.0000    427.4395     10.9430     67.2319
  1844.5000      0.0000    442.1823     10.0292     61.5828
  1844.7500      0.0000    454.7898      9.6145     56.8140
  1845.0000      0.0000    452.1231      9.8583     54.1087
  1845.2500      0.0000    437.7952     10.5208     54.8190
  1845.5000      0.0000    425.1752     11.1693     60.3681
  1845.7500      0.0000    419.5103     11.5734     71.2583
  1846.0000      0.0000    412.0365     11.8411     85.8174
  1846.2500      0.0000    393.0536     12.2008    100.3249
  1846.5000      0.0000    364.8138     12.7314    110.8819
  1846.7500      0.0000    338.0407     13.3210    115.4827
  1847.0000      0.0000    320.4526     13.8223    114.6903
  1847.2500      0.0000    312.5989     14.1744    110.6645
  1847.5000      0.0000    312.1722     14.3613    105.3696
  1847.7500      0.0000    318.9698     14.3034     99.2966
  1848.0000      0.0000    336.3792     13.8446     91.8447
  1848.2500      0.0000    369.5037     12.8663     82.9834
  1848.5000      0.0000    420.7752     11.4205     74.1265
  1848.7500      0.0000    484.7676      9.7539     67.1128
  1849.0000      0.0000    547.0842      8.1825     62.7816
  1849.2500      0.0000    591.4103      6.9109     60.8036
  1849.5000      0.0000    611.0776      5.9605     60.3200
  1849.7500      0.0000    614.0439      5.2559     60.4037
  1850.0000      0.0000    615.0709      4.7483     60.5497
  1850.2500      0.0000    622.6196      4.4396     61.4083
  1850.5000      0.0000    634.0936      4.3097     64.7735
  1850.7500      0.0000    643.1862      4.2580     72.0919
  1851.0000      0.0000    648.7006      4.1622     82.7159
  1851.2500      0.0000    653.8644      4.0041     93.8957
  1851.5000      0.0000    658.9496      3.9076    102.6237
  1851.7500      0.0000    658.8784      4.0258    107.4389
  1852.0000      0.0000    649.6013      4.3783    108.9182
  1852.2500      0.0000    634.0865      4.7916    109.0469
  1852.5000      0.0000    618.7663      5.0069    109.9269
  1852.7500      0.0000    604.4765      4.8812    112.4271
  1853.0000      0.0000    585.4197      4.5106    115.7074
  1853.2500      0.0000    558.7887      4.1582    117.9808
  1853.5000      0.0000    530.4177      4.0503    117.8991
  1853.7500      0.0000    507.3274      4.2168    115.7616
  1854.0000      0.0000    489.5216      4.4977    113.5662
  1854.2500      0.0000    474.8128      4.6977    113.1396
  1854.5000      0.0000    468.3557      4.7511    113.8368
  1854.7500      0.0000    480.2434      4.7417    112.9798
  1855.0000      0.0000    512.5623      4.7601    109.0369
  1855.2500      0.0000    553.1149      4.7696    103.4232
  1855.5000      0.0000    584.8373      4.6481     98.5890
  1855.7500      0.0000    600.2990      4.3554     95.3401
  1856.0000      0.0000    604.4191      4.0186     92.7980
  1856.2500      0.0000    604.6318      3.8411     90.0023
  1856.5000      0.0000    603.6621      3.9426     86.5309
  1856.7500      0.0000    602.3448      4.2769     82.0898
  1857.0000      0.0000    602.5422      4.6733     76.3767
  1857.2500      0.0000    603.2307      4.9571     69.4028
  1857.5000      0.0000    598.3099      5.0602     61.6636
  1857.7500      0.0000    583.5229      5.0456     53.9367
  1858.0000      0.0000    564.2319      5.0470     46.8773
  1858.2500      0.0000    552.5708      5.1791     40.8631
  1858.5000      0.0000    555.7952      5.4699     36.4767
  1858.7500      0.0000    568.2832      5.8564     34.9819
  1859.0000      0.0000    575.1029      6.2602     37.5758
  1859.2500     -2.0000    563.6481      6.6852     44.0297
  1859.5000      0.0000    533.4856      7.2403     52.7787
  1859.7500      0.0000    497.6257      8.0299     62.6354
  1860.0000      0.0000    475.4088      8.9885     73.7746
  1860.2500      0.0000    481.8799      9.8353     86.5594
  1860.5000      0.0000    518.4453     10.2548     99.8230
  1860.7500      0.0000    569.6116     10.1675    110.9314
  1861.0000      0.0000    610.3682      9.7979    117.6983
  1861.2500      0.0000    621.8226      9.4406    119.9520
  1861.5000      0.0000    603.3389      9.1978    119.0778
