~Version Information
VERS.                      2.0: CWLS Log ASCII Standard - VERSION 2.0
WRAP.                       NO: One line per depth step
~Well Information Block
STRT.FT               350.0000: 
STOP.FT              1391.5000: 
STEP.FT                 0.2500: 
NULL.                -999.2500: 
COMP.          Petrogulf Corporation: COMPANY
WELL.             Leier 17-42R: WELL
FLD.           Purgatorie River: FIELD
LOC.           2398' FNL & 1109' FEL: LOCATION
PROV.                 Colorado: PROVINCE
CNTY.               Las Animas: COUNTRY
SRVC.                Patterson: SERVICE COMPANY
DATE.          Mon Oct 17 09:42:26 2005: LOG DATE
UWI.                          : UNIQUE WELL ID
~Curve Information Block
DEPT.FT            0 000 00 00: Depth
SP.mV                         : DIL Spontaneous Potential
RILD.Ohm-m                    : DIL Deep Resistivity
RILM.Ohm-m                    : DIL Medium Resistivity
RLL3.Ohm-m                    : DIL Shallow Resistivity
GR.GAPI                       : Gamma Ray
~Parameter Information Block
~A  Depth        SP         RILD        RILM        RLL3         GR     
# ...
   686.0000    211.0039     17.3741     17.6005     19.1548    123.1580
   686.2500    211.9528     17.1468     17.2040     18.9284    124.2150
   686.5000    212.7737     16.9179     16.8296     19.0368    126.2944
   686.7500    213.4525     16.7058     16.4828     19.1770    127.7700
   687.0000    213.9884     16.5252     16.1711     19.0724    129.6740
   687.2500    214.3875     16.3862     15.9056     18.6286    130.7708
   687.5000    214.6614     16.2954     15.6993     17.9639    132.6679
   687.7500    214.8279     16.2551     15.5648     17.3090    134.2696
   688.0000    214.9124     16.2637     15.5110     16.8916    136.7845
   688.2500    214.9479     16.3149     15.5415     16.8873    138.1637
   688.5000    214.9727     16.3993     15.6531     17.4099    139.6934
   688.7500    215.0241     16.5088     15.8369     18.4735    140.6007
   689.0000    215.1263     16.6407     16.0791     19.9316    141.8489
   689.2500    215.2793     16.8003     16.3644     21.4743    142.1694
   689.5000    215.4564     16.9975     16.6791     22.7363    141.1293
   689.7500    215.6130     17.2406     17.0136     23.4562    139.5595
   690.0000    215.6989     17.5317     17.3634     23.5881    137.0231
   690.2500    215.6689     17.8638     17.7281     23.3090    135.8119
   690.5000    215.4904     18.2201     18.1076     22.9299    134.7938
   690.7500    215.1487     18.5744     18.4974     22.7658    134.1387
   691.0000    214.6508     18.8925     18.8847     23.0391    132.1018
   691.2500    214.0200     19.1391     19.2457     23.8450    129.7837
   691.5000    213.2865     19.2901     19.5473     25.1475    125.4547
   691.7500    212.4776     19.3444     19.7532     26.7793    122.6750
   692.0000    211.6142     19.3278     19.8348     28.4648    119.6521
   692.2500    210.7113     19.2856     19.7815     29.8650    118.6445
   692.5000    209.7785     19.2690     19.6084     30.6062    118.2890
   692.7500    208.8194     19.3220     19.3553     30.3191    118.2750
   693.0000    207.8336     19.4739     19.0789     28.7921    117.9047
   693.2500    206.8245     19.7370     18.8417     26.2203    117.5328
   693.5000    205.8056     20.1097     18.7025     23.3169    117.4391
   693.7500    204.7970     20.5815     18.7103     21.0809    117.9473
   694.0000    203.8134     21.1390     18.9039     20.3249    119.6933
   694.2500    202.8538     21.7689     19.3129     21.2847    121.3566
   694.5000    201.9006     22.4604     19.9609     23.5678    123.4414
   694.7500    200.9270     23.2097     20.8686     26.5429    123.4501
   695.0000    199.9083     24.0276     22.0562     30.0663    120.2921
   695.2500    198.8319     24.9462     23.5448     35.1203    116.5923
   695.5000    197.7034     26.0179     25.3557     43.7579    110.5146
   695.7500    196.5464     27.3055     27.5065     58.0644    106.5049
   696.0000    195.3949     28.8652     30.0038     78.5148     99.4953
   696.2500    194.2820     30.7312     32.8320    102.6768     93.5684
   696.5000    193.2325     32.9069     35.9405    125.3713     83.5189
   696.7500    192.2615     35.3637     39.2344    140.7616     77.2204
   697.0000    191.3740     38.0501     42.5753    145.3766     70.1396
   697.2500    190.5638     40.9018     45.8001    139.9196     67.4482
   697.5000    189.8107     43.8439     48.7548    128.4475     66.3791
   697.7500    189.0801     46.7727     51.3334    115.7258     67.2563
   698.0000    188.3286     49.5339     53.5002    104.9593     69.7972
   698.2500    187.5146     51.9290     55.2877     97.2808     71.4596
   698.5000    186.6098     53.7719     56.7711     92.5437     72.6285
   698.7500    185.6062     54.9701     58.0358     90.1493     72.1343
   699.0000    184.5157     55.5662     59.1518     89.3410     69.5966
   699.2500    183.3665     55.7125     60.1596     89.3314     67.1378
   699.5000    182.1986     55.6073     61.0684     89.5982     63.1819
   699.7500    181.0555     55.4390     61.8637     90.0949     60.6668
   700.0000    179.9706     55.3535     62.5198     91.0330     57.0076
   700.2500    178.9591     55.4387     63.0157     92.4339     54.4780
   700.5000    178.0226     55.7202     63.3487     93.9656     50.6426
   700.7500    177.1653     56.1659     63.5421     95.1968     48.4056
   701.0000    176.4049     56.7030     63.6437     95.8879     46.2165
   701.2500    175.7688     57.2466     63.7144     95.9966     45.6844
   701.5000    175.2797     57.7415     63.8105     95.5150     45.7894
   701.7500    174.9437     58.1993     63.9666     94.4156     45.9243
   702.0000    174.7442     58.7013     64.1825     92.7644     45.6928
   702.2500    174.6444     59.3483     64.4209     90.8691     45.4202
   702.5000    174.5966     60.1832     64.6180     89.3142     45.5742
   702.7500    174.5582     61.1389     64.7061     88.7883     46.3066
   703.0000    174.5100     62.0599     64.6418     89.7178     47.9450
   703.2500    174.4652     62.7886     64.4278     91.9196     48.7354
   703.5000    174.4648     63.2597     64.1172     94.5787     48.3667
   703.7500    174.5596     63.5305     63.7998     96.6786     46.9881
   704.0000    174.7907     63.7379     63.5785     97.6445     44.2647
   704.2500    175.1768     64.0300     63.5466     97.7160     42.8835
   704.5000    175.7128     64.5118     63.7736     97.7199     42.2144
   704.7500    176.3783     65.2163     64.2986     98.3805     42.5385
   705.0000    177.1517     66.0953     65.1283     99.7064     43.6783
   705.2500    178.0213     67.0323     66.2348    100.9839     44.9149
   705.5000    178.9880     67.8778     67.5542    101.4392     47.9720
   705.7500    180.0602     68.4933     68.9853    101.0528     50.9108
   706.0000    181.2448     68.7778     70.3940    100.8292     56.0921
   706.2500    182.5423     68.6709     71.6238    102.2151     59.4114
   706.5000    183.9479     68.1504     72.5138    105.9777     63.0699
   706.7500    185.4550     67.2335     72.9190    111.2640     64.2642
   707.0000    187.0570     65.9714     72.7307    115.5872     64.2967
   707.2500    188.7439     64.4313     71.8933    116.0297     63.5404
   707.5000    190.4995     62.6787     70.4156    111.0280     62.1052
   707.7500    192.3008     60.7755     68.3718    101.4078     61.4325
   708.0000    194.1197     58.7899     65.8907     89.8136     61.5704
   708.2500    195.9231     56.7960     63.1321     79.0748     62.7754
   708.5000    197.6749     54.8573     60.2576     70.8586     66.5352
   708.7500    199.3402     53.0055     57.4054     65.3959     70.0735
   709.0000    200.8883     51.2360     54.6746     61.9998     75.5897
   709.2500    202.2940     49.5262     52.1224     59.7047     78.6072
   709.5000    203.5396     47.8574     49.7695     57.6962     82.1281
   709.7500    204.6201     46.2211     47.6093     55.5502     84.6250
   710.0000    205.5468     44.6084     45.6184     53.3144     89.6812
   710.2500    206.3460     43.0061     43.7642     51.3886     93.5464
   710.5000    207.0518     41.4115     42.0136     50.2247     98.3307
   710.7500    207.6979     39.8502     40.3395     49.9740    100.1371
   711.0000    208.3129     38.3737     38.7274     50.2672    100.7854
   711.2500    208.9188     37.0404     37.1783     50.3106    100.2973
   711.5000    209.5282     35.8962     35.7095     49.3268     99.3767
   711.7500    210.1377     34.9701     34.3502     47.0532     99.5175
   712.0000    210.7262     34.2789     33.1367     43.8765    102.1228
   712.2500    211.2616     33.8329     32.1071     40.4898    105.5713
   712.5000    211.7149     33.6360     31.2988     37.4168    112.0532
   712.7500    212.0684     33.6825     30.7461     34.8382    115.9324
   713.0000    212.3158     33.9524     30.4804     32.8069    119.0975
   713.2500    212.4581     34.4115     30.5288     31.5492    119.1285
   713.5000    212.5017     35.0179     30.9129     31.5297    117.1785
   713.7500    212.4566     35.7319     31.6467     33.3129    115.5809
