~Version Information
VERS.                      2.0: CWLS Log ASCII Standard - VERSION 2.0
WRAP.                       NO: One line per depth step
~Well Information Block
STRT.FT               520.0000: 
STOP.FT              1105.5000: 
STEP.FT                 0.1000: 
NULL.                -999.2500: 
COMP.          Pioneer Natural Resources: COMPANY
WELL.            Redland 23-24: WELL
FLD.           Purgatoire River: FIELD
LOC.           2356' FSL & 1880' FWL: LOCATION
PROV.                 Colorado: PROVINCE
CNTY.               Las Animas: COUNTRY
SRVC.                Patterson: SERVICE COMPANY
DATE.          Mon Mar 21 07:08:20 2005: LOG DATE
UWI.           05 071 08221 00: UNIQUE WELL ID
~Curve Information Block
DEPT.FT            0 000 00 00: Depth
DCAL.in                       : CDL Caliper
RHOB.g/cc                     : CDL Bulk Density
RHOC.g/cc                     : CDL Density Correction
DPOR.pu                       : CDL Density Porosity
GR.GAPI                       : Gamma Ray
NPOR.pu                       : Neutron Porosity
~Parameter Information Block
~A  Depth       DCAL        RHOB        RHOC        DPOR         GR         NPOR    
# ...
   673.6000      7.9151      2.4308      0.1146     13.2840     36.7757     21.7423
   673.7000      7.9151      2.4139      0.1113     14.3068     38.7398     21.7755
   673.8000      7.9566      2.3850      0.0374     16.0579     38.8760     22.1580
   673.9000      7.9566      2.3721      0.0200     16.8401     37.5103     22.7323
   674.0000      7.9610      2.3719      0.0646     16.8551     36.4182     23.4670
   674.1000      7.9610      2.3684      0.0086     17.0694     36.5213     23.7123
   674.2000      7.9610      2.3672      0.0140     17.1377     38.6221     23.2077
   674.3000      7.9215      2.3747      0.0028     16.6849     41.5811     23.0064
   674.4000      7.9215      2.3829      0.0212     16.1854     42.6389     23.3677
   674.5000      7.9380      2.3906     -0.0203     15.7192     41.1091     23.2384
   674.6000      7.9380      2.4031      0.0277     14.9622     38.8539     22.7016
   674.7000      7.9380      2.4154      0.0385     14.2173     38.8329     22.7307
   674.8000      7.9399      2.4209      0.0041     13.8860     42.2786     23.2731
   674.9000      7.9399      2.4207      0.0139     13.8944     46.7618     23.5741
   675.0000      7.9177      2.4188      0.0209     14.0140     48.7385     23.2366
   675.1000      7.9177      2.4193     -0.0039     13.9830     47.7407     22.4977
   675.2000      7.9177      2.4285      0.0143     13.4255     46.1222     21.8048
   675.3000      7.9103      2.4500      0.0348     12.1222     44.0657     21.0755
   675.4000      7.9103      2.4769      0.0469     10.4937     41.2847     20.0066
   675.5000      7.9235      2.4955      0.0621      9.3629     39.5507     19.3765
   675.6000      7.9235      2.5050      0.0074      8.7891     39.0265     20.1520
   675.7000      7.9235      2.5137      0.0123      8.2602     39.4017     21.5254
   675.8000      7.9468      2.5165      0.0439      8.0882     39.9365     21.9868
   675.9000      7.9468      2.5031      0.0087      8.9056     38.6645     21.7245
   676.0000      7.9529      2.4737      0.0261     10.6843     37.1344     21.5700
   676.1000      7.9529      2.4404     -0.0469     12.7003     38.4211     21.5024
   676.2000      7.9529      2.4201     -0.0384     13.9354     40.8271     21.6707
   676.3000      7.9447      2.4155     -0.0100     14.2142     40.3396     21.9594
   676.4000      7.9447      2.4289     -0.0203     13.3984     39.1067     21.8854
   676.5000      7.9552      2.4612      0.0570     11.4418     42.0561     22.0091
   676.6000      7.9552      2.4839      0.0663     10.0663     47.3174     22.4930
   676.7000      7.9552      2.4774      0.0384     10.4635     49.5365     22.2428
   676.8000      7.9378      2.4611      0.0259     11.4513     47.2312     21.0930
   676.9000      7.9378      2.4562      0.0692     11.7443     43.2774     20.2251
   677.0000      7.8983      2.4635      0.0328     11.3032     41.3900     20.5497
   677.1000      7.8983      2.4760      0.0513     10.5429     44.6751     21.8938
   677.2000      7.8983      2.4864      0.0948      9.9142     52.2349     23.1581
   677.3000      7.8541      2.4945      0.0227      9.4269     58.7032     23.5093
   677.4000      7.8541      2.5083      0.0428      8.5886     62.1264     23.3584
   677.5000      7.8582      2.5252      0.0428      7.5655     65.6384     23.3372
   677.6000      7.8582      2.5354      0.0074      6.9432     73.8759     23.1515
   677.7000      7.8582      2.5402      0.0359      6.6563     87.1581     22.6727
   677.8000      7.8856      2.5408      0.0350      6.6156     95.4106     23.1102
   677.9000      7.8856      2.5274      0.0347      7.4293     93.5606     24.4292
   678.0000      7.9175      2.4967     -0.0157      9.2920     93.3343     25.1671
   678.1000      7.9175      2.4657     -0.0743     11.1721    102.1575     24.7638
   678.2000      7.9175      2.4532     -0.0593     11.9284    111.8825     23.8673
   678.3000      7.9167      2.4618     -0.0869     11.4088    119.1538     23.5528
   678.4000      7.9167      2.4804     -0.0255     10.2799    124.9431     24.1257
   678.5000      7.9242      2.4935      0.0503      9.4864    124.0127     25.2835
   678.6000      7.9242      2.4974      0.0283      9.2468    118.5909     26.7834
   678.7000      7.9242      2.4997      0.0780      9.1113    117.7525     27.7411
   678.8000      7.9602      2.4964      0.0873      9.3072    122.6726     27.5342
   678.9000      7.9602      2.4837      0.0560     10.0800    128.6702     27.1214
   679.0000      7.9338      2.4787      0.0630     10.3789    130.8628     27.3668
   679.1000      7.9338      2.4995      0.0758      9.1214    126.6959     28.0095
   679.2000      7.9338      2.5369      0.0788      6.8522    119.0998     28.3791
   679.3000      7.9249      2.5669      0.1338      5.0375    114.6484     28.1281
   679.4000      7.9249      2.5773      0.1331      4.4045    114.4676     27.6732
   679.5000      7.8889      2.5797      0.0672      4.2611    115.6506     27.3871
   679.6000      7.8889      2.5850      0.1540      3.9407    118.7687     27.1753
   679.7000      7.8889      2.5832      0.1167      4.0462    123.3767     26.8091
   679.8000      7.9467      2.5697      0.1029      4.8645    126.3846     26.2576
   679.9000      7.9467      2.5553      0.0668      5.7378    128.6277     25.9100
   680.0000      7.9703      2.5470      0.0872      6.2422    131.1982     26.3122
   680.1000      7.9703      2.5402      0.0859      6.6530    131.9822     27.0458
   680.2000      7.9703      2.5349      0.0398      6.9772    132.6680     27.1970
   680.3000      7.9525      2.5314      0.0611      7.1882    134.7202     26.8543
   680.4000      7.9525      2.5197      0.0475      7.8971    133.5745     26.2266
   680.5000      7.9398      2.5010      0.0516      9.0298    128.7786     25.5540
   680.6000      7.9398      2.4893      0.0450      9.7369    126.2170     25.4702
   680.7000      7.9398      2.4925      0.0556      9.5474    128.8037     25.7276
   680.8000      7.9431      2.5079      0.0571      8.6112    133.9312     25.9237
   680.9000      7.9431      2.5192      0.0944      7.9273    137.8775     26.6974
   681.0000      7.9459      2.5088      0.0454      8.5561    135.0834     27.7235
   681.1000      7.9459      2.4825      0.0367     10.1514    124.7009     27.9192
   681.2000      7.9459      2.4602      0.0023     11.5013    116.0713     27.2947
   681.3000      7.9597      2.4569      0.0041     11.7038    113.3295     26.7726
   681.4000      7.9597      2.4746      0.0343     10.6287    113.7941     26.7816
   681.5000      7.9716      2.4981      0.0960      9.2076    116.1243     27.1613
   681.6000      7.9716      2.5068      0.0487      8.6778    117.1569     27.8315
   681.7000      7.9716      2.5050      0.0433      8.7899    114.8410     28.3400
   681.8000      7.9843      2.5122      0.0136      8.3538    110.4737     28.3312
   681.9000      7.9843      2.5222      0.0974      7.7431    107.8306     28.1311
   682.0000      7.9504      2.5103      0.1011      8.4674    110.7666     27.7279
   682.1000      7.9504      2.4848     -0.0064     10.0130    117.0201     27.0585
   682.2000      7.9504      2.4797      0.0056     10.3184    119.8858     26.7417
   682.3000      7.9442      2.4924      0.0387      9.5522    116.9553     26.9968
   682.4000      7.9442      2.4848      0.0708     10.0098    112.8840     27.5363
   682.5000      7.9578      2.4533     -0.0356     11.9209    112.5631     27.9031
   682.6000      7.9578      2.4349      0.0016     13.0348    116.0515     27.5504
   682.7000      7.9578      2.4475      0.0201     12.2742    119.8576     26.4950
   682.8000      7.9370      2.4819      0.0156     10.1871    120.3973     25.6228
   682.9000      7.9370      2.5198      0.0702      7.8935    119.2911     25.6560
   683.0000      7.9358      2.5402      0.0605      6.6519    118.6520     26.6889
   683.1000      7.9358      2.5406      0.0625      6.6285    116.9270     27.9702
