~Version Information
 VERS.                                  2.0 : CWLS LAS VERSION
 WRAP.                                   NO : WRAPING MODE
 SWARE .                 MController 2.5.0N : SOFTWARE VERSION
~Well Information
 WELL.                         State 16-41V : WELL
 COMP.                Petrogulf Corporation : COMPANY
 FLD.                      Purgatoire River : FIELD
 LOC.                NE/NE Sec 16 T33S R67W : LOCATION
 DATE.                             08/01/05 : DATE(S) LOGGED
 SRVC.       BLANCO Geological Services LLC : SERVICE COMPANY
 STAT.                                   CO : STATE
 CNTY.                           Las Animas : COUNTY
 CTRY.                                  USA : COUNTRY
 API.                       05-071-08344-00 : API NUMBER
 STRT.FT                             582.00 : START DEPTH
 STOP.FT                            2275.00 : STOP DEPTH
 STEP.FT                               1.00 : DEPTH INCREMENT
 NULL.                                -9999 : NULL VALUE
~Curve information
 DEPTH.FT                                   :
 ROP.MIN/FT                                 :
 GAS.UNITS                                  :
~ASCII Log data
# ...
      1982.0         0.30         25.6 
      1983.0         0.37         24.7 
      1984.0         0.30         24.3 
      1985.0         0.42         23.7 
      1986.0         0.30         23.1 
      1987.0         0.37         22.5 
      1988.0         0.33         22.0 
      1989.0         0.33         22.1 
      1990.0         0.30         21.4 
      1991.0         0.33         20.8 
      1992.0         0.33         20.5 
      1993.0         0.27         21.9 
      1994.0         0.30         23.8 
      1995.0         0.28         24.2 
      1996.0         0.27         24.2 
      1997.0         0.33         24.3 
      1998.0         0.17         24.2 
      1999.0         0.40         23.8 
      2000.0         0.17         18.4 
      2001.0         0.23         16.3 
      2002.0         0.27         14.0 
      2003.0         0.27         14.0 
      2004.0         0.30         17.3 
      2005.0         0.23         22.1 
      2006.0         2.45         73.5 
      2007.0         0.23         56.9 
      2008.0         0.23         51.8 
      2009.0         0.33         47.7 
      2010.0         0.32         44.9 
      2011.0         0.33         43.9 
      2012.0         0.37         41.3 
      2013.0         0.40         32.9 
      2014.0         0.33         24.3 
      2015.0         0.37         20.7 
      2016.0         0.27         18.2 
      2017.0         6.40         53.8 
      2018.0         0.37         42.3 
      2019.0         0.27         25.7 
      2020.0         0.32         33.7 
      2021.0         0.17         35.9 
      2022.0         0.23         38.3 
      2023.0         0.27         42.5 
      2024.0         0.20         46.4 
      2025.0         0.17         48.1 
      2026.0         0.17         49.1 
      2027.0         0.43         49.1 
      2028.0         0.40         45.9 
      2029.0         0.37         38.0 
      2030.0         0.33         29.7 
      2031.0         0.33         35.3 
      2032.0         0.35         52.1 
      2033.0         0.33         74.9 
      2034.0         0.20         83.4 
      2035.0         0.33         84.1 
      2036.0         2.32         78.3 
      2037.0         0.37         46.2 
      2038.0         0.33         46.2 
      2039.0         0.30         45.0 
      2040.0         0.33         41.7 
      2041.0         0.37         37.9 
      2042.0         0.33         35.5 
      2043.0         0.37         34.0 
      2044.0         0.30         32.7 
      2045.0         0.32         31.8 
      2046.0         0.37         31.6 
      2047.0         0.30         31.1 
      2048.0         0.30         30.0 
      2049.0         0.30         29.2 
      2050.0         0.33         28.9 
      2051.0         0.27         28.5 
      2052.0         0.30         28.7 
      2053.0         0.27         29.1 
      2054.0         0.33         29.1 
      2055.0         0.27         28.8 
      2056.0         0.28         29.7 
      2057.0         0.27         29.8 
      2058.0         0.23         28.4 
      2059.0         0.23         24.2 
      2060.0         0.27         20.8 
      2061.0         0.27         19.2 
      2062.0         0.27         23.3 
      2063.0         0.33         32.7 
      2064.0         0.30         48.4 
      2065.0         0.23         64.6 
      2066.0         2.08         86.3 
      2067.0         0.47         41.0 
      2068.0         0.30         40.5 
      2069.0         0.30         41.1 
      2070.0         0.33         40.6 
      2071.0         0.27         38.7 
      2072.0         0.48         36.4 
      2073.0         0.37         34.2 
      2074.0         0.30         32.4 
      2075.0         0.37         31.8 
      2076.0         0.33         30.3 
      2077.0         0.33         29.8 
      2078.0         0.33         29.5 
      2079.0         0.37         29.3 
      2080.0         0.30         29.6 
      2081.0         0.32         29.5 
      2082.0         0.30         29.1 
      2083.0         0.33         28.3 
      2084.0         0.27         27.8 
      2085.0         0.33         28.0 
      2086.0         0.27         28.2 
      2087.0         0.33         27.2 
      2088.0         0.33         22.1 
      2089.0         0.30         17.7 
      2090.0         0.37         20.4 
      2091.0         0.35         28.2 
      2092.0         0.33         44.3 
      2093.0         0.30         65.7 
      2094.0         0.33         96.4 
      2095.0         0.30        113.6 
      2096.0         1.85        114.1 
      2097.0         0.53         42.0 
      2098.0         0.47         41.6 
      2099.0         0.43         39.5 
      2100.0         0.40         37.3 
      2101.0         0.47         35.0 
      2102.0         0.40         32.9 
      2103.0         0.42         31.0 
      2104.0         0.40         29.8 
      2105.0         0.37         28.4 
      2106.0         0.40         27.5 
      2107.0         0.37         27.2 
      2108.0         0.37         27.0 
      2109.0         0.40         26.9 
      2110.0         0.40         27.2 
      2111.0         0.35         27.2 
      2112.0         0.37         27.2 
      2113.0         0.40         27.6 
      2114.0         0.30         28.0 
      2115.0         0.23         28.0 
      2116.0         0.40         27.7 
      2117.0         0.60         26.9 
      2118.0         0.47         26.0 
      2119.0         0.48         27.0 
      2120.0         0.30         26.7 
      2121.0         0.43         22.7 
      2122.0         0.40         16.2 
      2123.0         0.40         20.2 
      2124.0         0.40         34.4 
      2125.0         0.37         54.5 
      2126.0         4.20        133.8 
      2127.0         0.27         49.6 
      2128.0         0.27         46.8 
      2129.0         0.33         44.7 
      2130.0         0.50         41.6 
      2131.0         0.40         37.5 
      2132.0         0.27         35.4 
      2133.0         0.37         34.5 
      2134.0         0.48         33.5 
      2135.0         0.43         32.8 
      2136.0         0.30         32.9 
      2137.0         0.43         32.6 
      2138.0         0.23         31.3 
      2139.0         0.33         30.4 
      2140.0         0.40         30.0 
      2141.0         0.47         29.7 
      2142.0         0.40         29.4 
      2143.0         0.42         29.4 
      2144.0         0.40         29.1 
      2145.0         0.43         29.0 
      2146.0         0.27         28.3 
      2147.0         0.53         28.3 
      2148.0         0.43         29.1 
      2149.0         0.43         28.5 
      2150.0         0.42         22.0 
      2151.0         0.37         17.0 
      2152.0         0.37         20.4 
      2153.0         0.33         30.0 
      2154.0         0.33         44.8 
      2155.0         0.30         62.6 
      2156.0         1.75        103.4 
      2157.0         0.53         63.3 
      2158.0         0.57         49.1 
      2159.0         0.43         46.2 
      2160.0         0.40         45.8 
      2161.0         0.37         43.6 
      2162.0         0.33         41.3 
      2163.0         0.48         39.6 
      2164.0         0.43         37.2 
      2165.0         0.33         34.7 
      2166.0         0.33         33.4 
      2167.0         0.40         32.2 
      2168.0         0.43         31.6 
      2169.0         0.37         31.0 
      2170.0         0.40         30.8 
      2171.0         0.35         30.5 
      2172.0         0.27         30.0 
      2173.0         0.40         29.4 
      2174.0         0.40         29.2 
      2175.0         0.43         28.5 
      2176.0         0.40         27.5 
      2177.0         0.33         26.8 
      2178.0         0.37         26.5 
      2179.0         0.42         27.1 
      2180.0         0.30         27.7 
      2181.0         0.43         26.7 
