~Version Information
VERS.                      2.0: CWLS Log ASCII Standard - VERSION 2.0
WRAP.                       NO: One line per depth step
~Well Information Block
STRT.FT               554.0000: 
STOP.FT              1002.0000: 
STEP.FT                 0.1000: 
NULL.                -999.2500: 
COMP.          Pioneer Natural Resources: COMPANY
WELL.          Rising Star 22-11: WELL
FLD.           Purgatoire River: FIELD
LOC.           2152' FNL & 2105' FWL: LOCATION
PROV.                 Colorado: PROVINCE
CNTY.               Las Animas: COUNTRY
SRVC.                Patterson: SERVICE COMPANY
DATE.          Mon Apr 11 16:46:53 2005: LOG DATE
UWI.           05 071 08354 00: UNIQUE WELL ID
~Curve Information Block
DEPT.FT            0 000 00 00: Depth
DCAL.in                       : CDL Caliper
RHOB.g/cc                     : CDL Bulk Density
RHOC.g/cc                     : CDL Density Correction
DPOR.pu                       : CDL Density Porosity
GR.GAPI                       : Gamma Ray
NPOR.pu                       : Neutron Porosity
~Parameter Information Block
~A  Depth       DCAL        RHOB        RHOC        DPOR         GR         NPOR    
# ...
   842.0000      7.9904      2.5233     -0.0003      7.6813     54.0935     23.0583
   842.1000      7.9904      2.5281      0.0485      7.3858     59.9628     22.7171
   842.2000      7.9904      2.5352      0.0152      6.9583     66.0257     22.4860
   842.3000      7.9991      2.5343      0.0505      7.0119     69.9481     22.9411
   842.4000      7.9991      2.5139      0.0542      8.2484     75.0320     23.8993
   842.5000      7.9520      2.4799      0.0312     10.3075     81.3610     24.2292
   842.6000      7.9520      2.4560      0.0008     11.7556     82.7915     23.5590
   842.7000      7.9520      2.4504      0.0071     12.0985     77.4066     22.9037
   842.8000      7.9469      2.4410      0.0753     12.6653     71.0730     23.1161
   842.9000      7.9469      2.4083      0.0456     14.6465     68.6441     24.0705
   843.0000      7.9095      2.3787     -0.0783     16.4449     70.3096     24.4551
   843.1000      7.9095      2.3933     -0.0847     15.5562     72.9088     23.6670
   843.2000      7.9095      2.4331      0.1059     13.1465     72.5248     23.1287
   843.3000      7.9178      2.4478      0.0238     12.2521     69.4087     23.0261
   843.4000      7.9178      2.4426      0.0309     12.5719     65.4466     22.0853
   843.5000      7.9330      2.4462      0.0540     12.3519     61.2349     20.5229
   843.6000      7.9330      2.4515      0.0910     12.0322     57.6479     19.7215
   843.7000      7.9330      2.4417      0.0182     12.6257     56.7712     20.3946
   843.8000      7.9292      2.4290      0.0122     13.3962     59.8870     21.9884
   843.9000      7.9292      2.4349      0.0097     13.0357     63.9039     23.1013
   844.0000      7.9072      2.4537      0.0614     11.8965     64.9205     23.3066
   844.1000      7.9072      2.4556      0.0705     11.7805     62.9905     22.9295
   844.2000      7.9072      2.4336      0.0363     13.1132     60.4551     22.1924
   844.3000      7.9039      2.4184      0.0064     14.0350     60.0545     21.8226
   844.4000      7.9039      2.4322      0.0489     13.1984     63.0844     22.2236
   844.5000      7.9021      2.4535      0.1095     11.9101     68.1964     22.6024
   844.6000      7.9021      2.4574      0.0164     11.6718     71.9090     22.4335
   844.7000      7.9021      2.4489      0.0582     12.1877     70.9630     22.2580
   844.8000      7.9101      2.4279      0.0294     13.4625     65.8904     21.8150
   844.9000      7.9101      2.3957     -0.0044     15.4108     61.8652     20.8663
   845.0000      7.9208      2.3778     -0.0115     16.4949     63.6150     20.4526
   845.1000      7.9208      2.3936     -0.0082     15.5390     70.6316     20.9678
   845.2000      7.9208      2.4328      0.0506     13.1642     77.0230     21.6298
   845.3000      7.9399      2.4718      0.0663     10.8021     76.8394     21.7509
   845.4000      7.9399      2.4943      0.0749      9.4341     71.0044     21.5692
   845.5000      7.9103      2.4931      0.1243      9.5114     67.3727     21.5665
   845.6000      7.9103      2.4750      0.0445     10.6042     70.0054     21.7569
   845.7000      7.9103      2.4571      0.0884     11.6913     73.9237     22.1797
   845.8000      7.9000      2.4362      0.0743     12.9586     73.9631     22.8942
   845.9000      7.9000      2.4083      0.0231     14.6466     68.8731     23.7085
   846.0000      7.8958      2.3885     -0.0028     15.8483     60.7602     24.0540
   846.1000      7.8958      2.3868     -0.0181     15.9534     55.4095     23.9431
   846.2000      7.8958      2.4000     -0.0093     15.1538     56.3497     23.9721
   846.3000      7.9151      2.4206     -0.0054     13.9038     60.0585     23.8227
   846.4000      7.9151      2.4435      0.0100     12.5161     63.8120     22.9292
   846.5000      7.9268      2.4643      0.0046     11.2522     69.1736     22.0860
   846.6000      7.9268      2.4745      0.0879     10.6368     74.4899     22.3316
   846.7000      7.9268      2.4735      0.0341     10.6978     77.7710     23.1502
   846.8000      7.9188      2.4733      0.0663     10.7089     81.9585     23.2077
   846.9000      7.9188      2.4731      0.0697     10.7236     86.2835     22.5127
   847.0000      7.9116      2.4686      0.0051     10.9954     84.8751     21.9633
   847.1000      7.9116      2.4612      0.0428     11.4437     78.0784     21.9419
   847.2000      7.9116      2.4474     -0.0019     12.2785     72.4584     22.3147
   847.3000      7.9185      2.4315     -0.0188     13.2439     70.2685     22.6441
   847.4000      7.9185      2.4187      0.0020     14.0189     68.0792     22.5860
   847.5000      7.9260      2.4115     -0.0317     14.4550     66.2059     22.4469
   847.6000      7.9260      2.4147     -0.0346     14.2580     66.9749     22.6311
   847.7000      7.9260      2.4202      0.0287     13.9287     66.9650     22.8867
   847.8000      7.9307      2.4146      0.0057     14.2652     65.2140     22.7404
   847.9000      7.9307      2.4061     -0.0061     14.7818     65.8320     22.6281
   848.0000      7.9351      2.4153     -0.0245     14.2216     67.5310     22.8788
   848.1000      7.9351      2.4449      0.0265     12.4303     65.9333     22.9120
   848.2000      7.9351      2.4659      0.0389     11.1556     62.7514     22.3106
   848.3000      7.9300      2.4611     -0.0004     11.4464     62.4631     21.6577
   848.4000      7.9300      2.4535      0.0072     11.9068     66.0968     21.6536
   848.5000      7.9323      2.4637      0.0043     11.2888     70.0912     22.2675
   848.6000      7.9323      2.4790      0.0506     10.3639     69.5013     23.1246
   848.7000      7.9323      2.4739      0.0777     10.6744     65.8777     23.9059
   848.8000      7.9376      2.4504      0.0031     12.0973     65.4647     24.7183
   848.9000      7.9376      2.4341      0.0219     13.0875     68.6660     25.5606
   849.0000      7.9552      2.4332      0.0379     13.1385     71.0151     25.7485
   849.1000      7.9552      2.4398      0.0053     12.7392     70.4601     24.7861
   849.2000      7.9552      2.4445      0.0184     12.4554     69.1710     23.2778
   849.3000      7.9434      2.4396     -0.0370     12.7489     69.0826     22.1654
   849.4000      7.9434      2.4292     -0.0185     13.3848     67.8158     21.5906
   849.5000      7.9413      2.4188     -0.0374     14.0110     64.8863     21.3580
   849.6000      7.9413      2.4075      0.0039     14.6941     64.9235     21.3703
   849.7000      7.9413      2.3956     -0.0083     15.4192     68.5388     21.8140
   849.8000      7.9341      2.3954     -0.0494     15.4318     70.2409     22.7311
   849.9000      7.9341      2.4189      0.0188     14.0063     68.3123     23.3063
   850.0000      7.9379      2.4549      0.0101     11.8252     65.3470     22.9289
   850.1000      7.9379      2.4816      0.0405     10.2083     61.5115     21.7728
   850.2000      7.9379      2.4907      0.0056      9.6559     58.1844     20.8055
   850.3000      7.9368      2.4921      0.0355      9.5723     58.4896     21.1192
   850.4000      7.9368      2.4962      0.0557      9.3233     60.5672     22.2198
   850.5000      7.9360      2.5042      0.0286      8.8375     60.3534     22.9934
   850.6000      7.9360      2.5060      0.0708      8.7258     58.9107     23.2332
   850.7000      7.9360      2.4877      0.0718      9.8381     59.6312     23.4421
   850.8000      7.9288      2.4589      0.0016     11.5828     62.5010     23.5806
   850.9000      7.9288      2.4493      0.0196     12.1655     65.6151     23.0696
   851.0000      7.9296      2.4605     -0.0160     11.4835     67.3503     22.5585
   851.1000      7.9296      2.4607      0.0430     11.4740     67.4670     22.8364
   851.2000      7.9296      2.4376     -0.0196     12.8753     67.0594     23.2689
   851.3000      7.9339      2.4218     -0.0405     13.8294     65.5232     22.8123
   851.4000      7.9339      2.4271      0.0001     13.5064     62.4784     21.7198
   851.5000      7.9410      2.4373     -0.0445     12.8896     60.3385     21.0888
