~Version Information
VERS.                      2.0: CWLS Log ASCII Standard - VERSION 2.0
WRAP.                       NO: One line per depth step
~Well Information Block
STRT.FT                -8.5000: 
STOP.FT              1968.0000: 
STEP.FT                 0.2500: 
NULL.                -999.2500: 
COMP.          Pioneer Natural Resources: COMPANY
WELL.           Firehawk 34-26: WELL
FLD.           Purgatorie River: FIELD
LOC.           1196' FSL & 1595' FEL--: LOCATION
STAT.                       CO: State
CNTY.               Las Animas: COUNTY
CTRY. USA : Country
SECT. 26 : Section
TOWN. 32S : Township
RANG. 66W : Range 
SRVC.          Patterson Wireline: SERVICE COMPANY
DATE.          Tue Oct 25 14:45:07 2005: LOG DATE
API.           05 071 08389 00: UNIQUE WELL ID
~Curve Information Block
DEPT.FT            0 000 00 00: Depth
CCL.                          : Casing Collar Locator
TT3.usec                      : CBL 3' Travel Time
AMP3.mV                       : CBL 3' Amplitude
GR.GAPI                       : Gamma Ray
~Parameter Information Block
~A  Depth       CCL         TT3         AMP3         GR     
# ...
  1800.5000      0.0000    681.4490      3.2576     59.5608
  1800.7500      0.0000    687.7105      3.4238     62.2482
  1801.0000      0.0000    693.5120      3.6640     66.6658
  1801.2500      0.0000    696.1279      3.8653     71.2163
  1801.5000      0.0000    694.4888      3.9673     74.7844
  1801.7500      0.0000    690.2496      3.9902     76.9132
  1802.0000      0.0000    686.5546      3.9999     77.5887
  1802.2500      0.0000    685.5946      4.0489     76.8225
  1802.5000      0.0000    687.2819      4.1475     74.3963
  1802.7500      0.0000    690.0284      4.2826     70.3635
  1803.0000      0.0000    692.2560      4.4456     65.8055
  1803.2500      0.0000    692.7851      4.6327     62.5308
  1803.5000      0.0000    690.4484      4.8276     61.8926
  1803.7500      0.0000    684.7009      5.0024     64.0956
  1804.0000      0.0000    676.7873      5.1356     68.3828
  1804.2500      0.0000    669.1671      5.2225     73.4955
  1804.5000      0.0000    663.6997      5.2721     78.1608
  1804.7500      0.0000    661.3695      5.2969     81.6011
  1805.0000      0.0000    663.0542      5.3005     83.7884
  1805.2500      0.0000    668.0726      5.2691     85.1767
  1805.5000      0.0000    671.0984      5.1826     86.0470
  1805.7500      0.0000    662.5601      5.0392     86.1359
  1806.0000      0.0000    634.7717      4.8687     85.0717
  1806.2500      0.0000    589.2490      4.7173     83.0324
  1806.5000      0.0000    538.1272      4.6182     80.8270
  1806.7500      0.0000    497.1376      4.5752     79.4939
  1807.0000      0.0000    475.4707      4.5729     79.7464
  1807.2500      0.0000    471.2959      4.5976     81.3421
  1807.5000      0.0000    476.0070      4.6416     83.0116
  1807.7500      0.0000    481.7149      4.6906     83.5667
  1808.0000      0.0000    485.0875      4.7197     83.1511
  1808.2500      0.0000    486.4431      4.7102     82.8833
  1808.5000      0.0000    487.5656      4.6682     83.2357
  1808.7500      0.0000    490.8983      4.6242     83.4596
  1809.0000      0.0000    499.4635      4.6125     82.9388
  1809.2500      0.0000    515.3724      4.6484     82.4295
  1809.5000      0.0000    536.3866      4.7186     83.3391
  1809.7500      0.0000    553.8547      4.7888     86.1476
  1810.0000      0.0000    556.6124      4.8270     89.9905
  1810.2500      0.0000    539.8734      4.8226     93.3780
  1810.5000      0.0000    510.5481      4.7872     95.1019
  1810.7500      0.0000    482.2144      4.7380     95.1289
  1811.0000      0.0000    464.7015      4.6841     95.0240
  1811.2500      0.0000    459.2961      4.6292     96.9780
  1811.5000      0.0000    462.5333      4.5802    101.8618
  1811.7500      0.0000    471.3653      4.5496    108.3972
  1812.0000      0.0000    483.4505      4.5453    114.4317
  1812.2500      0.0000    494.4193      4.5585    118.6834
  1812.5000      0.0000    497.9971      4.5667    121.0202
  1812.7500      0.0000    490.4536      4.5536    121.7083
  1813.0000      0.0000    474.0352      4.5275    120.9641
  1813.2500      0.0000    455.3229      4.5156    118.8868
  1813.5000      0.0000    441.2931      4.5403    115.3668
  1813.7500      0.0000    437.4990      4.6007    110.3135
  1814.0000      0.0000    448.1314      4.6739    104.1918
  1814.2500      0.0000    475.4116      4.7241     97.9172
  1814.5000      0.0000    517.7169      4.7130     92.0518
  1814.7500      0.0000    568.4240      4.6183     86.6047
  1815.0000      0.0000    617.6833      4.4533     81.7502
  1815.2500      0.0000    656.6112      4.2693     78.0975
  1815.5000      0.0000    681.0239      4.1326     76.0344
  1815.7500      0.0000    692.3269      4.0921     75.4005
  1816.0000      0.0000    695.2463      4.1594     75.8495
  1816.2500      0.0000    693.7167      4.3098     76.9038
  1816.5000      0.0000    687.7657      4.4982     77.6715
  1816.7500      0.0000    673.8114      4.6818     77.3241
  1817.0000      0.0000    647.8922      4.8367     76.0368
  1817.2500      0.0000    609.4649      4.9598     74.9730
  1817.5000      0.0000    564.1361      5.0577     75.1536
  1817.7500      0.0000    523.4803      5.1362     76.6028
  1818.0000      0.0000    499.0005      5.1975     78.7298
  1818.2500      0.0000    492.3807      5.2438     81.2766
  1818.5000      0.0000    492.1951      5.2793     84.4255
  1818.7500      0.0000    483.6096      5.3084     87.8034
  1819.0000      0.0000    461.8620      5.3324     89.8712
  1819.2500      0.0000    434.5238      5.3507     88.8664
  1819.5000      0.0000    411.9068      5.3655     84.3194
  1819.7500      0.0000    398.3762      5.3823     77.4656
  1820.0000      0.0000    392.1791      5.4016     70.4408
  1820.2500      0.0000    389.7722      5.4132     65.2433
  1820.5000      0.0000    388.7213      5.4057     63.0315
  1820.7500      0.0000    388.0482      5.3800     63.8071
  1821.0000      0.0000    387.6473      5.3448     66.5370
  1821.2500      0.0000    387.8419      5.2998     69.7329
  1821.5000      0.0000    389.1534      5.2216     72.2526
  1821.7500      0.0000    392.1580      5.0709     73.7815
  1822.0000      0.0000    397.6496      4.8162     74.5883
  1822.2500      0.0000    407.3096      4.4606     74.8494
  1822.5000      0.0000    424.1030      4.0521     74.3345
  1822.7500      0.0000    450.5111      3.6672     72.7033
  1823.0000      0.0000    484.8333      3.3789     69.9102
  1823.2500      0.0000    519.8409      3.2296     66.2555
  1823.5000      0.0000    546.9590      3.2268     62.2653
  1823.7500      0.0000    562.4163      3.3568     58.6478
  1824.0000      0.0000    569.6352      3.5966     56.2506
  1824.2500      0.0000    577.2217      3.9086     55.8880
  1824.5000     -2.0000    593.9323      4.2295     58.1096
  1824.7500      2.0000    621.8345      4.4680     63.0193
  1825.0000      0.0000    653.5423      4.5286     70.2005
  1825.2500      0.0000    678.4513      4.3747     78.6181
  1825.5000      0.0000    691.9150      4.0860     86.5438
  1825.7500      0.0000    697.5059      3.8221     91.9922
  1826.0000      0.0000    701.5453      3.6910     94.0095
  1826.2500      0.0000    706.8447      3.6725     93.8009
  1826.5000      0.0000    711.3508      3.6942     94.0023
  1826.7500      0.0000    711.5532      3.7279     96.2699
  1827.0000      0.0000    706.4258      3.7633     99.7067
  1827.2500      0.0000    698.2620      3.7493    101.8650
  1827.5000      0.0000    690.7006      3.6362    101.0692
  1827.7500      0.0000    686.5383      3.4573     97.7298
  1828.0000      0.0000    686.6685      3.3161     93.8632
  1828.2500      0.0000    689.9913      3.2904     91.4026
  1828.5000      0.0000    694.0662      3.3665     90.5064
  1828.7500      0.0000    696.4108      3.4658     89.5289
  1829.0000      0.0000    696.0315      3.5166     87.0644
  1829.2500      0.0000    694.1954      3.5035     83.6716
  1829.5000      0.0000    693.4682      3.4589     81.0416
  1829.7500      0.0000    695.3959      3.4196     79.8757
  1830.0000      0.0000    699.1068      3.3946     79.3234
  1830.2500      0.0000    702.4796      3.3772     78.3535
  1830.5000      0.0000    704.4844      3.3778     76.9450
  1830.7500      0.0000    705.8461      3.4311     75.8083
  1831.0000      0.0000    707.3682      3.5655     75.5018
  1831.2500      0.0000    708.3638      3.7757     76.0530
  1831.5000      0.0000    707.0029      4.0237     77.0488
  1831.7500      0.0000    701.5513      4.2590     77.8938
  1832.0000      0.0000    690.4257      4.4428     78.3047
  1832.2500      0.0000    671.5203      4.5736     78.7154
  1832.5000      0.0000    643.4035      4.6908     79.8338
  1832.7500      0.0000    608.6720      4.8403     81.5881
  1833.0000      0.0000    575.0331      5.0310     82.9613
  1833.2500      0.0000    550.6061      5.2311     83.1721
  1833.5000      0.0000    537.6853      5.4036     82.3994
  1833.7500      0.0000    532.1608      5.5343     81.0035
