~Version Information
VERS.                      2.0: CWLS Log ASCII Standard - VERSION 2.0
WRAP.                       NO: One line per depth step
~Well Information Block
STRT.FT               555.5000: 
STOP.FT              2179.0000: 
STEP.FT                 0.2500: 
NULL.                -999.2500: 
COMP.          Petrogulf Corporation: COMPANY
WELL.            Montoya 6-14R: WELL
FLD.           Purgatorie River: FIELD
LOC.           867' FSL & 751' FWL: LOCATION
CNTY.               Las Animas: COUNTY
SRVC.                         : SERVICE COMPANY
DATE.          Mon Nov 15 07:02:23 2004: LOG DATE
UWI.           05 071 08242 00: UNIQUE WELL ID
STAT.                 Colorado: STATE
~Curve Information Block
DEPT.FT            0 000 00 00: Depth
SP.mV                         : DIL Spontaneous Potential
RILD.Ohm-m                    : DIL Deep Resistivity
RILM.Ohm-m                    : DIL Medium Resistivity
RLL3.Ohm-m                    : DIL Shallow Resistivity
GR.GAPI                       : Gamma Ray
~Parameter Information Block
~A  Depth        SP         RILD        RILM        RLL3         GR     
# ...
  1955.5000    -83.9377     40.0472     40.1990     57.0210     42.8291
  1955.7500    -84.1432     39.6302     40.7225     56.9548     44.2416
  1956.0000    -84.1945     39.1150     41.2348     57.0629     45.7723
  1956.2500    -84.1546     38.4966     41.7008     57.2768     46.1302
  1956.5000    -84.0811     37.7817     42.0909     57.5189     45.6217
  1956.7500    -84.0075     36.9997     42.3892     57.7281     44.9112
  1957.0000    -83.9383     36.2033     42.5984     57.8735     43.9973
  1957.2500    -83.8498     35.4608     42.7402     57.9518     43.5738
  1957.5000    -83.6974     34.8437     42.8481     57.9730     42.6155
  1957.7500    -83.4274     34.4136     42.9568     57.9462     41.2986
  1958.0000    -82.9921     34.2138     43.0928     57.8725     38.0698
  1958.2500    -82.3614     34.2637     43.2678     57.7471     35.4618
  1958.5000    -81.5351     34.5562     43.4756     57.5672     32.1721
  1958.7500    -80.5489     35.0562     43.6967     57.3367     31.0775
  1959.0000    -79.4784     35.7017     43.9084     57.0659     31.2001
  1959.2500    -78.4302     36.4075     44.0924     56.7651     31.8789
  1959.5000    -77.5242     37.0761     44.2409     56.4391     32.6834
  1959.7500    -76.8597     37.6126     44.3602     56.0857     32.9196
  1960.0000    -76.4912     37.9467     44.4664     55.7007     33.4077
  1960.2500    -76.4138     38.0470     44.5773     55.2862     34.2254
  1960.5000    -76.5613     37.9278     44.7045     54.8582     36.3136
  1960.7500    -76.8390     37.6408     44.8477     54.4497     38.0203
  1961.0000    -77.1475     37.2578     44.9967     54.1099     40.4432
  1961.2500    -77.4155     36.8517     45.1316     53.8979     41.6905
  1961.5000    -77.6065     36.4829     45.2328     53.8713     42.8148
  1961.7500    -77.7135     36.1915     45.2854     54.0709     43.1232
  1962.0000    -77.7510     35.9968     45.2819     54.5020     43.1447
  1962.2500    -77.7376     35.9009     45.2234     55.1201     42.9343
  1962.5000    -77.6961     35.8939     45.1177     55.8280     42.2846
  1962.7500    -77.6515     35.9595     44.9754     56.4912     41.6909
  1963.0000    -77.6349     36.0819     44.8095     56.9683     40.9402
  1963.2500    -77.6836     36.2460     44.6316     57.1476     40.9046
  1963.5000    -77.8398     36.4404     44.4563     56.9754     42.2534
  1963.7500    -78.1469     36.6567     44.3008     56.4669     44.3176
  1964.0000    -78.6430     36.8864     44.1840     55.6947     48.7989
  1964.2500    -79.3560     37.1188     44.1266     54.7647     52.0422
  1964.5000    -80.2994     37.3389     44.1461     53.7867     55.8969
  1964.7500    -81.4526     37.5274     44.2569     52.8508     57.2316
  1965.0000    -82.7562     37.6594     44.4661     52.0147     57.2690
  1965.2500    -84.0926     37.7095     44.7722     51.3028     56.3179
  1965.5000    -85.2927     37.6539     45.1664     50.7145     54.0265
  1965.7500    -86.1534     37.4786     45.6310     50.2399     52.0118
  1966.0000    -86.4687     37.1821     46.1396     49.8780     48.0851
  1966.2500    -86.0800     36.7784     46.6573     49.6530     44.8549
  1966.5000    -84.9210     36.2931     47.1428     49.6226     39.5612
  1966.7500    -83.0541     35.7582     47.5479     49.8745     36.2176
  1967.0000    -80.6733     35.2042     47.8235     50.5109     32.2082
  1967.2500    -78.0741     34.6514     47.9215     51.6226     30.3553
  1967.5000    -75.5969     34.1053     47.7972     53.2645     28.5839
  1967.7500    -73.5473     33.5545     47.4077     55.4345     27.8191
  1968.0000    -72.1325     32.9736     46.7106     58.0641     26.9484
  1968.2500    -71.4161     32.3297     45.6620     61.0208     26.5372
  1968.5000    -71.3213     31.5901     44.2204     64.1169     26.5547
  1968.7500    -71.6668     30.7317     42.3600     67.1146     27.2766
  1969.0000    -72.2162     29.7488     40.0892     69.7240     29.4291
  1969.2500    -72.7431     28.6551     37.4698     71.5979     31.1432
  1969.5000    -73.0675     27.4815     34.6162     72.3425     33.1465
  1969.7500    -73.0801     26.2699     31.6788     71.5636     33.9073
  1970.0000    -72.7533     25.0643     28.8130     68.9564     35.0654
  1970.2500    -72.1328     23.9041     26.1488     64.4195     36.9156
  1970.5000    -71.3238     22.8178     23.7745     58.1479     43.2405
  1970.7500    -70.4626     21.8225     21.7345     50.6524     50.5146
  1971.0000    -69.6767     20.9225     20.0375     42.6769     65.8044
  1971.2500    -69.0364     20.1130     18.6691     35.0384     77.8648
  1971.5000    -68.5274     19.3824     17.6022     28.4466     95.6081
  1971.7500    -68.0411     18.7153     16.8040     23.3755    105.0244
  1972.0000    -67.4061     18.0955     16.2402     20.0290    112.7131
  1972.2500    -66.4590     17.5078     15.8764     18.3967    113.2841
  1972.5000    -65.1099     16.9397     15.6780     18.3558    109.4121
  1972.7500    -63.3927     16.3819     15.6077     19.7574    105.5280
  1973.0000    -61.4687     15.8289     15.6238     22.4517    100.0130
  1973.2500    -59.5797     15.2789     15.6787     26.2428     96.8594
  1973.5000    -57.9715     14.7331     15.7190     30.8053     92.1289
  1973.7500    -56.8201     14.1950     15.6896     35.6196     88.3091
  1974.0000    -56.1818     13.6699     15.5410     39.9866     81.0870
  1974.2500    -55.9944     13.1631     15.2403     43.1426     75.5915
  1974.5000    -56.1075     12.6789     14.7794     44.4497     67.6721
  1974.7500    -56.3381     12.2196     14.1771     43.5835     63.6772
  1975.0000    -56.5191     11.7850     13.4734     40.6414     61.6479
  1975.2500    -56.5378     11.3724     12.7183     36.1147     63.8951
  1975.5000    -56.3525     10.9776     11.9595     30.7383     72.8126
  1975.7500    -55.9931     10.5962     11.2349     25.2824     81.2880
  1976.0000    -55.5438     10.2247     10.5697     20.3685     94.3478
  1976.2500    -55.1168      9.8614      9.9767     16.3687    101.5115
  1976.5000    -54.8217      9.5075      9.4595     13.4001    109.0151
  1976.7500    -54.7337      9.1663      9.0153     11.3864    112.4378
  1977.0000    -54.8704      8.8429      8.6378     10.1442    116.3288
  1977.2500    -55.1877      8.5430      8.3191      9.4600    118.0816
  1977.5000    -55.5941      8.2722      8.0510      9.1387    118.6646
  1977.7500    -55.9816      8.0352      7.8260      9.0268    117.5744
  1978.0000    -56.2535      7.8353      7.6381      9.0170    114.9333
  1978.2500    -56.3489      7.6745      7.4827      9.0430    113.6629
  1978.5000    -56.2472      7.5534      7.3568      9.0707    113.7675
  1978.7500    -55.9714      7.4713      7.2587      9.0882    115.0225
  1979.0000    -55.5703      7.4268      7.1878      9.0979    117.4830
  1979.2500    -55.1151      7.4171      7.1441      9.1098    118.9466
  1979.5000    -54.6874      7.4391      7.1282      9.1368    120.5774
  1979.7500    -54.3638      7.4886      7.1405      9.1902    121.2092
  1980.0000    -54.2008      7.5607      7.1818      9.2784    121.2066
  1980.2500    -54.2189      7.6501      7.2523      9.4074    120.5858
  1980.5000    -54.3884      7.7514      7.3521      9.5840    119.4751
  1980.7500    -54.6369      7.8590      7.4804      9.8180    119.2633
  1981.0000    -54.8713      7.9684      7.6356     10.1210    120.2054
  1981.2500    -55.0108      8.0761      7.8144     10.5001    121.2796
  1981.5000    -55.0229      8.1804      8.0116     10.9473    122.4112
  1981.7500    -54.9371      8.2816      8.2202     11.4312    122.4805
  1982.0000    -54.8367      8.3817      8.4315     11.8966    121.6483
  1982.2500    -54.8285      8.4839      8.6360     12.2748    120.6185
  1982.5000    -54.9992      8.5920      8.8250     12.5041    118.4458
  1982.7500    -55.3811      8.7097      8.9918     12.5520    116.6607
  1983.0000    -55.9388      8.8399      9.1336     12.4301    113.9611
  1983.2500    -56.5822      8.9842      9.2514     12.1938    112.5921
