~Version Information
VERS.                      2.0: CWLS Log ASCII Standard - VERSION 2.0
WRAP.                       NO: One line per depth step
~Well Information Block
STRT.FT               550.0000: 
STOP.FT              2359.0000: 
STEP.FT                 0.1000: 
NULL.                -999.2500: 
COMP.          Pioneer Natural Resources: COMPANY
WELL.              Whinny 42-2: WELL
FLD.           Purgatoire River: FIELD
LOC.           1836' FNL & 466' FEL: LOCATION
PROV.                 Colorado: PROVINCE
CNTY.               Las Animas: COUNTRY
SRVC.                Patterson: SERVICE COMPANY
DATE.          Mon Aug 22 07:28:42 2005: LOG DATE
UWI.           05 071 08406 00: UNIQUE WELL ID
~Curve Information Block
DEPT.FT            0 000 00 00: Depth
DCAL.in                       : CDL Caliper
RHOB.g/cc                     : CDL Bulk Density
RHOC.g/cc                     : CDL Density Correction
DPOR.pu                       : CDL Density Porosity
GR.GAPI                       : Gamma Ray
NPOR.pu                       : Neutron Porosity
~Parameter Information Block
~A  Depth       DCAL        RHOB        RHOC        DPOR         GR         NPOR    
# ...
  2230.0000      7.8797      2.4985      0.0083      9.1821     87.4318     24.4726
  2230.1000      7.8797      2.5006      0.0299      9.0549     86.3855     24.7907
  2230.2000      7.8797      2.4881      0.0130      9.8110     85.0766     25.2205
  2230.3000      7.8898      2.4757     -0.0159     10.5625     81.9482     25.7793
  2230.4000      7.8898      2.4791      0.0169     10.3551     77.7282     26.5065
  2230.5000      7.9008      2.4947      0.0403      9.4141     78.6149     26.7641
  2230.6000      7.9008      2.5162     -0.0006      8.1092     87.0972     26.3679
  2230.7000      7.9008      2.5488      0.0596      6.1343     95.7174     25.7415
  2230.8000      7.8843      2.5854      0.0855      3.9142     97.1964     25.0528
  2230.9000      7.8843      2.6054      0.0943      2.7020     92.9805     24.6315
  2231.0000      7.8530      2.6055      0.0963      2.6983     91.1431     24.7195
  2231.1000      7.8530      2.6017      0.0853      2.9266     94.4622     25.0567
  2231.2000      7.8530      2.6031      0.0940      2.8397     97.0063     25.0979
  2231.3000      7.8519      2.5953      0.1146      3.3159     95.3662     24.5216
  2231.4000      7.8519      2.5696      0.0586      4.8699     89.6296     24.0779
  2231.5000      7.8588      2.5469      0.0488      6.2480     80.0513     24.5012
  2231.6000      7.8588      2.5396      0.0387      6.6902     70.9957     25.2651
  2231.7000      7.8588      2.5355      0.0641      6.9381     68.3866     25.3772
  2231.8000      7.8378      2.5236      0.0531      7.6619     72.3576     24.8783
  2231.9000      7.8378      2.5050      0.0397      8.7906     78.0965     24.5317
  2232.0000      7.8889      2.4884      0.0397      9.7966     82.5110     24.4585
  2232.1000      7.8889      2.4890      0.0121      9.7586     85.0974     24.2669
  2232.2000      7.8889      2.5118      0.0479      8.3741     83.9677     24.0910
  2232.3000      7.8908      2.5363      0.0481      6.8914     78.2131     24.1558
  2232.4000      7.8908      2.5462      0.0473      6.2903     72.9776     24.0592
  2232.5000      7.8907      2.5494      0.0414      6.0961     71.1986     23.2190
  2232.6000      7.8907      2.5480      0.0597      6.1832     69.8666     21.6894
  2232.7000      7.8907      2.5342      0.0278      7.0158     66.4679     20.5272
  2232.8000      7.9190      2.5249      0.0006      7.5797     63.0458     20.7275
  2232.9000      7.9190      2.5426      0.0254      6.5078     63.6451     21.9745
  2233.0000      7.9238      2.5746      0.0781      4.5713     67.5980     23.2455
  2233.1000      7.9238      2.5957      0.0627      3.2933     70.4543     24.0518
  2233.2000      7.9238      2.6010      0.0880      2.9712     70.0262     24.4508
  2233.3000      7.9276      2.5999      0.0752      3.0339     70.1192     24.8780
  2233.4000      7.9276      2.6048      0.0610      2.7398     73.1057     25.5945
  2233.5000      7.9303      2.6090      0.0929      2.4824     75.6123     25.9668
  2233.6000      7.9303      2.5914      0.0734      3.5543     74.7498     25.6242
  2233.7000      7.9303      2.5569      0.0476      5.6437     71.4868     24.8846
  2233.8000      7.9194      2.5336      0.0394      7.0576     71.2163     23.8197
  2233.9000      7.9194      2.5326      0.0130      7.1123     75.3004     22.8793
  2234.0000      7.9150      2.5442      0.0324      6.4146     76.2475     22.7026
  2234.1000      7.9150      2.5512      0.0819      5.9900     73.2304     23.2048
  2234.2000      7.9150      2.5440      0.0687      6.4264     72.5700     23.7162
  2234.3000      7.9030      2.5349      0.0195      6.9766     76.0383     23.7459
  2234.4000      7.9030      2.5430      0.0546      6.4826     79.6309     23.5744
  2234.5000      7.8943      2.5640      0.0672      5.2128     79.5830     23.5687
  2234.6000      7.8943      2.5768      0.1244      4.4366     78.5863     23.5230
  2234.7000      7.8943      2.5726      0.0828      4.6895     78.4776     23.5138
  2234.8000      7.8920      2.5728      0.0390      4.6806     75.9813     23.8559
  2234.9000      7.8920      2.5850      0.0900      3.9370     72.7231     24.4634
  2235.0000      7.8915      2.5806      0.1140      4.2076     73.3842     25.2852
  2235.1000      7.8915      2.5507      0.0492      6.0187     75.4953     25.8470
  2235.2000      7.8915      2.5151      0.0467      8.1747     73.9038     25.4756
  2235.3000      7.8863      2.4880     -0.0143      9.8177     69.7054     24.6440
  2235.4000      7.8863      2.4791      0.0070     10.3568     69.5771     23.9465
  2235.5000      7.8877      2.4913      0.0009      9.6179     75.1954     23.5070
  2235.6000      7.8877      2.5132     -0.0034      8.2933     79.1604     23.2475
  2235.7000      7.8877      2.5323      0.0319      7.1357     79.2826     22.8696
  2235.8000      7.8867      2.5502      0.0141      6.0491     80.0643     22.7129
  2235.9000      7.8867      2.5715      0.0610      4.7586     82.9851     23.2926
  2236.0000      7.8872      2.5866      0.1061      3.8434     87.7570     24.1297
  2236.1000      7.8872      2.5851      0.0864      3.9326     92.4365     24.7469
  2236.2000      7.8872      2.5675      0.0446      5.0002     92.6290     25.4181
  2236.3000      7.8861      2.5396      0.0302      6.6895     86.0946     26.0428
  2236.4000      7.8861      2.5095     -0.0098      8.5135     78.0965     25.9912
  2236.5000      7.8946      2.4835     -0.0123     10.0932     77.0604     25.3472
  2236.6000      7.8946      2.4686     -0.0339     10.9912     83.4610     25.0444
  2236.7000      7.8946      2.4749      0.0081     10.6122     89.9101     25.3396
  2236.8000      7.8949      2.4984      0.0565      9.1883     92.7294     25.8006
  2236.9000      7.8949      2.5176      0.0531      8.0264     92.2689     26.0996
  2237.0000      7.8947      2.5135      0.0572      8.2739     91.3315     26.1556
  2237.1000      7.8947      2.4906      0.0425      9.6596     94.7873     26.4126
  2237.2000      7.8947      2.4753      0.0446     10.5884    102.3814     27.2633
  2237.3000      7.8938      2.4809      0.0626     10.2470    107.3013     28.2918
  2237.4000      7.8938      2.4902      0.0735      9.6857    104.1180     28.6801
  2237.5000      7.8910      2.4796      0.0581     10.3264     98.7365     28.0937
  2237.6000      7.8910      2.4507      0.0385     12.0792    101.2826     27.1945
  2237.7000      7.8910      2.4240      0.0252     13.6943    109.2623     26.9899
  2237.8000      7.8954      2.4124     -0.0030     14.4011    113.1425     27.6452
  2237.9000      7.8954      2.4138     -0.0194     14.3161    111.6591     28.3087
  2238.0000      7.9004      2.4254      0.0514     13.6144    111.4444     28.2078
  2238.1000      7.9004      2.4476      0.0393     12.2641    114.4831     27.6757
  2238.2000      7.9004      2.4710      0.0783     10.8455    115.6608     27.6208
  2238.3000      7.8991      2.4837      0.0622     10.0775    111.2654     28.2721
  2238.4000      7.8991      2.4900      0.0251      9.6995    103.4249     28.9034
  2238.5000      7.8974      2.4915      0.0955      9.6046     99.1601     28.9809
  2238.6000      7.8974      2.4807      0.0596     10.2577     99.7243     28.7197
  2238.7000      7.8974      2.4724     -0.0026     10.7658     98.3967     28.3794
  2238.8000      7.8930      2.4875      0.0082      9.8495     92.5619     28.0424
  2238.9000      7.8930      2.5173      0.0670      8.0411     87.7958     27.7085
  2239.0000      7.8856      2.5438      0.0420      6.4354     86.6316     27.2773
  2239.1000      7.8856      2.5631      0.0500      5.2686     87.5750     26.6865
  2239.2000      7.8856      2.5768      0.0317      4.4388     89.5138     26.1061
  2239.3000      7.8932      2.5870      0.0361      3.8199     89.0499     25.8305
  2239.4000      7.8932      2.5893      0.0899      3.6815     85.9375     26.0303
  2239.5000      7.9385      2.5765      0.0289      4.4559     85.1147     26.6020
