~Version Information
 VERS.                                  2.0 : CWLS LAS VERSION
 WRAP.                                   NO : WRAPING MODE
 SWARE .                 MController 2.5.0I : SOFTWARE VERSION
~Well Information
 WELL.                       Montoya 13-41v : WELL
 COMP.                        Pertogulf Corp: COMPANY
 FLD.                      Pergatorie River : FIELD
 LOC.                NE/NE Sec 13 T33S R68W : LOCATION
 DATE.                           8/16-17/04 : DATE(S) LOGGED
 SRVC.       Blanco Geological Services LLC : SERVICE COMPANY
 STAT.                                   CO : STATE
 CNTY.                           Las Animas : COUNTY
 CTRY.                                  USA : COUNTRY
 API.                       05-071-08021-00 : API NUMBER
 STRT.FT                             767.00 : START DEPTH
 STOP.FT                            2499.00 : STOP DEPTH
 STEP.FT                               1.00 : DEPTH INCREMENT
 NULL.                                -9999 : NULL VALUE
~Curve information
 DEPTH.FT                                   :
 ROP.MIN/FT                                 :
 GAS.UNITS                                  :
~ASCII Log data
# ...
      1367.0          0.3          8.7 
      1368.0          0.3          8.5 
      1369.0          0.3          8.5 
      1370.0          0.4          9.1 
      1371.0          0.3          9.3 
      1372.0          0.3          9.4 
      1373.0          0.3          9.3 
      1374.0          0.3          9.3 
      1375.0          0.3          9.1 
      1376.0          0.3          8.5 
      1377.0          0.3          8.9 
      1378.0          0.3          8.7 
      1379.0          0.3         18.5 
      1380.0          3.9         57.6 
      1381.0          0.2         17.7 
      1382.0          0.4         13.1 
      1383.0          0.3         10.3 
      1384.0          0.3          8.2 
      1385.0          0.4          9.4 
      1386.0          0.5         11.0 
      1387.0          0.4         11.0 
      1388.0          0.4         10.5 
      1389.0          0.4         10.1 
      1390.0          0.3          9.5 
      1391.0          0.3          9.4 
      1392.0          0.3          9.4 
      1393.0          0.3          9.6 
      1394.0          0.3          9.4 
      1395.0          0.3          8.9 
      1396.0          0.3          9.0 
      1397.0          0.3          8.9 
      1398.0          0.3          9.1 
      1399.0          0.3          9.3 
      1400.0          0.3          9.1 
      1401.0          0.2          8.8 
      1402.0          0.2          8.7 
      1403.0          0.2          8.5 
      1404.0          0.2          8.3 
      1405.0          0.2          8.3 
      1406.0          0.3          8.4 
      1407.0          0.4          8.6 
      1408.0          0.4         14.0 
      1409.0          0.2         16.2 
      1410.0          3.3         16.9 
      1411.0          0.5         13.8 
      1412.0          0.8         11.5 
      1413.0          0.8         13.8 
      1414.0          0.4         10.9 
      1415.0          0.3          9.2 
      1416.0          0.3          8.7 
      1417.0          0.4          8.9 
      1418.0          0.5          9.5 
      1419.0          0.6          9.7 
      1420.0          0.4          9.6 
      1421.0          0.4          8.9 
      1422.0          0.4          8.4 
      1423.0          0.3          8.4 
      1424.0          0.4          8.8 
      1425.0          0.4          9.3 
      1426.0          0.4          8.8 
      1427.0          0.4          8.3 
      1428.0          0.4          8.1 
      1429.0          0.3          7.9 
      1430.0          0.3          8.2 
      1431.0          0.3          8.3 
      1432.0          0.2          8.2 
      1433.0          0.3          8.3 
      1434.0          0.4          8.6 
      1435.0          0.4          8.2 
      1436.0          0.4          8.3 
      1437.0          0.3          8.3 
      1438.0          0.2          8.3 
      1439.0          0.4         17.0 
      1440.0          5.3         45.7 
      1441.0          0.5          7.5 
      1442.0          0.6          5.9 
      1443.0          0.5         10.1 
      1444.0          0.4         11.4 
      1445.0          0.3         11.5 
      1446.0          0.2         10.6 
      1447.0          0.5          9.7 
      1448.0          0.3          9.1 
      1449.0          0.4          9.3 
      1450.0          0.4          9.1 
      1451.0          0.4          9.0 
      1452.0          0.4          8.1 
      1453.0          0.3          7.9 
      1454.0          0.3          8.2 
      1455.0          0.2          8.4 
      1456.0          0.3          8.2 
      1457.0          0.3          8.3 
      1458.0          0.3          8.1 
      1459.0          0.3          7.7 
      1460.0          0.3          7.8 
      1461.0          0.3          7.9 
      1462.0          0.2          8.0 
      1463.0          0.2          7.9 
      1464.0          0.2          8.4 
      1465.0          0.2          8.4 
      1466.0          0.3          8.3 
      1467.0          0.4          8.8 
      1468.0          0.4         19.5 
      1469.0          0.2         17.3 
      1470.0          4.5         41.8 
      1471.0          0.5          7.0 
      1472.0          0.5          8.5 
      1473.0          0.2          8.8 
      1474.0          0.4          8.5 
      1475.0          0.5          8.8 
      1476.0          0.4          8.8 
      1477.0          0.4          8.3 
      1478.0          0.4          7.5 
      1479.0          0.3          7.3 
      1480.0          0.4          7.2 
      1481.0          0.4          7.2 
      1482.0          0.4          7.0 
      1483.0          0.4          6.8 
      1484.0          0.4          7.1 
      1485.0          0.3          7.1 
      1486.0          0.4          7.1 
      1487.0          0.4          7.3 
      1488.0          0.5          7.1 
      1489.0          0.5          7.1 
      1490.0          0.5          6.9 
      1491.0          0.5          6.9 
      1492.0          0.4          7.0 
      1493.0          0.4          7.1 
      1494.0          0.4          7.5 
      1495.0          0.4          7.1 
      1496.0          0.4          7.3 
      1497.0          0.4         17.3 
      1498.0          0.3         16.9 
      1499.0          0.1          8.6 
      1500.0          3.7         46.5 
      1501.0          0.6          7.6 
      1502.0          0.7          6.2 
      1503.0          0.6          7.8 
      1504.0          0.5          7.9 
      1505.0          0.5          8.0 
      1506.0          0.4          7.9 
      1507.0          0.4          7.5 
      1508.0          0.2          6.5 
      1509.0          0.3          6.2 
      1510.0          0.4          6.1 
      1511.0          0.7          5.8 
      1512.0          0.8          6.8 
      1513.0          0.5          6.6 
      1514.0          0.3          5.7 
      1515.0          0.3          5.8 
      1516.0          0.3          6.0 
      1517.0          0.2          6.2 
      1518.0          0.4          6.5 
      1519.0          0.4          7.0 
      1520.0          0.5          7.1 
      1521.0          0.4          6.8 
      1522.0          0.3          6.4 
      1523.0          0.3          6.4 
      1524.0          0.3          6.7 
      1525.0          0.3          6.7 
      1526.0          0.3          6.6 
      1527.0          0.3          8.4 
      1528.0          0.3         16.9 
      1529.0          0.2         16.3 
      1530.0          3.7         36.2 
      1531.0          0.5         10.2 
      1532.0          0.8          5.7 
      1533.0          0.5          6.9 
      1534.0          0.1          7.2 
      1535.0          0.7          7.8 
      1536.0          0.5          7.8 
      1537.0          0.5          7.1 
      1538.0          0.6          6.3 
      1539.0          0.5          6.1 
      1540.0          0.4          5.8 
      1541.0          0.4          5.6 
      1542.0          0.3          5.5 
      1543.0          0.3          5.3 
      1544.0          0.3          5.4 
      1545.0          0.3          5.6 
      1546.0          0.3          5.4 
      1547.0          0.3          5.5 
      1548.0          0.3          5.7 
      1549.0          0.3          5.8 
      1550.0          0.3          5.8 
      1551.0          0.3          5.7 
      1552.0          0.4          5.8 
      1553.0          0.6          5.7 
      1554.0          0.4          5.8 
      1555.0          0.3          5.8 
      1556.0          0.3          5.8 
      1557.0          0.3          5.8 
      1558.0          0.3          5.9 
      1559.0          0.4         13.8 
      1560.0          4.8         54.2 
      1561.0          0.6          5.0 
      1562.0          0.6          3.9 
      1563.0          0.7          4.9 
      1564.0          0.6          7.3 
      1565.0          0.4          7.7 
      1566.0          0.3          7.6 
