~Version Information
VERS.                      2.0: CWLS Log ASCII Standard - VERSION 2.0
WRAP.                       NO: One line per depth step
~Well Information Block
STRT.FT                -8.8000: 
STOP.FT              2006.2000: 
STEP.FT                 0.1000: 
NULL.                -999.2500: 
COMP.          Petrogulf Corporation: COMPANY
WELL.             J & P 12-33V: WELL
FLD.           Purgatorie River: FIELD
LOC.           2005' FSL & 1928' FEL: LOCATION
CNTY.               Las Animas: COUNTY
SRVC.                         : SERVICE COMPANY
DATE.          Fri Jul 29 13:37:28 2005: LOG DATE
UWI.                          : UNIQUE WELL ID
STAT.                 Colorado: STATE
~Curve Information Block
DEPT.FT            0 000 00 00: Depth
GR.GAPI                       : Gamma Ray
CCL.                          : Casing Collar Locator
TT3.usec                      : CBL 3' Travel Time
AMP3.mV                       : CBL 3' Amplitude
~Parameter Information Block
~A  Depth        GR         CCL         TT3         AMP3    
# ...
   393.2000    126.2940      0.0000    255.2194     81.6987
   393.3000    124.7140      0.0000    255.2158     81.7109
   393.4000    124.7140      0.0000    255.2158     81.7109
   393.5000    121.8406      0.0000    255.2384     81.6724
   393.6000    121.8406      0.0000    255.2384     81.6724
   393.7000    121.8406      0.0000    255.2384     81.6724
   393.8000    118.5711      0.0000    255.2782     81.5398
   393.9000    118.5711      0.0000    255.2782     81.5398
   394.0000    115.6208      0.0000    255.3030     81.5382
   394.1000    115.6208      0.0000    255.3030     81.5382
   394.2000    115.6208      0.0000    255.3030     81.5382
   394.3000    113.0579      0.0000    255.2970     81.7779
   394.4000    113.0579      0.0000    255.2970     81.7779
   394.5000    111.0035      0.0000    255.2766     82.0704
   394.6000    111.0035      0.0000    255.2766     82.0704
   394.7000    111.0035      0.0000    255.2766     82.0704
   394.8000    110.0996      0.0000    255.2661     82.1976
   394.9000    110.0996      0.0000    255.2661     82.1976
   395.0000    110.7071      0.0000    255.2692     82.1357
   395.1000    110.7071      0.0000    255.2692     82.1357
   395.2000    110.7071      0.0000    255.2692     82.1357
   395.3000    111.8767      0.0000    255.2697     82.0137
   395.4000    111.8767      0.0000    255.2697     82.0137
   395.5000    111.7560      0.0000    255.2571     81.9838
   395.6000    111.7560      0.0000    255.2571     81.9838
   395.7000    111.7560      0.0000    255.2571     81.9838
   395.8000    109.3715      0.0000    255.2423     82.1006
   395.9000    109.3715      0.0000    255.2423     82.1006
   396.0000    105.8607      0.0000    255.2392     82.2759
   396.1000    105.8607      0.0000    255.2392     82.2759
   396.2000    105.8607      0.0000    255.2392     82.2759
   396.3000    103.5772      0.0000    255.2468     82.3916
   396.4000    103.5772      0.0000    255.2468     82.3916
   396.5000    104.0690      0.0000    255.2582     82.4137
   396.6000    104.0690      0.0000    255.2582     82.4137
   396.7000    104.0690      0.0000    255.2582     82.4137
   396.8000    107.1446      0.0000    255.2731     82.3387
   396.9000    107.1446      0.0000    255.2731     82.3387
   397.0000    111.4953      0.0000    255.2908     82.1759
   397.1000    111.4953      0.0000    255.2908     82.1759
   397.2000    111.4953      0.0000    255.2908     82.1759
   397.3000    115.6348      0.0000    255.3059     82.0253
   397.4000    115.6348      0.0000    255.3059     82.0253
   397.5000    118.2110      0.0000    255.3204     81.9541
   397.6000    118.2110      0.0000    255.3204     81.9541
   397.7000    118.2110      0.0000    255.3204     81.9541
   397.8000    117.9963      0.0000    255.3394     81.8966
   397.9000    117.9963      0.0000    255.3394     81.8966
   398.0000    114.3324      0.0000    255.3439     81.8725
   398.1000    114.3324      0.0000    255.3439     81.8725
   398.2000    114.3324      0.0000    255.3439     81.8725
   398.3000    107.9833      0.0000    255.3118     82.0025
   398.4000    107.9833      0.0000    255.3118     82.0025
   398.5000    101.2570      0.0000    255.2619     82.2167
   398.6000    101.2570      0.0000    255.2619     82.2167
   398.7000    101.2570      0.0000    255.2619     82.2167
   398.8000     96.7909      0.0000    255.2336     82.3213
   398.9000     96.7909      0.0000    255.2336     82.3213
   399.0000     96.0424      0.0000    255.2419     82.2706
   399.1000     96.0424      0.0000    255.2419     82.2706
   399.2000     96.0424      0.0000    255.2419     82.2706
   399.3000     98.6580      0.0000    255.2720     82.1506
   399.4000     98.6580      0.0000    255.2720     82.1506
   399.5000    102.8079      0.0000    255.2998     82.0245
   399.6000    102.8079      0.0000    255.2998     82.0245
   399.7000    102.8079      0.0000    255.2998     82.0245
   399.8000    106.1620      0.0000    255.3116     81.8914
   399.9000    106.1620      0.0000    255.3116     81.8914
   400.0000    107.1009      0.0000    255.3120     81.7822
   400.1000    107.1009      0.0000    255.3120     81.7822
   400.2000    107.1009      0.0000    255.3120     81.7822
   400.3000    105.4109      0.0000    255.3139     81.7883
   400.4000    105.4109      0.0000    255.3139     81.7883
   400.5000    102.0899      0.0000    255.3229     81.9301
   400.6000    102.0899      0.0000    255.3229     81.9301
   400.7000    102.0899      0.0000    255.3229     81.9301
   400.8000     98.5928      0.0000    255.3350     82.1145
   400.9000     98.5928      0.0000    255.3350     82.1145
   401.0000     95.9024      0.0000    255.3444     82.2741
   401.1000     95.9024      0.0000    255.3444     82.2741
   401.2000     95.9024      0.0000    255.3444     82.2741
   401.3000     93.8971      0.0000    255.3490     82.4137
   401.4000     93.8971      0.0000    255.3490     82.4137
   401.5000     91.6387      0.0000    255.3525     82.5075
   401.6000     91.6387      0.0000    255.3525     82.5075
   401.7000     91.6387      0.0000    255.3525     82.5075
   401.8000     88.3752      0.0000    255.3643     82.4860
   401.9000     88.3752      0.0000    255.3643     82.4860
   402.0000     84.0789      0.0000    255.3871     82.3387
   402.1000     84.0789      0.0000    255.3871     82.3387
   402.2000     84.0789      0.0000    255.3871     82.3387
   402.3000     79.2242      0.0000    255.4062     82.1342
   402.4000     79.2242      0.0000    255.4062     82.1342
   402.5000     74.6578      0.0000    255.4102     81.9417
   402.6000     74.6578      0.0000    255.4102     81.9417
   402.7000     74.6578      0.0000    255.4102     81.9417
   402.8000     71.6497      0.0000    255.4142     81.7792
   402.9000     71.6497      0.0000    255.4142     81.7792
   403.0000     71.1952      0.0000    255.4393     81.6248
   403.1000     71.1952      0.0000    255.4393     81.6248
   403.2000     71.1952      0.0000    255.4393     81.6248
   403.3000     72.7227      0.0000    255.4738     81.4675
   403.4000     72.7227      0.0000    255.4738     81.4675
   403.5000     73.8989      0.0000    255.4847     81.3489
   403.6000     73.8989      0.0000    255.4847     81.3489
   403.7000     73.8989      0.0000    255.4847     81.3489
   403.8000     72.2636      0.0000    255.4657     81.3310
   403.9000     72.2636      0.0000    255.4657     81.3310
   404.0000     67.1913      0.0000    255.4441     81.3752
   404.1000     67.1913      0.0000    255.4441     81.3752
   404.2000     67.1913      0.0000    255.4441     81.3752
   404.3000     60.2595      0.0000    255.4399     81.3797
   404.4000     60.2595      0.0000    255.4399     81.3797
   404.5000     53.9103      0.0000    255.4373     81.4052
   404.6000     53.9103      0.0000    255.4373     81.4052
   404.7000     53.9103      0.0000    255.4373     81.4052
   404.8000     49.8569      0.0000    255.4163     81.5704
   404.9000     49.8569      0.0000    255.4163     81.5704
   405.0000     48.3913      0.0000    255.3922     81.7639
   405.1000     48.3913      0.0000    255.3922     81.7639
   405.2000     48.3913      0.0000    255.3922     81.7639
   405.3000     48.7239      0.0000    255.3943     81.8329
   405.4000     48.7239      0.0000    255.3943     81.8329
   405.5000     49.8888      0.0000    255.4207     81.8447
   405.6000     49.8888      0.0000    255.4207     81.8447
   405.7000     49.8888      0.0000    255.4207     81.8447
   405.8000     51.4508      0.0000    255.4442     81.9007
   405.9000     51.4508      0.0000    255.4442     81.9007
   406.0000     53.3809      0.0000    255.4485     81.9859
   406.1000     53.3809      0.0000    255.4485     81.9859
   406.2000     53.3809      0.0000    255.4485     81.9859
   406.3000     55.4760      0.0000    255.4406     82.0486
   406.4000     55.4760      0.0000    255.4406     82.0486
   406.5000     57.1896      0.0000    255.4333     82.0337
