~Version Information
VERS.                      2.0: CWLS Log ASCII Standard - VERSION 2.0
WRAP.                       NO: One line per depth step
~Well Information Block
STRT.FT               664.0000: 
STOP.FT              1113.5000: 
STEP.FT                 0.1000: 
NULL.                -999.2500: 
COMP.          Petrogulf Corporation: COMPANY
WELL.          Great Plains 22-21R: WELL
FLD.           Purgatorie River: FIELD
LOC.           73' FNL & 1992' FWL: LOCATION
PROV.                 Colorado: PROVINCE
CNTY.               Las Animas: COUNTRY
SRVC.                Patterson: SERVICE COMPANY
DATE.          Thu Sep 08 08:02:28 2005: LOG DATE
UWI.                          : UNIQUE WELL ID
~Curve Information Block
DEPT.FT            0 000 00 00: Depth
DCAL.in                       : CDL Caliper
RHOB.g/cc                     : CDL Bulk Density
RHOC.g/cc                     : CDL Density Correction
DPOR.pu                       : CDL Density Porosity
GR.GAPI                       : Gamma Ray
NPOR.pu                       : Neutron Porosity
~Parameter Information Block
~A  Depth       DCAL        RHOB        RHOC        DPOR         GR         NPOR    
# ...
  1096.0000      7.9330      2.6092      0.0686      2.4755    272.8281     46.4310
  1096.1000      7.9330      2.5929      0.0773      3.4635    285.5934   -999.2500
  1096.2000      7.9330      2.5748      0.0652      4.5567    307.8851   -999.2500
  1096.3000      7.9112      2.5705      0.0865      4.8167    334.9524   -999.2500
  1096.4000      7.9112      2.5824      0.0866      4.0951    357.2414   -999.2500
  1096.5000      7.8887      2.6065      0.0878      2.6381    365.7497   -999.2500
  1096.6000      7.8887      2.6374      0.1305      0.7634    363.0525   -999.2500
  1096.7000      7.8887      2.6549      0.1516     -0.2961    359.3681   -999.2500
  1096.8000      7.8715      2.6464      0.0977      0.2161    357.7555   -999.2500
  1096.9000      7.8715      2.6362      0.0566      0.8386    353.7846   -999.2500
  1097.0000      7.8530      2.6439      0.1145      0.3704    344.8750   -999.2500
  1097.1000      7.8530      2.6527      0.1441     -0.1638    334.5300   -999.2500
  1097.2000      7.8530      2.6444      0.1047      0.3376    323.5984   -999.2500
  1097.3000      7.8528      2.6250      0.0932      1.5130    305.3088   -999.2500
  1097.4000      7.8528      2.6072      0.0781      2.5910    279.2718   -999.2500
  1097.5000      7.8879      2.5960      0.0784      3.2713    256.3120   -999.2500
  1097.6000      7.8879      2.5860      0.0639      3.8766    240.4505   -999.2500
  1097.7000      7.8879      2.5741      0.0167      4.6022    225.4965   -999.2500
  1097.8000      7.9322      2.5715      0.0026      4.7596    207.5176   -999.2500
  1097.9000      7.9322      2.5807      0.0571      4.1983    188.2780   -999.2500
  1098.0000      7.9362      2.5921      0.0007      3.5075    170.3712   -999.2500
  1098.1000      7.9362      2.6015      0.0850      2.9367    153.1301   -999.2500
  1098.2000      7.9362      2.6054      0.0615      2.7048    139.2689   -999.2500
  1098.3000      7.9299      2.6065      0.0996      2.6360    133.0075   -999.2500
  1098.4000      7.9299      2.6086      0.0916      2.5079    131.5135   -999.2500
  1098.5000      7.9032      2.6121      0.0852      2.2990    129.7739   -999.2500
  1098.6000      7.9032      2.6185      0.0994      1.9088    126.8077   -999.2500
  1098.7000      7.9032      2.6210      0.1302      1.7591    122.7332   -999.2500
  1098.8000      7.8743      2.6126      0.0852      2.2649    116.6925   -999.2500
  1098.9000      7.8743      2.6042      0.0788      2.7787    109.7754   -999.2500
  1099.0000      7.8753      2.6039      0.0318      2.7940    104.9191   -999.2500
  1099.1000      7.8753      2.6038      0.0857      2.8026    103.9308   -999.2500
  1099.2000      7.8753      2.6019      0.0328      2.9133    106.0780   -999.2500
  1099.3000      7.9067      2.6063      0.0952      2.6464    108.2479   -999.2500
  1099.4000      7.9067      2.6129      0.1079      2.2478    107.8321   -999.2500
  1099.5000      7.8986      2.6201      0.0302      1.8120    105.1229   -999.2500
  1099.6000      7.8986      2.6319      0.0353      1.0945    102.1843   -999.2500
  1099.7000      7.8986      2.6395      0.0654      0.6376    101.9545   -999.2500
  1099.8000      7.8970      2.6352      0.0630      0.8943    104.1754   -999.2500
  1099.9000      7.8970      2.6275      0.0274      1.3613    105.6051   -999.2500
  1100.0000      7.9064      2.6299      0.0743      1.2166    107.2685   -999.2500
  1100.1000      7.9064      2.6425      0.0724      0.4526    110.8397   -999.2500
  1100.2000      7.9064      2.6481      0.0970      0.1167    113.5723   -999.2500
  1100.3000      7.9178      2.6313      0.1000      1.1361    115.0739   -999.2500
  1100.4000      7.9178      2.5965      0.0483      3.2439    116.0165   -999.2500
  1100.5000      7.9232      2.5626      0.0350      5.2991    115.9722   -999.2500
  1100.6000      7.9232      2.5397      0.0453      6.6834    116.5279   -999.2500
  1100.7000      7.9232      2.5287      0.0633      7.3487    118.2233   -999.2500
  1100.8000      7.9044      2.5286      0.0612      7.3585    120.4742   -999.2500
  1100.9000      7.9044      2.5316      0.0500      7.1736    121.5289   -999.2500
  1101.0000      7.9165      2.5345      0.0805      7.0017    112.9875   -999.2500
  1101.1000      7.9165      2.5437      0.0693      6.4422     84.5440   -999.2500
  1101.2000      7.9165      2.5630      0.1145      5.2727     43.8302   -999.2500
  1101.3000      7.8758      2.5844      0.1374      3.9750     14.0179   -999.2500
  1101.4000      7.8758      2.5976      0.1322      3.1751      2.5734   -999.2500
  1101.5000      7.9106      2.5971      0.1626      3.2085      0.2602   -999.2500
  1101.6000      7.9106      2.5800      0.1291      4.2404      0.0138   -999.2500
  1101.7000      7.9106      2.5538      0.0756      5.8292      0.0000   -999.2500
  1101.8000      7.9478      2.5344      0.0789      7.0072   -999.2500   -999.2500
  1101.9000      7.9478      2.5301      0.0645      7.2691   -999.2500   -999.2500
  1102.0000      7.9707      2.5313      0.0941      7.1915   -999.2500   -999.2500
  1102.1000      7.9707      2.5190      0.0820      7.9419   -999.2500   -999.2500
  1102.2000      7.9707      2.4945      0.0420      9.4273   -999.2500   -999.2500
  1102.3000      7.9939      2.4780      0.0586     10.4264   -999.2500   -999.2500
  1102.4000      7.9939      2.4792      0.0702     10.3533   -999.2500   -999.2500
  1102.5000      8.0397      2.4952      0.0761      9.3805   -999.2500   -999.2500
  1102.6000      8.0397      2.5187      0.0582      7.9546   -999.2500   -999.2500
  1102.7000      8.0397      2.5418      0.0900      6.5586   -999.2500   -999.2500
  1102.8000      8.1257      2.5574      0.0998      5.6114   -999.2500   -999.2500
  1102.9000      8.1257      2.5637      0.0819      5.2332   -999.2500   -999.2500
  1103.0000      8.1124      2.5659      0.0791      5.0942   -999.2500   -999.2500
  1103.1000      8.1124      2.5730      0.0945      4.6663   -999.2500   -999.2500
  1103.2000      8.1124      2.5912      0.0797      3.5645   -999.2500   -999.2500
  1103.3000      8.0897      2.6119      0.1280      2.3064   -999.2500   -999.2500
  1103.4000      8.0897      2.6111      0.1186      2.3571   -999.2500   -999.2500
  1103.5000      8.0513      2.5871      0.0265      3.8139   -999.2500   -999.2500
  1103.6000      8.0513      2.5723     -0.0021      4.7078   -999.2500   -999.2500
  1103.7000      8.0513      2.5855      0.0488      3.9091   -999.2500   -999.2500
  1103.8000      7.9985      2.6072      0.0949      2.5929   -999.2500   -999.2500
  1103.9000      7.9985      2.6137      0.1103      2.1988   -999.2500   -999.2500
  1104.0000      7.9744      2.6021      0.1027      2.9024   -999.2500   -999.2500
  1104.1000      7.9744      2.5836      0.0652      4.0224   -999.2500   -999.2500
  1104.2000      7.9744      2.5702      0.0813      4.8351   -999.2500   -999.2500
  1104.3000      7.9684      2.5643      0.0756      5.1936   -999.2500   -999.2500
  1104.4000      7.9684      2.5630      0.0673      5.2718   -999.2500   -999.2500
  1104.5000      8.0057      2.5693      0.0483      4.8929   -999.2500   -999.2500
  1104.6000      8.0057      2.5842      0.0937      3.9909   -999.2500   -999.2500
  1104.7000      8.0057      2.5967      0.1240      3.2288   -999.2500   -999.2500
  1104.8000      7.9907      2.5939      0.1084      3.3992   -999.2500   -999.2500
  1104.9000      7.9907      2.5775      0.0661      4.3965   -999.2500   -999.2500
  1105.0000      7.9907      2.5650      0.0228      5.1505   -999.2500   -999.2500
  1105.1000      7.9907      2.5662      0.0468      5.0791   -999.2500   -999.2500
  1105.2000      7.9907      2.5687      0.0661      4.9275   -999.2500   -999.2500
  1105.3000      7.9993      2.5622      0.0847      5.3241   -999.2500   -999.2500
  1105.4000      7.9993      2.5576      0.0651      5.6012   -999.2500   -999.2500
  1105.5000      7.9667      2.5691      0.0553      4.9040   -999.2500   -999.2500
