~Version Information
VERS.                      2.0: CWLS Log ASCII Standard - VERSION 2.0
WRAP.                       NO: One line per depth step
~Well Information Block
STRT.FT               418.4000: 
STOP.FT              1170.0000: 
STEP.FT                 0.1000: 
NULL.                -999.2500: 
COMP.          Evergreen Operating Corporation: COMPANY
WELL.             Bernice 21-3: WELL
FLD.           Purgatoire River: FIELD
LOC.           201' FNL & 2575' FWL: LOCATION
PROV.                 Colorado: PROVINCE
CNTY.               Las Animas: COUNTRY
SRVC.                Patterson: SERVICE COMPANY
DATE.          Mon Jan 26 14:55:16 2004: LOG DATE
UWI.             05 071 07912 : UNIQUE WELL ID
~Curve Information Block
DEPT.FT            0 000 00 00: Depth
DCAL.in                       : CDL Caliper
RHOB.g/cc                     : CDL Bulk Density
RHOC.g/cc                     : CDL Density Correction
DPOR.pu                       : CDL Density Porosity
NPOR.pu                       : Neutron Porosity
GR.GAPI                       : Gamma Ray
~Parameter Information Block
~A  Depth       DCAL        RHOB        RHOC        DPOR        NPOR         GR     
# ...
   428.0000   -999.2500   -999.2500   -999.2500   -999.2500     45.1336    110.4549
   428.1000   -999.2500   -999.2500   -999.2500   -999.2500     45.5859    106.2937
   428.2000   -999.2500   -999.2500   -999.2500   -999.2500     45.7883    105.9372
   428.3000   -999.2500   -999.2500   -999.2500   -999.2500     45.7279    107.9787
   428.4000   -999.2500   -999.2500   -999.2500   -999.2500     45.5346    106.7254
   428.5000   -999.2500   -999.2500   -999.2500   -999.2500     45.3905    103.5631
   428.6000   -999.2500   -999.2500   -999.2500   -999.2500     45.4243    100.6201
   428.7000   -999.2500   -999.2500   -999.2500   -999.2500     45.4502     97.1878
   428.8000   -999.2500   -999.2500   -999.2500   -999.2500     45.3594     93.7400
   428.9000   -999.2500   -999.2500   -999.2500   -999.2500     45.3550     89.9400
   429.0000   -999.2500   -999.2500   -999.2500   -999.2500     45.4581     85.2376
   429.1000   -999.2500   -999.2500   -999.2500   -999.2500     45.4506     83.0924
   429.2000   -999.2500   -999.2500   -999.2500   -999.2500     45.2858     86.8399
   429.3000   -999.2500   -999.2500   -999.2500   -999.2500     45.2304     92.8552
   429.4000   -999.2500   -999.2500   -999.2500   -999.2500     45.3902     95.9459
   429.5000   -999.2500   -999.2500   -999.2500   -999.2500     45.5253     96.2665
   429.6000   -999.2500   -999.2500   -999.2500   -999.2500     45.5092     97.2967
   429.7000   -999.2500   -999.2500   -999.2500   -999.2500     45.5582     99.8520
   429.8000   -999.2500   -999.2500   -999.2500   -999.2500     45.7668    100.8728
   429.9000   -999.2500   -999.2500   -999.2500   -999.2500     45.8176    100.1863
   430.0000   -999.2500   -999.2500   -999.2500   -999.2500     45.4605    100.0746
   430.1000   -999.2500   -999.2500   -999.2500   -999.2500     44.9154    100.7388
   430.2000   -999.2500   -999.2500   -999.2500   -999.2500     44.7007    101.7680
   430.3000   -999.2500   -999.2500   -999.2500   -999.2500     44.8640    101.9308
   430.4000   -999.2500   -999.2500   -999.2500   -999.2500     44.7697     98.9070
   430.5000   -999.2500   -999.2500   -999.2500   -999.2500     44.2833     93.3752
   430.6000   -999.2500   -999.2500   -999.2500   -999.2500     43.8146     89.6992
   430.7000   -999.2500   -999.2500   -999.2500   -999.2500     43.3321     90.7766
   430.8000   -999.2500   -999.2500   -999.2500   -999.2500     42.7344     92.9880
   430.9000   -999.2500   -999.2500   -999.2500   -999.2500     42.3725     90.5864
   431.0000   -999.2500   -999.2500   -999.2500   -999.2500     42.3591     83.2190
   431.1000   -999.2500   -999.2500   -999.2500   -999.2500     42.5689     77.6919
   431.2000   -999.2500   -999.2500   -999.2500   -999.2500     42.9748     78.6368
   431.3000   -999.2500   -999.2500   -999.2500   -999.2500     43.2453     81.1381
   431.4000   -999.2500   -999.2500   -999.2500   -999.2500     43.0770     80.6809
   431.5000   -999.2500   -999.2500   -999.2500   -999.2500     42.7162     77.8749
   431.6000   -999.2500   -999.2500   -999.2500   -999.2500     42.5744     76.0678
   431.7000   -999.2500   -999.2500   -999.2500   -999.2500     42.6759     78.1877
   431.8000      8.3706   -999.2500     -0.3736   -999.2500     42.9019     79.1805
   431.9000      8.3706   -999.2500     -0.3170   -999.2500     43.2122     74.1889
   432.0000      8.3733   -999.2500     -0.3449   -999.2500     43.4772     67.3727
   432.1000      8.3733   -999.2500     -0.3964   -999.2500     43.3988     63.5353
   432.2000      8.3733   -999.2500     -0.3229   -999.2500     42.9223     62.0033
   432.3000      8.3727      2.5186     -0.3374      7.9611     42.3850     61.6441
   432.4000      8.3727      2.5416     -0.2818      6.5719     42.1413     64.6054
   432.5000      8.3706      2.5541     -0.3378      5.8092     42.2331     69.7223
   432.6000      8.3706      2.5553     -0.3284      5.7399     42.4110     71.9649
   432.7000      8.3706      2.5531     -0.3068      5.8748     42.5248     70.2110
   432.8000      8.3668      2.5544     -0.3171      5.7929     42.6980     67.1217
   432.9000      8.3668      2.5647     -0.2936      5.1684     42.9551     64.8485
   433.0000      8.3721      2.5831     -0.3280      4.0567     43.0189     63.3438
   433.1000      8.3721      2.6004     -0.2952      3.0082     42.7984     62.3271
   433.2000      8.3721      2.6037     -0.2794      2.8065     42.5733     62.6990
   433.3000      8.3736      2.5992     -0.3465      3.0791     42.4224     64.4817
   433.4000      8.3736      2.6048     -0.2782      2.7379     42.2831     65.4869
   433.5000      8.3732      2.6151     -0.2807      2.1142     42.3334     64.8390
   433.6000      8.3732      2.6160     -0.2810      2.0607     42.6249     65.3075
   433.7000      8.3732      2.6193     -0.3309      1.8636     42.8651     66.7279
   433.8000      8.3751      2.6391     -0.2384      0.6576     42.7701     65.4296
   433.9000      8.3751      2.6601     -0.2903     -0.6151     42.6704     62.6958
   434.0000      8.3737      2.6626     -0.2496     -0.7644     42.9816     61.5870
   434.1000      8.3737      2.6442     -0.2285      0.3526     43.4104     61.2878
   434.2000      8.3737      2.6220     -0.3102      1.6981     43.7417     60.0411
   434.3000      8.3720      2.6060     -0.2427      2.6672     44.1881     58.7799
   434.4000      8.3720      2.5824     -0.2907      4.0983     44.8501     60.5581
   434.5000      8.3766      2.5499     -0.3184      6.0644     45.5022     65.9812
   434.6000      8.3766      2.5260     -0.3348      7.5142     45.7934     72.3371
   434.7000      8.3766      2.5237     -0.3724      7.6532     45.5345     78.6116
   434.8000      8.3756      2.5353     -0.3211      6.9529     44.9356     84.7491
   434.9000      8.3756      2.5387     -0.3284      6.7443     44.5079     89.8441
   435.0000      8.3739      2.5272     -0.3412      7.4453     44.4053     93.2561
   435.1000      8.3739      2.5132     -0.3590      8.2907     44.4037     94.6877
   435.2000      8.3739      2.5121     -0.3092      8.3563     44.3926     95.9861
   435.3000      8.3737      2.5305     -0.3231      7.2402     44.3119     96.6054
   435.4000      8.3737      2.5585     -0.2542      5.5459     44.1767     92.9224
   435.5000      8.3790      2.5774     -0.2533      4.3970     44.1158     88.7878
   435.6000      8.3790      2.5915     -0.3372      3.5425     44.0772     90.3318
   435.7000      8.3790      2.6127     -0.2696      2.2609     44.0285     93.5528
   435.8000      8.3757      2.6268     -0.2370      1.4033     44.1329     92.3467
   435.9000      8.3757      2.6244     -0.2962      1.5510     44.3110     87.8623
   436.0000      8.3724      2.6179     -0.2626      1.9484     44.3097     83.8987
   436.1000      8.3724      2.6107     -0.2414      2.3800     44.2267     80.9904
   436.2000      8.3724      2.5983     -0.3395      3.1357     44.3373     78.0626
   436.3000      8.3723      2.5831     -0.3095      4.0521     44.3732     74.2259
   436.4000      8.3723      2.5618     -0.2680      5.3435     44.0050     69.0982
   436.5000      8.3659      2.5342     -0.3371      7.0177     43.5225     63.5948
   436.6000      8.3659      2.5138     -0.3132      8.2528     43.2929     58.8651
   436.7000      8.3659      2.5034     -0.3134      8.8835     43.0921     56.3795
   436.8000      8.3424      2.4942     -0.3048      9.4395     42.5701     55.7697
   436.9000      8.3424      2.4885     -0.2931      9.7896     41.9156     52.8950
   437.0000      8.3636      2.4994     -0.3137      9.1290     41.4477     47.7551
   437.1000      8.3636      2.5280     -0.2716      7.3950     41.3752     44.8279
   437.2000      8.3636      2.5590     -0.2649      5.5171     41.6384     45.3010
   437.3000      8.3717      2.5747     -0.2165      4.5606     41.7672     47.9328
   437.4000      8.3717      2.5633     -0.2364      5.2554     41.6653     52.8702
   437.5000      8.3755      2.5276     -0.2540      7.4185     41.6321     59.3652
