~Version Information
VERS.                      2.0: CWLS Log ASCII Standard - VERSION 2.0
WRAP.                       NO: One line per depth step
~Well Information Block
STRT.FT               768.0000: 
STOP.FT              2637.5000: 
STEP.FT                 0.2500: 
NULL.                -999.2500: 
COMP.          Pioneer Natural Resources: COMPANY
WELL.               Zink 44-10: WELL
FLD.           Purgatoire River: FIELD
LOC.           548' FSL & 473' FEL: LOCATION
PROV.                 Colorado: PROVINCE
CNTY.               Las Animas: COUNTRY
SRVC.                Patterson: SERVICE COMPANY
DATE.          Mon May 30 05:59:42 2005: LOG DATE
UWI.           05 071 08380 00: UNIQUE WELL ID
~Curve Information Block
DEPT.FT            0 000 00 00: Depth
SN.Ohm-m                      : IEL Short Normal
SP.mV                         : IEL Spontaneous Potential
DIR.Ohm-m                     : IEL Induction Resistivity
GR.GAPI                       : Gamma Ray
~Parameter Information Block
~A  Depth        SN          SP         DIR          GR     
# ...
  1270.5000   2000.0000   2000.0000     21.1799    127.1129
  1270.7500   2000.0000   2000.0000     20.1235    126.0602
  1271.0000   2000.0000   2000.0000     19.1384    125.0418
  1271.2500   2000.0000   2000.0000     18.2614    126.2340
  1271.5000   2000.0000   2000.0000     17.5126    132.1881
  1271.7500   2000.0000   2000.0000     16.8927    138.3742
  1272.0000   2000.0000   2000.0000     16.3877    148.2468
  1272.2500   2000.0000   2000.0000     15.9760    153.5129
  1272.5000   2000.0000   2000.0000     15.6349    157.7653
  1272.7500   2000.0000   2000.0000     15.3459    158.2163
  1273.0000   2000.0000   2000.0000     15.0966    156.8113
  1273.2500   2000.0000   2000.0000     14.8799    155.6838
  1273.5000   2000.0000   2000.0000     14.6924    155.2570
  1273.7500   2000.0000   2000.0000     14.5324    156.0494
  1274.0000   2000.0000   2000.0000     14.3995    158.1355
  1274.2500   2000.0000   2000.0000     14.2941    159.4725
  1274.5000   2000.0000   2000.0000     14.2182    160.7909
  1274.7500   2000.0000   2000.0000     14.1771    161.2465
  1275.0000   2000.0000   2000.0000     14.1793    161.3539
  1275.2500   2000.0000   2000.0000     14.2314    160.8404
  1275.5000   2000.0000   2000.0000     14.3274    158.9698
  1275.7500   2000.0000   2000.0000     14.4425    157.2990
  1276.0000   2000.0000   2000.0000     14.5393    155.2414
  1276.2500   2000.0000   2000.0000     14.5863    154.7182
  1276.5000   2000.0000   2000.0000     14.5745    155.5202
  1276.7500   2000.0000   2000.0000     14.5210    156.9141
  1277.0000   2000.0000   2000.0000     14.4605    159.5159
  1277.2500   2000.0000   2000.0000     14.4336    161.0803
  1277.5000   2000.0000   2000.0000     14.4735    162.3730
  1277.7500   2000.0000   2000.0000     14.5956    162.0103
  1278.0000   2000.0000   2000.0000     14.7945    158.7859
  1278.2500   2000.0000   2000.0000     15.0529    154.7885
  1278.5000   2000.0000   2000.0000     15.3567    147.2168
  1278.7500   2000.0000   2000.0000     15.7029    142.3150
  1279.0000   2000.0000   2000.0000     16.0949    136.9774
  1279.2500   2000.0000   2000.0000     16.5303    135.2355
  1279.5000   2000.0000   2000.0000     16.9930    135.0501
  1279.7500   2000.0000   2000.0000     17.4560    135.8202
  1280.0000   2000.0000   2000.0000     17.8931    136.4568
  1280.2500   2000.0000   2000.0000     18.2919    135.5400
  1280.5000   2000.0000   2000.0000     18.6589    131.6727
  1280.7500   2000.0000   2000.0000     19.0105    128.0036
  1281.0000   2000.0000   2000.0000     19.3560    122.5180
  1281.2500   2000.0000   2000.0000     19.6852    119.7148
  1281.5000   2000.0000   2000.0000     19.9718    117.4727
  1281.7500   2000.0000   2000.0000     20.1882    117.1677
  1282.0000   2000.0000   2000.0000     20.3194    117.7784
  1282.2500   2000.0000   2000.0000     20.3658    118.6387
  1282.5000   2000.0000   2000.0000     20.3383    121.1147
  1282.7500   2000.0000   2000.0000     20.2558    124.2854
  1283.0000   2000.0000   2000.0000     20.1442    132.0893
  1283.2500   2000.0000   2000.0000     20.0322    138.7822
  1283.5000   2000.0000   2000.0000     19.9408    148.3907
  1283.7500   2000.0000   2000.0000     19.8770    152.7486
  1284.0000   2000.0000   2000.0000     19.8395    154.6618
  1284.2500   2000.0000   2000.0000     19.8291    153.1659
  1284.5000   2000.0000   2000.0000     19.8535    148.5491
  1284.7500   2000.0000   2000.0000     19.9174    144.8937
  1285.0000   2000.0000   2000.0000     20.0086    139.3488
  1285.2500   2000.0000   2000.0000     20.0958    135.5563
  1285.5000   2000.0000   2000.0000     20.1438    129.1840
  1285.7500   2000.0000   2000.0000     20.1313    124.2412
  1286.0000   2000.0000   2000.0000     20.0560    116.2413
  1286.2500   2000.0000   2000.0000     19.9252    111.4180
  1286.5000   2000.0000   2000.0000     19.7424    106.6972
  1286.7500   2000.0000   2000.0000     19.5030    105.7006
  1287.0000   2000.0000   2000.0000     19.1983    107.0589
  1287.2500   2000.0000   2000.0000     18.8235    109.3513
  1287.5000   2000.0000   2000.0000     18.3860    114.2391
  1287.7500   2000.0000   2000.0000     17.9105    118.3922
  1288.0000   2000.0000   2000.0000     17.4372    125.9456
  1288.2500   2000.0000   2000.0000     17.0099    131.4152
  1288.5000   2000.0000   2000.0000     16.6607    138.4233
  1288.7500   2000.0000   2000.0000     16.3985    141.2257
  1289.0000   2000.0000   2000.0000     16.2104    142.2987
  1289.2500   2000.0000   2000.0000     16.0756    141.6514
  1289.5000   2000.0000   2000.0000     15.9845    140.1819
  1289.7500   2000.0000   2000.0000     15.9479    139.3037
  1290.0000   2000.0000   2000.0000     15.9917    137.6421
  1290.2500   2000.0000   2000.0000     16.1430    135.5411
  1290.5000   2000.0000   2000.0000     16.4200    130.2640
  1290.7500   2000.0000   2000.0000     16.8331    126.0625
  1291.0000   2000.0000   2000.0000     17.3912    121.1643
  1291.2500   2000.0000   2000.0000     18.1050    119.6554
  1291.5000   2000.0000   2000.0000     18.9834    119.0289
  1291.7500   2000.0000   2000.0000     20.0264    118.3399
  1292.0000   2000.0000   2000.0000     21.2219    115.4726
  1292.2500   2000.0000   2000.0000     22.5523    112.5380
  1292.5000   2000.0000   2000.0000     24.0047    107.7148
  1292.7500   2000.0000   2000.0000     25.5728    104.4964
  1293.0000   2000.0000   2000.0000     27.2423     99.1102
  1293.2500   2000.0000   2000.0000     28.9612     94.7112
  1293.5000   2000.0000   2000.0000     30.6106     87.0559
  1293.7500   2000.0000   2000.0000     32.0083     81.8961
  1294.0000   2000.0000   2000.0000     32.9600     75.0039
  1294.2500   2000.0000   2000.0000     33.3331     70.8853
  1294.5000   2000.0000   2000.0000     33.0957     64.5503
  1294.7500   2000.0000   2000.0000     32.3035     59.9942
  1295.0000   2000.0000   2000.0000     31.0731     53.5996
  1295.2500   2000.0000   2000.0000     29.5650     50.7695
  1295.5000   2000.0000   2000.0000     27.9533     50.6697
  1295.7500   2000.0000   2000.0000     26.3751     54.1398
  1296.0000   2000.0000   2000.0000     24.8919     64.8932
  1296.2500   2000.0000   2000.0000     23.4942     75.1030
  1296.5000   2000.0000   2000.0000     22.1450     92.5476
  1296.7500   2000.0000   2000.0000     20.8240    103.8649
  1297.0000   2000.0000   2000.0000     19.5402    118.0027
  1297.2500   2000.0000   2000.0000     18.3153    124.8697
  1297.5000   2000.0000   2000.0000     17.1651    131.5063
  1297.7500   2000.0000   2000.0000     16.0989    134.1898
  1298.0000   2000.0000   2000.0000     15.1280    137.1086
  1298.2500   2000.0000   2000.0000     14.2681    138.8823
  1298.5000   2000.0000   2000.0000     13.5337    141.4517
  1298.7500   2000.0000   2000.0000     12.9324    143.0612
  1299.0000   2000.0000   2000.0000     12.4629    145.5137
  1299.2500   2000.0000   2000.0000     12.1160    147.2878
  1299.5000   2000.0000   2000.0000     11.8756    149.8909
  1299.7500   2000.0000   2000.0000     11.7186    151.2492
  1300.0000   2000.0000   2000.0000     11.6170    152.2958
  1300.2500   2000.0000   2000.0000     11.5443    152.2211
  1300.5000   2000.0000   2000.0000     11.4823    150.6435
  1300.7500   2000.0000   2000.0000     11.4272    148.3242
  1301.0000   2000.0000   2000.0000     11.3875    142.9233
  1301.2500   2000.0000   2000.0000     11.3758    138.6756
  1301.5000   2000.0000   2000.0000     11.3970    133.0908
  1301.7500   2000.0000   2000.0000     11.4424    130.6111
  1302.0000   2000.0000   2000.0000     11.4931    128.7604
  1302.2500   2000.0000   2000.0000     11.5310    128.2404
  1302.5000   2000.0000   2000.0000     11.5492    127.3742
  1302.7500   2000.0000   2000.0000     11.5534    126.2458
  1303.0000   2000.0000   2000.0000     11.5530    123.9028
  1303.2500   2000.0000   2000.0000     11.5521    122.7503
  1303.5000   2000.0000   2000.0000     11.5460    123.4253
  1303.7500   2000.0000   2000.0000     11.5278    125.8962
