~Version Information
VERS.                      2.0: CWLS Log ASCII Standard - VERSION 2.0
WRAP.                       NO: One line per depth step
~Well Information Block
STRT.FT               757.3000: 
STOP.FT              2418.0000: 
STEP.FT                 0.1000: 
NULL.                -999.2500: 
COMP.          Petrogulf Corporation: COMPANY
WELL.            Montoya 7-21V: WELL
FLD.           Purgatorie River: FIELD
LOC.           738' FSL & 2070' FWL: LOCATION
CNTY.               Las Animas: COUNTY
SRVC.                         : SERVICE COMPANY
DATE.          Fri Aug 20 14:08:15 2004: LOG DATE
UWI.           05 071 08018 00: UNIQUE WELL ID
STAT.                 Colorado: STATE
~Curve Information Block
DEPT.FT            0 000 00 00: Depth
DCAL.in                       : CDL Caliper
RHOB.g/cc                     : CDL Bulk Density
RHOC.g/cc                     : CDL Density Correction
DPOR.pu                       : CDL Density Porosity
GR.GAPI                       : Gamma Ray
NPOR.pu                       : Neutron Porosity
~Parameter Information Block
~A  Depth       DCAL        RHOB        RHOC        DPOR         GR         NPOR    
# ...
  1112.5000      8.3664      2.5491     -0.0040      6.1155    168.4814     24.6189
  1112.6000      8.3664      2.5448     -0.0114      6.3765    159.7952     24.6735
  1112.7000      8.3664      2.5472      0.0092      6.2278    150.4256     24.8861
  1112.8000      8.3721      2.5658      0.0418      5.1007    144.2614     24.8981
  1112.9000      8.3721      2.5900      0.0428      3.6342    141.9798     24.5882
  1113.0000      8.3779      2.6008      0.0796      2.9814    139.5194     24.5292
  1113.1000      8.3779      2.5880      0.0523      3.7595    135.7730     24.8406
  1113.2000      8.3779      2.5567      0.0424      5.6561    137.0634     25.0931
  1113.3000      8.3704      2.5226      0.0322      7.7197    148.6733     24.9924
  1113.4000      8.3704      2.5055     -0.0179      8.7566    159.4148     24.7923
  1113.5000      8.3551      2.5164     -0.0214      8.0956    159.2536     24.6974
  1113.6000      8.3551      2.5407      0.0071      6.6242    153.1569     24.4646
  1113.7000      8.3551      2.5497      0.0355      6.0760    146.0616     24.2196
  1113.8000      8.3439      2.5359     -0.0006      6.9124    141.8790     24.0845
  1113.9000      8.3439      2.5218     -0.0248      7.7680    145.6931     23.7380
  1114.0000      8.3400      2.5269      0.0095      7.4580    154.8080     23.6189
  1114.1000      8.3400      2.5374      0.0670      6.8216    160.1261     24.3183
  1114.2000      8.3400      2.5325      0.0085      7.1236    161.0788     24.7471
  1114.3000      8.3417      2.5211     -0.0268      7.8119    165.8971     23.8090
  1114.4000      8.3417      2.5234     -0.0253      7.6740    180.0414     22.7199
  1114.5000      8.3454      2.5352      0.0303      6.9561    193.2970     22.6858
  1114.6000      8.3454      2.5360     -0.0045      6.9081    191.0861     23.1260
  1114.7000      8.3454      2.5295     -0.0287      7.3020    180.2495     23.4668
  1114.8000      8.3466      2.5343     -0.0245      7.0119    177.8116     23.4722
  1114.9000      8.3466      2.5473      0.0002      6.2215    183.0883     22.9485
  1115.0000      8.3455      2.5571      0.0110      5.6289    185.7513     22.6252
  1115.1000      8.3455      2.5683      0.0261      4.9502    184.1478     23.1806
  1115.2000      8.3455      2.5839      0.0452      4.0084    181.5113     23.7897
  1115.3000      8.3433      2.5901      0.0312      3.6278    180.4966     23.7914
  1115.4000      8.3433      2.5835     -0.0095      4.0276    183.5890     23.6357
  1115.5000      8.3381      2.5754      0.0135      4.5190    188.3786     23.7682
  1115.6000      8.3381      2.5736     -0.0156      4.6298    188.4415     23.9006
  1115.7000      8.3381      2.5837     -0.0079      4.0184    182.4600     23.4668
  1115.8000      8.3342      2.6004      0.0298      3.0032    178.4101     22.7738
  1115.9000      8.3342      2.6053      0.0473      2.7120    177.5745     22.4719
  1116.0000      8.3303      2.5884      0.0248      3.7321    172.2360     22.6331
  1116.1000      8.3303      2.5569      0.0176      5.6435    163.5698     23.0705
  1116.2000      8.3303      2.5197      0.0030      7.8977    157.3381     23.9543
  1116.3000      8.3265      2.4777      0.0049     10.4415    153.7650     25.2326
  1116.4000      8.3265      2.4365     -0.0837     12.9418    152.6413     26.0049
  1116.5000      8.3224      2.4109     -0.0801     14.4934    154.1650     25.5532
  1116.6000      8.3224      2.4081     -0.0483     14.6577    157.3412     24.4362
  1116.7000      8.3224      2.4275     -0.0113     13.4832    161.7912     23.8208
  1116.8000      8.3245      2.4669      0.0330     11.0983    165.9068     24.1322
  1116.9000      8.3245      2.5168      0.1097      8.0701    167.5791     24.8476
  1117.0000      8.3298      2.5565      0.1662      5.6687    166.2729     25.1213
  1117.1000      8.3298      2.5724      0.1305      4.7000    162.3647     24.3575
  1117.2000      8.3298      2.5741      0.1029      4.6029    159.1548     22.8093
  1117.3000      8.3209      2.5749      0.1007      4.5517    158.9919     21.6289
  1117.4000      8.3209      2.5790      0.0721      4.3023    155.9244     21.6796
  1117.5000      8.3112      2.5806      0.1347      4.2031    144.0509     22.4352
  1117.6000      8.3112      2.5683      0.0896      4.9494    128.6277     22.3623
  1117.7000      8.3112      2.5408      0.0715      6.6201    120.3237     20.7836
  1117.8000      8.3037      2.5104      0.0318      8.4594    119.2717     18.9006
  1117.9000      8.3037      2.4946      0.0219      9.4186    116.3683     18.1903
  1118.0000      8.2928      2.4982      0.0541      9.2015    109.7237     18.5057
  1118.1000      8.2928      2.5056      0.0692      8.7485    103.1015     18.7175
  1118.2000      8.2928      2.4995      0.0557      9.1220     93.5246     18.4999
  1118.3000      8.2764      2.4848     -0.0413     10.0128     79.1574     18.0048
  1118.4000      8.2764      2.4734      0.0366     10.7019     67.3619     16.9174
  1118.5000      8.2673      2.4574     -0.0085     11.6706     63.4666     15.5203
  1118.6000      8.2673      2.4358     -0.0072     12.9793     63.7190     14.9013
  1118.7000      8.2673      2.4224      0.0010     13.7953     63.8355     15.2954
  1118.8000      8.2677      2.4225     -0.0057     13.7887     64.5949     15.9114
  1118.9000      8.2677      2.4318     -0.0032     13.2219     65.0500     16.4225
  1119.0000      8.2618      2.4462      0.0038     12.3495     63.1455     16.6829
  1119.1000      8.2618      2.4652     -0.0001     11.2008     58.9670     16.4262
  1119.2000      8.2618      2.4856      0.0368      9.9657     54.1480     15.9493
  1119.3000      8.2516      2.4981      0.0552      9.2082     50.5787     15.4016
  1119.4000      8.2516      2.4998      0.0459      9.1031     49.1644     14.8776
  1119.5000      8.2447      2.4995      0.0445      9.1212     50.7129     14.6578
  1119.6000      8.2447      2.5034      0.0371      8.8825     57.0597     14.8286
  1119.7000      8.2447      2.5084      0.0294      8.5791     62.8722     14.8974
  1119.8000      8.2373      2.5070      0.0738      8.6676     58.2538     14.2396
  1119.9000      8.2373      2.4984      0.0072      9.1882     46.6320     13.2033
  1120.0000      8.2311      2.4954     -0.0157      9.3667     37.1261     12.8834
  1120.1000      8.2311      2.5045      0.0080      8.8211     32.2862     13.2801
  1120.2000      8.2311      2.5176      0.0195      8.0242     31.6995     13.2797
  1120.3000      8.2287      2.5232      0.0397      7.6851     33.5167     12.3606
  1120.4000      8.2287      2.5168     -0.0360      8.0728     36.2706     11.3728
  1120.5000      8.2273      2.5100      0.0048      8.4854     38.1933     11.1684
  1120.6000      8.2273      2.5083      0.0474      8.5902     38.1959     11.4068
  1120.7000      8.2273      2.5035      0.0287      8.8792     38.8391     11.8128
  1120.8000      8.2233      2.4932      0.0143      9.5017     41.8986     12.6809
  1120.9000      8.2233      2.4870     -0.0042      9.8765     44.1680     13.7006
  1121.0000      8.2231      2.4895      0.0308      9.7270     43.3945     14.1747
  1121.1000      8.2231      2.4906      0.0451      9.6633     42.0367     14.3491
  1121.2000      8.2231      2.4891      0.0025      9.7533     40.9818     14.9192
  1121.3000      8.2280      2.4948      0.0271      9.4071     39.1510     15.9544
  1121.4000      8.2280      2.5068      0.0099      8.6799     37.4779     16.6404
  1121.5000      8.2225      2.5177      0.0488      8.0178     39.0758     16.0016
  1121.6000      8.2225      2.5265      0.0309      7.4855     44.0952     14.4911
  1121.7000      8.2225      2.5380      0.0370      6.7898     48.0925     13.3441
  1121.8000      8.2092      2.5492      0.0506      6.1121     49.5531     12.7853
  1121.9000      8.2092      2.5531      0.0425      5.8738     52.6483     12.4290
  1122.0000      8.1988      2.5536      0.0182      5.8450     60.5129     12.1016
