~Version Information
VERS.                      2.0: CWLS Log ASCII Standard - VERSION 2.0
WRAP.                       NO: One line per depth step
~Well Information Block
STRT.FT               260.0000: 
STOP.FT              1199.2000: 
STEP.FT                 0.1000: 
NULL.                -999.2500: 
COMP.          Evergreen Operating Corporation: COMPANY
WELL.             Justin 32-10: WELL
FLD.           Purgatorie River: FIELD
LOC.           2994' FNL & 1449' FEL: LOCATION
PROV.                 Colorado: PROVINCE
CNTY.               Las Animas: COUNTRY
SRVC.                         : SERVICE COMPANY
DATE.          Mon Aug 30 07:14:35 2004: LOG DATE
UWI.           05 071 08053 00: UNIQUE WELL ID
~Curve Information Block
DEPT.FT            0 000 00 00: Depth
LTEN.lb                       : Surface Line Tension
DCAL.in                       : CDL Caliper
RHOB.g/cc                     : CDL Bulk Density
RHOC.g/cc                     : CDL Density Correction
DPOR.pu                       : CDL Density Porosity
GR.GAPI                       : Gamma Ray
NPOR.pu                       : Neutron Porosity
~Parameter Information Block
~A  Depth       LTEN        DCAL        RHOB        RHOC        DPOR         GR         NPOR    
# ...
   570.8000    899.8435      8.0346      2.5296      0.0553      7.2997    122.8893     23.5514
   570.9000    899.8435      8.0346      2.5326      0.0313      7.1144    115.9003     23.6439
   571.0000    861.0582      8.0293      2.5318      0.0262      7.1665    110.2674     23.9117
   571.1000    861.0582      8.0293      2.5285      0.0579      7.3662    107.7563     24.0448
   571.2000    861.0582      8.0293      2.5186      0.0205      7.9611    109.1758     23.8511
   571.3000    850.3732      8.0480      2.5070      0.0054      8.6684    114.2034     23.5824
   571.4000    850.3732      8.0480      2.5016      0.0118      8.9951    118.6771     23.4321
   571.5000    885.8340      8.0480      2.4997      0.0268      9.1091    120.6250     23.1785
   571.6000    885.8340      8.0480      2.4932      0.0185      9.5059    121.0797     22.7437
   571.7000    885.8340      8.0480      2.4857      0.0037      9.9585    120.7830     22.3488
   571.8000    911.9050      8.0620      2.4852     -0.0030      9.9862    121.4398     22.0826
   571.9000    911.9050      8.0620      2.4835      0.0222     10.0901    121.7396     21.8599
   572.0000    905.4684      8.0276      2.4755     -0.0246     10.5763    117.3863     21.8326
   572.1000    905.4684      8.0276      2.4751      0.0019     10.6018    110.3236     22.0258
   572.2000    905.4684      8.0276      2.4883      0.0612      9.8018    105.5729     21.7182
   572.3000    902.6044      8.0287      2.5028      0.0892      8.9226    102.0424     20.5534
   572.4000    902.6044      8.0287      2.5059      0.0530      8.7326     97.3722     19.4409
   572.5000    851.3806      8.0296      2.4964      0.0367      9.3114     93.1655     19.1729
   572.6000    851.3806      8.0296      2.4849      0.0235     10.0057     92.1476     19.3462
   572.7000    851.3806      8.0296      2.4861      0.0028      9.9358     95.6566     19.3401
   572.8000    853.2028      8.0323      2.4979      0.0572      9.2191    100.9607     19.3242
   572.9000    853.2028      8.0323      2.5031      0.0606      8.9054    104.8999     19.6104
   573.0000    861.8054      8.0658      2.4953      0.0697      9.3738    108.1744     19.9545
   573.1000    861.8054      8.0658      2.4831      0.0631     10.1134    112.1101     20.2391
   573.2000    861.8054      8.0658      2.4737      0.0645     10.6868    113.2170     20.7587
   573.3000    926.3810      8.0358      2.4667      0.0315     11.1097    106.1626     21.7001
   573.4000    926.3810      8.0358      2.4661      0.0265     11.1427     94.4057     22.6699
   573.5000    940.2439      8.0401      2.4782      0.0685     10.4148     88.3076     23.0650
   573.6000    940.2439      8.0401      2.4933      0.0750      9.4990     90.6880     23.1033
   573.7000    940.2439      8.0401      2.4987      0.0681      9.1715     95.7931     23.3410
   573.8000    884.4625      8.0585      2.5004      0.0472      9.0642    101.6306     23.7349
   573.9000    884.4625      8.0585      2.5064      0.0798      8.7049    107.9257     24.0274
   574.0000    877.0616      8.0517      2.5074      0.0882      8.6421    110.7335     24.2939
   574.1000    877.0616      8.0517      2.5014      0.0506      9.0063    111.2214     24.4497
   574.2000    877.0616      8.0517      2.5006      0.0550      9.0526    113.2156     24.1249
   574.3000    875.0524      8.0527      2.5088      0.0500      8.5555    114.7708     23.5367
   574.4000    875.0524      8.0527      2.5186      0.0562      7.9652    113.0532     23.2142
   574.5000    927.0096      8.0357      2.5178      0.0867      8.0145    109.8674     22.9999
   574.6000    927.0096      8.0357      2.5017      0.0573      8.9894    109.5210     22.5661
   574.7000    927.0096      8.0357      2.4846      0.0088     10.0251    114.9971     21.9053
   574.8000    916.4566      8.0383      2.4803      0.0437     10.2860    122.2391     21.2576
   574.9000    916.4566      8.0383      2.4822      0.0486     10.1708    121.3267     20.9815
   575.0000    906.4379      8.0360      2.4782      0.0276     10.4104    111.9549     20.8280
   575.1000    906.4379      8.0360      2.4635      0.0341     11.3048    104.3137     20.4019
   575.2000    906.4379      8.0360      2.4419      0.0231     12.6111    104.3728     19.9953
   575.3000    922.3736      8.0535      2.4286      0.0177     13.4179    109.8379     19.7769
   575.4000    922.3736      8.0535      2.4310      0.0535     13.2724    114.3150     19.7720
   575.5000    891.6373      8.0562      2.4406      0.0694     12.6939    112.5640     20.3565
   575.6000    891.6373      8.0562      2.4558      0.0932     11.7689    107.1419     21.1350
   575.7000    891.6373      8.0562      2.4782      0.1533     10.4105    102.9173     20.9748
   575.8000    933.5847      8.0289      2.4947      0.1568      9.4124     97.6964     19.9922
   575.9000    933.5847      8.0289      2.4992      0.1565      9.1394     89.2891     19.1729
   576.0000    923.2614      8.0438      2.5000      0.1891      9.0893     80.0818     18.6432
   576.1000    923.2614      8.0438      2.5017      0.1518      8.9884     72.6490     18.0381
   576.2000    923.2614      8.0438      2.5046      0.1672      8.8107     69.4374     17.4371
   576.3000    945.3110      8.0377      2.5055      0.1593      8.7581     70.5878     17.2220
   576.4000    945.3110      8.0377      2.4992      0.1211      9.1395     73.5029     17.5648
   576.5000    882.8659      8.0389      2.4856      0.1060      9.9632     76.9263     18.0552
   576.6000    882.8659      8.0389      2.4764      0.0724     10.5213     80.5303     18.0347
   576.7000    882.8659      8.0389      2.4798      0.1362     10.3125     82.3165     17.5539
   576.8000    892.2307      8.0165      2.4794      0.1020     10.3386     81.1931     17.3862
   576.9000    892.2307      8.0165      2.4594      0.0973     11.5507     77.5252     17.8506
   577.0000    909.5314      8.0287      2.4289      0.0522     13.3970     73.9595     18.3867
   577.1000    909.5314      8.0287      2.4078      0.0612     14.6776     73.8377     18.4133
   577.2000    909.5314      8.0287      2.4028      0.0404     14.9843     77.0453     17.9082
   577.3000    876.5801      8.0407      2.4053      0.0596     14.8317     80.3957     17.3266
   577.4000    876.5801      8.0407      2.4085      0.0463     14.6357     80.7307     17.1406
   577.5000    877.2002      8.0335      2.4124      0.0656     14.4004     77.3957     17.3589
   577.6000    877.2002      8.0335      2.4166      0.0448     14.1440     72.8637     17.6786
   577.7000    877.2002      8.0335      2.4194      0.0869     13.9772     69.5806     17.8614
   577.8000    896.1910      8.0404      2.4217      0.0562     13.8366     67.3322     17.9330
   577.9000    896.1910      8.0404      2.4302      0.0625     13.3199     64.4466     17.9112
   578.0000    894.8467      8.0379      2.4441      0.0862     12.4804     61.9296     17.6417
   578.1000    894.8467      8.0379      2.4503      0.1095     12.1040     62.2992     17.0419
   578.2000    894.8467      8.0379      2.4472      0.0753     12.2918     64.5310     16.4056
   578.3000    908.4532      8.0423      2.4461      0.0524     12.3578     66.5024     16.2586
   578.4000    908.4532      8.0423      2.4438      0.0910     12.4954     68.2756     16.5557
   578.5000    887.1868      8.0416      2.4284      0.0752     13.4320     67.6493     16.6582
   578.6000    887.1868      8.0416      2.4047      0.0355     14.8662     62.4257     16.4310
   578.7000    887.1868      8.0416      2.3889      0.0278     15.8250     56.7460     16.2875
   578.8000    862.0256      8.0609      2.3906      0.0363     15.7201     55.2523     16.4624
   578.9000    862.0256      8.0609      2.4088      0.0724     14.6185     57.6227     16.7913
   579.0000    887.8512      8.0447      2.4324      0.0690     13.1891     60.8416     16.7234
   579.1000    887.8512      8.0447      2.4452      0.1066     12.4104     61.2776     16.3267
