~Version Information
VERS.                      2.0: CWLS Log ASCII Standard - VERSION 2.0
WRAP.                       NO: One line per depth step
~Well Information Block
STRT.FT               757.3000: 
STOP.FT              2418.0000: 
STEP.FT                 0.1000: 
NULL.                -999.2500: 
COMP.          Petrogulf Corporation: COMPANY
WELL.            Montoya 7-21V: WELL
FLD.           Purgatorie River: FIELD
LOC.           738' FSL & 2070' FWL: LOCATION
CNTY.               Las Animas: COUNTY
SRVC.                         : SERVICE COMPANY
DATE.          Fri Aug 20 14:08:15 2004: LOG DATE
UWI.           05 071 08018 00: UNIQUE WELL ID
STAT.                 Colorado: STATE
~Curve Information Block
DEPT.FT            0 000 00 00: Depth
DCAL.in                       : CDL Caliper
RHOB.g/cc                     : CDL Bulk Density
RHOC.g/cc                     : CDL Density Correction
DPOR.pu                       : CDL Density Porosity
GR.GAPI                       : Gamma Ray
NPOR.pu                       : Neutron Porosity
~Parameter Information Block
~A  Depth       DCAL        RHOB        RHOC        DPOR         GR         NPOR    
# ...
   891.7000      8.3581      2.5439      0.0321      6.4325    135.8890     20.6289
   891.8000      8.3457      2.5327     -0.0220      7.1087    130.6962     20.0011
   891.9000      8.3457      2.5317      0.0327      7.1724    121.1570     18.8244
   892.0000      8.3391      2.5285      0.0116      7.3663    109.6162     17.5202
   892.1000      8.3391      2.5270     -0.0185      7.4566    102.1591     16.3895
   892.2000      8.3391      2.5341      0.0146      7.0213    101.0417     15.5439
   892.3000      8.3442      2.5407      0.0285      6.6228    101.4016     14.8422
   892.4000      8.3442      2.5329      0.0360      7.0978     99.1789     14.2675
   892.5000      8.3496      2.5123      0.0042      8.3438     95.7070     14.0137
   892.6000      8.3496      2.4960     -0.0139      9.3329     93.5107     14.1737
   892.7000      8.3496      2.4919      0.0185      9.5826     91.7586     14.6237
   892.8000      8.3441      2.4895      0.0186      9.7301     89.8138     14.9551
   892.9000      8.3441      2.4811     -0.0130     10.2383     90.7768     15.0398
   893.0000      8.3300      2.4734     -0.0118     10.7046     94.0698     15.0870
   893.1000      8.3300      2.4708     -0.0198     10.8592     94.4028     15.1376
   893.2000      8.3300      2.4683      0.0124     11.0116     88.2551     15.1186
   893.3000      8.3170      2.4633      0.0043     11.3174     76.6997     14.8798
   893.4000      8.3170      2.4544      0.0286     11.8519     68.1180     14.2863
   893.5000      8.3028      2.4412     -0.0478     12.6550     67.9099     13.5912
   893.6000      8.3028      2.4324     -0.0208     13.1901     72.5273     13.2723
   893.7000      8.3028      2.4292      0.0237     13.3839     76.6596     13.5635
   893.8000      8.2920      2.4187      0.0175     14.0206     78.1618     14.1109
   893.9000      8.2920      2.3992     -0.0294     15.2006     80.7610     14.5486
   894.0000      8.2900      2.3838     -0.0329     16.1335     84.3765     15.1178
   894.1000      8.2900      2.3799     -0.0172     16.3716     82.6099     16.1111
   894.2000      8.2900      2.3810      0.0192     16.3059     74.4414     17.0356
   894.3000      8.2944      2.3777      0.0058     16.5017     65.1864     17.1432
   894.4000      8.2944      2.3677     -0.0094     17.1074     62.5318     16.8987
   894.5000      8.3042      2.3527     -0.0181     18.0176     66.2899     17.2614
   894.6000      8.3042      2.3435     -0.0220     18.5759     69.2172     17.7469
   894.7000      8.3042      2.3547     -0.0218     17.8980     68.3724     17.3851
   894.8000      8.3124      2.3798      0.0197     16.3742     62.8229     16.6763
   894.9000      8.3124      2.3985      0.0481     15.2425     55.1871     16.5056
   895.0000      8.3127      2.4036      0.0630     14.9329     52.2051     16.6458
   895.1000      8.3127      2.4009      0.0433     15.0940     55.8503     16.4672
   895.2000      8.3127      2.3981      0.0426     15.2688     61.3907     16.0207
   895.3000      8.3187      2.3954      0.0432     15.4302     64.2297     15.8106
   895.4000      8.3187      2.3918      0.0319     15.6507     63.3862     16.1167
   895.5000      8.3290      2.3947     -0.0047     15.4719     61.0268     16.7669
   895.6000      8.3290      2.4054      0.0310     14.8243     61.5319     17.3856
   895.7000      8.3290      2.4114      0.0421     14.4580     65.4771     17.4907
   895.8000      8.3321      2.4076      0.0142     14.6936     67.4204     16.8648
   895.9000      8.3321      2.3996      0.0569     15.1775     65.2045     16.0466
   896.0000      8.3277      2.3984     -0.0081     15.2481     62.2865     15.5794
   896.1000      8.3277      2.4125      0.0450     14.3920     60.5240     15.4062
   896.2000      8.3277      2.4288      0.0859     13.4076     59.8517     15.3556
   896.3000      8.3136      2.4359      0.0502     12.9728     58.6479     15.6301
   896.4000      8.3136      2.4445      0.0859     12.4523     56.0150     16.4567
   896.5000      8.3013      2.4554      0.0894     11.7948     53.7796     17.6383
   896.6000      8.3013      2.4534      0.0925     11.9171     55.1963     18.8191
   896.7000      8.3013      2.4366      0.0742     12.9326     62.4812     19.4900
   896.8000      8.2948      2.4238      0.0315     13.7074     73.2427     18.8697
   896.9000      8.2948      2.4220      0.0628     13.8162     80.3926     17.2728
   897.0000      8.2917      2.4173      0.0332     14.1003     77.9289     15.9141
   897.1000      8.2917      2.4006      0.0552     15.1134     69.6354     15.2921
   897.2000      8.2917      2.3796      0.0297     16.3893     64.7475     15.3741
   897.3000      8.2961      2.3717      0.0058     16.8654     65.9943     16.2854
   897.4000      8.2961      2.3777      0.0451     16.5025     68.0154     17.5508
   897.5000      8.3062      2.3830      0.0334     16.1801     65.6102     18.1199
   897.6000      8.3062      2.3889      0.0678     15.8215     59.3729     17.7505
   897.7000      8.3062      2.4084      0.0425     14.6403     52.8859     17.0618
   897.8000      8.3090      2.4439      0.0943     12.4904     50.5977     16.7335
   897.9000      8.3090      2.4785      0.1316     10.3923     56.2956     16.8403
   898.0000      8.3057      2.4949      0.1573      9.4029     67.7675     17.1148
   898.1000      8.3057      2.4929      0.1181      9.5204     77.3767     17.3388
   898.2000      8.3057      2.4782      0.1371     10.4099     80.3388     17.3147
   898.3000      8.3026      2.4533      0.1028     11.9214     80.4510     17.0070
   898.4000      8.3026      2.4321      0.0444     13.2079     84.1789     16.3686
   898.5000      8.2973      2.4314      0.0559     13.2470     91.4787     15.5299
   898.6000      8.2973      2.4458      0.0632     12.3741     96.8498     15.1080
   898.7000      8.2973      2.4548      0.0856     11.8326     92.9796     15.2895
   898.8000      8.2883      2.4494      0.0397     12.1589     82.2913     15.5384
   898.9000      8.2883      2.4370      0.0177     12.9106     75.6783     15.6498
   899.0000      8.2867      2.4252      0.0218     13.6250     74.3149     15.6339
   899.1000      8.2867      2.4162      0.0258     14.1690     75.2527     15.3839
   899.2000      8.2867      2.4105      0.0235     14.5158     76.3621     15.0272
   899.3000      8.2908      2.4067     -0.0026     14.7449     73.6905     14.6857
   899.4000      8.2908      2.4056      0.0217     14.8145     67.6975     14.2637
   899.5000      8.2912      2.4131      0.0168     14.3551     64.1468     13.9000
   899.6000      8.2912      2.4290      0.0538     13.3928     66.2648     13.8648
   899.7000      8.2912      2.4388      0.0603     12.7987     69.8075     14.1029
   899.8000      8.2942      2.4354      0.0165     13.0071     70.3106     14.4767
   899.9000      8.2942      2.4281      0.0314     13.4509     68.1358     14.7524
   900.0000      8.2986      2.4280     -0.0377     13.4551     66.3945     14.8926
   900.1000      8.2986      2.4336      0.0422     13.1142     67.0563     15.0072
   900.2000      8.2986      2.4318      0.0360     13.2230     68.4171     14.9927
   900.3000      8.2947      2.4180      0.0342     14.0633     69.2877     14.8282
   900.4000      8.2947      2.4005     -0.0039     15.1223     70.0952     14.7752
   900.5000      8.2938      2.3891      0.0028     15.8096     69.8242     14.9015
   900.6000      8.2938      2.3896     -0.0147     15.7809     67.6488     14.7658
   900.7000      8.2938      2.4005      0.0234     15.1213     64.9442     14.3656
   900.8000      8.2991      2.4110      0.0486     14.4828     63.6070     14.2247
   900.9000      8.2991      2.4166      0.0323     14.1446     60.6383     14.1681
   901.0000      8.2898      2.4226      0.0476     13.7833     55.2187     13.6254
   901.1000      8.2898      2.4289      0.0182     13.4028     55.4915     13.0112
   901.2000      8.2898      2.4315      0.0321     13.2446     63.7194     13.0288
