~Version Information
VERS.                      2.0: CWLS Log ASCII Standard - VERSION 2.0
WRAP.                       NO: One line per depth step
~Well Information Block
STRT.FT               241.5000: 
STOP.FT              2340.7500: 
STEP.FT                 0.2500: 
NULL.                -999.2500: 
COMP.          Petrogulf Corporation: COMPANY
WELL.            Montoya 1-24V: WELL
FLD.           Purgatorie River: FIELD
LOC.           605' FSL & 2557' FWL: LOCATION
CNTY.               Las Animas: COUNTY
SRVC.                         : SERVICE COMPANY
DATE.          Tue Nov 30 10:28:39 2004: LOG DATE
UWI.           05 071 08194 00: UNIQUE WELL ID
STAT.                 Colorado: STATE
~Curve Information Block
DEPT.FT            0 000 00 00: Depth
GR.GAPI                       : Gamma Ray
CCL.                          : Casing Collar Locator
TT3.usec                      : CBL 3' Travel Time
AMP3.mV                       : CBL 3' Amplitude
~Parameter Information Block
~A  Depth        GR         CCL         TT3         AMP3    
# ...
  1347.0000    143.9478      0.0000    607.8241      6.8753
  1347.2500    146.7851      0.0000    587.4438      6.7909
  1347.5000    147.9414      0.0000    573.3969      6.8434
  1347.7500    149.2077      0.0000    572.5589      6.9844
  1348.0000    153.0337      0.0000    586.7298      7.1507
  1348.2500    160.7599      0.0000    611.6230      7.2944
  1348.5000    171.0950      0.0000    639.4894      7.3912
  1348.7500    180.5897      0.0000    663.1787      7.4380
  1349.0000    185.9855      0.0000    678.8819      7.4479
  1349.2500    186.3466      0.0000    687.0195      7.4441
  1349.5000    183.1484      0.0000    691.3303      7.4491
  1349.7500    178.5663      0.0000    695.5597      7.4720
  1350.0000    173.7534      0.0000    699.8781      7.5063
  1350.2500    168.5421      0.0000    701.3062      7.5404
  1350.5000    162.4543      0.0000    697.7258      7.5694
  1350.7500    155.8524      0.0000    690.2449      7.5966
  1351.0000    150.1780      0.0000    681.5495      7.6267
  1351.2500    147.1367      0.0000    673.2266      7.6585
  1351.5000    147.6719      0.0000    665.4191      7.6823
  1351.7500    151.5325      0.0000    658.8022      7.6864
  1352.0000    157.4074      0.0000    656.0357      7.6682
  1352.2500    163.3708      0.0000    660.1088      7.6407
  1352.5000    167.4689      0.0000    670.4670      7.6262
  1352.7500    168.0363      0.0000    681.5846      7.6380
  1353.0000    163.6501      0.0000    686.8489      7.6629
  1353.2500    153.4982      0.0000    684.0396      7.6691
  1353.5000    138.4326      0.0000    676.4039      7.6383
  1353.7500    121.5573      0.0000    669.0466      7.5896
  1354.0000    107.2460      0.0000    665.2411      7.5673
  1354.2500     99.1564      0.0000    665.3538      7.6110
  1354.5000     98.8348      0.0000    667.7499      7.7347
  1354.7500    105.7738      0.0000    670.4215      7.9221
  1355.0000    118.2441      0.0000    672.2356      8.1340
  1355.2500    133.7626      0.0000    673.1188      8.3297
  1355.5000    149.1779      0.0000    673.5108      8.4873
  1355.7500    161.2553      0.0000    673.9947      8.5996
  1356.0000    167.6799      0.0000    675.4738      8.6538
  1356.2500    167.4552      0.0000    679.5855      8.6331
  1356.5000    160.8139      0.0000    688.5255      8.5439
  1356.7500    149.6440      0.0000    703.4559      8.4262
  1357.0000    137.9297      0.0000    722.0079      8.3249
  1357.2500    130.4172      0.0000    737.5450      8.2571
  1357.5000    129.6988      0.0000    742.4173      8.2086
  1357.7500    134.5965      0.0000    733.2230      8.1541
  1358.0000    141.5892      0.0000    712.8766      8.0769
  1358.2500    147.5976      0.0000    687.3298      7.9769
  1358.5000    151.4168      0.0000    661.8019      7.8621
  1358.7500    153.1807      0.0000    642.0018      7.7251
  1359.0000    153.1653      0.0000    638.4261      7.5288
  1359.2500    151.1801      0.0000    664.4157      7.2278
  1359.5000    146.7839      0.0000    723.3796      6.8375
  1359.7500    139.9127      0.0000    796.2739      6.4913
  1360.0000    131.2379      0.0000    848.2567      6.3853
  1360.2500    121.8573      0.0000    854.7774      6.6136
  1360.5000    112.7254      0.0000    820.3372      7.0764
  1360.7500    104.5112      0.0000    769.8048      7.5775
  1361.0000     97.8889      0.0000    725.9340      7.9835
  1361.2500     93.7761      0.0000    697.5479      8.2716
  1361.5000     93.3142      0.0000    682.6984      8.4710
  1361.7500     97.5514      0.0000    676.1227      8.6040
  1362.0000    106.6553      0.0000    673.5747      8.6753
  1362.2500    118.9253      0.0000    672.7007      8.6968
  1362.5000    130.7336      0.0000    672.4756      8.7059
  1362.7500    138.1997      0.0000    672.4634      8.7427
  1363.0000    139.5684      0.0000    672.5090      8.7988
  1363.2500    136.1836      0.0000    672.5600      8.8094
  1363.5000    131.2834      0.0000    672.5776      8.7105
  1363.7500    127.7182      0.0000    672.5032      8.5073
  1364.0000    126.4315      0.0000    672.2972      8.2810
  1364.2500    126.6912      0.0000    671.9402      8.1282
  1364.5000    127.4774      0.0000    671.3134      8.0932
  1364.7500    128.5150      0.0000    670.0574      8.1488
  1365.0000    130.2838      0.0000    667.6148      8.2336
  1365.2500    133.5290      0.0000    663.5859      8.3005
  1365.5000    138.8359      0.0000    658.1278      8.3297
  1365.7500    146.2155      0.0000    652.0786      8.3117
  1366.0000    154.7383      0.0000    647.2247      8.2430
  1366.2500    162.6643      0.0000    646.6501      8.1285
  1366.5000    168.0222      0.0000    653.3064      7.9757
  1366.7500    169.1832      0.0000    666.5179      7.7952
  1367.0000    165.4288      0.0000    681.1498      7.6113
  1367.2500    157.4383      0.0000    692.1707      7.4568
  1367.5000    147.2230      0.0000    698.7888      7.3518
  1367.7500    137.3785      0.0000    702.6996      7.2975
  1368.0000    130.0560      0.0000    704.5244      7.2870
  1368.2500    126.1394      0.0000    703.9642      7.3132
  1368.5000    125.1677      0.0000    701.4943      7.3688
  1368.7500    126.1672      0.0000    697.9119      7.4479
  1369.0000    128.5970      0.0000    693.6552      7.5502
  1369.2500    132.3048      0.0000    690.1591      7.6802
  1369.5000    136.7376      0.0000    690.7427      7.8382
  1369.7500    140.5397      0.0000    698.1860      8.0031
  1370.0000    141.9112      0.0000    711.1888      8.1129
  1370.2500    139.5996      0.0000    724.8882      8.0667
  1370.5000    134.1465      0.0000    736.5778      7.7777
  1370.7500    128.0350      0.0000    749.4437      7.2591
  1371.0000    124.0656      0.0000    767.4133      6.6503
  1371.2500    123.6511      0.0000    787.2508      6.1223
  1371.5000    126.7743      0.0000    800.3400      5.7488
  1371.7500    132.9876     -3.0000    802.4637      5.4904
  1372.0000    141.9772     -3.0000    797.5172      5.2887
  1372.2500    153.2677     -3.0000    790.9521      5.1325
  1372.5000    165.4749      0.0000    783.5919      5.0373
  1372.7500    175.9137      0.0000    772.9600      5.0176
  1373.0000    181.4664      0.0000    757.3196      5.0937
  1373.2500    180.6274      0.0000    736.5023      5.2896
  1373.5000    174.8234      0.0000    710.6473      5.5980
  1373.7500    167.2428      0.0000    680.6553      5.9701
  1374.0000    160.3191      0.0000    649.9818      6.3493
  1374.2500    154.7946      0.0000    623.8550      6.6984
  1374.5000    150.8954      0.0000    605.6695      6.9962
  1374.7500    149.3060      0.0000    594.8132      7.2268
  1375.0000    150.6907      0.0000    588.1339      7.3740
  1375.2500    154.8117      0.0000    582.7839      7.4323
  1375.5000    160.5099      0.0000    577.6118      7.4324
  1375.7500    166.3705      0.0000    572.5326      7.4324
  1376.0000    171.0442      0.0000    567.3190      7.4614
  1376.2500    173.1087      0.0000    561.5385      7.4937
  1376.5000    171.5223      0.0000    555.5609      7.5008
  1376.7500    166.5928      0.0000    550.5820      7.5035
  1377.0000    159.8758      0.0000    547.1309      7.5464
  1377.2500    152.9680      0.0000    544.2629      7.6396
  1377.5000    146.9623      0.0000    540.7502      7.7419
  1377.7500    142.9472      0.0000    536.5380      7.7902
  1378.0000    142.0019      0.0000    532.5926      7.7446
  1378.2500    144.1519      0.0000    529.7666      7.6274
  1378.5000    147.6870      0.0000    528.2743      7.5217
  1378.7500    150.1563      0.0000    528.1442      7.5127
  1379.0000    150.5015      0.0000    530.0417      7.6136
  1379.2500    150.0951      0.0000    535.9190      7.7498
  1379.5000    151.2520      0.0000    548.7691      7.8189
  1379.7500    154.6359      0.0000    570.7951      7.7741
  1380.0000    158.3777      0.0000    600.4309      7.6489
  1380.2500    159.6105      0.0000    630.8205      7.5103
