~Version Information
VERS.                      2.0: CWLS Log ASCII Standard - VERSION 2.0
WRAP.                       NO: One line per depth step
~Well Information Block
STRT.FT               318.1000: 
STOP.FT              2688.0000: 
STEP.FT                 0.1000: 
NULL.                -999.2500: 
COMP.          Petrogulf Corporation: COMPANY
WELL.            Montoya 1-24V: WELL
FLD.           Purgatorie River: FIELD
LOC.           605' FSL & 2557' FWL: LOCATION
CNTY.               Las Animas: COUNTY
SRVC.                         : SERVICE COMPANY
DATE.          Wed Oct 20 14:56:37 2004: LOG DATE
UWI.           05 071 08194 00: UNIQUE WELL ID
STAT.                 Colorado: STATE
~Curve Information Block
DEPT.FT            0 000 00 00: Depth
DCAL.in                       : CDL Caliper
RHOB.g/cc                     : CDL Bulk Density
RHOC.g/cc                     : CDL Density Correction
DPOR.pu                       : CDL Density Porosity
GR.GAPI                       : Gamma Ray
NPOR.pu                       : Neutron Porosity
~Parameter Information Block
~A  Depth       DCAL        RHOB        RHOC        DPOR         GR         NPOR    
# ...
  2670.1000      7.7979      2.5980      0.0030      3.1544   -999.2500     27.1618
  2670.2000      7.7979      2.5956      0.0577      3.2989   -999.2500     27.6353
  2670.3000      7.6695      2.5923      0.1328      3.4947   -999.2500     27.9677
  2670.4000      7.6695      2.5834      0.1082      4.0342   -999.2500     28.1963
  2670.5000      7.8436      2.5829      0.1059      4.0649   -999.2500     28.3528
  2670.6000      7.8436      2.5925      0.0715      3.4826   -999.2500     28.1427
  2670.7000      7.8436      2.5887      0.0450      3.7138   -999.2500     27.5126
  2670.8000      7.8999      2.5672      0.0089      5.0199   -999.2500     27.2241
  2670.9000      7.8999      2.5609     -0.0168      5.3981   -999.2500     27.5868
  2671.0000      7.8804      2.5744      0.1509      4.5822   -999.2500     27.8481
  2671.1000      7.8804      2.5749      0.0771      4.5539   -999.2500     27.5263
  2671.2000      7.8804      2.5680     -0.0179      4.9700   -999.2500     27.0815
  2671.3000      7.8839      2.5718      0.0825      4.7411   -999.2500     26.9852
  2671.4000      7.8839      2.5693      0.0812      4.8895   -999.2500     27.2660
  2671.5000      7.8970      2.5542      0.0119      5.8054   -999.2500     27.4403
  2671.6000      7.8970      2.5493      0.0033      6.1040   -999.2500     27.0325
  2671.7000      7.8970      2.5685      0.0631      4.9423   -999.2500     26.5154
  2671.8000      7.9252      2.5936      0.1319      3.4158   -999.2500     26.5598
  2671.9000      7.9252      2.6080      0.0618      2.5471   -999.2500     26.9711
  2672.0000      7.8989      2.6187      0.0780      1.8954   -999.2500     27.2175
  2672.1000      7.8989      2.6244      0.1374      1.5492   -999.2500     27.0428
  2672.2000      7.8989      2.6101      0.0936      2.4172   -999.2500     26.6012
  2672.3000      7.8934      2.5836      0.0084      4.0245   -999.2500     26.3752
  2672.4000      7.8934      2.5712      0.0338      4.7782   -999.2500     26.5366
  2672.5000      7.8988      2.5765      0.0855      4.4538   -999.2500     26.7392
  2672.6000      7.8988      2.5818      0.0687      4.1361   -999.2500     26.6924
  2672.7000      7.8988      2.5795      0.0709      4.2702   -999.2500     26.5276
  2672.8000      7.8909      2.5778      0.0617      4.3759   -999.2500     26.6852
  2672.9000      7.8909      2.5833      0.0890      4.0414   -999.2500     27.3729
  2673.0000      7.9025      2.5958      0.0590      3.2874   -999.2500     28.3985
  2673.1000      7.9025      2.6028      0.1117      2.8615   -999.2500     30.4926
  2673.2000      7.9025      2.5921      0.0575      3.5091   -999.2500     35.2239
  2673.3000      7.9085      2.5755      0.0517      4.5145   -999.2500     41.5455
  2673.4000      7.9085      2.5659      0.0186      5.0969   -999.2500     45.9447
  2673.5000      7.8876      2.5652      0.0104      5.1370   -999.2500     47.5643
  2673.6000      7.8876      2.5773      0.0461      4.4064   -999.2500     47.8855
  2673.7000      7.8876      2.6002      0.0674      3.0166   -999.2500     47.9195
  2673.8000      7.9012      2.6208      0.0885      1.7679   -999.2500     47.9214
  2673.9000      7.9012      2.6315      0.0660      1.1241   -999.2500   -999.2500
  2674.0000      7.8935      2.6392      0.0701      0.6559   -999.2500   -999.2500
  2674.1000      7.8935      2.6445      0.1254      0.3337   -999.2500   -999.2500
  2674.2000      7.8935      2.6378      0.0835      0.7369   -999.2500   -999.2500
  2674.3000      7.9037      2.6191      0.0505      1.8741   -999.2500   -999.2500
  2674.4000      7.9037      2.6056      0.0469      2.6895   -999.2500   -999.2500
  2674.5000      7.8508      2.6106      0.0593      2.3881   -999.2500   -999.2500
  2674.6000      7.8508      2.6170      0.0887      1.9981   -999.2500   -999.2500
  2674.7000      7.8508      2.6086      0.0467      2.5106   -999.2500   -999.2500
  2674.8000      7.8741      2.6001      0.0654      3.0254   -999.2500   -999.2500
  2674.9000      7.8741      2.6041      0.0770      2.7810   -999.2500   -999.2500
  2675.0000      7.8523      2.6160      0.0436      2.0577   -999.2500   -999.2500
  2675.1000      7.8523      2.6256      0.1046      1.4787   -999.2500   -999.2500
  2675.2000      7.8523      2.6256      0.0908      1.4809   -999.2500   -999.2500
  2675.3000      7.8717      2.6182      0.0756      1.9298   -999.2500   -999.2500
  2675.4000      7.8717      2.6062      0.1139      2.6561   -999.2500   -999.2500
  2675.5000      7.8767      2.5925      0.0572      3.4839   -999.2500   -999.2500
  2675.6000      7.8767      2.5862      0.0362      3.8668   -999.2500   -999.2500
  2675.7000      7.8767      2.5879      0.0197      3.7614   -999.2500   -999.2500
  2675.8000      7.8630      2.5900      0.0930      3.6346   -999.2500   -999.2500
  2675.9000      7.8630      2.5911      0.0309      3.5682   -999.2500   -999.2500
  2676.0000      7.8361      2.5899      0.0709      3.6422   -999.2500   -999.2500
  2676.1000      7.8361      2.5817      0.0368      4.1411   -999.2500   -999.2500
  2676.2000      7.8361      2.5790      0.0180      4.3018   -999.2500   -999.2500
  2676.3000      7.8183      2.5906      0.0181      3.6001   -999.2500   -999.2500
  2676.4000      7.8183      2.5965      0.0626      3.2420   -999.2500   -999.2500
  2676.5000      7.8328      2.5851      0.0343      3.9348   -999.2500   -999.2500
  2676.6000      7.8328      2.5782     -0.0107      4.3527   -999.2500   -999.2500
  2676.7000      7.8328      2.5895      0.0299      3.6665   -999.2500   -999.2500
  2676.8000      7.8231      2.5983      0.0675      3.1321   -999.2500   -999.2500
  2676.9000      7.8231      2.5865      0.0444      3.8489   -999.2500   -999.2500
  2677.0000      7.8347      2.5635      0.0312      5.2447   -999.2500   -999.2500
  2677.1000      7.8347      2.5431      0.0527      6.4794   -999.2500   -999.2500
  2677.2000      7.8347      2.5272      0.0519      7.4451   -999.2500   -999.2500
  2677.3000      7.8435      2.5240     -0.0194      7.6381   -999.2500   -999.2500
  2677.4000      7.8435      2.5421      0.0561      6.5407   -999.2500   -999.2500
  2677.5000      7.8644      2.5649      0.0928      5.1575   -999.2500   -999.2500
  2677.6000      7.8644      2.5773      0.0427      4.4045   -999.2500   -999.2500
  2677.7000      7.8644      2.5840      0.0884      4.0005   -999.2500   -999.2500
  2677.8000      7.8435      2.5832      0.0890      4.0492   -999.2500   -999.2500
  2677.9000      7.8435      2.5814      0.0386      4.1601   -999.2500   -999.2500
  2678.0000      7.8332      2.6086      0.0511      2.5096   -999.2500   -999.2500
  2678.1000      7.8332      2.6595      0.1453     -0.5742   -999.2500   -999.2500
  2678.2000      7.8332      2.6737      0.1719     -1.4392   -999.2500   -999.2500
  2678.3000      7.8339      2.6303      0.0465      1.1936   -999.2500   -999.2500
  2678.4000      7.8339      2.5845     -0.0582      3.9696   -999.2500   -999.2500
  2678.5000      7.8237      2.5785      0.0069      4.3312   -999.2500   -999.2500
  2678.6000      7.8237      2.5912      0.0947      3.5631   -999.2500   -999.2500
  2678.7000      7.8237      2.5914      0.0668      3.5517   -999.2500   -999.2500
  2678.8000      7.8276      2.5780      0.0683      4.3643   -999.2500   -999.2500
  2678.9000      7.8276      2.5616      0.0402      5.3600   -999.2500   -999.2500
  2679.0000      7.8241      2.5531      0.0348      5.8716   -999.2500   -999.2500
  2679.1000      7.8241      2.5609      0.0467      5.3988   -999.2500   -999.2500
  2679.2000      7.8241      2.5806      0.0613      4.2061   -999.2500   -999.2500
  2679.3000      7.8392      2.5988      0.1144      3.1028   -999.2500   -999.2500
  2679.4000      7.8392      2.6084      0.1226      2.5227   -999.2500   -999.2500
  2679.5000      7.8535      2.6112      0.1622      2.3500   -999.2500   -999.2500
  2679.6000      7.8535      2.6061      0.1065      2.6612   -999.2500   -999.2500
