~Version Information
VERS.                      2.0: CWLS Log ASCII Standard - VERSION 2.0
WRAP.                       NO: One line per depth step
~Well Information Block
STRT.FT               360.0000: 
STOP.FT              1622.7500: 
STEP.FT                 0.2500: 
NULL.                -999.2500: 
COMP.          Pioneer Natural Resources: COMPANY
WELL.                Eric 42-9: WELL
FLD.           Purgatoire River: FIELD
LOC.           2050' FNL & 850' FEL: LOCATION
PROV.                 Colorado: PROVINCE
CNTY.               Las Animas: COUNTRY
SRVC.                Patterson: SERVICE COMPANY
DATE.          Sun Oct 31 17:26:46 2004: LOG DATE
UWI.           05 071 07999 00: UNIQUE WELL ID
~Curve Information Block
DEPT.FT            0 000 00 00: Depth
SN.Ohm-m                      : IEL Short Normal
SP.mV                         : IEL Spontaneous Potential
DIR.Ohm-m                     : IEL Induction Resistivity
GR.GAPI                       : Gamma Ray
~Parameter Information Block
~A  Depth        SN          SP         DIR          GR     
# ...
  1599.5000     26.7010    129.5271     20.2843   -999.2500
  1599.7500     26.1328    129.2301     20.1786   -999.2500
  1600.0000     25.5689    128.9476     20.0677   -999.2500
  1600.2500     25.0670    128.7433     19.9286   -999.2500
  1600.5000     24.6707    128.6793     19.7433   -999.2500
  1600.7500     24.3795    128.8009     19.5060   -999.2500
  1601.0000     24.1462    129.1220     19.2243   -999.2500
  1601.2500     23.9056    129.6168     18.9095   -999.2500
  1601.5000     23.6129    130.2241     18.5705   -999.2500
  1601.7500     23.2659    130.8634     18.2160   -999.2500
  1602.0000     22.8979    131.4574     17.8612   -999.2500
  1602.2500     22.5515    131.9496     17.5272   -999.2500
  1602.5000     22.2481    132.3105     17.2321   -999.2500
  1602.7500     21.9712    132.5320     16.9830   -999.2500
  1603.0000     21.6839    132.6141     16.7770   -999.2500
  1603.2500     21.3767    132.5563     16.6109   -999.2500
  1603.5000     21.1032    132.3559     16.4937   -999.2500
  1603.7500     20.9660    132.0129     16.4512   -999.2500
  1604.0000     21.0675    131.5363     16.5199   -999.2500
  1604.2500     21.4594    130.9471     16.7320   -999.2500
  1604.5000     22.1066    130.2762     17.0997   -999.2500
  1604.7500     22.8779    129.5607     17.6030   -999.2500
  1605.0000     23.5873    128.8413     18.1862   -999.2500
  1605.2500     24.0811    128.1601     18.7655   -999.2500
  1605.5000     24.3158    127.5588     19.2499   -999.2500
  1605.7500     24.3660    127.0766     19.5704   -999.2500
  1606.0000     24.3615    126.7468     19.7005   -999.2500
  1606.2500     24.3985    126.5928     19.6557   -999.2500
  1606.5000     24.4816    126.6229     19.4728   -999.2500
  1606.7500     24.5349    126.8256     19.1902   -999.2500
  1607.0000     24.4672    127.1671     18.8401   -999.2500
  1607.2500     24.2345    127.5943     18.4532   -999.2500
  1607.5000     23.8538    128.0445     18.0592   -999.2500
  1607.7500     23.3774    128.4579     17.6818   -999.2500
  1608.0000     22.8696    128.7895     17.3345   -999.2500
  1608.2500     22.3994    129.0159     17.0246   -999.2500
  1608.5000     22.0308    129.1366     16.7616   -999.2500
  1608.7500     21.7982    129.1701     16.5584   -999.2500
  1609.0000     21.6866    129.1461     16.4257   -999.2500
  1609.2500     21.6412    129.0971     16.3656   -999.2500
  1609.5000     21.6023    129.0494     16.3714   -999.2500
  1609.7500     21.5362    129.0187     16.7449   -999.2500
  1610.0000     21.4414    129.0078     16.8606   -999.2500
  1610.2500     21.3423    129.0091     17.0189   -999.2500
  1610.5000     21.2834    129.0096     17.2058   -999.2500
  1610.7500     21.3137    128.9956     17.3990   -999.2500
  1611.0000     21.4531    128.9579     17.5752   -999.2500
  1611.2500     21.6667    128.8927     17.7222   -999.2500
  1611.5000     21.8788    128.8004     17.8447   -999.2500
  1611.7500     22.0210    128.6810     17.9648   -999.2500
  1612.0000     22.0748    128.5291     18.1255   -999.2500
  1612.2500     22.0762    128.3327     18.4190   -999.2500
  1612.5000     22.0853    128.0753     19.0427   -999.2500
  1612.7500     22.1515    127.7434     20.3908   -999.2500
  1613.0000     22.2951    127.3347     23.2416   -999.2500
  1613.2500     22.5075    126.8642     28.2580   -999.2500
  1613.5000     22.7582    126.3639     41.5876   -999.2500
  1613.7500     22.9998    125.8763     84.0788   -999.2500
  1614.0000     23.1753    125.4438   1141.6953   -999.2500
  1614.2500     23.2336    125.0985 100000.0000   -999.2500
  1614.5000     23.1482    124.8560 100000.0000   -999.2500
  1614.7500     22.9319    124.7163 100000.0000   -999.2500
  1615.0000     22.6355    124.6675 100000.0000   -999.2500
  1615.2500     22.3304    124.6941 100000.0000   -999.2500
  1615.5000     22.0818    124.7771 100000.0000   -999.2500
  1615.7500     21.9298    124.8900 100000.0000   -999.2500
  1616.0000     21.8838    124.9873 100000.0000   -999.2500
  1616.2500     21.9280    124.9881 100000.0000   -999.2500
  1616.5000     22.0315    124.7638 100000.0000   -999.2500
  1616.7500     22.1630    124.1408 100000.0000   -999.2500
  1617.0000     22.2824    122.9314 100000.0000   -999.2500
  1617.2500     22.2626    120.9981 100000.0000   -999.2500
  1617.5000     21.7317    118.3300 100000.0000   -999.2500
  1617.7500     20.0007    115.0928 100000.0000   -999.2500
  1618.0000     16.3673    111.6113 100000.0000   -999.2500
  1618.2500     10.7901    108.2790 100000.0000   -999.2500
  1618.5000      4.2976    105.4346 100000.0000   -999.2500
  1618.7500     -1.5150    103.2666 100000.0000   -999.2500
  1619.0000     -5.5424    101.7901 100000.0000   -999.2500
  1619.2500     -7.7084    100.8913 100000.0000   -999.2500
  1619.5000     -8.6140    100.4020 100000.0000   -999.2500
  1619.7500     -8.9085    100.1638 100000.0000   -999.2500
  1620.0000     -8.9830    100.0601 100000.0000   -999.2500
  1620.2500     -8.9977    100.0197 100000.0000   -999.2500
  1620.5000   -999.2500    100.0056 100000.0000   -999.2500
  1620.7500   -999.2500    100.0012   2324.5750   -999.2500
  1621.0000   -999.2500   -999.2500   1384.5037   -999.2500
  1621.2500   -999.2500   -999.2500   1124.0363   -999.2500
  1621.5000   -999.2500   -999.2500   1029.5769   -999.2500
  1621.7500   -999.2500   -999.2500    994.8618   -999.2500
  1622.0000   -999.2500   -999.2500    983.1366   -999.2500
  1622.2500   -999.2500   -999.2500    979.6587   -999.2500
  1622.5000   -999.2500   -999.2500    978.7682   -999.2500
  1622.7500   -999.2500   -999.2500 100000.0000   -999.2500
