~Version Information
VERS.                      2.0: CWLS Log ASCII Standard - VERSION 2.0
WRAP.                       NO: One line per depth step
~Well Information Block
STRT.FT               720.0000: 
STOP.FT              2730.2000: 
STEP.FT                 0.1000: 
NULL.                -999.2500: 
COMP.          Evergreen Operating Corporation: COMPANY
WELL.            Rangely 22-28: WELL
FLD.           Purgatoire River: FIELD
LOC.           1741' FNL & 2335' FWL: LOCATION
PROV.                 Colorado: PROVINCE
CNTY.               Las Animas: COUNTRY
SRVC.                Patterson: SERVICE COMPANY
DATE.          Thu Sep 16 15:10:36 2004: LOG DATE
UWI.           05 071 08044 00: UNIQUE WELL ID
~Curve Information Block
DEPT.FT            0 000 00 00: Depth
DCAL.in                       : CDL Caliper
DPOR.pu                       : CDL Density Porosity
NPOR.pu                       : Neutron Porosity
RHOB.g/cc                     : CDL Bulk Density
RHOC.g/cc                     : CDL Density Correction
GR.GAPI                       : Gamma Ray
~Parameter Information Block
~A  Depth       DCAL        DPOR        NPOR        RHOB        RHOC         GR     
# ...
  1622.4000      8.0263      6.5326     24.8309      2.5422     -0.0358    120.8932
  1622.5000      8.0177      7.9692     24.5090      2.5185     -0.0587    118.4583
  1622.6000      8.0177      8.4171     24.6294      2.5111     -0.0454    113.4336
  1622.7000      8.0177      7.7477     24.9059      2.5222      0.0011    109.9840
  1622.8000      8.0183      6.9042     24.9751      2.5361      0.0335    108.5662
  1622.9000      8.0183      6.9236     24.8218      2.5358      0.0247    107.7999
  1623.0000      8.0213      7.1901     24.6762      2.5314     -0.0204    108.6134
  1623.1000      8.0213      6.6936     24.6993      2.5396      0.0320    112.6919
  1623.2000      8.0213      5.7419     24.8466      2.5553      0.0215    117.4639
  1623.3000      8.0223      5.0254     25.0662      2.5671      0.0404    118.6581
  1623.4000      8.0223      4.9408     25.3807      2.5685      0.0654    118.0457
  1623.5000      8.0185      5.0268     25.7566      2.5671      0.0093    119.5376
  1623.6000      8.0185      4.5605     26.1210      2.5748      0.0698    124.1267
  1623.7000      8.0185      3.7602     26.4295      2.5880      0.0741    128.7358
  1623.8000      8.0177      2.5630     26.7245      2.6077      0.0317    127.4521
  1623.9000      8.0177      1.0442     27.1050      2.6328      0.0735    125.0397
  1624.0000      8.0240      0.6204     27.3497      2.6398      0.1071    128.5802
  1624.1000      8.0240      1.9103     27.2235      2.6185      0.0624    133.5859
  1624.2000      8.0240      3.6047     26.7068      2.5905      0.0049    136.6316
  1624.3000      8.0299      4.6277     25.9938      2.5736      0.0327    138.3538
  1624.4000      8.0299      5.1733     25.4596      2.5646      0.0305    137.8223
  1624.5000      8.0309      5.4249     25.1164      2.5605      0.0198    137.0713
  1624.6000      8.0309      5.4333     24.6697      2.5604      0.0162    135.8903
  1624.7000      8.0309      5.6020     24.1627      2.5576      0.0301    131.3888
  1624.8000      8.0290      6.0072     23.9393      2.5509     -0.0016    131.4948
  1624.9000      8.0290      6.4874     24.0053      2.5430      0.0463    143.9667
  1625.0000      8.0236      7.2267     24.0661      2.5308      0.0349    162.0394
  1625.1000      8.0236      8.1016     24.1019      2.5163      0.0217    177.3962
  1625.2000      8.0236      8.6889     24.2638      2.5066      0.0228    186.6290
  1625.3000      8.0237      9.1288     24.3669      2.4994      0.0348    184.2547
  1625.4000      8.0237      9.7590     24.1300      2.4890      0.0156    170.5704
  1625.5000      8.0327     10.1893     23.7016      2.4819      0.0017    155.5070
  1625.6000      8.0327     10.1051     23.1856      2.4833      0.0321    146.6693
  1625.7000      8.0327     10.0077     22.6865      2.4849      0.0204    145.2119
  1625.8000      8.0392     10.1533     22.5704      2.4825      0.0244    147.4939
  1625.9000      8.0392     10.3677     22.8314      2.4789      0.0192    148.3412
  1626.0000      8.0418     10.6437     23.1988      2.4744      0.0230    150.0357
  1626.1000      8.0418     10.9067     23.5236      2.4700     -0.0094    154.0930
  1626.2000      8.0418     10.7660     23.7220      2.4724      0.0028    154.6382
  1626.3000      8.0432     10.1091     23.7755      2.4832      0.0251    150.6197
  1626.4000      8.0432      9.4553     23.7135      2.4940      0.0488    146.2186
  1626.5000      8.0429      9.1571     23.5782      2.4989      0.0245    145.3504
  1626.6000      8.0429      8.7255     23.3241      2.5060      0.0242    147.7846
  1626.7000      8.0429      7.6680     22.8758      2.5235      0.0612    150.3075
  1626.8000      8.0422      6.3598     22.5204      2.5451      0.0948    154.7567
  1626.9000      8.0422      5.5850     22.6783      2.5578      0.0662    158.2247
  1627.0000      8.0416      5.7191     23.1080      2.5556      0.0564    152.7598
  1627.1000      8.0416      6.5317     23.3653      2.5422      0.0545    142.0315
  1627.2000      8.0416      7.5039     23.5923      2.5262      0.0408    134.9362
  1627.3000      8.0407      7.9160     24.0286      2.5194      0.0129    135.7717
  1627.4000      8.0407      7.3809     24.4427      2.5282      0.0248    143.6282
  1627.5000      8.0402      6.8497     24.5612      2.5370      0.0705    152.6833
  1627.6000      8.0402      7.4701     24.4856      2.5267      0.0470    159.4667
  1627.7000      8.0402      8.9936     24.3555      2.5016      0.0198    161.2866
  1627.8000      8.0411     10.3261     24.3753      2.4796     -0.0100    156.6871
  1627.9000      8.0411     10.5809     24.5928      2.4754     -0.0055    152.6136
  1628.0000      8.0412      9.3077     24.7773      2.4964      0.0000    151.5559
  1628.1000      8.0412      7.0736     25.0900      2.5333      0.0580    146.5417
  1628.2000      8.0412      5.4231     25.8035      2.5605      0.0465    137.4003
  1628.3000      8.0400      4.6252     26.5967      2.5737     -0.0082    134.9140
  1628.4000      8.0400      4.0196     26.9585      2.5837      0.0681    142.9180
  1628.5000      8.0413      4.3694     26.7093      2.5779      0.0477    152.0164
  1628.6000      8.0413      5.8563     26.2903      2.5534      0.0504    152.5378
  1628.7000      8.0413      6.7038     26.3579      2.5394      0.0238    146.6310
  1628.8000      8.0429      6.1790     26.7792      2.5480      0.0787    143.0055
  1628.9000      8.0429      5.5952     27.1966      2.5577      0.0852    141.7528
  1629.0000      8.0418      5.7837     27.5525      2.5546      0.0845    141.8974
  1629.1000      8.0418      6.4039     27.5045      2.5443      0.0569    146.7601
  1629.2000      8.0418      7.0095     26.7553      2.5343      0.0643    153.0082
  1629.3000      8.0421      7.1730     25.7431      2.5316      0.0609    156.4231
  1629.4000      8.0421      6.7157     24.9858      2.5392      0.0709    159.5196
  1629.5000      8.0485      6.5274     24.4393      2.5423      0.0990    165.5379
  1629.6000      8.0485      7.6805     24.0596      2.5233      0.0500    173.5764
  1629.7000      8.0485      9.8617     23.9991      2.4873      0.0253    180.2575
  1629.8000      8.0597     11.7955     24.0817      2.4554      0.0049    179.6190
  1629.9000      8.0597     12.7361     24.0760      2.4399      0.0223    169.6416
  1630.0000      8.0685     12.9339     23.9898      2.4366      0.0108    156.7592
  1630.1000      8.0685     12.7554     23.8223      2.4395      0.0431    148.6680
  1630.2000      8.0685     12.1225     23.5492      2.4500      0.0242    146.5036
  1630.3000      8.0708     11.1983     23.3964      2.4652      0.1021    147.6025
  1630.4000      8.0708     10.4566     23.5805      2.4775      0.0806    151.1870
  1630.5000      8.0637      9.8635     23.8763      2.4873      0.0655    156.1367
  1630.6000      8.0637      9.6104     24.0617      2.4914      0.1013    158.4324
  1630.7000      8.0637     10.2840     24.2853      2.4803      0.0362    156.9307
  1630.8000      8.0504     12.0418     24.7000      2.4513      0.0521    152.5259
  1630.9000      8.0504     14.5142     25.1244      2.4105      0.0243    148.6586
  1631.0000      8.0406     16.5377     25.3102      2.3771      0.0079    150.0504
  1631.1000      8.0406     17.2796     25.2036      2.3649      0.0133    157.6047
  1631.2000      8.0406     17.0374     24.8341      2.3689     -0.0189    168.6786
  1631.3000      8.0379     16.2545     24.3971      2.3818      0.0169    179.3859
  1631.4000      8.0379     15.1626     23.9924      2.3998     -0.0050    187.2110
  1631.5000      8.0383     14.1221     23.5432      2.4170      0.0590    187.9122
  1631.6000      8.0383     13.7006     23.1953      2.4239      0.0586    179.8907
  1631.7000      8.0383     13.5404     22.9613      2.4266      0.0257    171.6000
  1631.8000      8.0352     12.1654     22.6068      2.4493      0.0431    168.9546
  1631.9000      8.0352      9.3712     22.2701      2.4954      0.1438    165.5415
