~Version Information
VERS.                      2.0: CWLS Log ASCII Standard - VERSION 2.0
WRAP.                       NO: One line per depth step
~Well Information Block
STRT.FT               650.0000: 
STOP.FT              2085.0000: 
STEP.FT                 0.1000: 
NULL.                -999.2500: 
COMP.          Pioneer Natural Resources: COMPANY
WELL.           Galloway 32-13: WELL
FLD.           Purgatoire River: FIELD
LOC.           1809' FNL & 2004' FEL: LOCATION
PROV.                 Colorado: PROVINCE
CNTY.               Las Animas: COUNTRY
SRVC.                Patterson: SERVICE COMPANY
DATE.          Sat Jul 09 02:17:51 2005: LOG DATE
UWI.           05 071 08423 00: UNIQUE WELL ID
~Curve Information Block
DEPT.FT            0 000 00 00: Depth
DCAL.in                       : CDL Caliper
RHOB.g/cc                     : CDL Bulk Density
RHOC.g/cc                     : CDL Density Correction
DPOR.pu                       : CDL Density Porosity
GR.GAPI                       : Gamma Ray
NPOR.pu                       : Neutron Porosity
~Parameter Information Block
~A  Depth       DCAL        RHOB        RHOC        DPOR         GR         NPOR    
# ...
  1120.4000      8.2720      2.2467      0.1524     24.4425    153.2291     34.3122
  1120.5000      8.2580      2.2935      0.1164     21.6052    154.5457     34.1073
  1120.6000      8.2580      2.3258      0.1187     19.6466    154.4233     33.5087
  1120.7000      8.2580      2.3496      0.0906     18.2062    154.1050     32.6754
  1120.8000      8.2393      2.3721      0.1026     16.8399    153.1062     31.8944
  1120.9000      8.2393      2.3987      0.0915     15.2277    152.3844     30.9199
  1121.0000      8.2341      2.4358      0.1619     12.9821    152.8289     30.2710
  1121.1000      8.2341      2.4733      0.1984     10.7109    153.0412     30.6531
  1121.2000      8.2341      2.4933      0.2586      9.4969    152.4523     31.1757
  1121.3000      8.2361      2.4929      0.2318      9.5231    153.1411     30.6528
  1121.4000      8.2361      2.4786      0.1974     10.3880    158.1971     29.7641
  1121.5000      8.2401      2.4504      0.1953     12.0969    163.1946     29.9737
  1121.6000      8.2401      2.4052      0.1247     14.8385    162.4981     31.4701
  1121.7000      8.2401      2.3524      0.0730     18.0344    160.2698     32.8002
  1121.8000      8.2497      2.3131      0.0410     20.4164    159.6062     33.1603
  1121.9000      8.2497      2.3072      0.0185     20.7761    158.8372     32.9153
  1122.0000      8.2880      2.3353      0.0579     19.0709    160.9529     32.3200
  1122.1000      8.2880      2.3724      0.0808     16.8221    165.2266     31.7648
  1122.2000      8.2880      2.4016      0.0596     15.0548    164.8417     31.6761
  1122.3000      8.3811      2.4311      0.0956     13.2671    160.5075     32.1593
  1122.4000      8.3811      2.4612      0.1734     11.4404    154.9720     33.0482
  1122.5000      8.4845      2.4802      0.1822     10.2882    148.2257     33.6350
  1122.6000      8.4845      2.4899      0.1482      9.7018    145.7061     33.2832
  1122.7000      8.4845      2.4944      0.1764      9.4306    151.2866     32.3484
  1122.8000      8.4778      2.4849      0.1709     10.0073    158.9101     31.9396
  1122.9000      8.4778      2.4643      0.0646     11.2547    162.5578     32.3511
  1123.0000      8.3318      2.4558      0.0435     11.7682    164.5416     32.6124
  1123.1000      8.3318      2.4686      0.0324     10.9917    166.8386     32.2476
  1123.2000      8.3318      2.4903      0.0454      9.6774    166.3509     31.7793
  1123.3000      8.2030      2.5114      0.0455      8.3993    163.5075     31.3342
  1123.4000      8.2030      2.5226      0.0957      7.7223    159.5892     30.3790
  1123.5000      8.1518      2.5137      0.0572      8.2628    152.9594     29.2317
  1123.6000      8.1518      2.4977     -0.0005      9.2278    146.8166     28.4103
  1123.7000      8.1518      2.4947      0.0455      9.4138    146.6410     28.0052
  1123.8000      8.1334      2.4976      0.0760      9.2342    151.9166     28.3936
  1123.9000      8.1334      2.4947      0.0073      9.4142    157.4291     29.7833
  1124.0000      8.1289      2.4912      0.0428      9.6219    159.6368     31.5673
  1124.1000      8.1289      2.4951      0.0152      9.3855    157.8258     32.2919
  1124.2000      8.1289      2.5072      0.0156      8.6547    152.5704     31.3537
  1124.3000      8.1328      2.5218      0.0339      7.7712    146.4015     30.0448
  1124.4000      8.1328      2.5314      0.0380      7.1875    143.7976     30.0757
  1124.5000      8.1365      2.5279      0.0869      7.3980    143.6600     31.3182
  1124.6000      8.1365      2.5101      0.0390      8.4805    140.1981     31.8306
  1124.7000      8.1365      2.4860      0.0287      9.9372    130.8880     30.9696
  1124.8000      8.1363      2.4603     -0.0137     11.4995    121.8611     29.9946
  1124.9000      8.1363      2.4420     -0.0466     12.6075    121.8230     29.6349
  1125.0000      8.1380      2.4366      0.0090     12.9354    129.4241     29.9102
  1125.1000      8.1380      2.4220      0.0750     13.8185    136.5798     30.4700
  1125.2000      8.1380      2.3815      0.0003     16.2717    140.8471     31.0237
  1125.3000      8.1455      2.3221      0.0560     19.8729    143.9337     31.4020
  1125.4000      8.1455      2.2520     -0.0112     24.1187    144.7554     31.2976
  1125.5000      8.1563      2.1906     -0.0700     27.8424    143.1663     30.9785
  1125.6000      8.1563      2.1551     -0.0531     29.9947    140.4097     30.9173
  1125.7000      8.1563      2.1419     -0.0505     30.7962    136.5198     30.5755
  1125.8000      8.1736      2.1465      0.0404     30.5165    134.4024     29.6961
  1125.9000      8.1736      2.1786      0.1039     28.5726    135.3626     29.3558
  1126.0000      8.2154      2.2480      0.1986     24.3624    134.6929     30.1288
  1126.1000      8.2154      2.3401      0.3495     18.7788    133.3829     31.4914
  1126.2000      8.2154      2.4233      0.3806     13.7376    133.1057     32.2419
  1126.3000      8.2766      2.4851      0.3682      9.9954    128.9565     31.4737
  1126.4000      8.2766      2.5365      0.4111      6.8778    122.4126     30.1995
  1126.5000      8.3076      2.5881      0.3914      3.7541    117.4152     29.7814
  1126.6000      8.3076      2.6461      0.3672      0.2390    112.8274     30.0992
  1126.7000      8.3076      2.7072      0.3667     -3.4689    109.7564     30.8153
  1126.8000      8.3278      2.7407      0.3606     -5.4952    108.4926     31.3120
  1126.9000      8.3278      2.7227      0.2748     -4.4086    110.3074     30.6836
  1127.0000      8.3868      2.6775      0.1605     -1.6690    119.1271     29.7564
  1127.1000      8.3868      2.6325      0.1564      1.0581    130.4492     29.6522
  1127.2000      8.3868      2.5806      0.1376      4.2031    135.8580     29.8760
  1127.3000      8.3851      2.5235      0.0772      7.6681    133.1611     29.9391
  1127.4000      8.3851      2.4851      0.0122      9.9927    126.9049     30.2590
  1127.5000      8.2682      2.4709      0.0101     10.8569    124.6331     30.8753
  1127.6000      8.2682      2.4628     -0.0173     11.3474    125.9625     31.5708
  1127.7000      8.2682      2.4551     -0.0140     11.8128    128.3757     32.5415
  1127.8000      8.1816      2.4645     -0.0056     11.2431    135.1436     32.8725
  1127.9000      8.1816      2.4922      0.1123      9.5632    142.7092     31.7019
  1128.0000      8.1835      2.5145      0.1689      8.2117    143.5102     30.2234
  1128.1000      8.1835      2.5283      0.1333      7.3737    139.4443     29.5804
  1128.2000      8.1835      2.5405      0.2372      6.6344    134.9122     29.5526
  1128.3000      8.2428      2.5416      0.2083      6.5693    131.0611     29.6708
  1128.4000      8.2428      2.5407      0.1527      6.6232    128.8035     29.7371
  1128.5000      8.2904      2.5625      0.1318      5.3018    126.5568     29.5442
  1128.6000      8.2904      2.6067      0.1314      2.6238    120.0385     29.1682
  1128.7000      8.2904      2.6404      0.1941      0.5801    110.5164     28.5550
  1128.8000      8.2530      2.6377      0.1147      0.7425    104.3211     27.5212
  1128.9000      8.2530      2.6160      0.0649      2.0620    103.2971     26.6972
  1129.0000      8.1921      2.6026      0.0748      2.8747    103.1361     26.4963
  1129.1000      8.1921      2.5920      0.1056      3.5148    102.0462     26.4298
  1129.2000      8.1921      2.5711      0.0407      4.7809    103.2905     26.2812
  1129.3000      8.1516      2.5500      0.0154      6.0627    106.8201     26.8277
  1129.4000      8.1516      2.5363      0.0108      6.8934    110.3172     27.9244
  1129.5000      8.1142      2.5263     -0.0133      7.4993    111.0113     28.2970
  1129.6000      8.1142      2.5237      0.0554      7.6527    108.0645     28.0339
  1129.7000      8.1142      2.5383      0.0574      6.7671    105.5909     27.7840
  1129.8000      8.0830      2.5800      0.0211      4.2449    104.7594     27.5025
  1129.9000      8.0830      2.6477      0.0904      0.1394    103.5750     27.1095
