~Version Information
VERS.                      2.0: CWLS Log ASCII Standard - VERSION 2.0
WRAP.                       NO: One line per depth step
~Well Information Block
STRT.FT               704.0000: 
STOP.FT              2530.0000: 
STEP.FT                 0.2500: 
NULL.                -999.2500: 
COMP.          Pioneer Natural Resources: COMPANY
WELL.          Aztec Federal 41-15: WELL
FLD.           Purgatorie River: FIELD
LOC.           706' FNL & 1253' FEL: LOCATION
CNTY.               Las Animas: COUNTY
SRVC.          Superior Well Services: SERVICE COMPANY
DATE.          Tue Mar 18 09-04-19 2008: LOG DATE
UWI.           05-071-08342-00: UNIQUE WELL ID
STAT.                       CO: STATE
~Curve Information Block
DEPT.FT            0 000 00 00: Depth
DIR.Ohm-m                     : IEL Induction Resistivity
SN.Ohm-m                      : IEL Short Normal
SP.mV                         : IEL Spontaneous Potential
GR.GAPI                       : Gamma Ray
~Parameter Information Block
~A  Depth       DIR          SN          SP          GR     
# ...
  1675.5000     21.8271     23.3029     57.4793     99.7391
  1675.7500     22.4226     23.4336     57.4123     98.6576
  1676.0000     22.7489     23.5751     57.3369     98.3490
  1676.2500     23.0919     23.6644     57.3100     98.3682
  1676.5000     23.2232     23.8088     57.2963     98.6605
  1676.7500     23.3045     23.8971     57.2921     99.5431
  1677.0000     23.3041     23.9862     57.2686    100.4404
  1677.2500     23.2470     24.0058     57.2272    102.1496
  1677.5000     23.1730     23.9575     57.1067    103.3583
  1677.7500     22.9967     23.8592     56.9820    104.8223
  1678.0000     22.8319     23.6075     56.7388    105.3459
  1678.2500     22.5261     23.3936     56.5573    105.4184
  1678.5000     22.2990     23.0786     56.2979    105.1967
  1678.7500     21.9506     22.9091     56.1564    104.9949
  1679.0000     21.7241     22.7305     56.0128    105.1804
  1679.2500     21.4022     22.6488     55.9601    105.8900
  1679.5000     21.2006     22.5516     55.9144    106.3785
  1679.7500     20.9099     22.4845     55.8813    106.7109
  1680.0000     20.7131     22.3554     55.8013    106.7015
  1680.2500     20.3873     22.2458     55.7283    106.8363
  1680.5000     20.1347     22.0388     55.6037    107.2620
  1680.7500     19.6859     21.8633     55.5141    108.2339
  1681.0000     19.3375     21.5258     55.3607    108.7630
  1681.2500     18.7486     21.2344     55.2379    109.0850
  1681.5000     18.3197     20.6551     55.0211    109.2181
  1681.7500     17.6368     20.1512     54.8658    110.0247
  1682.0000     17.1639     19.1905     54.6610    111.2026
  1682.2500     16.4476     18.4124     54.5810    113.7848
  1682.5000     15.9801     17.0828     54.6079    115.8565
  1682.7500     15.3230     16.1359     54.7405    119.3316
  1683.0000     14.9305     14.7527     55.0823    121.7640
  1683.2500     14.4328     13.9571     55.3547    124.8676
  1683.5000     14.1704     13.1018     55.7138    126.0250
  1683.7500     13.8845     12.7845     55.8616    126.2146
  1684.0000     13.7600     12.6487     55.9039    125.8530
  1684.2500     13.6504     12.7444     55.8274    125.6771
  1684.5000     13.6129     13.0913     55.6204    125.8995
  1684.7500     13.5872     13.4095     55.4611    125.9271
  1685.0000     13.5842     13.9374     55.2397    125.1770
  1685.2500     13.5994     14.2838     55.1186    122.3989
  1685.5000     13.6221     14.7452     54.9890    119.4335
  1685.7500     13.6667     15.0033     54.9442    113.7833
  1686.0000     13.6949     15.3336     54.9549    109.8588
  1686.2500     13.7219     15.5275     55.0206    105.2217
  1686.5000     13.7272     15.7669     55.2082    103.5657
  1686.7500     13.7187     15.8748     55.3903    103.0894
  1687.0000     13.7034     15.9325     55.7516    103.5690
  1687.2500     13.6600     15.8816     56.0555    104.9059
  1687.5000     13.6086     15.6364     56.5977    106.3304
  1687.7500     13.4787     15.3594     56.9941    109.6318
  1688.0000     13.3477     14.8223     57.5827    112.5193
  1688.2500     13.0790     14.4289     57.9418    117.1285
  1688.5000     12.8546     13.8604     58.4092    119.8311
  1688.7500     12.4619     13.5193     58.6743    122.6614
  1689.0000     12.1715     13.0660     59.0061    123.6483
  1689.2500     11.7082     12.7997     59.1823    124.0474
  1689.5000     11.3888     12.4486     59.3794    123.8353
  1689.7500     10.9073     12.2284     59.4712    123.0992
  1690.0000     10.5930     11.8671     59.5645    122.3534
  1690.2500     10.1488     11.5795     59.6054    120.6793
  1690.5000      9.8816     11.0746     59.6476    119.1505
  1690.7500      9.5415     10.7239     59.6721    116.6115
  1691.0000      9.3638     10.2826     59.7290    115.1957
  1691.2500      9.1824     10.1052     59.7978    114.1438
  1691.5000      9.1227     10.0647     59.9641    114.2275
  1691.7500      9.1296     10.1688     60.1104    115.0536
  1692.0000      9.1981     10.4339     60.3490    115.6211
  1692.2500      9.3880     10.6487     60.4983    115.8588
  1692.5000      9.5618     11.0222     60.6796    115.4261
  1692.7500      9.8659     11.3028     60.7611    113.6601
  1693.0000     10.0805     11.7520     60.8089    111.4827
  1693.2500     10.4008     12.0779     60.7890    106.4213
  1693.5000     10.6126     12.7051     60.7072    102.2147
  1693.7500     10.9463     13.3268     60.6557     96.3554
  1694.0000     11.1983     14.7486     60.6704     93.8155
  1694.2500     11.6575     16.0099     60.7867     92.9363
  1694.5000     12.0381     18.0430     61.1518     94.2289
  1694.7500     12.7495     19.2522     61.5070     98.3988
  1695.0000     13.3286     20.6357     62.1403    102.1751
  1695.2500     14.3566     21.2642     62.5844    108.0597
  1695.5000     15.1337     21.8204     63.2257    111.2282
  1695.7500     16.3812     21.9806     63.6196    113.7420
  1696.0000     17.2218     22.0445     64.1442    113.8551
  1696.2500     18.4213     22.0809     64.4381    112.4728
  1696.5000     19.1492     22.2674     64.7719    111.2186
  1696.7500     20.1067     22.4890     64.9169    109.7126
  1697.0000     20.6469     22.8990     65.0294    108.9395
  1697.2500     21.2996     23.1782     65.0486    107.3956
  1697.5000     21.6279     23.5541     65.0186    105.8782
  1697.7500     21.9781     23.7681     64.9697    103.5103
  1698.0000     22.1426     24.0523     64.8623    102.4799
  1698.2500     22.3498     24.2248     64.7720    102.0216
  1698.5000     22.4978     24.4354     64.6251    102.0305
  1698.7500     22.7730     24.5267     64.5387    101.7318
  1699.0000     22.9943     24.5974     64.4697    101.2746
  1699.2500     23.3609     24.6224     64.4844    100.7549
  1699.5000     23.6108     24.6635     64.6054    100.8668
  1699.7500     23.9710     24.6975     64.7385    101.8943
  1700.0000     24.1908     24.7334     64.9730    102.9888
  1700.2500     24.4606     24.7333     65.1219    104.6280
  1700.5000     24.5721     24.6903     65.2843    105.2720
  1700.7500     24.5813     24.6368     65.3304    105.1441
  1701.0000     24.4601     24.5282     65.2935    104.5140
  1701.2500     24.0845     24.4262     65.2081    103.5174
  1701.5000     23.7201     24.1665     65.0234    103.1447
  1701.7500     23.0412     23.8830     64.8808    103.1763
  1702.0000     22.5254     23.2658     64.6533    103.6384
  1702.2500     21.7049     22.7345     64.4976    105.1550
  1702.5000     21.1559     21.7864     64.2739    106.7305
  1702.7500     20.3749     21.0725     64.1454    109.6919
  1703.0000     19.9001     19.9322     64.0040    111.8695
  1703.2500     19.2653     19.1781     63.9494    115.3189
  1703.5000     18.8876     18.1625     63.9294    117.8549
  1703.7500     18.3717     17.6063     63.9581    122.2997
  1704.0000     18.0538     16.9767     64.0605    125.6344
  1704.2500     17.6164     16.6929     64.1576    130.3910
  1704.5000     17.3587     16.4774     64.3112    132.6771
  1704.7500     17.0429     16.4803     64.3954    133.8863
  1705.0000     16.8907     16.6934     64.4655    133.1949
  1705.2500     16.7629     16.9507     64.4681    130.6279
  1705.5000     16.7470     17.4559     64.4044    128.4122
  1705.7500     16.8233     17.8443     64.3160    124.7625
  1706.0000     16.9339     18.4808     64.1143    122.0457
  1706.2500     17.1700     18.9415     63.9401    117.4064
  1706.5000     17.3613     19.6793     63.6457    114.1247
  1706.7500     17.6831     20.1853     63.4442    109.6300
  1707.0000     17.9194     20.9318     63.1511    107.3120
  1707.2500     18.3193     21.4074     62.9674    105.1154
  1707.5000     18.6281     22.0764     62.7264    104.3315
  1707.7500     19.1731     22.4898     62.6021    103.5579
  1708.0000     19.5958     23.0572     62.4863    103.0946
  1708.2500     20.3134     23.4007     62.4558    102.6302
  1708.5000     20.8365     23.8734     62.4636    102.6068
  1708.7500     21.6622     24.1842     62.4880    102.7913
