~Version Information
VERS.                      2.0: CWLS Log ASCII Standard - VERSION 2.0
WRAP.                       NO: One line per depth step
~Well Information Block
STRT.FT                -7.5000: 
STOP.FT               978.5000: 
STEP.FT                 0.2500: 
NULL.                -999.2500: 
COMP.          Pioneer Natural Resources: COMPANY
WELL.          Piggyback 33-25: WELL
FLD.           Purgatoire River: FIELD
LOC.           1600' FSL & 1800' FEL: LOCATION
PROV.                 Colorado: PROVINCE
CNTY.               Las Animas: COUNTRY
SRVC.                Patterson: SERVICE COMPANY
DATE.          Mon May 09 09:22:28 2005: LOG DATE
UWI.           05 071 08233 00: UNIQUE WELL ID
~Curve Information Block
DEPT.FT            0 000 00 00: Depth
CCL.                          : Casing Collar Locator
TT3.usec                      : CBL 3' Travel Time
AMP3.mV                       : CBL 3' Amplitude
GR.GAPI                       : Gamma Ray
~Parameter Information Block
~A  Depth       CCL         TT3         AMP3         GR     
# ...
    59.5000      0.0000    328.9764     12.1565     88.3437
    59.7500      0.0000    330.7069     11.9510     88.8615
    60.0000      0.0000    337.0394     11.6985     86.6036
    60.2500      0.0000    349.6190     11.4452     82.2671
    60.5000      0.0000    371.4349     11.2107     77.1205
    60.7500      0.0000    406.6534     10.9952     72.2677
    61.0000      0.0000    458.9005     10.8117     67.9598
    61.2500      0.0000    527.8868     10.6980     63.9331
    61.5000      0.0000    606.5219     10.6840     60.5945
    61.7500      0.0000    681.5600     10.7526     59.3104
    62.0000      0.0000    738.7070     10.8468     61.0892
    62.2500      0.0000    769.8104     10.9178     65.2406
    62.5000      0.0000    777.5585     10.9540     69.7506
    62.7500      0.0000    774.0632     10.9628     73.0006
    63.0000      0.0000    773.2291     10.9445     74.8418
    63.2500      0.0000    781.7285     10.8941     75.8928
    63.5000      0.0000    796.2061     10.8204     76.2809
    63.7500      0.0000    808.7518     10.7445     75.7078
    64.0000      0.0000    813.7594     10.6795     74.5854
    64.2500      0.0000    810.2542     10.6150     74.3273
    64.5000      0.0000    800.7100     10.5234     76.1878
    64.7500      0.0000    789.0469     10.3862     80.1387
    65.0000      0.0000    778.7162     10.2147     85.1102
    65.2500      0.0000    771.7330     10.0395     90.0668
    65.5000      0.0000    768.7254      9.8737     94.4973
    65.7500      0.0000    769.1291      9.6900     97.9934
    66.0000      0.0000    771.3851      9.4394     99.9971
    66.2500      0.0000    773.7438      9.0906    100.3006
    66.5000      0.0000    775.0600      8.6544     99.4037
    66.7500      0.0000    774.7067      8.1805     97.9946
    67.0000      0.0000    772.0515      7.7318     96.3534
    67.2500      0.0000    766.4365      7.3478     94.5400
    67.5000      0.0000    757.7451      7.0265     92.8327
    67.7500      0.0000    746.6758      6.7391     91.5158
    68.0000      0.0000    734.3169      6.4611     90.2701
    68.2500      0.0000    721.9100      6.1863     88.2001
    68.5000      0.0000    711.2611      5.9185     84.7944
    68.7500      0.0000    704.4163      5.6608     80.7938
    69.0000      0.0000    702.0278      5.4201     77.8101
    69.2500      0.0000    702.7976      5.2191     76.9514
    69.5000      0.0000    705.1746      5.0906     77.9392
    69.7500      0.0000    708.5226      5.0527     79.4985
    70.0000      0.0000    711.9474      5.0936     80.3260
    70.2500      0.0000    713.4471      5.1815     79.7507
    70.5000      0.0000    711.7252      5.2874     77.9125
    70.7500      0.0000    708.4698      5.3948     75.5371
    71.0000      0.0000    707.4845      5.4944     73.4427
    71.2500      0.0000    710.9978      5.5766     72.1668
    71.5000      0.0000    717.5327      5.6337     72.0404
    71.7500      0.0000    723.7285      5.6649     73.2598
    72.0000      0.0000    727.3529      5.6807     75.5344
    72.2500      0.0000    728.0507      5.7043     77.9617
    72.5000      0.0000    726.2236      5.7694     79.7333
    72.7500      0.0000    722.4174      5.9052     80.9221
    73.0000      0.0000    717.7149      6.1130     82.2503
    73.2500      0.0000    713.5845      6.3559     84.0599
    73.5000      0.0000    710.5691      6.5809     85.8096
    73.7500      0.0000    707.8344      6.7492     86.6565
    74.0000      0.0000    705.1151      6.8464     86.2214
    74.2500      0.0000    704.6589      6.8753     84.6511
    74.5000      0.0000    709.8228      6.8550     82.3628
    74.7500      0.0000    721.4202      6.8240     80.0946
    75.0000      0.0000    736.1165      6.8291     78.9381
    75.2500      0.0000    748.7915      6.9059     79.7291
    75.5000      0.0000    756.0919      7.0638     82.1577
    75.7500      0.0000    757.3161      7.2800     84.6699
    76.0000      0.0000    752.8743      7.5020     85.5470
    76.2500      0.0000    743.8124      7.6689     84.2576
    76.5000      0.0000    732.9006      7.7387     81.7790
    76.7500      0.0000    723.8643      7.7017     79.6688
    77.0000      0.0000    718.1948      7.5781     79.0852
    77.2500      0.0000    713.8812      7.4062     80.5006
    77.5000      0.0000    708.1401      7.2272     83.5363
    77.7500      0.0000    700.5438      7.0684     86.6789
    78.0000      0.0000    692.9637      6.9394     87.8291
    78.2500      0.0000    687.2882      6.8402     85.8819
    78.5000      0.0000    683.9596      6.7692     81.7663
    78.7500      0.0000    682.3200      6.7183     77.5884
    79.0000      0.0000    681.5391      6.6645     75.0013
    79.2500      0.0000    680.9721      6.5712     74.5926
    79.5000      0.0000    679.9178      6.4065     76.1938
    79.7500      0.0000    677.4443      6.1744     79.0610
    80.0000      0.0000    672.8484      5.9307     81.9749
    80.2500      0.0000    666.6431      5.7530     83.7810
    80.5000      0.0000    661.0330      5.6815     83.9816
    80.7500      0.0000    658.8064      5.6988     82.8325
    81.0000      0.0000    661.2166      5.7652     81.1751
    81.2500      0.0000    666.9348      5.8602     80.0660
    81.5000      0.0000    673.2105      5.9790     80.1680
    81.7500      0.0000    677.9462      6.1022     81.4342
    82.0000      0.0000    680.5996      6.1875     83.3074
    82.2500      0.0000    681.4498      6.1967     84.9351
    82.5000      0.0000    680.2670      6.1240     85.4434
    82.7500      0.0000    675.5015      5.9968     84.6046
    83.0000      0.0000    664.6003      5.8521     83.2127
    83.2500      0.0000    645.6659      5.7108     82.2009
    83.5000      0.0000    619.9568      5.5712     81.3988
    83.7500      0.0000    593.4396      5.4320     79.8128
    84.0000      0.0000    574.9945      5.3157     77.2790
    84.2500      0.0000    571.1030      5.2560     75.1302
    84.5000      0.0000    581.4176      5.2641     74.8894
    84.7500      0.0000    600.1412      5.3209     76.6745
    85.0000      0.0000    621.5515      5.4005     79.0856
    85.2500      0.0000    643.0945      5.4950     80.3843
    85.5000      0.0000    663.8748      5.6190     79.7011
    85.7500      0.0000    682.5097      5.7940     77.4098
    86.0000      0.0000    697.3757      6.0244     74.6547
    86.2500      0.0000    707.8600      6.2843     72.5321
    86.5000      0.0000    714.8083      6.5329     71.4889
    86.7500      0.0000    720.7551      6.7381     71.3157
    87.0000      0.0000    730.1043      6.8804     71.6624
    87.2500      0.0000    747.1331      6.9414     72.4499
    87.5000      0.0000    771.5817      6.9024     73.6032
    87.7500      0.0000    796.4597      6.7499     74.5203
    88.0000      0.0000    811.9373      6.4727     74.1629
    88.2500      0.0000    812.6816      6.0723     71.7448
    88.5000      0.0000    802.5966      5.6157     67.3107
    88.7500      0.0000    792.7977      5.2666     61.7308
    89.0000      0.0000    793.1954      5.1928     56.1252
    89.2500      0.0000    804.4598      5.4175     51.1918
    89.5000      0.0000    818.9985      5.8099     47.1514
    89.7500      0.0000    829.6942      6.2267     44.3370
    90.0000      0.0000    835.5499      6.6060     43.5658
    90.2500      2.0000    839.1353      6.9410     45.6778
    90.5000     -2.0000    842.1176      7.2460     50.6761
    90.7500      0.0000    844.3240      7.5762     57.3833
    91.0000      0.0000    844.1705      8.0560     63.9771
    91.2500      0.0000    838.4357      8.8324     68.9700
    91.5000      0.0000    823.9180      9.9146     71.8932
    91.7500      0.0000    801.2611     11.0200     73.2991
    92.0000      0.0000    776.4194     11.6785     74.2492
    92.2500      0.0000    757.3901     11.6097     75.6494
    92.5000      0.0000    749.0198     10.9726     77.7408
    92.7500      0.0000    749.8669     10.1911     80.0768
