~Version Information
VERS.                      2.0: CWLS Log ASCII Standard - VERSION 2.0
WRAP.                       NO: One line per depth step
~Well Information Block
STRT.FT               250.0000: 
STOP.FT              1573.7000: 
STEP.FT                 0.1000: 
NULL.                -999.2500: 
COMP.          Pioneer Natural Resources: COMPANY
WELL.          Big Cat Federal 44-1: WELL
FLD.           Purgatoire River: FIELD
LOC.           197' FSL & 973' FEL--: LOCATION
CNTY.               Las Animas: COUNTY
SRVC.                Patterson: SERVICE COMPANY
DATE.          Mon Apr 24 08:33:37 2006: LOG DATE
UWI.           05 071 08042 00: UNIQUE WELL ID
STAT.                 Colorado: STATE
~Curve Information Block
DEPT.FT            0 000 00 00: Depth
DCAL.in                       : CDL Caliper
RHOB.g/cc                     : CDL Bulk Density
RHOC.g/cc                     : CDL Density Correction
DPOR.pu                       : CDL Density Porosity
NPOR.pu                       : Neutron Porosity
GR.GAPI                       : Gamma Ray
~Parameter Information Block
~A  Depth       DCAL        RHOB        RHOC        DPOR        NPOR         GR     
# ...
   509.2000      8.0398      2.4862      0.0089      9.9273     29.3806    140.6902
   509.3000      8.0424      2.4982      0.0274      9.2000     29.6897    138.3456
   509.4000      8.0424      2.5172      0.0504      8.0487     30.1318    134.8783
   509.5000      8.0483      2.5310      0.0723      7.2119     30.8636    132.9335
   509.6000      8.0483      2.5377      0.0412      6.8043     31.2129    132.8457
   509.7000      8.0483      2.5448      0.0449      6.3741     30.7439    131.3717
   509.8000      8.0588      2.5538      0.0996      5.8277     30.0562    127.1167
   509.9000      8.0588      2.5605      0.0896      5.4216     29.8700    123.2260
   510.0000      8.0662      2.5586      0.0957      5.5414     30.4307    123.3374
   510.1000      8.0662      2.5408      0.0639      6.6178     31.3818    127.4534
   510.2000      8.0662      2.5046      0.0593      8.8145     31.8494    130.8728
   510.3000      8.0683      2.4462      0.0351     12.3541     31.4408    131.9473
   510.4000      8.0683      2.3767      0.0032     16.5656     30.5459    132.7736
   510.5000      8.0695      2.3274     -0.0312     19.5515     29.5616    132.9457
   510.6000      8.0695      2.3188     -0.0235     20.0736     28.4732    133.5904
   510.7000      8.0695      2.3416      0.0179     18.6918     27.5116    137.3831
   510.8000      8.0709      2.3695      0.0571     16.9977     26.8475    141.7581
   510.9000      8.0709      2.3901      0.0611     15.7538     26.0531    143.6037
   511.0000      8.0722      2.4113      0.0946     14.4677     25.0123    145.4224
   511.1000      8.0722      2.4323      0.1493     13.1915     24.3570    148.6399
   511.2000      8.0722      2.4336      0.1966     13.1134     24.2941    149.2799
   511.3000      8.0727      2.4004      0.1302     15.1260     24.0576    143.6049
   511.4000      8.0727      2.3293      0.1281     19.4356     23.1099    133.3343
   511.5000      8.0707      2.2215      0.0779     25.9698     21.6958    126.6780
   511.6000      8.0707      2.0913      0.0450     33.8581     20.3240    129.1608
   511.7000      8.0707      1.9684     -0.0516     41.3116     18.9455    137.0704
   511.8000      8.0681      1.8853     -0.0992     46.3445     17.2758    144.0943
   511.9000      8.0681      1.8548     -0.0387     48.1930     15.5292    147.1706
   512.0000      8.0659      1.8585      0.0069     47.9709     14.0298    144.9648
   512.1000      8.0659      1.8723      0.0226     47.1314     12.9435    139.2060
   512.2000      8.0659      1.8981      0.0567     45.5694     12.1666    135.0131
   512.3000      8.0627      1.9605      0.0938     41.7886     11.5900    134.7360
   512.4000      8.0627      2.0708      0.2397     35.1050     11.1948    136.5684
   512.5000      8.0537      2.2053      0.3450     26.9488     10.9515    137.1112
   512.6000      8.0537      2.3271      0.3686     19.5682     11.0522    133.7785
   512.7000      8.0537      2.4109      0.3783     14.4919     11.6452    129.9811
   512.8000      8.0426      2.4517      0.3092     12.0190     12.4894    132.6903
   512.9000      8.0426      2.4523      0.2511     11.9806     13.4037    140.3603
   513.0000      8.0410      2.4195      0.0978     13.9722     14.4139    141.5183
   513.1000      8.0410      2.3851      0.0041     16.0555     15.4051    133.0634
   513.2000      8.0410      2.3851      0.0195     16.0546     16.2385    126.1882
   513.3000      8.0429      2.4103      0.1149     14.5300     16.9704    127.6256
   513.4000      8.0429      2.4286      0.0571     13.4177     17.7124    134.6576
   513.5000      8.0396      2.4367      0.0500     12.9275     18.5664    142.0654
   513.6000      8.0396      2.4473      0.0484     12.2841     19.3502    144.6074
   513.7000      8.0396      2.4632      0.1099     11.3227     19.8280    143.8054
   513.8000      8.0314      2.4778      0.1230     10.4370     20.3616    144.9965
   513.9000      8.0314      2.4872      0.1607      9.8667     21.1336    145.2444
   514.0000      8.0207      2.4939      0.1317      9.4614     21.5776    141.5560
   514.1000      8.0207      2.5051      0.1290      8.7792     21.5276    137.7909
   514.2000      8.0207      2.5269      0.1154      7.4585     21.4954    135.0522
   514.3000      8.0166      2.5496      0.1765      6.0835     21.9137    132.5904
   514.4000      8.0166      2.5511      0.1552      5.9951     22.7422    131.7820
   514.5000      8.0200      2.5273      0.0869      7.4347     23.3271    131.1318
   514.6000      8.0200      2.4920      0.0782      9.5745     23.1391    128.1335
   514.7000      8.0200      2.4553      0.0360     11.8026     22.5493    124.3769
   514.8000      8.0226      2.4222      0.0610     13.8071     22.2498    124.6178
   514.9000      8.0226      2.4000      0.0288     15.1497     22.4199    130.1457
   515.0000      8.0229      2.3968      0.0656     15.3461     22.4717    136.1098
   515.1000      8.0229      2.4013      0.1033     15.0720     21.9257    139.7906
   515.2000      8.0229      2.3899      0.0468     15.7661     21.2286    142.7459
   515.3000      8.0243      2.3592      0.0029     17.6249     21.1632    145.3089
   515.4000      8.0243      2.3258      0.0070     19.6510     21.6094    145.1786
   515.5000      8.0285      2.3054      0.0314     20.8855     21.7020    141.5986
   515.6000      8.0285      2.3091      0.0469     20.6603     21.2429    136.2344
   515.7000      8.0285      2.3358      0.0731     19.0402     20.9314    130.7529
   515.8000      8.0284      2.3709      0.1463     16.9165     20.9749    128.0526
   515.9000      8.0284      2.4034      0.1462     14.9467     20.9932    131.0347
   516.0000      8.0219      2.4285      0.1849     13.4250     20.8511    138.2025
   516.1000      8.0219      2.4423      0.1568     12.5849     20.5835    144.3959
   516.2000      8.0219      2.4495      0.1759     12.1545     20.4141    144.9172
   516.3000      8.0154      2.4570      0.1558     11.6958     20.5986    139.3848
   516.4000      8.0154      2.4709      0.1644     10.8542     20.8571    133.0973
   516.5000      8.0131      2.4945      0.1603      9.4255     21.0645    132.7964
   516.6000      8.0131      2.5186      0.2090      7.9640     21.5234    138.2365
   516.7000      8.0131      2.5319      0.1336      7.1551     22.0062    143.9304
   516.8000      8.0142      2.5415      0.1363      6.5769     22.2219    146.6967
   516.9000      8.0142      2.5506      0.1476      6.0262     22.4594    145.6766
   517.0000      8.0152      2.5476      0.1603      6.2056     22.7804    141.9976
   517.1000      8.0152      2.5293      0.0933      7.3122     22.9577    139.6417
   517.2000      8.0152      2.5064      0.0460      8.7012     23.0981    141.0604
   517.3000      8.0153      2.4816      0.0374     10.2090     23.3370    142.8351
   517.4000      8.0153      2.4458     -0.0000     12.3739     23.4662    141.9536
   517.5000      8.0146      2.4083     -0.0458     14.6515     23.3047    138.5533
   517.6000      8.0146      2.3883     -0.0081     15.8592     22.8095    134.6577
   517.7000      8.0146      2.3834     -0.0042     16.1601     22.1396    133.7764
   517.8000      8.0147      2.3816      0.0077     16.2689     21.4303    136.2879
   517.9000      8.0147      2.3880     -0.0248     15.8817     20.7163    138.7066
   518.0000      8.0178      2.4061      0.0601     14.7808     20.1759    139.1203
   518.1000      8.0178      2.4182      0.0462     14.0484     19.8300    136.9297
   518.2000      8.0178      2.4128      0.0411     14.3779     19.5396    134.5823
   518.3000      8.0252      2.3918      0.0547     15.6458     19.2239    136.6806
   518.4000      8.0252      2.3578      0.0203     17.7102     18.6592    141.2121
   518.5000      8.0353      2.3170      0.0459     20.1824     17.8503    141.1075
   518.6000      8.0353      2.2775      0.0412     22.5754     17.1875    137.2813
   518.7000      8.0353      2.2403      0.0824     24.8306     16.7986    137.7271
