~Version Information
VERS.                      2.0: CWLS Log ASCII Standard - VERSION 2.0
WRAP.                       NO: One line per depth step
~Well Information Block
STRT.FT                -8.7500: 
STOP.FT              1126.7500: 
STEP.FT                 0.2500: 
NULL.                -999.2500: 
COMP.          Evergreen Operating Corp.: COMPANY
WELL.             Bernice 21-3: WELL
FLD.           Purgatorie River: FIELD
LOC.           201' FNL & 2575' FWL--: LOCATION
PROV.                       CO: PROVINCE
CNTY.               Las Animas: COUNTRY
SRVC.          Patterson Wireline: SERVICE COMPANY
DATE.          Mon Feb 02 12:04:59 2004: LOG DATE
UWI.              05 071 07912: UNIQUE WELL ID
~Curve Information Block
DEPT.FT            0 000 00 00: Depth
CCL.                          : Casing Collar Locator
TT3.usec                      : CBL 3' Travel Time
AMP3.mV                       : CBL 3' Amplitude
GR.GAPI                       : Gamma Ray
~Parameter Information Block
~A  Depth       CCL         TT3         AMP3         GR     
# ...
   795.2500      0.0000    749.2425      5.6916    102.5952
   795.5000      0.0000    746.4817      5.6400    106.6348
   795.7500      0.0000    745.7779      5.5931    107.2392
   796.0000      0.0000    748.2653      5.5761    104.8953
   796.2500      0.0000    753.7212      5.5951    101.2164
   796.5000      0.0000    760.5840      5.6315     97.6432
   796.7500      0.0000    766.5609      5.6507     94.7312
   797.0000      0.0000    769.7313      5.6229     92.6236
   797.2500      0.0000    769.7029      5.5522     91.6292
   797.5000      0.0000    767.8903      5.4831     91.8966
   797.7500      0.0000    766.5881      5.4651     92.9704
   798.0000      0.0000    767.7452      5.5131     94.3340
   798.2500      0.0000    772.2521      5.6099     96.2046
   798.5000      0.0000    779.4747      5.7409     99.0542
   798.7500      0.0000    786.9940      5.9027    102.4142
   799.0000      0.0000    791.2934      6.0783    104.8503
   799.2500      0.0000    789.6390      6.2210    105.2861
   799.5000      0.0000    782.0254      6.2854    103.8801
   799.7500      0.0000    771.5665      6.2716    101.5240
   800.0000      0.0000    762.5972      6.2261     99.0146
   800.2500      0.0000    757.7411      6.1983     96.9929
   800.5000      0.0000    756.6151      6.2073     96.1570
   800.7500      0.0000    757.1826      6.2446     96.8462
   801.0000      0.0000    757.8332      6.2860     98.4605
   801.2500      0.0000    758.0773      6.2998     99.8143
   801.5000      0.0000    757.9639      6.2601    100.2569
   801.7500      0.0000    757.4865      6.1614    100.1107
   802.0000      0.0000    756.6718      6.0165     99.8219
   802.2500      0.0000    756.2347      5.8411     99.0513
   802.5000      0.0000    758.0907      5.6530     96.9137
   802.7500      0.0000    764.5738      5.4915     93.0209
   803.0000      0.0000    776.2354      5.4253     88.1332
   803.2500      0.0000    790.4423      5.5168     83.8328
   803.5000      0.0000    803.0516      5.7636     81.5392
   803.7500      0.0000    811.7738      6.0854     81.7298
   804.0000      0.0000    817.3019      6.3817     83.8318
   804.2500      0.0000    821.1066      6.5934     86.6042
   804.5000      0.0000    823.1058      6.7059     88.6115
   804.7500      0.0000    822.0950      6.7161     88.6190
   805.0000      0.0000    817.7103      6.6252     85.9608
   805.2500      0.0000    811.0110      6.4627     80.8368
   805.5000      0.0000    803.3540      6.2894     74.3043
   805.7500      0.0000    795.4203      6.1666     67.7520
   806.0000      0.0000    787.2209      6.1232     62.1437
   806.2500      0.0000    778.4254      6.1555     57.6720
   806.5000      0.0000    768.7448      6.2473     54.0868
   806.7500      0.0000    758.5095      6.3796     51.2514
   807.0000      0.0000    749.0685      6.5233     49.3541
   807.2500      0.0000    742.2843      6.6391     48.6140
   807.5000      0.0000    739.1547      6.6983     48.7408
   807.7500      0.0000    738.8536      6.6961     48.7568
   808.0000      0.0000    739.5473      6.6443     47.6140
   808.2500      0.0000    740.1992      6.5559     45.2088
   808.5000      0.0000    741.1420      6.4379     42.7394
   808.7500      0.0000    742.9138      6.2956     41.8738
   809.0000      0.0000    745.0901      6.1445     43.4517
   809.2500      0.0000    746.6518      6.0191     47.0103
   809.5000      0.0000    747.3351      5.9483     51.5119
   809.7500      0.0000    748.1678      5.9140     56.2729
   810.0000      0.0000    750.5775      5.8522     60.9495
   810.2500      0.0000    755.5771      5.7111     64.8137
   810.5000      0.0000    764.0471      5.5060     66.7102
   810.7500      0.0000    776.7819      5.3007     66.0747
   811.0000      0.0000    793.0614      5.1371     63.5494
   811.2500      0.0000    809.3909      5.0136     60.1957
   811.5000      0.0000    820.9494      4.9440     56.4977
   811.7500      0.0000    825.1013      4.9846     52.5777
   812.0000      0.0000    823.3077      5.1636     49.0558
   812.2500      0.0000    819.4632      5.4207     47.0784
   812.5000     -4.0000    816.9238      5.6501     47.3837
   812.7500     -4.0000    817.3234      5.7845     49.6586
   813.0000     -4.0000    821.0344      5.8240     52.9357
   813.2500      0.0000    827.1910      5.8104     56.3617
   813.5000      0.0000    833.2457      5.7855     59.4294
   813.7500      0.0000    835.5815      5.7666     61.7027
   814.0000      0.0000    831.2208      5.7641     62.6399
   814.2500      0.0000    819.4712      5.8151     61.8504
   814.5000      0.0000    802.6409      5.9606     59.5885
   814.7500      0.0000    785.1445      6.1790     56.9050
   815.0000      0.0000    771.0865      6.3836     55.0422
   815.2500      0.0000    762.1539      6.4989     54.5314
   815.5000      0.0000    757.5660      6.5112     54.9292
   815.7500      0.0000    755.5935      6.4456     55.4610
   816.0000      0.0000    754.8581      6.3317     55.8752
   816.2500      0.0000    754.6544      6.2012     56.5872
   816.5000      0.0000    754.6949      6.0938     57.9832
   816.7500      0.0000    754.8326      6.0454     59.7042
   817.0000      0.0000    754.9559      6.0738     60.7074
   817.2500      0.0000    755.0244      6.1743     60.0532
   817.5000      0.0000    755.1422      6.3174     57.6459
   817.7500      0.0000    755.6183      6.4448     54.2281
   818.0000      0.0000    757.0102      6.4843     50.7260
   818.2500      0.0000    760.0213      6.3918     47.6435
   818.5000      0.0000    764.9375      6.1918     44.9809
   818.7500      0.0000    770.7337      5.9783     42.6110
   819.0000      0.0000    774.9741      5.8636     40.7868
   819.2500      0.0000    775.3733      5.9067     40.3108
   819.5000      0.0000    771.7377      6.0794     42.0495
   819.7500      0.0000    765.9402      6.2968     46.0813
   820.0000      0.0000    759.9521      6.4766     51.2521
   820.2500      0.0000    754.4178      6.5738     55.6700
   820.5000      0.0000    749.0823      6.5807     57.8584
   820.7500      0.0000    743.8775      6.5117     57.6230
   821.0000      0.0000    739.2610      6.3835     55.9072
   821.2500      0.0000    735.8408      6.2065     53.8274
   821.5000      0.0000    733.9733      6.0057     51.8916
   821.7500      0.0000    733.7609      5.8469     50.1033
   822.0000      0.0000    735.3637      5.8186     48.4332
   822.2500      0.0000    738.9320      5.9680     46.9157
   822.5000      0.0000    743.9617      6.2529     45.6064
   822.7500      0.0000    749.1181      6.5592     44.7765
   823.0000      0.0000    753.0608      6.7687     44.8458
   823.2500      0.0000    755.2228      6.8223     45.7713
   823.5000      0.0000    755.6846      6.7433     46.7639
   823.7500      0.0000    754.7018      6.6154     46.8919
   824.0000      0.0000    752.7126      6.5336     45.8679
   824.2500      0.0000    750.6349      6.5498     44.2431
   824.5000      0.0000    749.6401      6.6505     43.0916
   824.7500      0.0000    750.2947      6.7802     43.4302
   825.0000      0.0000    752.0574      6.8876     45.4209
   825.2500      0.0000    753.8419      6.9524     47.8739
   825.5000      0.0000    754.9613      6.9782     48.8953
   825.7500      0.0000    755.4184      6.9647     47.4332
   826.0000      0.0000    755.5321      6.8902     44.2725
   826.2500      0.0000    755.5406      6.7247     41.4319
   826.5000      0.0000    755.5179      6.4749     40.5635
   826.7500      0.0000    755.4810      6.2116     42.0045
   827.0000      0.0000    755.4776      6.0345     45.1582
   827.2500      0.0000    755.5823      5.9972     49.2217
   827.5000      0.0000    755.8354      6.0711     53.3241
   827.7500      0.0000    756.2013      6.1786     56.4288
   828.0000      0.0000    756.5764      6.2581     57.6693
   828.2500      0.0000    756.8261      6.2982     56.9167
   828.5000      0.0000    756.8344      6.3260     54.9104
