~Version Information
VERS.                      2.0: CWLS Log ASCII Standard - VERSION 2.0
WRAP.                       NO: One line per depth step
~Well Information Block
STRT.FT               221.2000: 
STOP.FT              2260.4000: 
STEP.FT                 0.1000: 
NULL.                -999.2500: 
COMP.          Petrogulf Corporation: COMPANY
WELL.          Anderson 18-43V: WELL
FLD.           Purgatorie River: FIELD
LOC.           1782' FSL & 887' FEL--: LOCATION
CNTY.               Las Animas: COUNTY
SRVC.                         : SERVICE COMPANY
DATE.          Mon Sep 13 14:11:09 2004: LOG DATE
UWI.                          : UNIQUE WELL ID
STAT.                       CO: STATE
~Curve Information Block
DEPT.FT            0 000 00 00: Depth
TT3.usec                      : CBL 3' Travel Time
AMP3.mV                       : CBL 3' Amplitude
GR.GAPI                       : Gamma Ray
CCL.                          : Casing Collar Locator
~Parameter Information Block
~A  Depth       TT3         AMP3         GR         CCL     
# ...
  2244.6000    601.1926      1.8246     52.7341      0.0000
  2244.7000    601.1926      1.8246     52.7341      0.0000
  2244.8000    615.8989      1.8624     52.4254      0.0000
  2244.9000    615.8989      1.8624     52.4254      0.0000
  2245.0000    634.0165      1.9129     54.1646      0.0000
  2245.1000    634.0165      1.9129     54.1646   -999.2500
  2245.2000    634.0165      1.9129     54.1646   -999.2500
  2245.3000    648.9968      1.9538     57.9788   -999.2500
  2245.4000    648.9968      1.9538     57.9788   -999.2500
  2245.5000    656.2537      1.9725     63.1415   -999.2500
  2245.6000    656.2537      1.9725     63.1415   -999.2500
  2245.7000    656.2537      1.9725     63.1415   -999.2500
  2245.8000    655.8239      1.9702     68.2959   -999.2500
  2245.9000    655.8239      1.9702     68.2959   -999.2500
  2246.0000    651.2345      1.9534     71.9621   -999.2500
  2246.1000    651.2345      1.9534     71.9621   -999.2500
  2246.2000    651.2345      1.9534     71.9621   -999.2500
  2246.3000    646.5325      1.9308     73.1525   -999.2500
  2246.4000    646.5325      1.9308     73.1525   -999.2500
  2246.5000    644.4524      1.9149     71.7705   -999.2500
  2246.6000    644.4524      1.9149     71.7705   -999.2500
  2246.7000    644.4524      1.9149     71.7705   -999.2500
  2246.8000    645.9239      1.9170     68.3765   -999.2500
  2246.9000    645.9239      1.9170     68.3765   -999.2500
  2247.0000    649.7300      1.9362     63.1439   -999.2500
  2247.1000    649.7300      1.9362     63.1439   -999.2500
  2247.2000    649.7300      1.9362     63.1439   -999.2500
  2247.3000    652.7905      1.9554     55.1579   -999.2500
  2247.4000    652.7905      1.9554     55.1579   -999.2500
  2247.5000    651.7173      1.9566     43.6106   -999.2500
  2247.6000    651.7173      1.9566     43.6106   -999.2500
  2247.7000    651.7173      1.9566     43.6106   -999.2500
  2247.8000    644.3234      1.9429     29.8072   -999.2500
  2247.9000    644.3234      1.9429     29.8072   -999.2500
  2248.0000    630.0710      1.9375     17.0022   -999.2500
  2248.1000    630.0710      1.9375     17.0022   -999.2500
  2248.2000    630.0710      1.9375     17.0022   -999.2500
  2248.3000    610.5120      1.9577      7.9095   -999.2500
  2248.4000    610.5120      1.9577      7.9095   -999.2500
  2248.5000    589.9791      1.9979      2.9590   -999.2500
  2248.6000    589.9791      1.9979      2.9590   -999.2500
  2248.7000    589.9791      1.9979      2.9590   -999.2500
  2248.8000    574.8357      2.0458      0.8821   -999.2500
  2248.9000    574.8357      2.0458      0.8821   -999.2500
  2249.0000    570.8683      2.1051      0.2081   -999.2500
  2249.1000    570.8683      2.1051      0.2081   -999.2500
  2249.2000    570.8683      2.1051      0.2081   -999.2500
  2249.3000    580.4622      2.1917      0.0387   -999.2500
  2249.4000    580.4622      2.1917      0.0387   -999.2500
  2249.5000    600.9769      2.3140      0.0049   -999.2500
  2249.6000    600.9769      2.3140      0.0049   -999.2500
  2249.7000    600.9769      2.3140      0.0049   -999.2500
  2249.8000    625.3243      2.4631      0.0000   -999.2500
  2249.9000    625.3243      2.4631      0.0000   -999.2500
  2250.0000    645.4702      2.6218   -999.2500   -999.2500
  2250.1000    645.4702      2.6218   -999.2500   -999.2500
  2250.2000    645.4702      2.6218   -999.2500   -999.2500
  2250.3000    656.8320      2.7779   -999.2500   -999.2500
  2250.4000    656.8320      2.7779   -999.2500   -999.2500
  2250.5000    659.7819      2.9280   -999.2500   -999.2500
  2250.6000    659.7819      2.9280   -999.2500   -999.2500
  2250.7000    659.7819      2.9280   -999.2500   -999.2500
  2250.8000    657.6393      3.0714   -999.2500   -999.2500
  2250.9000    657.6393      3.0714   -999.2500   -999.2500
  2251.0000    653.8992      3.2004   -999.2500   -999.2500
  2251.1000    653.8992      3.2004   -999.2500   -999.2500
  2251.2000    653.8992      3.2004   -999.2500   -999.2500
  2251.3000    650.7305      3.2954   -999.2500   -999.2500
  2251.4000    650.7305      3.2954   -999.2500   -999.2500
  2251.5000    648.7976      3.3390   -999.2500   -999.2500
  2251.6000    648.7976      3.3390   -999.2500   -999.2500
  2251.7000    648.7976      3.3390   -999.2500   -999.2500
  2251.8000    647.7584      3.3374   -999.2500   -999.2500
  2251.9000    647.7584      3.3374   -999.2500   -999.2500
  2252.0000    646.7362      3.3220   -999.2500   -999.2500
  2252.1000    646.7362      3.3220   -999.2500   -999.2500
  2252.2000    646.7362      3.3220   -999.2500   -999.2500
  2252.3000    644.5123      3.3193   -999.2500   -999.2500
  2252.4000    644.5123      3.3193   -999.2500   -999.2500
  2252.5000    639.9083      3.3254   -999.2500   -999.2500
  2252.6000    639.9083      3.3254   -999.2500   -999.2500
  2252.7000    639.9083      3.3254   -999.2500   -999.2500
  2252.8000    633.1088      3.3188   -999.2500   -999.2500
  2252.9000    633.1088      3.3188   -999.2500   -999.2500
  2253.0000    627.1211      3.2944   -999.2500   -999.2500
  2253.1000    627.1211      3.2944   -999.2500   -999.2500
  2253.2000    627.1211      3.2944   -999.2500   -999.2500
  2253.3000    627.0682      3.2803   -999.2500   -999.2500
  2253.4000    627.0682      3.2803   -999.2500   -999.2500
  2253.5000    636.8959      3.3176   -999.2500   -999.2500
  2253.6000    636.8959      3.3176   -999.2500   -999.2500
  2253.7000    636.8959      3.3176   -999.2500   -999.2500
  2253.8000    657.0018      3.4168   -999.2500   -999.2500
  2253.9000    657.0018      3.4168   -999.2500   -999.2500
  2254.0000    685.4308      3.5282   -999.2500   -999.2500
  2254.1000    685.4308      3.5282   -999.2500   -999.2500
  2254.2000    685.4308      3.5282   -999.2500   -999.2500
  2254.3000    719.9785      3.5668   -999.2500   -999.2500
  2254.4000    719.9785      3.5668   -999.2500   -999.2500
  2254.5000    758.0735      3.4837   -999.2500   -999.2500
  2254.6000    758.0735      3.4837   -999.2500   -999.2500
  2254.7000    758.0735      3.4837   -999.2500   -999.2500
  2254.8000    795.7385      3.3125   -999.2500   -999.2500
  2254.9000    795.7385      3.3125   -999.2500   -999.2500
  2255.0000    828.0455      3.1395   -999.2500   -999.2500
  2255.1000    828.0455      3.1395   -999.2500   -999.2500
  2255.2000    828.0455      3.1395   -999.2500   -999.2500
  2255.3000    850.7499      3.0335   -999.2500   -999.2500
  2255.4000    850.7499      3.0335   -999.2500   -999.2500
  2255.5000    860.8102      3.0011   -999.2500   -999.2500
  2255.6000    860.8102      3.0011   -999.2500   -999.2500
  2255.7000    860.8102      3.0011   -999.2500   -999.2500
  2255.8000    854.3501      3.0022   -999.2500   -999.2500
  2255.9000    854.3501      3.0022   -999.2500   -999.2500
  2256.0000    823.2372      2.9962   -999.2500   -999.2500
  2256.1000    823.2372      2.9962   -999.2500   -999.2500
  2256.2000    823.2372      2.9962   -999.2500   -999.2500
  2256.3000    754.7262      2.9659   -999.2500   -999.2500
  2256.4000    754.7262      2.9659   -999.2500   -999.2500
  2256.5000    639.1019      2.9014   -999.2500   -999.2500
  2256.6000    639.1019      2.9014   -999.2500   -999.2500
  2256.7000    639.1019      2.9014   -999.2500   -999.2500
  2256.8000    483.1710      2.7871   -999.2500   -999.2500
  2256.9000    483.1710      2.7871   -999.2500   -999.2500
  2257.0000    315.7263      2.6235   -999.2500   -999.2500
  2257.1000    315.7263      2.6235   -999.2500   -999.2500
  2257.2000    315.7263      2.6235   -999.2500   -999.2500
  2257.3000    173.5662      2.4466   -999.2500   -999.2500
  2257.4000    173.5662      2.4466   -999.2500   -999.2500
  2257.5000     78.6264      2.3042   -999.2500   -999.2500
  2257.6000     78.6264      2.3042   -999.2500   -999.2500
  2257.7000     78.6264      2.3042   -999.2500   -999.2500
  2257.8000     28.9072      2.2183   -999.2500   -999.2500
  2257.9000     28.9072      2.2183   -999.2500   -999.2500
