~Version Information
VERS.                      2.0: CWLS Log ASCII Standard - VERSION 2.0
WRAP.                       NO: One line per depth step
~Well Information Block
STRT.FT               953.8000: 
STOP.FT              2226.0000: 
STEP.FT                 0.1000: 
NULL.                -999.2500: 
COMP.          Petrogulf Corporation: COMPANY
WELL.             Burson 8-13R: WELL
FLD.           Purgatorie River: FIELD
LOC.           1045' FNL & 2189' FEL: LOCATION
CNTY.               Las Animas: COUNTY
SRVC.                         : SERVICE COMPANY
DATE.          Fri Apr 30 07:30:36 2004: LOG DATE
UWI.           05 071 08039 00: UNIQUE WELL ID
STAT.                 Colorado: STATE
~Curve Information Block
DEPT.FT            0 000 00 00: Depth
DCAL.in                       : CDL Caliper
RHOB.g/cc                     : CDL Bulk Density
RHOC.g/cc                     : CDL Density Correction
DPOR.pu                       : CDL Density Porosity
NPOR.pu                       : Neutron Porosity
GR.GAPI                       : Gamma Ray
~Parameter Information Block
~A  Depth       DCAL        RHOB        RHOC        DPOR        NPOR         GR     
# ...
  1856.2000      7.8664      2.5968      0.0345      3.2237     26.4187    146.2122
  1856.3000      7.8661      2.5769      0.0021      4.4290     27.1047    149.0080
  1856.4000      7.8661      2.5728      0.0475      4.6783     27.4820    152.1586
  1856.5000      7.8675      2.5816      0.0689      4.1425     27.5014    155.1462
  1856.6000      7.8675      2.5946      0.0304      3.3560     27.0628    153.0791
  1856.7000      7.8675      2.6015      0.0766      2.9381     26.4862    143.4878
  1856.8000      7.8659      2.5936      0.0526      3.4177     26.1058    132.9287
  1856.9000      7.8659      2.5770      0.0265      4.4258     26.1665    127.2877
  1857.0000      7.8665      2.5714      0.0183      4.7608     26.3708    123.4669
  1857.1000      7.8665      2.5843      0.0919      3.9836     26.2759    118.3740
  1857.2000      7.8665      2.6049      0.0526      2.7362     25.8552    116.3021
  1857.3000      7.8631      2.6251      0.0710      1.5111     25.4122    118.5464
  1857.4000      7.8631      2.6325      0.0924      1.0588     25.5278    122.3766
  1857.5000      7.8596      2.6204      0.0965      1.7942     26.1705    127.6975
  1857.6000      7.8596      2.6057      0.0644      2.6876     26.5599    131.5159
  1857.7000      7.8596      2.6026      0.1097      2.8742     26.4730    130.0967
  1857.8000      7.8607      2.6028      0.1105      2.8610     26.2319    125.5349
  1857.9000      7.8607      2.5960      0.0780      3.2709     25.6983    122.7812
  1858.0000      7.8601      2.5862      0.0618      3.8667     24.9798    126.8639
  1858.1000      7.8601      2.5780      0.0749      4.3612     24.8856    134.8895
  1858.2000      7.8601      2.5648      0.0635      5.1661     25.5494    136.8416
  1858.3000      7.8438      2.5501      0.0188      6.0540     26.1496    133.2313
  1858.4000      7.8438      2.5495      0.0311      6.0930     26.0751    132.1068
  1858.5000      7.8657      2.5565      0.0619      5.6675     25.4993    134.8631
  1858.6000      7.8657      2.5591      0.0503      5.5103     24.7524    140.6091
  1858.7000      7.8657      2.5666      0.0666      5.0558     24.2534    149.8872
  1858.8000      7.8701      2.5943      0.0484      3.3770     24.4807    158.4572
  1858.9000      7.8701      2.6354      0.0801      0.8849     25.1609    159.7886
  1859.0000      7.8642      2.6579      0.1451     -0.4808     25.7725    156.1149
  1859.1000      7.8642      2.6451      0.1018      0.2988     26.2120    154.0837
  1859.2000      7.8642      2.6165      0.0559      2.0327     26.7197    152.1460
  1859.3000      7.8652      2.5949      0.0353      3.3395     27.5925    146.5045
  1859.4000      7.8652      2.5825      0.0539      4.0930     28.6192    139.6219
  1859.5000      7.8653      2.5760      0.0301      4.4857     29.2096    135.4663
  1859.6000      7.8653      2.5733      0.0629      4.6512     28.9154    138.2587
  1859.7000      7.8653      2.5637      0.0528      5.2314     27.9607    150.7790
  1859.8000      7.8686      2.5465     -0.0175      6.2716     27.2048    163.5963
  1859.9000      7.8686      2.5361      0.0186      6.9021     27.0132    162.0952
  1860.0000      7.8658      2.5371      0.0215      6.8435     27.0746    150.1783
  1860.1000      7.8658      2.5451      0.0523      6.3581     27.3516    144.6536
  1860.2000      7.8658      2.5603      0.0229      5.4390     27.8633    149.5032
  1860.3000      7.8644      2.5770      0.0844      4.4263     28.0388    152.6105
  1860.4000      7.8644      2.5766      0.0686      4.4478     27.6051    148.2484
  1860.5000      7.8675      2.5558      0.0053      5.7110     27.1341    147.1699
  1860.6000      7.8675      2.5313      0.0215      7.1962     27.2021    152.1008
  1860.7000      7.8675      2.5174     -0.0085      8.0372     27.5971    151.9302
  1860.8000      7.8718      2.5172      0.0441      8.0508     27.7533    145.9545
  1860.9000      7.8718      2.5258      0.0257      7.5284     27.6678    142.9177
  1861.0000      7.8644      2.5426      0.0582      6.5072     27.7407    147.0190
  1861.1000      7.8644      2.5592      0.0944      5.5057     28.1180    155.0138
  1861.2000      7.8644      2.5590      0.0638      5.5178     28.4749    156.0333
  1861.3000      7.8643      2.5468      0.0031      6.2517     28.7258    146.2443
  1861.4000      7.8643      2.5378      0.0593      6.7983     29.0473    138.7378
  1861.5000      7.8628      2.5331      0.0516      7.0871     29.0521    142.2027
  1861.6000      7.8628      2.5321      0.0695      7.1438     28.7730    148.0366
  1861.7000      7.8628      2.5394      0.0757      6.7021     28.7100    149.9341
  1861.8000      7.8657      2.5495      0.1112      6.0881     28.7479    151.8322
  1861.9000      7.8657      2.5453      0.0878      6.3436     28.6839    155.0747
  1862.0000      7.8702      2.5275      0.0766      7.4225     28.5321    156.2936
  1862.1000      7.8702      2.5170      0.0822      8.0605     28.3053    154.6429
  1862.2000      7.8702      2.5250      0.0929      7.5782     27.9460    152.1883
  1862.3000      7.8731      2.5438      0.1153      6.4365     27.6732    147.8643
  1862.4000      7.8731      2.5586      0.1293      5.5383     27.8376    141.4585
  1862.5000      7.8744      2.5683      0.1243      4.9535     28.1983    137.0283
  1862.6000      7.8744      2.5829      0.1615      4.0638     28.2229    136.3543
  1862.7000      7.8744      2.5976      0.1809      3.1763     27.9293    140.6825
  1862.8000      7.8901      2.5971      0.1589      3.2083     27.9078    148.3392
  1862.9000      7.8901      2.5812      0.1214      4.1672     28.5750    150.7467
  1863.0000      7.8907      2.5660      0.1008      5.0889     29.3583    146.4970
  1863.1000      7.8907      2.5635      0.1202      5.2448     29.4840    143.0350
  1863.2000      7.8907      2.5686      0.1446      4.9353     28.8931    142.9171
  1863.3000      7.8854      2.5727      0.0829      4.6836     28.0209    142.1347
  1863.4000      7.8854      2.5766      0.0755      4.4505     27.3051    140.8265
  1863.5000      7.8981      2.5822      0.0834      4.1072     26.7808    144.3086
  1863.6000      7.8981      2.5908      0.1205      3.5887     26.2436    153.7879
  1863.7000      7.8981      2.6024      0.1367      2.8855     25.6935    162.5504
  1863.8000      7.9013      2.6123      0.1048      2.2840     25.4957    162.7843
  1863.9000      7.9013      2.6187      0.1108      1.8972     25.8546    156.8905
  1864.0000      7.9021      2.6228      0.1267      1.6512     26.4256    151.4414
  1864.1000      7.9021      2.6258      0.0811      1.4664     26.7120    146.4744
  1864.2000      7.9021      2.6293      0.1109      1.2562     26.7571    139.9784
  1864.3000      7.8979      2.6257      0.1272      1.4736     26.8994    134.9540
  1864.4000      7.8979      2.6093      0.0897      2.4682     27.2547    134.2870
  1864.5000      7.9035      2.5875      0.0609      3.7899     28.1371    135.9214
  1864.6000      7.9035      2.5685      0.0591      4.9424     29.5632    139.3544
  1864.7000      7.9035      2.5554      0.0597      5.7334     30.6617    142.7744
  1864.8000      7.9079      2.5444      0.0731      6.3976     31.0029    144.2828
  1864.9000      7.9079      2.5252      0.0698      7.5632     31.0277    145.2410
  1865.0000      7.9062      2.4925      0.0461      9.5462     30.9668    147.6330
  1865.1000      7.9062      2.4498      0.0275     12.1318     30.9073    153.4230
  1865.2000      7.9062      2.4079      0.0059     14.6747     31.1033    160.2345
  1865.3000      7.9095      2.3845     -0.0268     16.0932     31.4560    163.7133
  1865.4000      7.9095      2.3905      0.0388     15.7254     31.2918    163.0590
  1865.5000      7.9554      2.4208      0.0377     13.8921     30.3665    158.4485
  1865.6000      7.9554      2.4638      0.0819     11.2873     29.4184    151.1789
  1865.7000      7.9554      2.5034      0.0694      8.8836     29.2278    146.3481
