~Version Information
VERS.                      2.0: CWLS Log ASCII Standard - VERSION 2.0
WRAP.                       NO: One line per depth step
~Well Information Block
STRT.FT               390.0000: 
STOP.FT              2768.7000: 
STEP.FT                 0.1000: 
NULL.                -999.2500: 
COMP.          Pioneer Natural Resources: COMPANY
WELL.              Lynch 43-30: WELL
FLD.           Purgatoire River: FIELD
LOC.           1438' FSL & 429' FEL: LOCATION
PROV.                 Colorado: PROVINCE
CNTY.               Las Animas: COUNTRY
SRVC.                Patterson: SERVICE COMPANY
DATE.          Wed Oct 27 08:22:00 2004: LOG DATE
UWI.           05 071 08170 00: UNIQUE WELL ID
~Curve Information Block
DEPT.FT            0 000 00 00: Depth
DCAL.in                       : CDL Caliper
DPOR.pu                       : CDL Density Porosity
NPOR.pu                       : Neutron Porosity
RHOB.g/cc                     : CDL Bulk Density
RHOC.g/cc                     : CDL Density Correction
GR.GAPI                       : Gamma Ray
~Parameter Information Block
~A  Depth       DCAL        DPOR        NPOR        RHOB        RHOC         GR     
# ...
  1330.8000      7.9931      3.1932     23.3617      2.5973     -0.0004    107.4236
  1330.9000      7.9931      4.7510     24.4260      2.5716     -0.0349    115.0444
  1331.0000      7.9924      5.6734     25.2176      2.5564     -0.0399    120.2979
  1331.1000      7.9924      5.7064     25.5578      2.5558      0.0127    123.3628
  1331.2000      7.9924      5.7683     25.9722      2.5548      0.0037    128.6779
  1331.3000      7.9957      6.3456     26.4761      2.5453      0.0353    136.8085
  1331.4000      7.9957      7.3858     26.9610      2.5281      0.0424    141.5116
  1331.5000      8.0143      8.3476     27.4754      2.5123     -0.0222    140.2025
  1331.6000      8.0143      8.3955     27.6267      2.5115      0.0024    138.0064
  1331.7000      8.0143      7.2142     26.9693      2.5310      0.0000    138.1090
  1331.8000      8.0184      5.1579     26.0540      2.5649      0.0343    135.8999
  1331.9000      8.0184      2.9644     25.5158      2.6011      0.0473    129.8761
  1332.0000      8.0146      1.2946     25.1464      2.6286      0.0717    125.9926
  1332.1000      8.0146      0.2795     25.0209      2.6454      0.0747    126.3671
  1332.2000      8.0146     -0.3616     25.1763      2.6560      0.0788    125.8447
  1332.3000      8.0018     -0.4770     25.0994      2.6579      0.0790    121.5578
  1332.4000      8.0018      0.2696     25.0325      2.6456      0.0364    116.8788
  1332.5000      8.0229      1.6149     25.2846      2.6234      0.0459    115.4018
  1332.6000      8.0229      2.7696     25.1456      2.6043      0.0060    115.5224
  1332.7000      8.0229      2.4669     24.3070      2.6093      0.0091    114.1086
  1332.8000      7.9939      0.3716     23.5129      2.6439      0.0226    109.2563
  1332.9000      7.9939     -2.1954     23.3784      2.6862      0.0336    100.8217
  1333.0000      7.9865     -3.9720     23.5370      2.7155      0.0300     94.2800
  1333.1000      7.9865     -4.8031     23.4117      2.7293      0.0437     94.3462
  1333.2000      7.9865     -4.9711     23.0012      2.7320      0.0731    100.0193
  1333.3000      7.9773     -4.7721     22.7523      2.7287      0.0428    109.0681
  1333.4000      7.9773     -4.0206     23.1797      2.7163      0.0665    117.2188
  1333.5000      7.9673     -2.3742     23.5619      2.6892      0.0369    118.6310
  1333.6000      7.9673     -0.7848     22.9640      2.6629     -0.0127    112.6790
  1333.7000      7.9673     -0.1192     21.8627      2.6520      0.0226    104.7072
  1333.8000      7.9703     -0.1721     21.0243      2.6528     -0.0123    101.7865
  1333.9000      7.9703     -1.1522     20.6593      2.6690     -0.0088    105.0146
  1334.0000      7.9668     -2.4093     20.6385      2.6898      0.0719    110.2393
  1334.1000      7.9668     -2.7141     20.6942      2.6948      0.0576    113.6118
  1334.2000      7.9668     -2.3178     20.8540      2.6882      0.0584    111.8399
  1334.3000      7.9672     -1.9695     20.9951      2.6825      0.0149    109.5484
  1334.4000      7.9672     -1.5536     20.8173      2.6756      0.0726    113.3614
  1334.5000      7.9881     -0.8240     20.6900      2.6636      0.0233    121.2447
  1334.6000      7.9881     -0.7477     20.9623      2.6623      0.0088    127.5218
  1334.7000      7.9881     -1.9279     21.6278      2.6818     -0.0014    129.2784
  1334.8000      7.9914     -3.2919     22.5285      2.7043      0.0457    129.9887
  1334.9000      7.9914     -3.8263     23.4297      2.7131      0.0268    131.0677
  1335.0000      7.9980     -3.6357     24.1454      2.7100      0.0353    126.7691
  1335.1000      7.9980     -3.2089     24.5572      2.7029     -0.0464    116.6143
  1335.2000      7.9980     -3.1268     24.8850      2.7016     -0.0336    109.5466
  1335.3000      8.0218     -3.3670     25.3676      2.7056     -0.0050    112.6640
  1335.4000      8.0218     -2.6949     25.9189      2.6945      0.0188    123.9202
  1335.5000      8.0479     -0.4084     26.5502      2.6567     -0.0617    132.1311
  1335.6000      8.0479      2.4120     27.0579      2.6102     -0.0495    132.0574
  1335.7000      8.0479      4.5421     26.9295      2.5751     -0.0714    130.0323
  1335.8000      8.0536      5.5568     26.4562      2.5583     -0.0432    130.5619
  1335.9000      8.0536      5.8210     26.1250      2.5540     -0.0915    133.0946
  1336.0000      8.0523      5.9374     25.9659      2.5520     -0.0265    137.1737
  1336.1000      8.0523      6.5836     26.0678      2.5414     -0.0235    144.7600
  1336.2000      8.0523      7.9940     26.2284      2.5181     -0.0347    153.5181
  1336.3000      8.0515      9.3220     26.0049      2.4962     -0.0495    154.8873
  1336.4000      8.0515      9.7282     25.6712      2.4895      0.0021    147.1557
  1336.5000      8.0316      9.8087     25.5718      2.4882      0.0642    136.4240
  1336.6000      8.0316     10.6323     25.4895      2.4746      0.0070    127.7501
  1336.7000      8.0316     11.4803     25.4530      2.4606     -0.0385    123.3380
  1336.8000      8.0131     10.5816     25.4108      2.4754     -0.0388    123.0497
  1336.9000      8.0131      7.7427     24.8733      2.5222      0.0358    124.5569
  1337.0000      8.0021      4.5398     24.3324      2.5751      0.1138    125.8220
  1337.1000      8.0021      2.3460     24.4821      2.6113      0.1571    126.7216
  1337.2000      8.0021      1.1887     25.1165      2.6304      0.1645    126.7453
  1337.3000      8.0215      0.2676     25.7940      2.6456      0.1483    123.6270
  1337.4000      8.0215     -0.6598     26.0534      2.6609      0.1675    119.9252
  1337.5000      7.9962     -0.6072     25.7384      2.6600      0.1601    121.5082
  1337.6000      7.9962      0.6782     25.2768      2.6388      0.0707    127.7327
  1337.7000      7.9962      1.9895     24.7475      2.6172      0.0744    132.6319
  1337.8000      7.9869      2.8319     24.1310      2.6033      0.0698    132.3815
  1337.9000      7.9869      3.2954     23.9570      2.5956      0.0430    125.4913
  1338.0000      7.9962      3.0147     24.5226      2.6003      0.0211    116.1171
  1338.1000      7.9962      2.2312     25.2597      2.6132      0.0716    112.9487
  1338.2000      7.9962      1.3942     25.0740      2.6270      0.0315    115.8899
  1338.3000      8.0081      0.3753     23.9379      2.6438      0.0879    117.9980
  1338.4000      8.0081     -0.2700     23.0855      2.6545      0.0937    115.6538
  1338.5000      8.0019      0.1927     23.1828      2.6468      0.0684    111.9615
  1338.6000      8.0019      1.5931     23.9523      2.6237      0.0719    110.5949
  1338.7000      8.0019      3.1748     24.7833      2.5976      0.0193    110.4914
  1338.8000      7.9867      4.1579     25.5011      2.5814     -0.0045    110.7783
  1338.9000      7.9867      4.7622     26.4473      2.5714      0.0134    112.7565
  1339.0000      7.9850      5.7860     27.4826      2.5545      0.0069    115.3649
  1339.1000      7.9850      7.3373     27.7325      2.5289      0.0059    120.2396
  1339.2000      7.9850      8.6791     27.1146      2.5068     -0.0107    129.9677
  1339.3000      7.9938      8.5682     26.2236      2.5086     -0.0135    139.1229
  1339.4000      7.9938      7.0176     25.2394      2.5342      0.0372    142.7063
  1339.5000      7.9903      6.0753     24.6926      2.5498      0.1029    145.0616
  1339.6000      7.9903      6.5955     25.0073      2.5412     -0.0035    147.9537
  1339.7000      7.9903      6.9545     25.5920      2.5353      0.0266    146.4002
  1339.8000      7.9894      6.6463     25.8216      2.5403      0.0735    142.8819
  1339.9000      7.9894      6.8698     25.6558      2.5366      0.0895    143.4793
  1340.0000      7.9882      7.9109     25.4192      2.5195      0.0832    145.9622
  1340.1000      7.9882      8.6792     25.3585      2.5068      0.0005    146.8160
  1340.2000      7.9882      8.3729     25.4513      2.5118      0.0383    145.4192
  1340.3000      7.9931      7.3948     25.5234      2.5280      0.0526    142.3313
