~Version Information
VERS.                      2.0: CWLS Log ASCII Standard - VERSION 2.0
WRAP.                       NO: One line per depth step
~Well Information Block
STRT.FT               710.0000: 
STOP.FT              2921.0000: 
STEP.FT                 0.1000: 
NULL.                -999.2500: 
COMP.          Petrogulf Corporation: COMPANY
WELL.            Montoya 1-41V: WELL
FLD.           Purgatorie River: FIELD
LOC.           610' FNL & 1205' FEL: LOCATION
PROV.                 Colorado: PROVINCE
CNTY.               Las Animas: COUNTRY
SRVC.                Patterson: SERVICE COMPANY
DATE.          Mon Aug 22 07:54:27 2005: LOG DATE
UWI.                          : UNIQUE WELL ID
~Curve Information Block
DEPT.FT            0 000 00 00: Depth
DCAL.in                       : CDL Caliper
RHOB.g/cc                     : CDL Bulk Density
RHOC.g/cc                     : CDL Density Correction
DPOR.pu                       : CDL Density Porosity
GR.GAPI                       : Gamma Ray
NPOR.pu                       : Neutron Porosity
~Parameter Information Block
~A  Depth       DCAL        RHOB        RHOC        DPOR         GR         NPOR    
   710.0000      8.0991      2.1886     -0.4394     27.9628     75.5164     36.6802
   710.1000      8.0991      2.2009     -0.4447     27.2157     79.7018     37.0106
   710.2000      8.0991      2.2180     -0.4063     26.1798     84.4716     37.2822
   710.3000      8.0874      2.2295     -0.3913     25.4876     87.6290     37.3344
   710.4000      8.0874      2.2345     -0.4545     25.1825     88.4744     37.2622
   710.5000      8.0710      2.2436     -0.3958     24.6332     89.6435     37.3550
   710.6000      8.0710      2.2482     -0.3735     24.3485     92.4641     37.5728
   710.7000      8.0710      2.2347     -0.3739     25.1677     94.9950     37.6553
   710.8000      8.0726      2.2220     -0.4572     25.9421     96.1449     37.4660
   710.9000      8.0726      2.2379     -0.4011     24.9764     97.2676     37.1154
   711.0000      8.0917      2.2690     -0.3134     23.0895     99.9749     36.9191
   711.1000      8.0917      2.2864     -0.3641     22.0346    103.8443     37.0181
   711.2000      8.0917      2.2919     -0.3454     21.7050    106.2119     37.2962
   711.3000      8.1020      2.3008     -0.3830     21.1614    105.3898     37.6342
   711.4000      8.1020      2.3117     -0.3159     20.5037    101.8896     37.8597
   711.5000      8.1318      2.3181     -0.3789     20.1140     97.3646     37.8348
   711.6000      8.1318      2.3333     -0.3770     19.1912     94.0408     37.6804
   711.7000      8.1318      2.3565     -0.2987     17.7879     91.8556     37.5398
   711.8000      8.1388      2.3639     -0.3279     17.3377     90.8801     37.4380
   711.9000      8.1388      2.3541     -0.3482     17.9330     92.6276     37.3617
   712.0000      8.1426      2.3422     -0.3384     18.6548     94.2359     37.3732
   712.1000      8.1426      2.3379     -0.3714     18.9124     91.8453     37.4495
   712.2000      8.1426      2.3446     -0.3371     18.5077     87.0049     37.4328
   712.3000      8.1396      2.3517     -0.3220     18.0801     83.9223     37.3557
   712.4000      8.1396      2.3420     -0.3399     18.6640     83.3631     37.3140
   712.5000      8.1409      2.3198     -0.4367     20.0107     83.5584     37.3340
   712.6000      8.1409      2.3090     -0.4119     20.6644     83.5168     37.4299
   712.7000      8.1409      2.3210     -0.3952     19.9388     81.4722     37.4741
   712.8000      8.1360      2.3473     -0.3682     18.3427     77.5620     37.3748
   712.9000      8.1360      2.3678     -0.3666     17.1030     75.3012     37.3121
   713.0000      8.1346      2.3660     -0.3867     17.2133     76.8054     37.3060
   713.1000      8.1346      2.3492     -0.3796     18.2327     80.5617     37.1384
   713.2000      8.1346      2.3362     -0.3741     19.0182     83.2307     36.9237
   713.3000      8.1310      2.3374     -0.3979     18.9455     82.5540     36.8167
   713.4000      8.1310      2.3493     -0.3237     18.2253     79.6297     36.7230
   713.5000      8.1389      2.3583     -0.3627     17.6813     76.2977     36.6649
   713.6000      8.1389      2.3570     -0.3410     17.7556     75.1032     36.6240
   713.7000      8.1389      2.3476     -0.3435     18.3251     76.8183     36.4906
   713.8000      8.1156      2.3395     -0.3649     18.8198     78.5827     36.3256
   713.9000      8.1156      2.3430     -0.3444     18.6034     79.5236     36.3155
   714.0000      8.1040      2.3527     -0.3505     18.0202     80.5300     36.6182
   714.1000      8.1040      2.3524     -0.3304     18.0394     81.7738     37.0601
   714.2000      8.1040      2.3485     -0.4160     18.2722     83.4872     37.2603
   714.3000      8.1071      2.3621     -0.3737     17.4483     87.1802     37.1868
   714.4000      8.1071      2.3850     -0.3658     16.0597     93.6482     37.1538
   714.5000      8.1016      2.3921     -0.3083     15.6304     99.8359     37.2836
   714.6000      8.1016      2.3775     -0.3565     16.5140    103.4551     37.4247
   714.7000      8.1016      2.3545     -0.3845     17.9109    104.5711     37.5990
   714.8000      8.1022      2.3370     -0.3997     18.9675    103.0264     37.8564
   714.9000      8.1022      2.3310     -0.4215     19.3306     99.8112     38.0827
   715.0000      8.0983      2.3311     -0.3802     19.3247     96.9694     38.2089
   715.1000      8.0983      2.3280     -0.3543     19.5152     96.0865     38.2426
   715.2000      8.0983      2.3278     -0.3772     19.5264     97.3882     38.2120
   715.3000      8.1234      2.3453     -0.3480     18.4647    100.7048     38.2198
   715.4000      8.1234      2.3741     -0.3356     16.7221    104.7861     38.3188
   715.5000      8.1282      2.3900     -0.3338     15.7572    107.2856     38.4920
   715.6000      8.1282      2.3907     -0.3842     15.7143    106.5994     38.7127
   715.7000      8.1282      2.3963     -0.3179     15.3760    103.3425     38.8979
   715.8000      8.1374      2.4139     -0.3335     14.3104    100.3184     39.0480
   715.9000      8.1374      2.4281     -0.2680     13.4501     98.9849     39.2574
   716.0000      8.1394      2.4169     -0.3057     14.1247     97.9885     39.5175
   716.1000      8.1394      2.3795     -0.3353     16.3965     97.3486     39.6918
   716.2000      8.1394      2.3390     -0.4011     18.8478     99.0492     39.6338
   716.3000      8.1446      2.3218     -0.4286     19.8925    101.4998     39.3510
   716.4000      8.1446      2.3292     -0.3930     19.4414     99.9902     38.9689
   716.5000      8.1446      2.3338     -0.3704     19.1635     95.4946     38.7006
   716.6000      8.1446      2.3235     -0.4291     19.7862     92.6913     38.7962
   716.7000      8.1446      2.3201     -0.3861     19.9941     91.8584     39.0996
   716.8000      8.1388      2.3320     -0.3751     19.2710     92.3034     39.2116
   716.9000      8.1388      2.3445     -0.3571     18.5176     95.8560     39.0617
   717.0000      8.1346      2.3508     -0.3569     18.1362    100.5716     38.8336
   717.1000      8.1346      2.3563     -0.3492     17.7978    102.8348     38.6953
   717.2000      8.1346      2.3578     -0.3260     17.7108    104.7560     38.7056
   717.3000      8.1338      2.3461     -0.3515     18.4170    109.1358     38.7593
   717.4000      8.1338      2.3252     -0.3791     19.6822    115.4555     38.8621
   717.5000      8.1121      2.3072     -0.3961     20.7779    121.5896     39.0611
   717.6000      8.1121      2.3008     -0.3999     21.1665    122.8019     39.1776
   717.7000      8.1121      2.3094     -0.3926     20.6412    116.7137     39.2050
   717.8000      8.1021      2.3289     -0.3508     19.4602    108.9098     39.4152
   717.9000      8.1021      2.3440     -0.3167     18.5425    105.1447     39.8035
   718.0000      8.1056      2.3395     -0.3143     18.8208    104.7186     40.0668
   718.1000      8.1056      2.3221     -0.3798     19.8747    103.9481     40.0571
   718.2000      8.1056      2.3158     -0.3727     20.2540    101.6380     39.8560
   718.3000      8.1026      2.3309     -0.3619     19.3394    100.7065     39.7414
   718.4000      8.1026      2.3533     -0.3448     17.9846    103.5172     39.8907
   718.5000      8.1153      2.3597     -0.2542     17.5936    108.2263     40.0236
   718.6000      8.1153      2.3493     -0.3756     18.2248    112.1767     39.8808
   718.7000      8.1153      2.3387     -0.2872     18.8672    113.5249     39.6949
   718.8000      8.1287      2.3254     -0.2959     19.6702    112.7975     39.7768
   718.9000      8.1287      2.3026     -0.3276     21.0544    112.3680     39.9853
   719.0000      8.1335      2.2814     -0.3832     22.3398    113.4282     40.0784
   719.1000      8.1335      2.2725     -0.3616     22.8808    115.6020     40.1040
   719.2000      8.1335      2.2644     -0.3538     23.3720    116.7468     40.2074
   719.3000      8.1557      2.2491     -0.4545     24.2973    116.6336     40.3767
   719.4000      8.1557      2.2337     -0.3674     25.2331    118.0522     40.3697
   719.5000      8.1490      2.2188     -0.3780     26.1335    119.6871     40.1187
