~Version Information
 VERS.                                  2.0 : CWLS LAS VERSION
 WRAP.                                   NO : WRAPING MODE
 SWARE .                 MController 2.5.0I : SOFTWARE VERSION
~Well Information
 WELL.                        Montoya 7-21v : WELL
 COMP.                       Petrogulf Corp : COMPANY
 FLD.                      Purgatorie River : FIELD
 LOC.                 NE/NW Sec 7 T33S R67W : LOCATION
 DATE.                                  N/A : DATE(S) LOGGED
 SRVC.       Blanco Geological Services LLC : SERVICE COMPANY
 STAT.                                   CO : STATE
 CNTY.                           Las Animas : COUNTY
 CTRY.                                  USA : COUNTRY
 API.                       05-071-08018-00 : API NUMBER
 STRT.FT                             836.00 : START DEPTH
 STOP.FT                            2421.00 : STOP DEPTH
 STEP.FT                               1.00 : DEPTH INCREMENT
 NULL.                                -9999 : NULL VALUE
~Curve information
 DEPTH.FT                                   :
 ROP.MIN/FT                                 :
 GAS.UNITS                                  :
~ASCII Log data
       836.0      -9999.0          1.2 
       837.0          0.2          1.6 
       838.0          0.2          1.5 
       839.0          0.3          1.9 
       840.0          0.1          1.8 
       841.0          0.2          1.8 
       842.0          0.2          1.6 
       843.0          0.2          1.6 
       844.0          0.2          2.0 
       845.0          0.2          2.0 
       846.0          0.1          1.8 
       847.0          0.2          1.9 
       848.0          0.1          1.9 
       849.0          0.1          1.8 
       850.0          0.1          1.7 
       851.0          0.1          1.7 
       852.0          0.2          1.7 
       853.0          0.1          1.7 
       854.0          0.1          1.6 
       855.0          0.1          1.8 
       856.0          0.2          1.8 
       857.0          0.1          1.7 
       858.0          0.2          1.7 
       859.0          0.2          1.7 
       860.0          0.2          1.6 
       861.0          0.2          1.8 
       862.0          0.1          1.9 
       863.0          0.2          1.8 
       864.0          0.2          1.7 
       865.0          0.2          1.7 
       866.0          0.2          1.6 
       867.0          0.2          1.7 
       868.0          2.1          1.9 
       869.0          0.2          1.7 
       870.0          0.2          1.7 
       871.0          0.3          1.6 
       872.0          0.2          1.7 
       873.0          0.2          1.4 
       874.0          0.2          1.6 
       875.0          0.1          1.4 
       876.0          0.1          1.7 
       877.0          0.2          1.5 
       878.0          0.2          1.9 
       879.0          0.2          1.8 
       880.0          0.2          1.7 
       881.0          0.2          1.6 
       882.0          0.3          1.5 
       883.0          0.2          1.6 
       884.0          0.2          1.4 
       885.0          0.2          1.5 
       886.0          0.2          1.5 
       887.0          0.2          1.6 
       888.0          0.1          1.4 
       889.0          0.2          1.4 
       890.0          0.2          1.3 
       891.0          0.1          1.3 
       892.0          0.1          1.5 
       893.0          0.2          1.5 
       894.0          0.1          1.5 
       895.0          0.2          1.4 
       896.0          0.1          1.5 
       897.0          0.2          1.4 
       898.0          1.5          1.3 
       899.0          0.2          1.0 
       900.0          0.2          0.9 
       901.0          0.2          1.1 
       902.0          0.2          1.2 
       903.0          0.2          1.1 
       904.0          0.2          1.3 
       905.0          0.2          0.9 
       906.0          0.2          0.9 
       907.0          0.2          0.7 
       908.0          0.2          1.0 
       909.0          0.2          1.0 
       910.0          0.2          0.9 
       911.0          0.2          1.0 
       912.0          0.2          0.7 
       913.0          0.2          1.0 
       914.0          0.2          0.9 
       915.0          0.2          0.8 
       916.0          0.2          0.9 
       917.0          0.2          1.1 
       918.0          0.1          1.1 
       919.0          0.2          1.0 
       920.0          0.1          1.1 
       921.0          0.1          0.7 
       922.0          0.1          0.8 
       923.0          0.1          0.7 
       924.0          0.2          1.0 
       925.0          0.2          1.0 
       926.0          0.2          1.0 
       927.0          0.2          1.0 
       928.0          1.3          1.2 
       929.0          0.1          1.0 
       930.0          0.4          1.3 
       931.0          0.3          1.1 
       932.0          0.2          1.0 
       933.0          0.2          1.0 
       934.0          0.2          0.8 
       935.0          0.2          1.0 
       936.0          0.2          0.9 
       937.0          0.2          0.9 
       938.0          0.2          1.1 
       939.0          0.2          1.0 
       940.0          0.2          0.6 
       941.0          0.2          0.6 
       942.0          0.2          0.7 
       943.0          0.2          1.0 
       944.0          0.2          1.0 
       945.0          0.2          0.7 
       946.0          0.2          0.9 
       947.0          0.2          0.8 
       948.0          0.2          0.8 
       949.0          0.2          0.7 
       950.0          0.2          0.8 
       951.0          0.1          0.9 
       952.0          0.2          0.8 
       953.0          0.2          0.9 
       954.0          0.1          0.9 
       955.0          0.1          0.8 
       956.0          0.2          0.8 
       957.0          0.1          0.8 
       958.0          2.0          1.2 
       959.0          0.2          0.8 
       960.0          0.2          0.7 
       961.0          0.2          0.9 
       962.0          0.2          0.8 
       963.0          0.2          0.9 
       964.0          0.2          0.8 
       965.0          0.2          0.8 
       966.0          0.2          0.7 
       967.0          0.2          0.9 
       968.0          0.2          0.8 
       969.0          0.2          0.5 
       970.0          0.2          0.6 
       971.0          0.2          0.7 
       972.0          0.1          0.6 
       973.0          0.2          0.5 
       974.0          0.2          0.6 
       975.0          0.2          0.7 
       976.0          0.2          0.7 
       977.0          0.2          0.7 
       978.0          0.2          0.7 
       979.0          0.2          0.5 
       980.0          0.2          0.5 
       981.0          0.2          0.3 
       982.0          0.2          0.4 
       983.0          0.2          0.4 
       984.0          0.2          0.4 
       985.0          0.2          0.5 
       986.0          0.2          0.7 
       987.0          0.2          0.8 
       988.0          2.5          1.1 
       989.0          0.4          0.6 
       990.0          0.2          0.8 
       991.0          0.1          0.9 
       992.0          0.2          0.7 
       993.0          0.3          0.6 
       994.0          0.3          0.7 
       995.0          0.2          0.7 
       996.0          0.3          0.7 
       997.0          0.2          0.6 
       998.0          0.2          0.8 
       999.0          0.2          0.6 
      1000.0          0.2          0.5 
      1001.0          0.2          0.5 
      1002.0          0.2          0.7 
      1003.0          0.2          0.7 
      1004.0          0.2          0.4 
      1005.0          0.1          0.5 
      1006.0          0.1          0.5 
      1007.0          0.2          0.5 
      1008.0          0.2          0.8 
      1009.0          0.1          0.6 
      1010.0          0.2          0.3 
      1011.0          0.2          0.3 
      1012.0          0.2          0.6 
      1013.0          0.2          0.6 
      1014.0          0.2          0.5 
      1015.0          0.2          0.5 
      1016.0          0.2          0.6 
      1017.0          0.1          0.8 
      1018.0          2.1          0.7 
      1019.0          0.4          0.7 
      1020.0          0.4          0.8 
      1021.0          0.3          0.7 
      1022.0          0.3          0.6 
      1023.0          0.2          0.5 
      1024.0          0.2          0.6 
      1025.0          0.2          0.5 
      1026.0          0.2          0.4 
      1027.0          0.3          0.5 
      1028.0          0.2          0.1 
      1029.0          0.2          0.5 
      1030.0          0.3          0.4 
      1031.0          0.2          0.4 
      1032.0          0.2          0.6 
      1033.0          0.2          0.4 
      1034.0          0.2          0.2 
      1035.0          0.2          0.4 
