~Version Information
VERS.                      2.0: CWLS Log ASCII Standard - VERSION 2.0
WRAP.                       NO: One line per depth step
~Well Information Block
STRT.FT               846.5000: 
STOP.FT              2610.0000: 
STEP.FT                 0.2500: 
NULL.                -999.2500: 
COMP.          Petrogulf Corporation: COMPANY
WELL.            Lavedure 7-44: WELL
FLD.           Purgatoire River: FIELD
LOC.           969' FSL & 501' FEL: LOCATION
PROV.                 Colorado: PROVINCE
CNTY.               Las Animas: COUNTRY
SRVC.                Patterson: SERVICE COMPANY
DATE.          Sun Dec 07 15:26:03 2003: LOG DATE
UWI.                          : UNIQUE WELL ID
~Curve Information Block
DEPT.FT            0 000 00 00: Depth
SP.mV                         : DIL Spontaneous Potential
RILD.Ohm-m                    : DIL Deep Resistivity
RILM.Ohm-m                    : DIL Medium Resistivity
RLL3.Ohm-m                    : DIL Shallow Resistivity
GR.GAPI                       : Gamma Ray
~Parameter Information Block
~A  Depth        SP         RILD        RILM        RLL3         GR     
# ...
  2582.5000    -53.6578      6.9617      8.9109     10.9416    102.7863
  2582.7500    -53.2477      6.9993      8.9112     10.8495    105.1106
  2583.0000    -52.7445      7.0295      8.8957     10.6665    108.7779
  2583.2500    -52.1927      7.0418      8.8768     10.4360    110.4797
  2583.5000    -51.6506      7.0346      8.8655     10.2236    110.5727
  2583.7500    -51.1575      7.0154      8.8656     10.1080    108.2744
  2584.0000    -50.7198      6.9950      8.8728     10.1397     99.1571
  2584.2500    -50.3201      6.9816      8.8778     10.2908     87.8911
  2584.5000    -49.9445      6.9783      8.8722     10.4493     63.6319
  2584.7500    -49.6100      6.9838      8.8545     10.4833     45.4755
  2585.0000    -49.3741      6.9951      8.8315     10.3301     22.1598
  2585.2500    -49.3140      7.0098      8.8161     10.0287     11.7214
  2585.5000    -49.4779      7.0266      8.8220      9.6876      3.4994
  2585.7500    -49.8354      7.0453      8.8584      9.4415      1.3101
  2586.0000    -50.2659      7.0654      8.9268      9.4178      0.2270
  2586.2500    -50.6071      7.0871      9.0202      9.6798      0.0572
  2586.5000    -50.7333      7.1108      9.1228     10.1565      0.0038
  2586.7500    -50.6122      7.1375      9.2157     10.6432   -999.2500
  2587.0000    -50.3054      7.1676      9.2841     10.9167   -999.2500
  2587.2500    -49.9188      7.1999      9.3257     10.8795   -999.2500
  2587.5000    -49.5389      7.2319      9.3507     10.6196   -999.2500
  2587.7500    -49.1986      7.2595      9.3728     10.3532   -999.2500
  2588.0000    -48.8866      7.2768      9.3984     10.2920   -999.2500
  2588.2500    -48.5698      7.2762      9.4217     10.5121   -999.2500
  2588.5000    -48.2040      7.2492      9.4271     10.9073   -999.2500
  2588.7500    -47.7391      7.1878      9.3974     11.2684   -999.2500
  2589.0000    -47.1251      7.0874      9.3217     11.4326   -999.2500
  2589.2500    -46.3203      6.9503      9.1992     11.3700   -999.2500
  2589.5000    -45.3149      6.7877      9.0389     11.1363   -999.2500
  2589.7500    -44.1728      6.6190      8.8581     10.7723   -999.2500
  2590.0000    -43.0447      6.4651      8.6789     10.2839   -999.2500
  2590.2500    -42.1111      6.3415      8.5242      9.7159   -999.2500
  2590.5000    -41.4903      6.2542      8.4132      9.1970   -999.2500
  2590.7500    -41.1870      6.2008      8.3567      8.8869   -999.2500
  2591.0000    -41.1117      6.1745      8.3564      8.8856   -999.2500
  2591.2500    -41.1438      6.1677      8.4061      9.1882   -999.2500
  2591.5000    -41.1894      6.1743      8.4944      9.6857   -999.2500
  2591.7500    -41.2043      6.1903      8.6093     10.1969   -999.2500
  2592.0000    -41.1818      6.2130      8.7416     10.5530   -999.2500
  2592.2500    -41.1278      6.2529      8.8861     10.7149   -999.2500
  2592.5000    -41.0411      6.2992      9.0389     10.8197   -999.2500
  2592.7500    -40.9063      6.3407      9.1925     11.0706   -999.2500
  2593.0000    -40.6973      6.3876      9.3304     11.5406   -999.2500
  2593.2500    -40.3976      6.4341      9.4279     12.0755   -999.2500
  2593.5000    -40.0235      6.4698      9.4584     12.4002   -999.2500
  2593.7500    -39.6150      6.4835      9.4033     12.3305   -999.2500
  2594.0000    -39.1899      6.4691      9.2593     11.8979   -999.2500
  2594.2500    -38.7138      6.4291      9.0379     11.2913   -999.2500
  2594.5000    -38.1275      6.3739      8.7608     10.6918   -999.2500
  2594.7500    -37.3983      6.3215      8.4545     10.1534   -999.2500
  2595.0000    -36.5009      6.3009      8.1465      9.6247   -999.2500
  2595.2500    -35.3073      6.3625      7.8616      9.0713   -999.2500
  2595.5000    -33.4670      6.5922      7.6177      8.5644   -999.2500
  2595.7500    -30.4248      7.1293      7.4243      8.2350   -999.2500
  2596.0000    -25.7219      8.1819      7.2836      8.1434   -999.2500
  2596.2500    -19.5172     10.1969      7.1930      8.2107   -999.2500
  2596.5000    -12.8446     13.9543      7.1491      8.2970   -999.2500
  2596.7500     -7.1241     21.1025      7.1497      8.3446   -999.2500
  2597.0000     -3.2575     35.0851      7.1941      8.4417   -999.2500
  2597.2500     -1.2083     62.4575      7.2816      8.7600   -999.2500
  2597.5000     -0.3594    111.4532      7.4075      9.4519   -999.2500
  2597.7500     -0.0849    178.7949      7.5599     10.5850   -999.2500
  2598.0000     -0.0157    238.5957      7.7172     12.0857   -999.2500
  2598.2500     -0.0021    277.2178      7.8536     13.6448   -999.2500
  2598.5000   -999.2500    315.1202      7.9542     14.7095   -999.2500
  2598.7500   -999.2500    393.3141      8.0365     14.7537   -999.2500
  2599.0000   -999.2500    156.2797      8.1680     13.7053   -999.2500
  2599.2500   -999.2500    196.1298      8.4734     12.0727   -999.2500
  2599.5000   -999.2500    274.0395      9.1424     10.5763   -999.2500
  2599.7500   -999.2500    437.4067     10.4666      9.6549   -999.2500
  2600.0000   -999.2500    832.7402     12.9462      9.2878   -999.2500
  2600.2500   -999.2500   2141.4634     17.5426      9.1680   -999.2500
  2600.5000   -999.2500  22204.5742     26.2188      8.9891   -999.2500
  2600.7500   -999.2500 100000.0000     43.0286      8.6357   -999.2500
  2601.0000   -999.2500 100000.0000     75.5348      8.2012   -999.2500
  2601.2500   -999.2500 100000.0000    132.8966      7.8883   -999.2500
  2601.5000   -999.2500 100000.0000    210.9255      7.9017   -999.2500
  2601.7500   -999.2500 100000.0000    279.4814      8.3747   -999.2500
  2602.0000   -999.2500 100000.0000    317.5234      9.2995   -999.2500
  2602.2500   -999.2500 100000.0000    334.2054     10.4820   -999.2500
  2602.5000   -999.2500 100000.0000    343.1198     11.6094   -999.2500
  2602.7500   -999.2500 100000.0000    383.1945     12.4383   -999.2500
  2603.0000   -999.2500 100000.0000    390.9834     12.9334   -999.2500
  2603.2500   -999.2500 100000.0000    397.6984     13.2038   -999.2500
  2603.5000   -999.2500 100000.0000    402.6517     13.3283   -999.2500
  2603.7500   -999.2500 100000.0000    406.7782     13.3065   -999.2500
  2604.0000   -999.2500 100000.0000    413.5242     13.1504   -999.2500
  2604.2500   -999.2500 100000.0000    429.2475     12.8990   -999.2500
  2604.5000   -999.2500 100000.0000    463.7103     12.4592   -999.2500
  2604.7500   -999.2500 100000.0000    532.1953     11.4865   -999.2500
  2605.0000   -999.2500 100000.0000    661.7164      9.5731   -999.2500
  2605.2500   -999.2500 100000.0000    906.4649      6.6739   -999.2500
  2605.5000   -999.2500   -999.2500   1386.4276      3.3306   -999.2500
  2605.7500   -999.2500   -999.2500   2390.1487      0.3690   -999.2500
  2606.0000   -999.2500   -999.2500   4665.6587     -1.6610   -999.2500
  2606.2500   -999.2500   -999.2500  10266.0869     -2.7423   -999.2500
  2606.5000   -999.2500   -999.2500  24765.8398     -3.1906   -999.2500
  2606.7500   -999.2500   -999.2500  59911.9844     -3.3355   -999.2500
  2607.0000   -999.2500   -999.2500 100000.0000     -3.3720   -999.2500
  2607.2500   -999.2500   -999.2500 100000.0000     -3.3792   -999.2500
  2607.5000   -999.2500   -999.2500 100000.0000   -999.2500   -999.2500
  2607.7500   -999.2500   -999.2500 100000.0000   -999.2500   -999.2500
  2608.0000   -999.2500   -999.2500 100000.0000   -999.2500   -999.2500
  2608.2500   -999.2500   -999.2500 100000.0000   -999.2500   -999.2500
  2608.5000   -999.2500   -999.2500 100000.0000   -999.2500   -999.2500
  2608.7500   -999.2500   -999.2500 100000.0000   -999.2500   -999.2500
  2609.0000   -999.2500   -999.2500 100000.0000   -999.2500   -999.2500
  2609.2500   -999.2500   -999.2500 100000.0000   -999.2500   -999.2500
  2609.5000   -999.2500   -999.2500 100000.0000   -999.2500   -999.2500
  2609.7500   -999.2500   -999.2500 100000.0000   -999.2500   -999.2500
  2610.0000   -999.2500   -999.2500 100000.0000   -999.2500   -999.2500
