~Version Information
 VERS.                                  2.0 : CWLS LAS VERSION
 WRAP.                                   NO : WRAPING MODE
 SWARE .                 MController 2.5.0J : SOFTWARE VERSION
~Well Information
 WELL.                      Robinson 15-11R : WELL
 COMP.                       Petrogulf Corp : COMPANY
 FLD.                      Purgatoire River : FIELD
 LOC.                NW/NW Sec 15 T33S R67W : LOCATION
 DATE.                             11/06/04 : DATE(S) LOGGED
 SRVC.       Blanco Geological Services LLC : SERVICE COMPANY
 STAT.                                   CO : STATE
 CNTY.                           Las Animas : COUNTY
 CTRY.                                  USA : COUNTRY
 API.                       05-071-08029-00 : API NUMBER
 STRT.FT                             571.00 : START DEPTH
 STOP.FT                            1521.00 : STOP DEPTH
 STEP.FT                               1.00 : DEPTH INCREMENT
 NULL.                                -9999 : NULL VALUE
~Curve information
 DEPTH.FT                                   :
 ROP.MIN/FT                                 :
 GAS.UNITS                                  :
~ASCII Log data
# ...
       971.0         0.22         13.9 
       972.0         0.17         14.9 
       973.0         0.17         16.8 
       974.0         0.17         18.7 
       975.0         0.27         22.3 
       976.0         0.20         24.6 
       977.0         0.27         29.4 
       978.0         0.27         31.2 
       979.0         0.27         32.7 
       980.0         0.27         33.3 
       981.0         0.37         31.5 
       982.0         0.23         32.2 
       983.0         0.30         30.3 
       984.0         0.27         26.5 
       985.0         0.18         24.6 
       986.0         0.13         23.2 
       987.0         0.17         22.9 
       988.0         0.20         21.9 
       989.0         0.17         20.9 
       990.0         0.13         20.2 
       991.0         0.13         20.2 
       992.0         0.17         20.6 
       993.0         0.17         20.2 
       994.0         0.17         18.6 
       995.0         0.17         17.8 
       996.0         0.17         17.1 
       997.0         0.17         16.6 
       998.0         0.13         16.2 
       999.0         0.17         16.2 
      1000.0         0.27         37.5 
      1001.0         0.27         36.7 
      1002.0         0.30         33.1 
      1003.0         0.27         30.2 
      1004.0         0.23         28.0 
      1005.0         0.20         26.5 
      1006.0         0.20         24.8 
      1007.0         0.30         23.1 
      1008.0         0.23         22.3 
      1009.0         0.20         20.0 
      1010.0         0.30         18.9 
      1011.0         0.20         17.5 
      1012.0         0.32         16.3 
      1013.0         0.17         15.6 
      1014.0         0.17         15.2 
      1015.0         0.17         15.7 
      1016.0         0.17         15.6 
      1017.0         0.17         15.7 
      1018.0         0.20         14.4 
      1019.0         0.17         13.9 
      1020.0         0.17         14.1 
      1021.0         0.17         14.2 
      1022.0         0.13         14.3 
      1023.0         0.13         14.0 
      1024.0         0.13         14.4 
      1025.0         0.27         14.4 
      1026.0         0.27         13.3 
      1027.0         0.27         13.7 
      1028.0         0.33         15.9 
      1029.0         0.27         20.6 
      1030.0         0.30         26.1 
      1031.0         0.23         30.2 
      1032.0         0.27         32.5 
      1033.0         0.23         33.7 
      1034.0         0.23         34.4 
      1035.0         0.25         32.1 
      1036.0         0.20         31.1 
      1037.0         0.20         29.4 
      1038.0         0.23         29.1 
      1039.0         0.20         28.2 
      1040.0         0.23         25.7 
      1041.0         0.20         24.7 
      1042.0         0.23         23.1 
      1043.0         0.20         21.1 
      1044.0         0.20         19.4 
      1045.0         0.23         19.6 
      1046.0         0.23         18.6 
      1047.0         0.20         16.7 
      1048.0         0.23         16.4 
      1049.0         0.23         16.6 
      1050.0         0.25         16.1 
      1051.0         0.23         16.0 
      1052.0         0.23         15.2 
      1053.0         0.23         15.0 
      1054.0         0.23         14.3 
      1055.0         0.23         14.2 
      1056.0         0.27         13.7 
      1057.0         0.38         13.4 
      1058.0         0.27         12.8 
      1059.0         0.23         12.7 
      1060.0         0.40         13.2 
      1061.0         0.33         17.0 
      1062.0         0.30         22.2 
      1063.0         0.27         29.0 
      1064.0         0.23         34.3 
      1065.0         0.23         37.8 
      1066.0         0.23         41.0 
      1067.0         0.23         40.9 
      1068.0         0.20         40.6 
      1069.0         0.25         38.1 
      1070.0         0.20         34.6 
      1071.0         0.17         31.9 
      1072.0         0.20         28.9 
      1073.0         0.20         27.1 
      1074.0         0.23         26.5 
      1075.0         0.23         25.3 
      1076.0         0.20         22.1 
      1077.0         0.13         20.7 
      1078.0         0.17         20.3 
      1079.0         0.17         18.4 
      1080.0         0.17         17.0 
      1081.0         0.20         16.5 
      1082.0         0.20         15.4 
      1083.0         0.13         14.7 
      1084.0         0.23         14.8 
      1085.0         0.27         14.6 
      1086.0         0.25         14.6 
      1087.0         0.27         15.6 
      1088.0         0.23         14.4 
      1089.0         0.23         13.9 
      1090.0         0.27         13.7 
      1091.0         0.23         16.1 
      1092.0         0.27         17.7 
      1093.0         0.23         19.8 
      1094.0         0.23         20.5 
      1095.0         0.20         22.9 
      1096.0         0.30         23.5 
      1097.0         0.27         22.8 
      1098.0         0.27         22.6 
      1099.0         0.37         21.7 
      1100.0         0.28         20.2 
      1101.0         0.20         19.2 
      1102.0         0.20         17.7 
      1103.0         0.20         16.9 
      1104.0         0.20         16.0 
      1105.0         0.27         15.6 
      1106.0         0.23         14.8 
      1107.0         0.23         14.6 
      1108.0         0.27         14.6 
      1109.0         0.20         14.9 
      1110.0         0.30         16.0 
      1111.0         0.27         14.2 
      1112.0         0.20         13.2 
      1113.0         0.23         12.4 
      1114.0         0.20         12.2 
      1115.0         0.22         12.9 
      1116.0         0.47         13.6 
      1117.0         0.47         13.5 
      1118.0         0.30         13.0 
      1119.0         0.37         11.7 
      1120.0         0.17         11.0 
      1121.0         0.37         11.5 
      1122.0         0.30         12.7 
      1123.0         0.30         12.7 
      1124.0         0.33         12.8 
      1125.0         0.38         15.1 
      1126.0         0.37         18.4 
      1127.0         0.27         19.9 
      1128.0         0.20         21.5 
      1129.0         0.20         23.0 
      1130.0         0.27         23.9 
      1131.0         0.27         24.0 
      1132.0         0.20         23.6 
      1133.0         0.20         23.1 
      1134.0         0.23         22.2 
      1135.0         0.23         20.2 
      1136.0         0.20         19.4 
      1137.0         0.20         18.9 
      1138.0         0.20         18.0 
      1139.0         0.22         17.2 
      1140.0         0.20         17.0 
      1141.0         0.20         17.0 
      1142.0         0.20         16.8 
      1143.0         0.20         16.4 
      1144.0         0.33         16.7 
      1145.0         0.27         15.5 
      1146.0         0.17         15.1 
      1147.0         0.23         15.6 
      1148.0         0.23         15.9 
      1149.0         0.27         14.8 
      1150.0         0.27         11.7 
      1151.0         0.27         13.6 
      1152.0         0.33         16.5 
      1153.0         0.27         18.1 
      1154.0         0.27         19.2 
      1155.0         0.22         21.3 
      1156.0         0.17         21.7 
      1157.0         0.17         24.0 
      1158.0         0.27         24.4 
      1159.0         0.33         24.0 
      1160.0         0.33         22.3 
      1161.0         0.33         22.0 
      1162.0         0.30         20.9 
      1163.0         0.13         19.3 
      1164.0         0.20         19.2 
      1165.0         0.23         17.5 
      1166.0         0.17         17.9 
      1167.0         0.37         16.7 
      1168.0         0.28         17.3 
      1169.0         0.23         15.4 
      1170.0         0.17         15.9 
