~Version Information
VERS.                      2.0: CWLS Log ASCII Standard - VERSION 2.0
WRAP.                       NO: One line per depth step
~Well Information Block
STRT.FT               780.0000: 
STOP.FT              3152.2500: 
STEP.FT                 0.2500: 
NULL.                -999.2500: 
COMP.          Pioneer Natural Resources: COMPANY
WELL.            Paradise 13-8: WELL
FLD.           Purgatoire River: FIELD
LOC.           1896' FSL & 1120' FWL: LOCATION
PROV.                 Colorado: PROVINCE
CNTY.               Las Animas: COUNTRY
SRVC.                Patterson: SERVICE COMPANY
DATE.          Sat Jan 22 20:39:47 2005: LOG DATE
UWI.           05 071 07946 00: UNIQUE WELL ID
~Curve Information Block
DEPT.FT            0 000 00 00: Depth
SN.Ohm-m                      : IEL Short Normal
SP.mV                         : IEL Spontaneous Potential
DIR.Ohm-m                     : IEL Induction Resistivity
GR.GAPI                       : Gamma Ray
~Parameter Information Block
~A  Depth        SN          SP         DIR          GR     
# ...
  1718.0000     46.8873   -326.8178     39.3295     50.7560
  1718.2500     46.8950   -325.2886     39.3225     50.7548
  1718.5000     46.9142   -325.3755     39.1520     51.0558
  1718.7500     47.0326   -327.0771     38.9225     51.4061
  1719.0000     47.2578   -330.5477     38.6859     52.1145
  1719.2500     47.5057   -335.9196     38.4307     52.6208
  1719.5000     47.6403   -343.0185     38.1056     52.9656
  1719.7500     47.5307   -351.1197     37.6640     52.6035
  1720.0000     47.0894   -358.9176     37.0930     51.0951
  1720.2500     46.2816   -364.8026     36.4056     49.7678
  1720.5000     45.1147   -367.3891     35.6070     48.2430
  1720.7500     43.6240   -366.0604     34.6793     48.2681
  1721.0000     41.8723   -361.2604     33.6059     51.3191
  1721.2500     39.9590   -354.3760     32.4149     55.9737
  1721.5000     38.0072   -347.2788     31.1918     66.7639
  1721.7500     36.1209   -341.7542     30.0432     75.7024
  1722.0000     34.3491   -339.0605     29.0411     89.6984
  1722.2500     32.6868   -339.7326     28.1901     98.1017
  1722.5000     31.0983   -343.6039     27.4328    107.0965
  1722.7500     29.5406   -349.9566     26.6882    109.6896
  1723.0000     27.9945   -357.7213     25.8961    108.0881
  1723.2500     26.4979   -365.6948     25.0425    104.1865
  1723.5000     25.1535   -372.7410     24.1517     97.0447
  1723.7500     24.0871   -377.9395     23.2598     93.5239
  1724.0000     23.3751   -380.6638     22.3926     92.9335
  1724.2500     22.9944   -380.6016     21.5617     96.0595
  1724.5000     22.8301   -377.7538     20.7728    104.0319
  1724.7500     22.7323   -372.4314     20.0354    109.6244
  1725.0000     22.5769   -365.2388     19.3651    116.3157
  1725.2500     22.2951   -356.9986     18.7782    119.6399
  1725.5000     21.8725   -348.6055     18.2852    123.8715
  1725.7500     21.3338   -340.8439     17.8876    126.4070
  1726.0000     20.7311   -334.2388     17.5793    129.0696
  1726.2500     20.1357   -329.0010     17.3494    129.4298
  1726.5000     19.6281   -325.0748     17.1841    127.3866
  1726.7500     19.2815   -322.2368     17.0710    124.7352
  1727.0000     19.1421   -320.1978     17.0053    120.5179
  1727.2500     19.2148   -318.6776     16.9939    118.6132
  1727.5000     19.4675   -317.4591     17.0527    118.0143
  1727.7500     19.8530   -316.4222     17.1985    118.8331
  1728.0000     20.3306   -315.5486     17.4390    120.6260
  1728.2500     20.8720   -314.8872     17.7682    121.6404
  1728.5000     21.4535   -314.4954     18.1671    122.7063
  1728.7500     22.0500   -314.3851     18.6125    123.2440
  1729.0000     22.6435   -314.5069     19.0891    123.9879
  1729.2500     23.2389   -314.7768     19.5975    124.4646
  1729.5000     23.8699   -315.1173     20.1531    124.8847
  1729.7500     24.5834   -315.4898     20.7774    124.5474
  1730.0000     25.4167   -315.8913     21.4920    122.2852
  1730.2500     26.3843   -316.3346     22.3222    119.5310
  1730.5000     27.4786   -316.8412     23.3018    114.4792
  1730.7500     28.6806   -317.4748     24.4697    111.2547
  1731.0000     29.9771   -318.4052     25.8457    107.2478
  1731.2500     31.3748   -319.9570     27.3999    105.0361
  1731.5000     32.9025   -322.5712     29.0411    101.9714
  1731.7500     34.5908   -326.6591     30.6513     99.7439
  1732.0000     36.4477   -332.3759     32.1554     95.2388
  1732.2500     38.4571   -339.4308     33.5613     90.9909
  1732.5000     40.6106   -347.0596     34.9213     82.6851
  1732.7500     42.9395   -354.2452     36.2396     76.3127
  1733.0000     45.5063   -360.1172     37.3955     66.6637
  1733.2500     48.3510   -364.3376     38.1257     60.8504
  1733.5000     51.4248   -367.2362     38.0666     54.1232
  1733.7500     54.5572   -369.5669     36.8695     51.4396
  1734.0000     57.4809   -372.0255     34.4031     50.2263
  1734.2500     59.8997   -374.8260     30.9395     50.7811
  1734.5000     61.5573   -377.5996     27.1000     52.1158
  1734.7500     62.2757   -379.6536     23.5343     52.4871
  1735.0000     61.9638   -380.3676     20.6585     51.6938
  1735.2500     60.6099   -379.4691     18.6559     50.6626
  1735.5000     58.2669   -377.0692     17.6638     49.8312
  1735.7500     55.0474   -373.5284     18.0928     50.4333
  1736.0000     51.1386   -369.2715     21.5234     53.2391
  1736.2500     46.8098   -364.6474     37.4974     56.2091
  1736.5000     42.3711   -359.8311 100000.0000     62.5297
  1736.7500     38.0911   -354.8062 100000.0000     68.4371
  1737.0000     34.1325   -349.4698 100000.0000     80.2178
  1737.2500     30.5456   -343.8297 100000.0000     89.5205
  1737.5000     27.3087   -338.1729 100000.0000    103.7357
  1737.7500     24.3850   -333.0473 100000.0000    112.3199
  1738.0000     21.7703   -329.0421 100000.0000    123.1021
  1738.2500     19.5041   -326.5237 100000.0000    128.9027
  1738.5000     17.6410   -325.5229 100000.0000    135.4211
  1738.7500     16.2102   -325.8434 100000.0000    138.1817
  1739.0000     15.1908   -327.2889 100000.0000    140.3127
  1739.2500     14.5090   -329.8067 100000.0000    141.0094
  1739.5000     14.0566   -333.4450     83.4386    141.9307
  1739.7500     13.7271   -338.1522     24.6010    142.5817
  1740.0000     13.4497   -343.5818     15.5568    143.1359
  1740.2500     13.1964   -349.0722     12.9512    142.8669
  1740.5000     12.9622   -353.8593     14.7013    141.3056
  1740.7500     12.7374   -357.4335     43.0045    139.6739
  1741.0000     12.4936   -359.8372 100000.0000    136.8842
  1741.2500     12.1881   -361.7152 100000.0000    135.1488
  1741.5000     11.7808   -364.0461 100000.0000    133.4506
  1741.7500     11.2479   -367.7112 100000.0000    133.3479
  1742.0000     10.5820   -373.1232 100000.0000    135.0067
  1742.2500      9.7815   -380.0896 100000.0000    136.9755
  1742.5000      8.8442   -387.9297 100000.0000    139.8464
  1742.7500      7.7842   -395.7748     16.8661    140.8012
  1743.0000      6.6580   -402.9147      0.9448    139.9794
  1743.2500      5.5648   -409.0589      0.2895    138.0406
  1743.5000      4.6041   -414.3967      0.0954    133.4113
  1743.7500      3.8195   -419.4065      0.0358    128.8864
  1744.0000      3.1859   -424.5231      0.0186    118.5960
  1744.2500      2.6514   -429.8565      0.0142    108.8746
  1744.5000      2.1938   -435.1373      0.0155     91.0746
  1744.7500      1.8436   -439.8950      0.0228     78.9663
  1745.0000      1.6676   -443.7243      0.0423     64.3665
  1745.2500      1.7340   -446.4594      0.0889     58.4730
  1745.5000      2.0728   -448.1934      0.1882     55.3829
  1745.7500      2.6380   -449.1687      0.3657     56.0614
  1746.0000      3.2975   -449.6541      0.6227     59.0340
  1746.2500      3.8718   -449.8683      0.8374     61.5813
  1746.5000      4.2050   -449.9472      0.7637     66.3011
  1746.7500      4.2191   -449.9591      0.4993     70.6052
  1747.0000      3.9294   -449.9228      0.2734     79.8351
  1747.2500      3.4343   -449.8233      0.1326     88.0988
  1747.5000      2.8943   -449.6227      0.0601    103.0766
  1747.7500      2.5060   -449.2588      0.0282    113.7397
  1748.0000      2.4806   -448.6490      0.0152    128.0452
  1748.2500      3.0216   -447.6830      0.0103    134.8320
  1748.5000      4.2685   -446.2186      0.0092    139.3121
  1748.7500      6.1939   -444.0787      0.0113    138.7528
  1749.0000      8.5428   -441.0945      0.0199    134.6119
  1749.2500     10.9180   -437.1900      0.0484    130.9592
  1749.5000     12.9702   -432.4883      0.1429    125.5867
  1749.7500     14.5242   -427.3597      0.4126    122.5710
  1750.0000     15.5597   -422.3377      1.2683    119.8689
  1750.2500     16.1169   -417.9322     13.6531    119.9428
  1750.5000     16.2239   -414.4656 100000.0000    123.1765
  1750.7500     15.8766   -412.0613 100000.0000    126.6164
  1751.0000     15.0515   -410.7893 100000.0000    131.1661
  1751.2500     13.7374   -410.8246 100000.0000    132.6625
