~Version Information
VERS.                      2.0: CWLS Log ASCII Standard - VERSION 2.0
WRAP.                       NO: One line per depth step
~Well Information Block
STRT.FT               507.5000: 
STOP.FT              2145.0000: 
STEP.FT                 0.2500: 
NULL.                -999.2500: 
COMP.          Petrogulf Corporation: COMPANY
WELL.            Montoya 1-44R: WELL
FLD.           Purgatorie River: FIELD
LOC.           658' FSL & 1052' FWL: LOCATION
CNTY.               Las Animas: COUNTY
SRVC.                         : SERVICE COMPANY
DATE.          Tue Nov 16 02:59:24 2004: LOG DATE
UWI.           05 071 08239 00: UNIQUE WELL ID
STAT.                 Colorado: STATE
~Curve Information Block
DEPT.FT            0 000 00 00: Depth
SP.mV                         : DIL Spontaneous Potential
RILD.Ohm-m                    : DIL Deep Resistivity
RILM.Ohm-m                    : DIL Medium Resistivity
RLL3.Ohm-m                    : DIL Shallow Resistivity
GR.GAPI                       : Gamma Ray
~Parameter Information Block
~A  Depth        SP         RILD        RILM        RLL3         GR     
# ...
  1263.5000    -51.2319     19.2219     22.6902     24.5486    120.4660
  1263.7500    -51.8030     18.8041     22.1778     23.5922    123.2339
  1264.0000    -52.3329     18.4098     21.6817     22.7031    126.8721
  1264.2500    -52.8016     18.0371     21.1970     21.9404    128.4863
  1264.5000    -53.1985     17.6814     20.7151     21.3212    129.7380
  1264.7500    -53.5289     17.3373     20.2275     20.8179    130.1305
  1265.0000    -53.8159     16.9998     19.7287     20.3703    130.7577
  1265.2500    -54.0947     16.6654     19.2194     19.9107    131.5362
  1265.5000    -54.4032     16.3333     18.7063     19.3898    133.3754
  1265.7500    -54.7697     16.0052     18.2011     18.7961    134.7792
  1266.0000    -55.2142     15.6857     17.7189     18.1595    136.6287
  1266.2500    -55.7492     15.3819     17.2758     17.5398    137.7629
  1266.5000    -56.3894     15.1025     16.8859     17.0024    139.8076
  1266.7500    -57.1568     14.8571     16.5605     16.5955    141.3145
  1267.0000    -58.0760     14.6546     16.3070     16.3352    142.8651
  1267.2500    -59.1545     14.5021     16.1291     16.2057    143.0677
  1267.5000    -60.3617     14.4037     16.0260     16.1730    142.6237
  1267.7500    -61.6173     14.3593     15.9929     16.2023    142.4785
  1268.0000    -62.7909     14.3645     16.0209     16.2722    143.0872
  1268.2500    -63.7270     14.4102     16.0967     16.3785    143.8145
  1268.5000    -64.2815     14.4834     16.2032     16.5267    144.4669
  1268.7500    -64.3600     14.5684     16.3204     16.7186    144.2675
  1269.0000    -63.9362     14.6490     16.4276     16.9415    143.1431
  1269.2500    -63.0568     14.7110     16.5060     17.1641    142.1128
  1269.5000    -61.8156     14.7445     16.5418     17.3420    140.5724
  1269.7500    -60.3269     14.7455     16.5286     17.4297    139.8786
  1270.0000    -58.6928     14.7160     16.4690     17.3936    140.1786
  1270.2500    -56.9842     14.6636     16.3727     17.2222    141.5689
  1270.5000    -55.2350     14.5986     16.2548     16.9316    144.7192
  1270.7500    -53.4446     14.5318     16.1319     16.5641    146.4612
  1271.0000    -51.5993     14.4724     16.0189     16.1845    146.9931
  1271.2500    -49.6860     14.4262     15.9267     15.8687    145.9468
  1271.5000    -47.7126     14.3950     15.8602     15.6902    143.6330
  1271.7500    -45.7124     14.3767     15.8182     15.7024    142.4296
  1272.0000    -43.7427     14.3666     15.7938     15.9229    141.4354
  1272.2500    -41.8739     14.3583     15.7759     16.3239    140.8024
  1272.5000    -40.1746     14.3461     15.7510     16.8351    138.8372
  1272.7500    -38.6990     14.3258     15.7065     17.3581    136.7797
  1273.0000    -37.4790     14.2959     15.6335     17.7888    133.8269
  1273.2500    -36.5275     14.2571     15.5285     18.0422    132.9738
  1273.5000    -35.8424     14.2124     15.3945     18.0714    134.1698
  1273.7500    -35.4129     14.1655     15.2401     17.8768    136.1890
  1274.0000    -35.2281     14.1203     15.0776     17.5039    139.3924
  1274.2500    -35.2735     14.0800     14.9208     17.0322    140.7639
  1274.5000    -35.5348     14.0470     14.7827     16.5561    141.1541
  1274.7500    -35.9933     14.0227     14.6744     16.1658    140.5824
  1275.0000    -36.6208     14.0080     14.6048     15.9320    139.3785
  1275.2500    -37.3768     14.0035     14.5803     15.8978    138.9078
  1275.5000    -38.2064     14.0100     14.6051     16.0802    139.7194
  1275.7500    -39.0381     14.0287     14.6815     16.4771    141.7807
  1276.0000    -39.7934     14.0613     14.8102     17.0741    147.1277
  1276.2500    -40.3966     14.1102     14.9896     17.8448    151.2935
  1276.5000    -40.7949     14.1781     15.2159     18.7449    155.6696
  1276.7500    -40.9661     14.2678     15.4829     19.7027    155.7611
  1277.0000    -40.9272     14.3812     15.7815     20.6176    150.5883
  1277.2500    -40.7331     14.5193     16.1000     21.3737    144.3178
  1277.5000    -40.4601     14.6814     16.4254     21.8707    133.7794
  1277.7500    -40.1893     14.8651     16.7438     22.0596    128.2202
  1278.0000    -39.9803     15.0665     17.0422     21.9686    124.7973
  1278.2500    -39.8573     15.2805     17.3094     21.7011    125.9121
  1278.5000    -39.8002     15.5014     17.5369     21.4038    130.4765
  1278.7500    -39.7544     15.7234     17.7194     21.2148    133.7856
  1279.0000    -39.6493     15.9408     17.8550     21.2126    137.4085
  1279.2500    -39.4260     16.1481     17.9441     21.3882    138.5894
  1279.5000    -39.0579     16.3397     17.9907     21.6519    138.3370
  1279.7500    -38.5615     16.5105     18.0012     21.8705    136.9433
  1280.0000    -37.9858     16.6557     17.9839     21.9193    134.0580
  1280.2500    -37.3957     16.7718     17.9488     21.7294    132.5504
  1280.5000    -36.8544     16.8576     17.9056     21.3095    132.1624
  1280.7500    -36.4076     16.9146     17.8627     20.7394    133.2605
  1281.0000    -36.0853     16.9469     17.8254     20.1371    136.0693
  1281.2500    -35.9123     16.9620     17.7957     19.6175    137.9901
  1281.5000    -35.9155     16.9692     17.7731     19.2589    140.3158
  1281.7500    -36.1310     16.9790     17.7558     19.0876    141.6239
  1282.0000    -36.6022     17.0018     17.7430     19.0840    143.4678
  1282.2500    -37.3693     17.0468     17.7371     19.2024    144.3935
  1282.5000    -38.4602     17.1213     17.7445     19.3930    144.8012
  1282.7500    -39.8780     17.2299     17.7752     19.6183    144.4735
  1283.0000    -41.5947     17.3747     17.8417     19.8596    143.5484
  1283.2500    -43.5474     17.5557     17.9559     20.1147    142.7163
  1283.5000    -45.6305     17.7714     18.1268     20.3912    140.9836
  1283.7500    -47.6998     18.0198     18.3588     20.7000    139.6025
  1284.0000    -49.5759     18.2984     18.6499     21.0504    137.5827
  1284.2500    -51.0613     18.6055     18.9928     21.4484    136.2265
  1284.5000    -51.9666     18.9393     19.3755     21.8953    133.5827
  1284.7500    -52.1430     19.2984     19.7853     22.3883    131.2397
  1285.0000    -51.5140     19.6809     20.2112     22.9228    127.3653
  1285.2500    -50.0952     20.0846     20.6480     23.4992    125.0955
  1285.5000    -47.9991     20.5073     21.0977     24.1355    123.0922
  1285.7500    -45.4242     20.9476     21.5703     24.8812    123.1843
  1286.0000    -42.6261     21.4057     22.0814     25.8259    125.9717
  1286.2500    -39.8814     21.8838     22.6488     27.0919    129.3874
  1286.5000    -37.4529     22.3867     23.2895     28.8065    135.2978
  1286.7500    -35.5594     22.9204     24.0152     31.0575    138.2998
  1287.0000    -34.3503     23.4915     24.8308     33.8456    138.8642
  1287.2500    -33.8906     24.1051     25.7331     37.0545    135.8289
  1287.5000    -34.1573     24.7646     26.7103     40.4550    126.8722
  1287.7500    -35.0445     25.4688     27.7441     43.7458    119.4718
  1288.0000    -36.3820     26.2136     28.8124     46.6224    109.4547
  1288.2500    -37.9632     26.9910     29.8923     48.8491    104.8659
  1288.5000    -39.5831     27.7906     30.9637     50.3110    101.4954
  1288.7500    -41.0691     28.6021     32.0105     51.0287    100.7428
  1289.0000    -42.3073     29.4154     33.0220     51.1347     99.6502
  1289.2500    -43.2550     30.2227     33.9899     50.8252     97.8587
  1289.5000    -43.9357     31.0180     34.9067     50.3070     92.8146
  1289.7500    -44.4218     31.7957     35.7630     49.7581     88.1094
  1290.0000    -44.8119     32.5491     36.5478     49.3090     80.0496
  1290.2500    -45.2010     33.2708     37.2505     49.0436     74.7015
  1290.5000    -45.6583     33.9495     37.8646     49.0079     68.0257
  1290.7500    -46.2122     34.5741     38.3895     49.2187     65.1691
  1291.0000    -46.8455     35.1339     38.8306     49.6696     63.4469
  1291.2500    -47.4982     35.6220     39.1994     50.3326     63.1784
