~Version Information
VERS.                      2.0: CWLS Log ASCII Standard - VERSION 2.0
WRAP.                       NO: One line per depth step
~Well Information Block
STRT.FT               392.5000: 
STOP.FT              2252.6000: 
STEP.FT                 0.1000: 
NULL.                -999.2500: 
COMP.          Petrogulf Corporation: COMPANY
WELL.          Alexander 9-43V: WELL
FLD.           Purgatorie River: FIELD
LOC.           1651' FSL & 1081' FEL: LOCATION
CNTY.               Las Animas: COUNTY
SRVC.                         : SERVICE COMPANY
DATE.          Mon Mar 17 08:48:25 2003: LOG DATE
UWI.           05 071 07727 00: UNIQUE WELL ID
STAT.                 Colorado: STATE
~Curve Information Block
DEPT.FT            0 000 00 00: Depth
DCAL.in                       : CDL Caliper
RHOB.g/cc                     : CDL Bulk Density
RHOC.g/cc                     : CDL Density Correction
DPOR.pu                       : CDL Density Porosity
GR.GAPI                       : Gamma Ray
NPOR.pu                       : Neutron Porosity
~Parameter Information Block
~A  Depth       DCAL        RHOB        RHOC        DPOR         GR         NPOR    
# ...
  1390.9000      8.0758      2.5881      0.1872      3.7521    145.1654     30.8815
  1391.0000      8.0143      2.5875      0.1608      3.7870    137.9160     30.6501
  1391.1000      8.0143      2.5859      0.1365      3.8866    137.9160     30.3893
  1391.2000      8.0143      2.5833      0.1151      4.0400    137.9160     30.1088
  1391.3000      7.9897      2.5801      0.0972      4.2371    131.9626     29.8186
  1391.4000      7.9897      2.5763      0.0827      4.4693    131.9626     29.5293
  1391.5000      7.9807      2.5720      0.0712      4.7299    127.4784     29.2507
  1391.6000      7.9807      2.5673      0.0620      5.0143    127.4784     28.9911
  1391.7000      7.9807      2.5622      0.0547      5.3192    127.4784     28.7563
  1391.8000      7.9865      2.5569      0.0487      5.6428    123.9431     28.5497
  1391.9000      7.9865      2.5513      0.0435      5.9837    123.9431     28.3714
  1392.0000      8.0086      2.5454      0.0388      6.3403    120.9367     28.2192
  1392.1000      8.0086      2.5393      0.0347      6.7105    120.9367     28.0893
  1392.2000      8.0086      2.5330      0.0311      7.0912    120.9367     27.9776
  1392.3000      8.0330      2.5266      0.0280      7.4781    118.7832     27.8805
  1392.4000      8.0330      2.5202      0.0257      7.8658    118.7832     27.7957
  1392.5000      8.0447      2.5139      0.0243      8.2479    118.4535     27.7223
  1392.6000      8.0447      2.5078      0.0241      8.6180    118.4535     27.6615
  1392.7000      8.0447      2.5020      0.0252      8.9693    118.4535     27.6158
  1392.8000      8.0472      2.4966      0.0279      9.2964    120.8184     27.5882
  1392.9000      8.0472      2.4917      0.0323      9.5947    120.8184     27.5821
  1393.0000      8.0481      2.4873      0.0385      9.8618    125.8783     27.6002
  1393.1000      8.0481      2.4834      0.0464     10.0977    125.8783     27.6441
  1393.2000      8.0481      2.4800      0.0560     10.3046    125.8783     27.7137
  1393.3000      8.0481      2.4770      0.0668     10.4875    132.6507     27.8066
  1393.4000      8.0481      2.4742      0.0787     10.6541    132.6507     27.9182
  1393.5000      8.0457      2.4716      0.0911     10.8141    139.8456     28.0417
  1393.6000      8.0457      2.4688      0.1036     10.9797    139.8456     28.1681
  1393.7000      8.0457      2.4658      0.1158     11.1641    139.8456     28.2870
  1393.8000      8.0449      2.4622      0.1275     11.3821    146.6244     28.3876
  1393.9000      8.0449      2.4578      0.1384     11.6482    146.6244     28.4600
  1394.0000      8.0530      2.4524      0.1482     11.9760    152.7552     28.4962
  1394.1000      8.0530      2.4458      0.1569     12.3775    152.7552     28.4915
  1394.2000      8.0530      2.4378      0.1643     12.8610    152.7552     28.4452
  1394.3000      8.0733      2.4284      0.1702     13.4300    158.2334     28.3607
  1394.4000      8.0733      2.4176      0.1744     14.0823    158.2334     28.2453
  1394.5000      8.1183      2.4057      0.1769     14.8083    162.8898     28.1094
  1394.6000      8.1183      2.3928      0.1780     15.5906    162.8898     27.9647
  1394.7000      8.1183      2.3793      0.1779     16.4044    162.8898     27.8237
  1394.8000      8.1986      2.3659      0.1777     17.2182    166.3614     27.6973
  1394.9000      8.1986      2.3531      0.1785     17.9958    166.3614     27.5955
  1395.0000      8.3300      2.3415      0.1818     18.6991    168.3899     27.5259
  1395.1000      8.3300      2.3317      0.1889     19.2909    168.3899     27.4944
  1395.2000      8.3300      2.3243      0.2009     19.7389    168.3899     27.5050
  1395.3000      8.5433      2.3197      0.2179     20.0190    169.1380     27.5595
  1395.4000      8.5433      2.3181      0.2394     20.1179    169.1380     27.6582
  1395.5000      8.7605      2.3194      0.2640     20.0351    169.2715     27.7988
  1395.6000      8.7605      2.3236      0.2898     19.7835    169.2715     27.9761
  1395.7000      8.7605      2.3301      0.3144     19.3886    169.2715     28.1818
  1395.8000      8.8849      2.3384      0.3358     18.8860    169.6690     28.4046
  1395.9000      8.8849      2.3477      0.3520     18.3188    169.6690     28.6304
  1396.0000      8.9505      2.3574      0.3615     17.7327    170.7923     28.8438
  1396.1000      8.9505      2.3667      0.3635     17.1716    170.7923     29.0290
  1396.2000      8.9505      2.3749      0.3575     16.6734    170.7923     29.1723
  1396.3000      8.8767      2.3816      0.3442     16.2660    172.2020     29.2634
  1396.4000      8.8767      2.3866      0.3247     15.9644    172.2020     29.2962
  1396.5000      8.5980      2.3898      0.3012     15.7700    172.8377     29.2703
  1396.6000      8.5980      2.3914      0.2767     15.6700    172.8377     29.1897
  1396.7000      8.5980      2.3919      0.2548     15.6403    172.8377     29.0629
  1396.8000      8.3146      2.3918      0.2390     15.6483    171.8749     28.9011
  1396.9000      8.3146      2.3917      0.2322     15.6570    171.8749     28.7170
  1397.0000      8.2010      2.3921      0.2360     15.6298    169.2806     28.5236
  1397.1000      8.2010      2.3937      0.2503     15.5345    169.2806     28.3328
  1397.2000      8.2010      2.3968      0.2734     15.3471    169.2806     28.1552
  1397.3000      8.2171      2.4016      0.3024     15.0543    165.6323     27.9994
  1397.4000      8.2171      2.4082      0.3343     14.6540    165.6323     27.8719
  1397.5000      8.3115      2.4164      0.3658     14.1555    161.5045     27.7766
  1397.6000      8.3115      2.4260      0.3945     13.5770    161.5045     27.7145
  1397.7000      8.3115      2.4364      0.4181     12.9440    161.5045     27.6833
  1397.8000      8.4281      2.4473      0.4355     12.2846    156.9687     27.6769
  1397.9000      8.4281      2.4581      0.4457     11.6277    156.9687     27.6860
  1398.0000      8.4169      2.4685      0.4486     10.9987    151.8027     27.6985
  1398.1000      8.4169      2.4781      0.4447     10.4179    151.8027     27.7013
  1398.2000      8.4169      2.4867      0.4347      9.8983    151.8027     27.6815
  1398.3000      8.2429      2.4941      0.4202      9.4458    146.3418     27.6292
  1398.4000      8.2429      2.5005      0.4028      9.0583    146.3418     27.5387
  1398.5000      8.0736      2.5060      0.3843      8.7279    141.9349     27.4098
  1398.6000      8.0736      2.5107      0.3667      8.4419    141.9349     27.2485
  1398.7000      8.0736      2.5149      0.3513      8.1854    141.9349     27.0661
  1398.8000      8.0206      2.5190      0.3389      7.9424    140.2997     26.8782
  1398.9000      8.0206      2.5230      0.3297      7.6990    140.2997     26.7027
  1399.0000      8.1202      2.5272      0.3234      7.4439    142.3919     26.5580
  1399.1000      8.1202      2.5317      0.3191      7.1702    142.3919     26.4611
  1399.2000      8.1202      2.5366      0.3160      6.8754    142.3919     26.4268
  1399.3000      8.3907      2.5417      0.3133      6.5619    147.7887     26.4662
  1399.4000      8.3907      2.5471      0.3102      6.2367    147.7887     26.5866
  1399.5000      8.7518      2.5525      0.3065      5.9106    154.8024     26.7910
  1399.6000      8.7518      2.5576      0.3020      5.5978    154.8024     27.0783
  1399.7000      8.7518      2.5623      0.2965      5.3146    154.8024     27.4419
  1399.8000      8.9667      2.5662      0.2901      5.0787    161.1042     27.8704
  1399.9000      8.9667      2.5690      0.2825      4.9082    161.1042     28.3473
  1400.0000      8.8677      2.5705      0.2736      4.8205    164.7838     28.8512
  1400.1000      8.8677      2.5703      0.2630      4.8313    164.7838     29.3570
  1400.2000      8.8677      2.5683      0.2504      4.9535    164.7838     29.8385
  1400.3000      8.5906      2.5643      0.2357      5.1961    165.4434     30.2703
  1400.4000      8.5906      2.5582      0.2189      5.5637    165.4434     30.6304
