~Version Information
VERS.                      2.0: CWLS Log ASCII Standard - VERSION 2.0
WRAP.                       NO: One line per depth step
~Well Information Block
STRT.FT               700.0000: 
STOP.FT              1869.5000: 
STEP.FT                 0.1000: 
NULL.                -999.2500: 
COMP.          Petrogulf Corporation: COMPANY
WELL.             State 16-24R: WELL
FLD.           Purgatorie River: FIELD
LOC.           541' FSL & 2371' FWL: LOCATION
PROV.                 Colorado: PROVINCE
CNTY.               Las Animas: COUNTRY
SRVC.                Patterson: SERVICE COMPANY
DATE.          Fri Aug 12 09:07:22 2005: LOG DATE
UWI.                071-08312 : UNIQUE WELL ID
~Curve Information Block
DEPT.FT            0 000 00 00: Depth
DCAL.in                       : CDL Caliper
RHOB.g/cc                     : CDL Bulk Density
RHOC.g/cc                     : CDL Density Correction
DPOR.pu                       : CDL Density Porosity
GR.GAPI                       : Gamma Ray
NPOR.pu                       : Neutron Porosity
~Parameter Information Block
~A  Depth       DCAL        RHOB        RHOC        DPOR         GR         NPOR    
   700.0000      8.0966      1.9412     -0.4638     42.9574     98.8494     48.6739
   700.1000      8.0966      1.9320     -0.4463     43.5157    100.8195     48.5868
   700.2000      8.0966      1.9272     -0.4942     43.8046     98.4744     48.2335
   700.3000      8.1099      1.9309     -0.4682     43.5799     92.5264     47.8311
   700.4000      8.1099      1.9413     -0.4837     42.9516     89.4466     47.6391
   700.5000      8.1303      1.9540     -0.4446     42.1828     92.3375     47.6362
   700.6000      8.1303      1.9620     -0.4313     41.6947     97.0881     47.5919
   700.7000      8.1303      1.9609     -0.4631     41.7615    100.6040     47.4449
   700.8000      8.1273      1.9654     -0.5057     41.4890    103.1241     47.3511
   700.9000      8.1273      1.9927     -0.4523     39.8384    104.4547     47.3973
   701.0000      8.1240      2.0328     -0.4412     37.4031    104.3409     47.5062
   701.1000      8.1240      2.0611     -0.4018     35.6905    102.5584     47.5797
   701.2000      8.1240      2.0627     -0.4158     35.5914    100.5012     47.6629
   701.3000      8.1230      2.0435     -0.4438     36.7571     99.4733     47.7971
   701.4000      8.1230      2.0228     -0.4963     38.0120     98.9957     47.8239
   701.5000      8.1184      2.0171     -0.4705     38.3555     98.9863     47.8199
   701.6000      8.1184      2.0234     -0.4815     37.9744    100.2946     47.9818
   701.7000      8.1184      2.0180     -0.3906     38.3004    102.1572     48.0937
   701.8000      8.1221      1.9905     -0.4831     39.9689    103.6920     47.9350
   701.9000      8.1221      1.9658     -0.5221     41.4694    105.6694     47.6225
   702.0000      8.1141      1.9601     -0.4840     41.8116    107.7484     47.4943
   702.1000      8.1141      1.9623     -0.4890     41.6784    108.1481     47.7021
   702.2000      8.1141      1.9619     -0.4626     41.7009    108.1171     47.9272
   702.3000      8.0968      1.9605     -0.5018     41.7877    108.5415     47.9843
   702.4000      8.0968      1.9649     -0.4694     41.5234    108.0552     48.0544
   702.5000      8.0896      1.9754     -0.4852     40.8835    107.4040     48.0710
   702.6000      8.0896      1.9961     -0.5569     39.6300    106.7344     47.8843
   702.7000      8.0896      2.0304     -0.4613     37.5544    103.9650     47.7150
   702.8000      8.0903      2.0597     -0.4293     35.7779     99.7749     47.7640
   702.9000      8.0903      2.0681     -0.4633     35.2666     98.7775     47.8544
   703.0000      8.0916      2.0683     -0.4861     35.2553    103.4526     47.8312
   703.1000      8.0916      2.0772     -0.4679     34.7131    108.8561     47.7668
   703.2000      8.0916      2.0911     -0.4420     33.8716    108.3386     47.8019
   703.3000      8.0912      2.1004     -0.4600     33.3061    103.6535     47.8928
   703.4000      8.0912      2.1081     -0.4860     32.8432    101.3132     47.8942
   703.5000      8.0965      2.1151     -0.4428     32.4154    102.0159     47.7459
   703.6000      8.0965      2.1070     -0.4028     32.9071    101.7337     47.5711
   703.7000      8.0965      2.0787     -0.4779     34.6252     99.4137     47.4780
   703.8000      8.0990      2.0528     -0.4723     36.1948     97.9605     47.3395
   703.9000      8.0990      2.0497     -0.4723     36.3815     98.0767     47.0798
   704.0000      8.1029      2.0619     -0.3942     35.6441     98.4640     46.9516
   704.1000      8.1029      2.0672     -0.4204     35.3194    100.0617     47.1040
   704.2000      8.1029      2.0587     -0.4060     35.8356    102.5939     47.4187
   704.3000      8.1018      2.0518     -0.4659     36.2520    103.1373     47.7669
   704.4000      8.1018      2.0641     -0.4552     35.5083    101.9083     48.0248
   704.5000      8.1003      2.0909     -0.3684     33.8832    101.7589     48.1011
   704.6000      8.1003      2.1186     -0.4033     32.2060    101.1093     47.9696
   704.7000      8.1003      2.1437     -0.3923     30.6836     97.0818     47.6479
   704.8000      8.1091      2.1583     -0.3452     29.7979     93.1349     47.3019
   704.9000      8.1091      2.1537     -0.3788     30.0765     93.7689     47.1847
   705.0000      8.1098      2.1437     -0.4380     30.6869     97.4885     47.3455
   705.1000      8.1098      2.1435     -0.3570     30.6972    101.1544     47.6667
   705.2000      8.1098      2.1421     -0.3956     30.7827    103.7609     47.9323
   705.3000      8.1055      2.1292     -0.4102     31.5640    103.6892     48.0275
   705.4000      8.1055      2.1192     -0.4944     32.1686    100.2197     48.1300
   705.5000      8.1063      2.1283     -0.4403     31.6168     96.0786     48.2819
   705.6000      8.1063      2.1465     -0.4412     30.5138     93.4216     48.2440
   705.7000      8.1063      2.1532     -0.4392     30.1066     91.6818     48.0198
   705.8000      8.1332      2.1581     -0.4974     29.8126     90.2208     47.7858
   705.9000      8.1332      2.1972     -0.4606     27.4418     88.6991     47.6049
   706.0000      8.1231      2.2756     -0.3586     22.6881     86.4604     47.4711
   706.1000      8.1231      2.3594     -0.3036     17.6122     83.5882     47.4681
   706.2000      8.1231      2.4288     -0.3325     13.4088     81.5326     47.5867
   706.3000      8.1051      2.4918     -0.2957      9.5870     81.1804     47.5902
   706.4000      8.1051      2.5617     -0.3472      5.3512     80.9488     47.2585
   706.5000      8.0977      2.6448     -0.2945      0.3155     78.9702     46.6358
   706.6000      8.0977      2.7343     -0.2315     -5.1080     75.4657     46.1658
   706.7000      8.0977      2.8137     -0.2019     -9.9226     71.5774     46.0826
   706.8000      8.0966      2.8683     -0.1755    -13.2303     68.3032     46.0908
   706.9000      8.0966      2.8979     -0.1889    -15.0231     66.6651     46.0943
   707.0000      8.0945      2.9160     -0.2197    -16.1219     66.9928     46.1220
   707.1000      8.0945      2.9206     -0.2028    -16.4020     68.0716     45.9480
   707.2000      8.0945      2.8924     -0.2600    -14.6926     69.1946     45.5465
   707.3000      8.0987      2.8359     -0.2809    -11.2659     70.1752     45.1671
   707.4000      8.0987      2.7735     -0.2993     -7.4822     70.5991     44.8126
   707.5000      8.1037      2.7016     -0.2834     -3.1296     70.1861     44.3410
   707.6000      8.1037      2.6081     -0.3734      2.5403     69.3471     43.8228
   707.7000      8.1037      2.5091     -0.3990      8.5365     70.0971     43.5129
   707.8000      8.1083      2.4263     -0.4239     13.5598     74.0876     43.5947
   707.9000      8.1083      2.3627     -0.3668     17.4145     79.6131     43.9152
   708.0000      8.1109      2.3261     -0.4194     19.6315     82.9866     44.0012
   708.1000      8.1109      2.3225     -0.3687     19.8469     84.0690     43.7756
   708.2000      8.1109      2.3275     -0.3180     19.5439     84.8976     43.8021
   708.3000      8.1166      2.3174     -0.3479     20.1599     84.8674     44.3602
   708.4000      8.1166      2.2999     -0.3358     21.2192     83.8743     45.1216
   708.5000      8.1196      2.3003     -0.4337     21.1947     84.8190     45.6550
   708.6000      8.1196      2.3297     -0.3921     19.4131     88.0715     45.7863
   708.7000      8.1196      2.3634     -0.3374     17.3674     91.4366     45.6618
   708.8000      8.1163      2.3653     -0.3270     17.2563     93.6783     45.5642
   708.9000      8.1163      2.3271     -0.3336     19.5703     93.7673     45.5323
   709.0000      8.1097      2.2697     -0.4143     23.0497     92.0266     45.4632
   709.1000      8.1097      2.2149     -0.4505     26.3717     89.6440     45.5134
   709.2000      8.1097      2.1727     -0.4614     28.9300     87.2479     45.7538
   709.3000      8.1209      2.1520     -0.4925     30.1840     86.0251     45.9237
   709.4000      8.1209      2.1550     -0.3761     30.0009     86.2662     45.9942
   709.5000      8.1252      2.1758     -0.3748     28.7423     86.2184     46.1357
