~Version Information
VERS.                      2.0: CWLS Log ASCII Standard - VERSION 2.0
WRAP.                       NO: One line per depth step
~Well Information Block
STRT.FT               433.5000: 
STOP.FT              1880.2500: 
STEP.FT                 0.2500: 
NULL.                -999.2500: 
COMP.          Pioneer Natural Resources: COMPANY
WELL.           Buckhorn 12-21: WELL
FLD.           Purgatorie River: FIELD
LOC.           2450' FNL & 608' FWL--: LOCATION
PROV.                       CO: PROVINCE
CNTY.               Las Animas: COUNTRY
SRVC.                         : SERVICE COMPANY
DATE.          Fri Dec 03 14:13:08 2004: LOG DATE
UWI.          005 071 08129 : UNIQUE WELL ID
~Curve Information Block
DEPT.FT            0 000 00 00: Depth
NPOR.pu                       : Neutron Porosity
CCL.                          : Casing Collar Locator
TT3.usec                      : CBL 3' Travel Time
AMP3.mV                       : CBL 3' Amplitude
GR.GAPI                       : Gamma Ray
~Parameter Information Block
~A  Depth       NPOR        CCL         TT3         AMP3         GR     
# ...
  1301.5000     26.0504      0.0000    265.5400     53.1425     97.3545
  1301.7500     26.5406      0.0000    265.5262     53.5631    107.9175
  1302.0000     26.9488      0.0000    265.4592     53.9641    118.8792
  1302.2500     27.2451      0.0000    265.3682     54.4688    129.2159
  1302.5000     27.3914      0.0000    265.2900     55.1852    136.9300
  1302.7500     27.3629      0.0000    265.2522     56.1349    140.5843
  1303.0000     27.2425      0.0000    265.2527     57.2230    140.9771
  1303.2500     27.2549      0.0000    265.2614     58.2809    140.8560
  1303.5000     27.6138      0.0000    265.2477     59.1697    142.7814
  1303.7500     28.3324      0.0000    265.2058     59.8663    147.1152
  1304.0000     29.2299      0.0000    265.1552     60.4512    151.9541
  1304.2500     30.1123      0.0000    265.1203     61.0073    154.8070
  1304.5000     30.9201      0.0000    265.1111     61.5376    154.2079
  1304.7500     31.7073      0.0000    265.1211     61.9946    150.1467
  1305.0000     32.5107      0.0000    265.1364     62.3727    143.7975
  1305.2500     33.2736      0.0000    265.1422     62.7299    137.1048
  1305.5000     33.8918      0.0000    265.1248     63.1120    132.0864
  1305.7500     34.2933      0.0000    265.0790     63.4787    129.9557
  1306.0000     34.4658      0.0000    265.0141     63.7253    130.7020
  1306.2500     34.4400      0.0000    264.9532     63.7847    133.4691
  1306.5000     34.2556      0.0000    264.9241     63.7116    137.2646
  1306.7500     33.9222      0.0000    264.9445     63.6673    141.2185
  1307.0000     33.3979      0.0000    265.0052     63.8183    144.2393
  1307.2500     32.6065      0.0000    265.0691     64.2384    144.7663
  1307.5000     31.4950      0.0000    265.0993     64.8778    141.3852
  1307.7500     30.1139      0.0000    265.0943     65.5772    133.9802
  1308.0000     28.6673      0.0000    265.0883     66.1100    124.2417
  1308.2500     27.4653      0.0000    265.1121     66.2748    114.8994
  1308.5000     26.7814      0.0000    265.1580     66.0118    108.3833
  1308.7500     26.7091      0.0000    265.1847     65.4383    106.1249
  1309.0000     27.1231      0.0000    265.1519     64.7558    108.7270
  1309.2500     27.7715      0.0000    265.0521     64.1136    116.0881
  1309.5000     28.4289      0.0000    264.9173     63.5605    126.8961
  1309.7500     29.0129      0.0000    264.7975     63.1007    138.3876
  1310.0000     29.5790      0.0000    264.7312     62.7624    147.5576
  1310.2500     30.1731      0.0000    264.7320     62.5950    153.0150
  1310.5000     30.6603      0.0000    264.7983     62.6060    155.3946
  1310.7500     30.7513      0.0000    264.9226     62.7177    156.0493
  1311.0000     30.2705      0.0000    265.0835     62.7998    155.7750
  1311.2500     29.3875      0.0000    265.2326     62.7551    154.6521
  1311.5000     28.5191      0.0000    265.3103     62.5662    152.5603
  1311.7500     27.9970      0.0000    265.2871     62.2458    149.7448
  1312.0000     27.8705      0.0000    265.1916     61.7619    147.0805
  1312.2500     28.0045      0.0000    265.0907     61.0576    145.5977
  1312.5000     28.2599      0.0000    265.0411     60.1544    145.4716
  1312.7500     28.5372      0.0000    265.0565     59.1954    145.7509
  1313.0000     28.7194      0.0000    265.1144     58.3553    145.4659
  1313.2500     28.6707      0.0000    265.1872     57.7159    144.8345
  1313.5000     28.3229      0.0000    265.2634     57.2376    145.0445
  1313.7500     27.7458      0.0000    265.3441     56.8332    147.0757
  1314.0000     27.1147      0.0000    265.4258     56.4475    150.8063
  1314.2500     26.6163      0.0000    265.4913     56.0712    154.7367
  1314.5000     26.3919      0.0000    265.5201     55.7002    156.5456
  1314.7500     26.5342      0.0000    265.5033     55.3129    154.7365
  1315.0000     27.0863      0.0000    265.4513     54.8968    150.1794
  1315.2500     28.0008      0.0000    265.3878     54.4860    145.6416
  1315.5000     29.0786      0.0000    265.3398     54.1524    143.5437
  1315.7500     29.9801      0.0000    265.3258     53.9631    144.1669
  1316.0000     30.3844      0.0000    265.3474     53.9458    145.8893
  1316.2500     30.1841      0.0000    265.3921     54.0802    146.9316
  1316.5000     29.5256      0.0000    265.4449     54.3015    146.6861
  1316.7500     28.6696      0.0000    265.4968     54.5197    145.4230
  1317.0000     27.8326      0.0000    265.5432     54.6546    143.5105
  1317.2500     27.1430      0.0000    265.5781     54.6660    141.6295
  1317.5000     26.6793      0.0000    265.5922     54.5571    141.0357
  1317.7500     26.4860      0.0000    265.5779     54.3511    142.6465
  1318.0000     26.5397      0.0000    265.5359     54.0722    146.1239
  1318.2500     26.7387      0.0000    265.4781     53.7466    150.2997
  1318.5000     26.9475      0.0000    265.4222     53.4165    154.0011
  1318.7500     27.0571      0.0000    265.3820     53.1483    156.2956
  1319.0000     27.0145      0.0000    265.3641     53.0196    156.6119
  1319.2500     26.8041      0.0000    265.3713     53.0846    154.7929
  1319.5000     26.4017      0.0000    265.4010     53.3500    150.7139
  1319.7500     25.7641      0.0000    265.4400     53.7833    144.0967
  1320.0000     24.8873      0.0000    265.4648     54.3408    135.3385
  1320.2500     23.8744      0.0000    265.4526     54.9766    126.4841
  1320.5000     22.9349      0.0000    265.3948     55.6357    120.7943
  1320.7500     22.2854      0.0000    265.3032     56.2731    120.8485
  1321.0000     22.0141      0.0000    265.2036     56.8860    126.7458
  1321.2500     22.0185      0.0000    265.1169     57.5102    135.8669
  1321.5000     22.0965      0.0000    265.0445     58.1800    144.3729
  1321.7500     22.0951      0.0000    264.9755     58.8982    149.2933
  1322.0000     21.9411      0.0000    264.9069     59.6403    149.6869
  1322.2500     21.5697      0.0000    264.8479     60.3676    146.2897
  1322.5000     20.9460      0.0000    264.8063     61.0345    140.3309
  1322.7500     20.1806      0.0000    264.7795     61.5793    132.7437
  1323.0000     19.5213      0.0000    264.7717     61.8763    124.2753
  1323.2500     19.1688      0.0000    264.8238     61.6481    115.7920
  1323.5000     19.1283      0.0000    265.0372     60.4394    108.0621
  1323.7500     19.2467      0.0000    265.5635     57.8425    101.3087
  1324.0000     19.3488      0.0000    266.5424     53.9380     95.2593
  1324.2500     19.3394      0.0000    268.0022     49.4820     89.6852
  1324.5000     19.2520      0.0000    269.7755     45.4762     84.8227
  1324.7500     19.2743      0.0000    271.5070     42.5483     81.3601
  1325.0000     19.6964      0.0000    272.7976     40.8354     80.1969
  1325.2500     20.7255      0.0000    273.4314     40.2383     82.0262
  1325.5000     22.3109      0.0000    273.5020     40.5075     86.8201
  1325.7500     24.1853      0.0000    273.3352     41.2050     93.7908
  1326.0000     26.0684      0.0000    273.3299     41.8573    102.0471
  1326.2500     27.7668     -2.0000    273.8916     42.1759    111.0473
  1326.5000     29.0995      0.0000    275.3396     42.1419    120.2176
  1326.7500     29.8767      0.0000    277.5375     42.0031    128.4559
  1327.0000     30.0396      0.0000    279.5053     42.2343    134.4549
  1327.2500     29.7452      0.0000    279.7914     43.3477    137.6558
  1327.5000     29.2466      0.0000    277.6814     45.6039    138.8234
  1327.7500     28.7535      0.0000    273.9546     48.8719    139.4883
  1328.0000     28.4454      0.0000    270.1960     52.6715    140.5523
  1328.2500     28.5046      0.0000    267.5157     56.3011    141.3433
  1328.5000     29.0089      0.0000    266.0609     59.1036    140.2758
  1328.7500     29.8230      0.0000    265.4259     60.7966    136.5206
  1329.0000     30.6768      0.0000    265.1859     61.5483    130.7652
  1329.2500     31.3520      0.0000    265.1034     61.7398    124.5789
