~Version Information
VERS.                      2.0: CWLS Log ASCII Standard - VERSION 2.0
WRAP.                       NO: One line per depth step
~Well Information Block
STRT.FT                 5.5000: 
STOP.FT              1635.7500: 
STEP.FT                 0.2500: 
NULL.                -999.2500: 
COMP.          Pioneer Natural Resources: COMPANY
WELL.                Mead 11-9: WELL
FLD.           Purgatoire River: FIELD
LOC.           1127' FNL & 668' FWL: LOCATION
PROV.                 Colorado: PROVINCE
CNTY.               Las Animas: COUNTRY
SRVC.                Patterson: SERVICE COMPANY
DATE.          Wed Mar 02 13:48:38 2005: LOG DATE
UWI.           05 071 08160 00: UNIQUE WELL ID
~Curve Information Block
DEPT.FT            0 000 00 00: Depth
CCL.                          : Casing Collar Locator
TT3.usec                      : CBL 3' Travel Time
AMP3.mV                       : CBL 3' Amplitude
GR.GAPI                       : Gamma Ray
~Parameter Information Block
~A  Depth       CCL         TT3         AMP3         GR     
# ...
   441.0000      0.0000    399.8298      5.8861    101.1332
   441.2500      0.0000    402.8904      5.8841    103.1656
   441.5000      0.0000    411.8482      5.8512    105.6711
   441.7500      0.0000    432.2046      5.7829    107.3399
   442.0000      0.0000    469.0027      5.6777    107.7121
   442.2500      0.0000    522.6217      5.5392    107.4133
   442.5000      0.0000    586.6575      5.3787    106.8468
   442.7500      0.0000    651.1618      5.2131    105.3923
   443.0000      0.0000    708.5607      5.0578    102.4538
   443.2500      0.0000    756.7839      4.9231     98.8593
   443.5000      0.0000    798.2411      4.8152     96.6316
   443.7500      0.0000    837.3458      4.7357     97.3054
   444.0000      0.0000    877.3538      4.6787    100.5357
   444.2500      0.0000    915.8406      4.6321    104.1892
   444.5000      0.0000    943.4477      4.5854    105.8114
   444.7500      0.0000    951.5099      4.5384    104.3449
   445.0000      0.0000    941.5798      4.5012    100.5857
   445.2500      0.0000    923.0858      4.4850     96.0101
   445.5000      0.0000    901.1567      4.4959     91.3604
   445.7500      0.0000    871.0988      4.5342     86.5053
   446.0000      0.0000    826.0749      4.5969     81.4455
   446.2500      0.0000    767.0658      4.6816     77.1035
   446.5000      0.0000    702.8470      4.7904     74.9185
   446.7500      0.0000    641.5359      4.9294     75.7381
   447.0000      0.0000    584.9573      5.0982     79.1765
   447.2500      0.0000    531.8602      5.2800     83.9908
   447.5000      0.0000    483.8445      5.4443     89.0667
   447.7500      0.0000    445.7057      5.5634     94.0237
   448.0000      0.0000    420.7231      5.6272     98.7874
   448.2500      0.0000    407.6516      5.6416    102.6874
   448.5000      0.0000    402.3029      5.6184    104.4432
   448.7500      0.0000    400.6692      5.5675    103.2070
   449.0000      0.0000    400.4489      5.4961     99.3320
   449.2500      0.0000    401.0207      5.4133     94.1067
   449.5000      0.0000    403.1861      5.3299     89.1874
   449.7500      0.0000    409.1600      5.2537     86.1892
   450.0000      0.0000    421.6622      5.1842     86.0734
   450.2500      0.0000    440.8604      5.1129     88.4713
   450.5000      0.0000    461.0165      5.0285     91.7948
   450.7500      0.0000    472.1523      4.9261     94.3204
   451.0000      0.0000    467.8340      4.8158     95.2245
   451.2500      0.0000    451.0404      4.7209     94.5966
   451.5000      0.0000    431.0142      4.6638     92.7927
   451.7500      0.0000    415.4306      4.6500     90.1863
   452.0000      0.0000    406.7368      4.6671     87.5349
   452.2500      0.0000    404.2119      4.6987     86.1329
   452.5000      0.0000    407.3312      4.7388     87.1704
   452.7500      0.0000    416.5733      4.7949     90.6860
   453.0000      0.0000    430.9483      4.8806     95.1586
   453.2500      0.0000    445.1497      5.0038     98.4279
   453.5000      0.0000    451.2328      5.1541     99.3014
   453.7500      0.0000    445.1951      5.2999     98.1438
   454.0000      0.0000    430.9446      5.4037     95.9862
   454.2500      0.0000    416.3751      5.4452     93.6209
   454.5000      0.0000    406.6245      5.4269     91.6502
   454.7500      0.0000    401.9721      5.3613     90.5843
   455.0000      0.0000    400.3174      5.2562     90.3811
   455.2500      0.0000    399.8162      5.1167     90.3316
   455.5000      0.0000    399.6604      4.9521     89.8638
   455.7500      0.0000    399.7612      4.7756     89.2731
   456.0000      0.0000    400.5892      4.5976     89.3047
   456.2500      0.0000    403.6982      4.4224     90.0746
   456.5000      0.0000    412.9353      4.2539     90.8853
   456.7500      0.0000    434.8001      4.0990     91.2089
   457.0000      0.0000    475.5713      3.9650     91.2505
   457.2500      0.0000    535.4702      3.8546     91.2897
   457.5000      0.0000    605.6689      3.7663     91.0651
   457.7500      0.0000    673.4926      3.6975     90.1931
   458.0000      0.0000    731.1652      3.6430     88.6902
   458.2500      0.0000    778.1550      3.5938     86.6988
   458.5000      0.0000    815.3375      3.5414     84.1348
   458.7500      0.0000    839.1771      3.4849     80.9853
   459.0000      0.0000    843.0229      3.4333     77.6897
   459.2500      0.0000    824.5449      3.3971     74.9379
   459.5000      0.0000    791.5813      3.3784     73.1769
   459.7500      0.0000    759.0534      3.3694     72.4432
   460.0000      0.0000    738.6293      3.3592     72.5007
   460.2500      0.0000    730.8572      3.3417     72.8959
   460.5000      0.0000    725.8199      3.3211     73.0129
   460.7500      0.0000    709.5697      3.3109     72.4901
   461.0000      0.0000    671.7975      3.3243     71.6618
   461.2500      0.0000    612.4033      3.3635     71.3035
   461.5000      0.0000    543.3352      3.4148     71.8128
   461.7500      0.0000    481.9524      3.4547     72.7664
   462.0000      0.0000    440.2883      3.4605     73.2691
   462.2500      0.0000    420.6663      3.4189     72.6637
   462.5000      0.0000    420.8307      3.3290     70.9866
   462.7500      0.0000    440.8283      3.2027     68.8390
   463.0000      0.0000    483.0333      3.0585     66.7801
   463.2500      0.0000    545.5439      2.9069     64.9554
   463.5000      0.0000    618.1316      2.7393     63.4401
   463.7500      0.0000    688.7579      2.5378     62.5646
   464.0000      0.0000    755.0134      2.3010     62.4664
   464.2500      0.0000    825.1125      2.0572     62.7034
   464.5000      0.0000    904.4245      1.8450     62.8344
   464.7500      0.0000    983.1064      1.6887     63.0589
   465.0000      0.0000   1039.9613      1.5920     63.6991
   465.2500      0.0000   1058.2568      1.5463     64.3015
   465.5000     -2.5287   1038.0392      1.5369     63.9833
   465.7500     -3.0000    995.7880      1.5474     62.7337
   466.0000      3.0000    952.4163      1.5629     61.7399
   466.2500      0.0000    919.3457      1.5705     62.1594
   466.5000      0.0000    896.3372      1.5611     63.9550
   466.7500      0.0000    882.4818      1.5300     66.1718
   467.0000      0.0000    882.7166      1.4683     68.0480
   467.2500      0.0000    897.6606      1.3588     69.5803
   467.5000      0.0000    912.0479      1.1982     71.0730
   467.7500      0.0000    903.6224      1.0211     72.1981
   468.0000      0.0000    866.0071      0.8844     71.8438
   468.2500      0.0000    816.6079      0.8258     69.4567
   468.5000      0.0000    781.0276      0.8455     66.3194
   468.7500      0.0000    776.1632      0.9208     64.6859
   469.0000      0.0000    807.1682      1.0311     65.6304
   469.2500      0.0000    869.5300      1.1688     68.1962
   469.5000      0.0000    950.0156      1.3414     70.3948
   469.7500      0.0000   1032.2621      1.5640     70.5826
   470.0000      0.0000   1104.3594      1.8446     68.3144
   470.2500      0.0000   1157.6158      2.1722     64.6090
   470.5000      0.0000   1181.2201      2.5229     61.3539
   470.7500      0.0000   1168.4799      2.8751     59.9475
   471.0000      0.0000   1130.5107      3.2146     60.3315
   471.2500      0.0000   1094.5579      3.5289     61.3679
   471.5000      0.0000   1082.1261      3.8028     62.0914
   471.7500      0.0000   1090.9758      4.0237     62.5188
   472.0000      0.0000   1101.5630      4.1918     63.3605
   472.2500      0.0000   1098.8818      4.3264     65.1676
   472.5000      0.0000   1085.1332      4.4578     67.8666
   472.7500      0.0000   1073.2891      4.6103     70.9252
   473.0000      0.0000   1073.8885      4.7931     73.6883
   473.2500      0.0000   1090.0299      5.0069     75.6062
   473.5000      0.0000   1121.2479      5.2508     76.3583
   473.7500      0.0000   1166.4844      5.5184     75.7917
   474.0000      0.0000   1219.8999      5.7934     73.8598
   474.2500      0.0000   1265.2091      6.0591     70.9595
