~Version Information
VERS.                      2.0: CWLS Log ASCII Standard - VERSION 2.0
WRAP.                       NO: One line per depth step
~Well Information Block
STRT.FT               750.6000: 
STOP.FT              2495.5000: 
STEP.FT                 0.1000: 
NULL.                -999.2500: 
COMP.                         : COMPANY
WELL.                         : WELL
FLD.                          : FIELD
LOC.                          : LOCATION
CNTY.                         : COUNTY
SRVC.                         : SERVICE COMPANY
DATE.          Sat Feb 28 14:05:57 2004: LOG DATE
UWI.                          : UNIQUE WELL ID
STAT.                         : STATE
~Curve Information Block
DEPT.FT            0 000 00 00: Depth
DCAL.in                       : CDL Caliper
RHOB.g/cc                     : CDL Bulk Density
RHOC.g/cc                     : CDL Density Correction
DPOR.pu                       : CDL Density Porosity
GR.GAPI                       : Gamma Ray
NPOR.pu                       : Neutron Porosity
~Parameter Information Block
~A  Depth       DCAL        RHOB        RHOC        DPOR         GR         NPOR    
# ...
  1912.2000      8.0302      2.5773      0.0993      4.4060     95.4868     27.9631
  1912.3000      8.0296      2.5612      0.1203      5.3799     95.8715     28.1778
  1912.4000      8.0296      2.5221      0.0790      7.7503     95.8359     28.8410
  1912.5000      8.0316      2.4929      0.0253      9.5230     97.8881     29.4748
  1912.6000      8.0316      2.4938      0.0429      9.4679    100.3727     29.7215
  1912.7000      8.0316      2.5061      0.1264      8.7209     98.0861     29.6539
  1912.8000      8.0320      2.5131      0.0729      8.2991     92.9523     29.3012
  1912.9000      8.0320      2.5223      0.0924      7.7367     90.3902     29.1365
  1913.0000      8.0268      2.5285      0.1334      7.3627     91.2885     29.6162
  1913.1000      8.0268      2.5088      0.1494      8.5583     92.0107     30.1863
  1913.2000      8.0268      2.4680      0.0713     11.0307     90.5393     30.3508
  1913.3000      8.0274      2.4380      0.0618     12.8456     87.4661     30.6106
  1913.4000      8.0274      2.4333      0.0997     13.1316     83.4279     31.2236
  1913.5000      8.0236      2.4486      0.0374     12.2088     79.1559     31.6881
  1913.6000      8.0236      2.4761      0.0532     10.5399     76.1506     31.5103
  1913.7000      8.0236      2.5017      0.1120      8.9876     74.5212     30.7840
  1913.8000      8.0194      2.5252      0.0380      7.5608     73.3183     30.0257
  1913.9000      8.0194      2.5582      0.1274      5.5654     72.6391     29.3665
  1914.0000      8.0125      2.5884      0.1251      3.7348     72.7189     28.6526
  1914.1000      8.0125      2.6050      0.0932      2.7274     75.5666     27.9679
  1914.2000      8.0125      2.6098      0.1537      2.4372     81.2104     27.6054
  1914.3000      8.0172      2.5996      0.1327      3.0573     82.9089     27.6517
  1914.4000      8.0172      2.5833      0.1165      4.0443     78.7908     27.7597
  1914.5000      8.0121      2.5777      0.0933      4.3833     74.6996     27.6427
  1914.6000      8.0121      2.5831      0.1332      4.0535     71.5213     27.5345
  1914.7000      8.0121      2.5797      0.0857      4.2628     67.8082     27.7628
  1914.8000      8.0072      2.5534      0.0767      5.8564     64.7078     28.0696
  1914.9000      8.0072      2.5172      0.0878      8.0455     63.7401     28.1812
  1915.0000      8.0042      2.4929      0.0595      9.5222     66.2895     28.1078
  1915.1000      8.0042      2.4870      0.0979      9.8810     71.4543     28.1156
  1915.2000      8.0042      2.4929      0.0745      9.5242     76.3271     28.4065
  1915.3000      8.0129      2.5090      0.0603      8.5444     76.2012     28.7201
  1915.4000      8.0129      2.5279      0.1301      7.3984     70.9177     28.8916
  1915.5000      8.0138      2.5332      0.0792      7.0778     66.9746     28.9926
  1915.6000      8.0138      2.5244      0.0880      7.6107     67.3689     28.9474
  1915.7000      8.0138      2.5082      0.1156      8.5920     72.8641     28.5989
  1915.8000      8.0109      2.4939     -0.0145      9.4615     79.8424     28.0866
  1915.9000      8.0109      2.5044      0.0071      8.8247     80.7224     27.5410
  1916.0000      8.0084      2.5434      0.1325      6.4595     74.5432     26.8220
  1916.1000      8.0084      2.5822      0.1868      4.1072     66.6197     26.2391
  1916.2000      8.0084      2.5980      0.1250      3.1526     60.4542     26.2564
  1916.3000      7.9994      2.5980      0.0951      3.1501     55.3048     26.6505
  1916.4000      7.9994      2.5981      0.1153      3.1446     48.6424     26.8683
  1916.5000      8.0011      2.5976      0.0551      3.1728     42.9855     26.7866
  1916.6000      8.0011      2.5955      0.0992      3.3049     44.3478     26.6549
  1916.7000      8.0011      2.6024      0.0684      2.8827     49.5739     26.4745
  1916.8000      8.0025      2.6200      0.1124      1.8176     50.5436     26.2712
  1916.9000      8.0025      2.6300      0.1117      1.2116     45.3746     26.2825
  1917.0000      8.0045      2.6204      0.0525      1.7929     38.8987     26.3214
  1917.1000      8.0045      2.5982      0.0691      3.1400     37.0706     26.1054
  1917.2000      8.0045      2.5734     -0.0085      4.6453     40.5892     25.9519
  1917.3000      8.0118      2.5516      0.0510      5.9629     45.4035     26.2422
  1917.4000      8.0118      2.5353      0.0862      6.9537     48.7135     26.5911
  1917.5000      8.0123      2.5402     -0.0494      6.6545     51.0330     26.5553
  1917.6000      8.0123      2.5692      0.0977      4.8965     53.7664     26.2953
  1917.7000      8.0123      2.5829      0.0532      4.0655     56.6326     25.8952
  1917.8000      8.0194      2.5733      0.0589      4.6476     59.6632     25.2906
  1917.9000      8.0194      2.5591      0.1019      5.5094     62.6983     24.6499
  1918.0000      7.9998      2.5407      0.0178      6.6258     62.5558     24.1363
  1918.1000      7.9998      2.5297     -0.0694      7.2909     60.1905     23.7983
  1918.2000      7.9998      2.5287      0.0964      7.3486     62.2507     24.0337
  1918.3000      7.9909      2.5197     -0.0030      7.8992     69.9930     25.0489
  1918.4000      7.9909      2.5155     -0.0138      8.1506     77.5257     26.2065
  1918.5000      7.9854      2.5326      0.0858      7.1163     81.7690     26.9324
  1918.6000      7.9854      2.5635      0.0335      5.2453     83.7601     27.1139
  1918.7000      7.9854      2.6078      0.0576      2.5560     83.0205     26.8217
  1918.8000      7.9835      2.6530      0.1542     -0.1791     78.6622     26.4433
  1918.9000      7.9835      2.6717      0.1262     -1.3145     72.5655     26.4150
  1919.0000      7.9885      2.6675      0.1256     -1.0609     68.0044     26.6919
  1919.1000      7.9885      2.6527      0.1719     -0.1653     67.8495     26.8522
  1919.2000      7.9885      2.6171      0.1640      1.9963     71.0893     26.6952
  1919.3000      7.9936      2.5654      0.0614      5.1290     72.6428     26.5892
  1919.4000      7.9936      2.5330      0.0897      7.0890     74.0073     26.7204
  1919.5000      7.9930      2.5395      0.0494      6.6990     78.7618     26.5453
  1919.6000      7.9930      2.5659      0.0405      5.0993     81.4850     25.7222
  1919.7000      7.9930      2.5792      0.0986      4.2897     77.6851     24.8074
  1919.8000      7.9919      2.5678      0.0504      4.9796     74.6565     24.6831
  1919.9000      7.9919      2.5492      0.0558      6.1112     79.4438     25.4327
  1920.0000      7.9972      2.5394     -0.0069      6.7022     87.8587     26.5378
  1920.1000      7.9972      2.5431      0.0519      6.4791     92.5470     27.3669
  1920.2000      7.9972      2.5620      0.0188      5.3320     93.5971     27.3891
  1920.3000      7.9918      2.5882      0.0842      3.7479     95.7692     26.8052
  1920.4000      7.9918      2.6075      0.0643      2.5728     97.4563     26.1958
  1920.5000      7.9930      2.6234      0.0754      1.6100     92.0485     26.0194
  1920.6000      7.9930      2.6384      0.0910      0.7008     81.2163     26.3321
  1920.7000      7.9930      2.6406      0.1428      0.5673     74.2402     26.6011
  1920.8000      8.0005      2.6314      0.0859      1.1270     77.2355     26.4077
  1920.9000      8.0005      2.6279      0.0749      1.3400     89.5446     26.2158
  1921.0000      7.9952      2.6437      0.0743      0.3792    101.1224     26.4572
  1921.1000      7.9952      2.6746      0.1245     -1.4915    102.1725     26.7202
  1921.2000      7.9952      2.6943      0.1089     -2.6833     94.6692     26.5911
  1921.3000      7.9949      2.6855      0.0732     -2.1500     83.1167     26.2517
  1921.4000      7.9949      2.6562      0.0846     -0.3743     71.8694     25.9675
  1921.5000      7.9978      2.6220      0.0931      1.6977     65.8884     25.7339
  1921.6000      7.9978      2.5983      0.0624      3.1325     65.4865     25.3150
  1921.7000      7.9978      2.6007      0.0462      2.9850     67.0119     24.5977
