~Version Information
VERS.                      2.0: CWLS Log ASCII Standard - VERSION 2.0
WRAP.                       NO: One line per depth step
~Well Information Block
STRT.FT               898.0000: 
STOP.FT              2360.0000: 
STEP.FT                 0.2500: 
NULL.                -999.2500: 
COMP.          Pioneer Natural Resources: COMPANY
WELL.             Trimax 44-23: WELL
FLD.           Purgatoire River: FIELD
LOC.           527' FSL & 1064' FEL: LOCATION
PROV.                 Colorado: PROVINCE
CNTY.               Las Animas: COUNTRY
SRVC.                Patterson: SERVICE COMPANY
DATE.          Sun Mar 13 04:57:04 2005: LOG DATE
UWI.           05 071 08326 00: UNIQUE WELL ID
~Curve Information Block
DEPT.FT            0 000 00 00: Depth
SN.Ohm-m                      : IEL Short Normal
SP.mV                         : IEL Spontaneous Potential
DIR.Ohm-m                     : IEL Induction Resistivity
GR.GAPI                       : Gamma Ray
~Parameter Information Block
~A  Depth        SN          SP         DIR          GR     
# ...
  1099.0000   2000.0000   2000.0000      2.1991    140.3819
  1099.2500   2000.0000   2000.0000      2.4140    140.4723
  1099.5000   2000.0000   2000.0000      2.6403    138.9922
  1099.7500   2000.0000   2000.0000      2.8817    136.8231
  1100.0000   2000.0000   2000.0000      3.1434    131.8245
  1100.2500   2000.0000   2000.0000      3.4300    127.8200
  1100.5000   2000.0000   2000.0000      3.7462    122.1582
  1100.7500   2000.0000   2000.0000      4.0976    119.2360
  1101.0000   2000.0000   2000.0000      4.4925    116.3447
  1101.2500   2000.0000   2000.0000      4.9415    115.1516
  1101.5000   2000.0000   2000.0000      5.4551    114.0627
  1101.7500   2000.0000   2000.0000      6.0405    113.8154
  1102.0000   2000.0000   2000.0000      6.7010    114.3038
  1102.2500   2000.0000   2000.0000      7.4356    115.0747
  1102.5000   2000.0000   2000.0000      8.2385    116.1872
  1102.7500   2000.0000   2000.0000      9.0959    116.4109
  1103.0000   2000.0000   2000.0000      9.9822    115.7089
  1103.2500   2000.0000   2000.0000     10.8602    114.9529
  1103.5000   2000.0000   2000.0000     11.6877    114.5363
  1103.7500   2000.0000   2000.0000     12.4263    115.1106
  1104.0000   2000.0000   2000.0000     13.0463    116.9939
  1104.2500   2000.0000   2000.0000     13.5262    118.5562
  1104.5000   2000.0000   2000.0000     13.8499    121.0368
  1104.7500   2000.0000   2000.0000     14.0091    122.9022
  1105.0000   2000.0000   2000.0000     14.0117    126.3745
  1105.2500   2000.0000   2000.0000     13.8882    129.0363
  1105.5000   2000.0000   2000.0000     13.6863    132.5804
  1105.7500   2000.0000   2000.0000     13.4549    133.9821
  1106.0000   2000.0000   2000.0000     13.2275    134.3166
  1106.2500   2000.0000   2000.0000     13.0161    133.8224
  1106.5000   2000.0000   2000.0000     12.8175    133.5379
  1106.7500   2000.0000   2000.0000     12.6240    134.4747
  1107.0000   2000.0000   2000.0000     12.4319    137.8791
  1107.2500   2000.0000   2000.0000     12.2432    141.0048
  1107.5000   2000.0000   2000.0000     12.0622    146.0484
  1107.7500   2000.0000   2000.0000     11.8933    149.4191
  1108.0000   2000.0000   2000.0000     11.7397    154.3566
  1108.2500   2000.0000   2000.0000     11.6024    157.4115
  1108.5000   2000.0000   2000.0000     11.4785    161.1201
  1108.7500   2000.0000   2000.0000     11.3613    162.5590
  1109.0000   2000.0000   2000.0000     11.2440    162.2918
  1109.2500   2000.0000   2000.0000     11.1272    160.2229
  1109.5000   2000.0000   2000.0000     11.0235    154.8774
  1109.7500   2000.0000   2000.0000     10.9549    150.8904
  1110.0000   2000.0000   2000.0000     10.9417    146.6354
  1110.2500   2000.0000   2000.0000     10.9920    145.8506
  1110.5000   2000.0000   2000.0000     11.0967    147.5101
  1110.7500   2000.0000   2000.0000     11.2344    149.5468
  1111.0000   2000.0000   2000.0000     11.3817    152.1848
  1111.2500   2000.0000   2000.0000     11.5226    152.9848
  1111.5000   2000.0000   2000.0000     11.6488    152.3511
  1111.7500   2000.0000   2000.0000     11.7538    150.8916
  1112.0000   2000.0000   2000.0000     11.8277    148.0571
  1112.2500   2000.0000   2000.0000     11.8610    146.3472
  1112.5000   2000.0000   2000.0000     11.8541    144.5181
  1112.7500   2000.0000   2000.0000     11.8246    143.6174
  1113.0000   2000.0000   2000.0000     11.8005    142.3347
  1113.2500   2000.0000   2000.0000     11.8081    141.6609
  1113.5000   2000.0000   2000.0000     11.8598    141.7046
  1113.7500   2000.0000   2000.0000     11.9523    142.6127
  1114.0000   2000.0000   2000.0000     12.0730    144.3952
  1114.2500   2000.0000   2000.0000     12.2091    145.0941
  1114.5000   2000.0000   2000.0000     12.3537    145.1243
  1114.7500   2000.0000   2000.0000     12.5071    145.0373
  1115.0000   2000.0000   2000.0000     12.6743    145.7627
  1115.2500   2000.0000   2000.0000     12.8629    146.7541
  1115.5000   2000.0000   2000.0000     13.0830    147.7293
  1115.7500   2000.0000   2000.0000     13.3496    147.1327
  1116.0000   2000.0000   2000.0000     13.6825    143.6043
  1116.2500   2000.0000   2000.0000     14.1021    139.8052
  1116.5000   2000.0000   2000.0000     14.6213    133.4910
  1116.7500   2000.0000   2000.0000     15.2389    129.8181
  1117.0000   2000.0000   2000.0000     15.9404    125.7731
  1117.2500   2000.0000   2000.0000     16.7075    123.7999
  1117.5000   2000.0000   2000.0000     17.5260    120.9858
  1117.7500   2000.0000   2000.0000     18.3870    118.6887
  1118.0000   2000.0000   2000.0000     19.2808    114.2476
  1118.2500   2000.0000   2000.0000     20.1945    110.9294
  1118.5000   2000.0000   2000.0000     21.1134    106.6782
  1118.7500   2000.0000   2000.0000     22.0161    104.9727
  1119.0000   2000.0000   2000.0000     22.8627    104.0569
  1119.2500   2000.0000   2000.0000     23.5880    103.8983
  1119.5000   2000.0000   2000.0000     24.1141    103.2935
  1119.7500   2000.0000   2000.0000     24.3802    102.5572
  1120.0000   2000.0000   2000.0000     24.3725    101.5346
  1120.2500   2000.0000   2000.0000     24.1354    101.3177
  1120.5000   2000.0000   2000.0000     23.7569    102.2002
  1120.7500   2000.0000   2000.0000     23.3336    103.8022
  1121.0000   2000.0000   2000.0000     22.9397    108.0142
  1121.2500   2000.0000   2000.0000     22.6056    112.1616
  1121.5000   2000.0000   2000.0000     22.3102    120.3123
  1121.7500   2000.0000   2000.0000     21.9840    126.5820
  1122.0000   2000.0000   2000.0000     21.5402    135.7497
  1122.2500   2000.0000   2000.0000     20.9306    140.7394
  1122.5000   2000.0000   2000.0000     20.1905    145.4558
  1122.7500   2000.0000   2000.0000     19.4240    146.6524
  1123.0000   2000.0000   2000.0000     18.7415    146.1980
  1123.2500   2000.0000   2000.0000     18.2071    145.0406
  1123.5000   2000.0000   2000.0000     17.8283    143.0412
  1123.7500   2000.0000   2000.0000     17.5782    141.9097
  1124.0000   2000.0000   2000.0000     17.4227    140.8170
  1124.2500   2000.0000   2000.0000     17.3358    140.5105
  1124.5000   2000.0000   2000.0000     17.2978    140.4792
  1124.7500   2000.0000   2000.0000     17.2874    140.5791
  1125.0000   2000.0000   2000.0000     17.2821    140.7121
  1125.2500   2000.0000   2000.0000     17.2712    140.6632
  1125.5000   2000.0000   2000.0000     17.2708    140.1948
  1125.7500   2000.0000   2000.0000     17.3255    139.7601
  1126.0000   2000.0000   2000.0000     17.4898    139.6341
  1126.2500   2000.0000   2000.0000     17.8004    140.1222
  1126.5000   2000.0000   2000.0000     18.2570    141.0332
  1126.7500   2000.0000   2000.0000     18.8219    140.9385
  1127.0000   2000.0000   2000.0000     19.4405    138.6658
  1127.2500   2000.0000   2000.0000     20.0674    135.6927
  1127.5000   2000.0000   2000.0000     20.6825    129.7972
  1127.7500   2000.0000   2000.0000     21.2886    125.4429
  1128.0000   2000.0000   2000.0000     21.9060    118.8880
  1128.2500   2000.0000   2000.0000     22.5706    114.6888
  1128.5000   2000.0000   2000.0000     23.3353    108.6899
  1128.7500   2000.0000   2000.0000     24.2611    104.7592
  1129.0000   2000.0000   2000.0000     25.3971     98.8313
  1129.2500   2000.0000   2000.0000     26.7572     95.1037
  1129.5000   2000.0000   2000.0000     28.2969     90.6535
  1129.7500   2000.0000   2000.0000     29.9031     88.6551
  1130.0000   2000.0000   2000.0000     31.4177     86.3900
  1130.2500   2000.0000   2000.0000     32.7063     84.5700
  1130.5000   2000.0000   2000.0000     33.7325     80.5675
  1130.7500   2000.0000   2000.0000     34.5595     77.3636
  1131.0000   2000.0000   2000.0000     35.2695     73.0886
  1131.2500   2000.0000   2000.0000     35.8887     71.0254
  1131.5000   2000.0000   2000.0000     36.3933     68.6160
  1131.7500   2000.0000   2000.0000     36.7723     66.9790
  1132.0000   2000.0000   2000.0000     37.0748     64.4533
  1132.2500   2000.0000   2000.0000     37.3859     63.1649
