~Version Information
VERS.                      2.0: CWLS Log ASCII Standard - VERSION 2.0
WRAP.                       NO: One line per depth step
~Well Information Block
STRT.FT                 0.0000: 
STOP.FT              1390.5000: 
STEP.FT                 0.2500: 
NULL.                -999.2500: 
COMP.          Petrogulf Corporation: COMPANY
WELL.             Leier 17-42R: WELL
FLD.           Purgatorie River: FIELD
LOC.           2398' FNL & 1109' FEL: LOCATION
PROV.                 Colorado: PROVINCE
CNTY.               Las Animas: COUNTRY
SRVC.                Patterson: SERVICE COMPANY
DATE.          Thu Nov 10 14:34:29 2005: LOG DATE
UWI.                          : UNIQUE WELL ID
~Curve Information Block
DEPT.FT            0 000 00 00: Depth
CCL.                          : Casing Collar Locator
TT3.usec                      : CBL 3' Travel Time
AMP3.mV                       : CBL 3' Amplitude
GR.GAPI                       : Gamma Ray
~Parameter Information Block
~A  Depth       CCL         TT3         AMP3         GR     
# ...
  1105.5000      0.0000    295.5961     38.5197     82.4166
  1105.7500      0.0000    295.1966     38.3496     78.9514
  1106.0000      0.0000    293.8193     38.4556     78.6120
  1106.2500      0.0000    289.8798     38.9385     81.2626
  1106.5000      0.0000    282.3136     39.7541     85.7084
  1106.7500      0.0000    272.8726     40.7169     90.8987
  1107.0000      0.0000    265.2228     41.6344     95.9958
  1107.2500      0.0000    261.1255     42.4464     99.7868
  1107.5000      0.0000    259.5573     43.1854    101.0419
  1107.7500      0.0000    259.0001     43.8378     99.8723
  1108.0000      0.0000    258.7708     44.3336     98.0895
  1108.2500      0.0000    258.7873     44.6352     97.5213
  1108.5000      0.0000    259.0059     44.8150     98.3387
  1108.7500      0.0000    259.1364     45.0221     99.7100
  1109.0000      0.0000    258.9399     45.3393    101.5991
  1109.2500      0.0000    258.5603     45.7403    104.8540
  1109.5000      0.0000    258.2600     46.1769    109.6760
  1109.7500      0.0000    258.1043     46.6110    115.0087
  1110.0000      0.0000    258.0263     47.0086    119.5347
  1110.2500      0.0000    257.9588     47.3763    122.5051
  1110.5000      0.0000    257.8699     47.7313    123.5587
  1110.7500      0.0000    257.7727     48.0183    122.4819
  1111.0000      0.0000    257.7047     48.1927    119.3056
  1111.2500      0.0000    257.6775     48.3403    114.2483
  1111.5000      0.0000    257.6714     48.5558    107.7382
  1111.7500      0.0000    257.6686     48.8234    100.8579
  1112.0000      0.0000    257.6537     49.0933     95.2055
  1112.2500      0.0000    257.6168     49.2773     91.6836
  1112.5000      0.0000    257.5861     49.1672     89.7766
  1112.7500      0.0000    257.6161     48.5667     88.4685
  1113.0000      0.0000    257.7310     47.5164     87.5485
  1113.2500      0.0000    257.9144     46.2908     87.7055
  1113.5000      0.0000    258.1293     45.1972     89.6612
  1113.7500      0.0000    258.3244     44.4118     93.4242
  1114.0000      0.0000    258.4982     43.9138     98.1094
  1114.2500      0.0000    258.8882     43.5131    102.1536
  1114.5000      0.0000    260.3297     42.9233    103.9839
  1114.7500      0.0000    264.4310     41.8361    103.1682
  1115.0000      0.0000    272.2611     40.0738    101.0906
  1115.2500      0.0000    282.0730     37.7825     99.9836
  1115.5000      0.0000    290.2030     35.3111    100.9886
  1115.7500      0.0000    295.3620     32.7634    103.3217
  1116.0000      0.0000    301.1266     29.9455    105.2458
  1116.2500      0.0000    316.0632     26.8000    105.6791
  1116.5000      0.0000    351.1878     23.5895    105.1099
  1116.7500      0.0000    409.4954     20.6678    105.2143
  1117.0000      0.0000    475.3943     18.2065    107.3986
  1117.2500      0.0000    526.3849     16.1752    111.4775
  1117.5000      0.0000    555.9521     14.5345    115.7514
  1117.7500      0.0000    566.6782     13.3196    118.3716
  1118.0000      0.0000    556.8643     12.5424    118.6303
  1118.2500      0.0000    541.1165     12.1344    117.0705
  1118.5000      0.0000    549.4715     12.0341    114.6161
  1118.7500      0.0000    583.4778     12.2674    111.8352
  1119.0000      0.0000    607.4739     12.9230    108.9806
  1119.2500      0.0000    588.1837     14.0880    106.2622
  1119.5000      0.0000    522.3700     15.8061    103.7411
  1119.7500      0.0000    435.7710     18.0039    101.2608
  1120.0000      0.0000    362.9721     20.4372     98.7918
  1120.2500      0.0000    321.0317     22.8906     96.6396
  1120.5000      0.0000    303.9477     25.3967     95.1849
  1120.7500      0.0000    298.6224     28.0552     94.6310
  1121.0000      0.0000    297.0228     30.7847     95.1183
  1121.2500      0.0000    296.3773     33.4275     96.8610
  1121.5000      0.0000    295.9577     35.7648     99.9772
  1121.7500      0.0000    295.6035     37.2825    104.1344
  1122.0000      0.0000    295.3979     37.4047    108.2639
  1122.2500      0.0000    295.4875     36.0339    110.6489
  1122.5000      0.0000    295.9678     33.5546    109.7217
  1122.7500      0.0000    296.9255     30.4504    105.2316
  1123.0000      0.0000    299.0712     27.1384     98.6184
  1123.2500      0.0000    305.3399     24.0031     92.0717
  1123.5000      0.0000    320.9631     21.2582     87.2686
  1123.7500      0.0000    347.2117     18.7812     84.8711
  1124.0000      0.0000    378.1308     16.3385     84.6802
  1124.2500      0.0000    415.7360     13.9266     85.7892
  1124.5000      0.0000    473.8295     11.7693     86.7788
  1124.7500      0.0000    545.5163     10.0876     86.3571
  1125.0000      0.0000    594.6686      8.9259     84.1363
  1125.2500      0.0000    597.3851      8.1432     80.6648
  1125.5000      0.0000    567.6160      7.5664     76.6510
  1125.7500      0.0000    535.9168      7.1180     72.3506
  1126.0000      0.0000    517.0645      6.7566     67.8221
  1126.2500      0.0000    508.2065      6.4199     63.4586
  1126.5000      0.0000    507.1383      6.0895     59.8382
  1126.7500      0.0000    515.9743      5.8257     57.1154
  1127.0000      0.0000    531.5092      5.6887     55.0055
  1127.2500      0.0000    541.9261      5.6136     53.3289
  1127.5000      0.0000    543.2145      5.4788     52.0756
  1127.7500      0.0000    546.7139      5.3097     51.0033
  1128.0000      0.0000    558.8039      5.2227     49.7381
  1128.2500      2.0000    574.6748      5.2556     48.3750
  1128.5000     -2.0000    593.4971      5.3640     47.7119
  1128.7500      0.0000    615.1456      5.4569     48.7989
  1129.0000      0.0000    632.2591      5.4451     52.2062
  1129.2500      0.0000    640.4094      5.3718     57.4819
  1129.5000      0.0000    642.5789      5.4355     63.1575
  1129.7500      0.0000    639.0779      5.7119     67.3334
  1130.0000      0.0000    624.0779      5.9379     68.5438
  1130.2500      0.0000    595.6815      5.8442     66.5108
  1130.5000      0.0000    565.2445      5.5225     62.2972
  1130.7500      0.0000    551.5297      5.1974     57.6747
  1131.0000      0.0000    563.6387      4.9475     54.2604
  1131.2500      0.0000    592.0257      4.7682     53.0128
  1131.5000      0.0000    618.2491      4.6628     54.0438
  1131.7500      0.0000    632.4238      4.6379     56.6465
  1132.0000      0.0000    636.4208      4.6841     59.7363
  1132.2500      0.0000    633.1097      4.7894     62.7050
  1132.5000      0.0000    619.7441      4.9536     66.0423
  1132.7500      0.0000    593.4925      5.1481     70.9789
  1133.0000      0.0000    561.6674      5.3236     78.3844
  1133.2500      0.0000    538.6866      5.4740     87.9937
  1133.5000      0.0000    529.9753      5.5999     98.4978
  1133.7500      0.0000    527.9142      5.6561    108.0517
  1134.0000      0.0000    525.5821      5.6120    114.9528
  1134.2500      0.0000    526.7320      5.5125    118.5696
  1134.5000      0.0000    537.5522      5.4466    119.8949
  1134.7500      0.0000    552.2823      5.4657    120.9301
  1135.0000      0.0000    557.4289      5.5473    123.3338
  1135.2500      0.0000    550.2997      5.6435    127.5946
  1135.5000      0.0000    540.6979      5.7337    133.1111
  1135.7500      0.0000    537.4702      5.8225    138.5640
  1136.0000      0.0000    543.8365      5.9185    142.3613
  1136.2500      0.0000    558.9488      6.0414    143.5083
  1136.5000      0.0000    576.8276      6.2141    142.4812
  1136.7500      0.0000    590.7928      6.4326    140.9844
  1137.0000      0.0000    600.6762      6.6999    140.5728
  1137.2500      0.0000    609.0630      7.0781    141.5586
  1137.5000      0.0000    614.4245      7.6523    143.1870
  1137.7500      0.0000    613.4890      8.4730    144.5729
  1138.0000      0.0000    605.7403      9.5512    145.5229
  1138.2500      0.0000    590.2399     10.8935    146.7023
  1138.5000      0.0000    563.1161     12.5112    148.8140
  1138.7500      0.0000    522.6232     14.4138    151.4555
