~Version Information
VERS.                      2.0: CWLS Log ASCII Standard - VERSION 2.0
WRAP.                       NO: One line per depth step
~Well Information Block
STRT.FT               420.0000: 
STOP.FT              1527.5000: 
STEP.FT                 0.1000: 
NULL.                -999.2500: 
COMP.          Evergreen Operating Corporation: COMPANY
WELL.              Chase 21-10: WELL
FLD.           Purgatoire River: FIELD
LOC.           1122' FNL & 1544' FWL: LOCATION
PROV.                       CO: PROVINCE
CNTY.               Las Animas: COUNTRY
SRVC.                         : SERVICE COMPANY
DATE.          Tue May 25 08:18:37 2004: LOG DATE
UWI.           05 071 08006 00: UNIQUE WELL ID
~Curve Information Block
DEPT.FT            0 000 00 00: Depth
DCAL.in                       : CDL Caliper
RHOB.g/cc                     : CDL Bulk Density
RHOC.g/cc                     : CDL Density Correction
DPOR.pu                       : CDL Density Porosity
GR.GAPI                       : Gamma Ray
NPOR.pu                       : Neutron Porosity
~Parameter Information Block
~A  Depth       DCAL        RHOB        RHOC        DPOR         GR         NPOR    
# ...
   640.8000      7.9338      2.3771      0.0760     16.5380     71.2564     19.8124
   640.9000      7.9338      2.3730      0.0657     16.7906     73.8912     19.5496
   641.0000      7.9226      2.3960      0.1171     15.3943     71.0817     19.4512
   641.1000      7.9226      2.4239      0.0554     13.7010     65.4448     19.3540
   641.2000      7.9226      2.4392      0.1461     12.7747     61.8827     19.4619
   641.3000      7.9193      2.4362      0.0874     12.9592     63.0988     20.0714
   641.4000      7.9193      2.4298      0.0133     13.3453     65.5896     20.7962
   641.5000      7.9477      2.4347      0.1223     13.0511     62.6243     20.9362
   641.6000      7.9477      2.4440      0.1487     12.4861     55.2131     20.3601
   641.7000      7.9477      2.4555      0.1746     11.7859     52.7905     19.5462
   641.8000      7.9466      2.4826      0.1057     10.1449     57.9982     19.1942
   641.9000      7.9466      2.5276      0.1365      7.4195     64.7411     19.5449
   642.0000      7.9376      2.5558      0.1135      5.7070     67.2814     20.0596
   642.1000      7.9376      2.5343      0.1510      7.0137     64.6870     20.1780
   642.2000      7.9376      2.4820      0.0860     10.1833     61.7174     19.9383
   642.3000      7.9188      2.4430      0.0295     12.5427     61.5756     19.7502
   642.4000      7.9188      2.4275      0.0953     13.4848     64.2867     19.8834
   642.5000      7.9226      2.4196      0.0776     13.9656     70.2163     20.1370
   642.6000      7.9226      2.4173      0.0926     14.1034     74.2939     20.2518
   642.7000      7.9226      2.4202      0.1045     13.9256     70.9877     20.1738
   642.8000      7.9403      2.4250      0.0621     13.6376     63.2082     19.9309
   642.9000      7.9403      2.4266      0.0707     13.5417     55.3434     19.8524
   643.0000      7.9401      2.4146      0.0716     14.2685     48.5406     20.2569
   643.1000      7.9401      2.3870      0.0336     15.9421     44.7060     20.7660
   643.2000      7.9401      2.3637      0.0355     17.3517     45.2431     20.7718
   643.3000      7.9671      2.3729      0.0163     16.7924     47.9805     20.2389
   643.4000      7.9671      2.4072      0.1008     14.7177     48.5312     19.6579
   643.5000      7.9512      2.4265      0.0992     13.5441     47.7397     19.2857
   643.6000      7.9512      2.4170      0.0148     14.1215     48.6380     18.9844
   643.7000      7.9512      2.4089      0.0345     14.6136     49.7523     18.9285
   643.8000      7.9524      2.4272      0.0702     13.5033     48.8731     19.1894
   643.9000      7.9524      2.4560      0.1626     11.7592     47.4934     19.3271
   644.0000      7.9319      2.4644      0.1838     11.2462     47.7299     19.1626
   644.1000      7.9319      2.4554      0.1142     11.7916     47.0138     18.9813
   644.2000      7.9319      2.4475      0.1143     12.2706     42.8204     18.8013
   644.3000      7.9520      2.4426      0.1262     12.5668     39.0057     18.5128
   644.4000      7.9520      2.4374      0.1180     12.8829     40.7351     18.4680
   644.5000      7.9408      2.4350      0.0728     13.0331     47.1279     18.8313
   644.6000      7.9408      2.4425      0.0886     12.5743     54.4028     19.3432
   644.7000      7.9408      2.4629      0.0645     11.3413     59.1803     19.7895
   644.8000      7.9380      2.4850      0.1499      9.9993     59.5802     20.0723
   644.9000      7.9380      2.4846      0.1010     10.0256     57.4729     20.0866
   645.0000      7.9486      2.4589      0.1421     11.5789     53.8179     19.6594
   645.1000      7.9486      2.4319      0.0842     13.2152     47.4317     19.0974
   645.2000      7.9486      2.4128      0.1308     14.3745     42.0053     19.0415
   645.3000      7.9218      2.3944      0.0897     15.4924     43.5532     19.5180
   645.4000      7.9218      2.3901      0.0379     15.7499     50.7171     20.1004
   645.5000      7.9312      2.4185      0.0600     14.0298     56.6814     20.5825
   645.6000      7.9312      2.4618      0.1279     11.4089     59.5819     20.8949
   645.7000      7.9312      2.4882      0.1328      9.8035     62.5386     21.0429
   645.8000      7.9312      2.4989      0.1050      9.1594     64.5009     21.3079
   645.9000      7.9312      2.5155      0.0864      8.1534     61.1598     21.6807
   646.0000      7.9210      2.5368      0.1489      6.8608     55.8661     21.6716
   646.1000      7.9210      2.5492      0.0944      6.1096     56.0198     21.3583
   646.2000      7.9210      2.5486      0.1578      6.1462     62.4449     21.2613
   646.3000      7.9174      2.5267      0.0971      7.4731     71.1751     21.2255
   646.4000      7.9174      2.4902      0.0110      9.6840     77.8194     20.8449
   646.5000      7.9199      2.4657      0.0039     11.1713     79.1749     20.4721
   646.6000      7.9199      2.4635     -0.0413     11.3052     77.1914     20.6450
   646.7000      7.9199      2.4766      0.0320     10.5106     77.2567     21.0207
   646.8000      7.9082      2.4943      0.0362      9.4385     81.4229     21.0063
   646.9000      7.9082      2.5022      0.1182      8.9598     86.9745     20.7544
   647.0000      7.9220      2.4942      0.0865      9.4453     90.3272     20.5555
   647.1000      7.9220      2.4764      0.1181     10.5240     91.3493     20.3177
   647.2000      7.9220      2.4560      0.0396     11.7584     93.2355     19.9008
   647.3000      7.9193      2.4386      0.0783     12.8122     97.3047     19.3924
   647.4000      7.9193      2.4317      0.0217     13.2310    101.1503     19.2091
   647.5000      7.9495      2.4423      0.0663     12.5859    105.1226     19.6424
   647.6000      7.9495      2.4600      0.1427     11.5151    112.3001     20.3653
   647.7000      7.9495      2.4587      0.1786     11.5917    120.5325     20.8917
   647.8000      7.9262      2.4282      0.0608     13.4436    128.0982     21.2198
   647.9000      7.9262      2.3908      0.0756     15.7086    136.4308     21.7190
   648.0000      7.9204      2.3803      0.0412     16.3484    141.5759     22.4449
   648.1000      7.9204      2.4053      0.1263     14.8296    140.1035     23.1153
   648.2000      7.9204      2.4416      0.1409     12.6282    138.4727     23.5112
   648.3000      7.9357      2.4638      0.1680     11.2823    143.2629     23.6810
   648.4000      7.9357      2.4696      0.1342     10.9334    152.6519     23.8916
   648.5000      7.9054      2.4715      0.0838     10.8187    160.7778     24.3188
   648.6000      7.9054      2.4709      0.1095     10.8571    164.6087     24.8464
   648.7000      7.9054      2.4529      0.1183     11.9450    159.7410     25.2589
   648.8000      7.8715      2.4088      0.0669     14.6168    144.7096     25.4813
   648.9000      7.8715      2.3527      0.0469     18.0179    127.6573     25.6172
   649.0000      7.8258      2.3050     -0.0055     20.9079    114.5503     25.7500
   649.1000      7.8258      2.2608      0.0503     23.5856    103.3837     25.7094
   649.2000      7.8258      2.2041     -0.0861     27.0241     93.8448     25.4083
   649.3000      7.8556      2.1422     -0.0554     30.7758     88.9761     24.9462
   649.4000      7.8556      2.0885     -0.0349     34.0304     87.3239     24.2153
   649.5000      7.8703      2.0295      0.0246     37.6073     81.9606     22.9579
   649.6000      7.8703      1.9346     -0.0147     43.3598     72.7487     21.4159
   649.7000      7.8703      1.8057     -0.0763     51.1722     63.1668     20.1329
   649.8000      7.9260      1.6809     -0.1022     58.7331     53.2436     19.2172
   649.9000      7.9260      1.5825     -0.0637     64.6974     43.7513     18.4739
   650.0000      8.0179      1.5023     -0.0335     69.5584     38.3549     17.7147
   650.1000      8.0179      1.4403      0.0080     73.3125     38.2065     16.8173
   650.2000      8.0179      1.4156      0.0950     74.8134     38.8118     15.8033
   650.3000      8.0764      1.4311      0.2369     73.8702     35.3562     14.8604
