~Version Information
VERS.                      2.0: CWLS Log ASCII Standard - VERSION 2.0
WRAP.                       NO: One line per depth step
~Well Information Block
STRT.FT                 0.0000: 
STOP.FT              1390.5000: 
STEP.FT                 0.2500: 
NULL.                -999.2500: 
COMP.          Petrogulf Corporation: COMPANY
WELL.             Leier 17-42R: WELL
FLD.           Purgatorie River: FIELD
LOC.           2398' FNL & 1109' FEL: LOCATION
PROV.                 Colorado: PROVINCE
CNTY.               Las Animas: COUNTRY
SRVC.                Patterson: SERVICE COMPANY
DATE.          Thu Nov 10 14:34:29 2005: LOG DATE
UWI.                          : UNIQUE WELL ID
~Curve Information Block
DEPT.FT            0 000 00 00: Depth
CCL.                          : Casing Collar Locator
TT3.usec                      : CBL 3' Travel Time
AMP3.mV                       : CBL 3' Amplitude
GR.GAPI                       : Gamma Ray
~Parameter Information Block
~A  Depth       CCL         TT3         AMP3         GR     
# ...
   737.0000      0.0000    673.4780      7.1390    125.0895
   737.2500      0.0000    673.0441      7.3506    127.9779
   737.5000      0.0000    670.4886      7.5429    128.9980
   737.7500      0.0000    662.6843      7.7575    128.7102
   738.0000      0.0000    648.2847      8.0244    128.7417
   738.2500      0.0000    631.3552      8.3537    129.9234
   738.5000      0.0000    617.1368      8.7435    131.8097
   738.7500      0.0000    607.4318      9.1340    133.9745
   739.0000      0.0000    605.4902      9.4375    136.7828
   739.2500      0.0000    615.5208      9.6325    140.2836
   739.5000      0.0000    634.4594      9.7628    143.2150
   739.7500      0.0000    653.4583      9.8748    144.0994
   740.0000      0.0000    665.7874      9.9967    142.9912
   740.2500      0.0000    669.4938     10.1225    141.4182
   740.5000      0.0000    665.0869     10.2034    140.8448
   740.7500      0.0000    654.7847     10.2009    141.6456
   741.0000      0.0000    643.4884     10.1350    143.2647
   741.2500      0.0000    634.8477     10.0616    144.7388
   741.5000      0.0000    627.8366     10.0172    144.8655
   741.7500      0.0000    620.0265      9.9824    142.3500
   742.0000      0.0000    610.8619      9.8746    136.6700
   742.2500      0.0000    601.8769      9.6138    128.9289
   742.5000      0.0000    594.5540      9.2252    121.3362
   742.7500      0.0000    590.8116      8.8430    115.8325
   743.0000      0.0000    595.9168      8.6238    113.3444
   743.2500      0.0000    612.5356      8.6865    113.7642
   743.5000      0.0000    632.1168      9.0355    115.9325
   743.7500      0.0000    643.8052      9.4963    117.8318
   744.0000      0.0000    649.2917      9.8326    117.7274
   744.2500      0.0000    656.3859      9.9457    115.7298
   744.5000      0.0000    665.1293      9.8994    113.9732
   744.7500      0.0000    671.1456      9.7795    114.6040
   745.0000      0.0000    673.6360      9.6163    117.4595
   745.2500      0.0000    674.3483      9.4386    120.1872
   745.5000      0.0000    674.5465      9.3070    120.7892
   745.7500      0.0000    674.6811      9.2545    119.4574
   746.0000      0.0000    674.8499      9.2277    117.6981
   746.2500      0.0000    675.1877      9.0979    116.4433
   746.5000      0.0000    676.7274      8.7650    115.8175
   746.7500      0.0000    681.4633      8.3018    116.2625
   747.0000      0.0000    688.8462      7.9193    118.7032
   747.2500      0.0000    693.0395      7.7393    123.2479
   747.5000      0.0000    689.5473      7.7015    128.3325
   747.7500      0.0000    682.4337      7.6815    131.7824
   748.0000      0.0000    679.3760      7.5926    132.8538
   748.2500      0.0000    684.8938      7.4112    132.8444
   748.5000      0.0000    698.8642      7.1722    133.2509
   748.7500      0.0000    714.5871      6.9174    133.4870
   749.0000      0.0000    721.7413      6.6324    131.1237
   749.2500      0.0000    717.1486      6.3197    124.7473
   749.5000      0.0000    710.7488      6.1155    116.1646
   749.7500      0.0000    717.1352      6.1008    109.2334
   750.0000      0.0000    736.8008      6.1279    106.6334
   750.2500      0.0000    752.6293      6.1631    108.1360
   750.5000      0.0000    751.4804      6.4892    111.5656
   750.7500      0.0000    733.4372      7.3387    114.5864
   751.0000      2.0000    696.8754      8.6513    115.7413
   751.2500      0.0000    634.2182     10.2448    114.8653
   751.5000     -2.0000    547.5972     12.0085    113.0967
   751.7500      0.0000    457.4226     13.9255    112.1649
   752.0000      0.0000    387.7549     16.0145    113.1370
   752.2500      0.0000    346.5226     18.2790    115.6465
   752.5000      0.0000    327.8059     20.4272    118.3074
   752.7500      0.0000    325.9574     21.6569    119.7892
   753.0000      0.0000    334.5453     21.5317    119.3992
   753.2500      0.0000    339.6447     20.7589    116.9172
   753.5000      0.0000    331.4859     20.2203    112.5568
   753.7500      0.0000    316.7762     20.0118    107.3656
   754.0000      0.0000    306.9085     19.7931    103.1235
   754.2500      0.0000    305.9450     19.3712    101.3434
   754.5000      0.0000    318.1350     18.7907    102.4076
   754.7500      0.0000    355.2739     18.1273    105.7270
   755.0000      0.0000    420.2747     17.4229    110.4513
   755.2500      0.0000    481.6923     16.8121    115.8491
   755.5000      0.0000    495.1483     16.4912    121.2937
   755.7500      0.0000    459.0195     16.5689    126.2451
   756.0000      0.0000    411.4082     17.0494    130.3858
   756.2500      0.0000    376.7047     17.8333    133.7234
   756.5000      0.0000    351.3781     18.6794    136.4968
   756.7500      0.0000    329.3863     19.3054    139.0437
   757.0000      0.0000    313.2305     19.5986    141.7957
   757.2500      0.0000    305.1097     19.6499    145.2464
   757.5000      0.0000    302.4966     19.5892    149.6740
   757.7500      0.0000    301.9976     19.5221    154.7191
   758.0000      0.0000    301.8673     19.5990    159.2378
   758.2500      0.0000    301.5477     20.0095    161.7670
   758.5000      0.0000    301.0019     20.8333    161.3374
   758.7500      0.0000    300.4181     21.9176    158.1402
   759.0000      0.0000    299.9479     22.9916    153.7782
   759.2500      0.0000    299.6207     23.8382    150.6612
   759.5000      0.0000    299.4467     24.3351    150.5565
   759.7500      0.0000    299.4154     24.5298    153.4747
   760.0000      0.0000    299.4243     24.6409    157.9263
   760.2500      0.0000    299.3684     24.7925    161.9393
   760.5000      0.0000    299.2556     24.9169    163.7382
   760.7500      0.0000    299.1437     24.9824    162.1111
   761.0000      0.0000    299.0522     25.0412    157.0161
   761.2500      0.0000    298.9770     25.1168    150.0383
   761.5000      0.0000    298.9047     25.2494    143.6956
   761.7500      0.0000    298.8112     25.5333    139.7073
   762.0000      0.0000    298.7008     25.9862    137.8571
   762.2500      0.0000    298.6189     26.4766    136.5719
   762.5000      0.0000    298.5903     26.8727    134.4334
   762.7500      0.0000    298.5747     27.1937    131.1272
   763.0000      0.0000    298.5326     27.4905    127.2520
   763.2500      0.0000    298.5831     27.5990    123.4957
   763.5000      0.0000    299.4846     27.1272    120.2035
   763.7500      0.0000    304.4092     25.7193    117.7024
   764.0000      0.0000    322.1236     23.3407    116.5881
   764.2500      0.0000    365.7228     20.3141    117.2521
   764.5000      0.0000    438.4753     17.1018    119.3323
   764.7500      0.0000    519.9968     14.0900    121.9898
   765.0000      0.0000    581.6124     11.4567    124.3579
   765.2500      0.0000    615.7153      9.1612    125.1695
   765.5000      0.0000    635.4995      7.1282    122.4216
   765.7500      0.0000    653.8654      5.3993    114.4182
   766.0000      0.0000    676.4607      4.0563    101.3461
   766.2500      0.0000    704.8333      3.1070     85.5536
   766.5000      0.0000    733.5709      2.4834     70.4217
   766.7500      0.0000    753.2632      2.0992     58.9998
   767.0000      0.0000    762.1865      1.8835     53.0693
   767.2500      0.0000    765.2952      1.7919     52.6921
   767.5000      0.0000    763.2656      1.8339     56.5052
   767.7500      0.0000    751.8894      2.0584     62.7972
   768.0000      0.0000    731.1157      2.4798     70.4221
   768.2500      0.0000    709.5008      3.0704     78.6171
   768.5000      0.0000    694.8290      3.8277     86.3011
   768.7500      0.0000    679.9918      4.8088     92.1741
   769.0000      0.0000    647.8510      6.1301     95.5857
   769.2500      0.0000    593.6497      7.9025     96.8668
   769.5000      0.0000    532.3586     10.0758     96.6936
   769.7500      0.0000    477.5361     12.3847     95.4129
   770.0000      0.0000    428.8892     14.4709     93.0578
   770.2500      0.0000    386.8999     16.0762     89.8084
