~Version Information
VERS.                      2.0: CWLS Log ASCII Standard - VERSION 2.0
WRAP.                       NO: One line per depth step
~Well Information Block
STRT.FT               236.5000: 
STOP.FT              2818.2500: 
STEP.FT                 0.2500: 
NULL.                -999.2500: 
COMP.          Pioneer Natural Resources: COMPANY
WELL.            Sebring 42-29: WELL
FLD.           Purgatorie River: FIELD
LOC.           1751' FNL & 584' FEL--: LOCATION
PROV.                       CO: PROVINCE
CNTY.               Las Animas: COUNTRY
SRVC.          Patterson Wireline: SERVICE COMPANY
DATE.          Fri Aug 26 09:14:13 2005: LOG DATE
UWI.           05 071 08293 00: UNIQUE WELL ID
~Curve Information Block
DEPT.FT            0 000 00 00: Depth
CCL.                          : Casing Collar Locator
TT3.usec                      : CBL 3' Travel Time
AMP3.mV                       : CBL 3' Amplitude
GR.GAPI                       : Gamma Ray
~Parameter Information Block
~A  Depth       CCL         TT3         AMP3         GR     
# ...
  2782.5000      0.0000    395.9817      9.0380     88.5976
  2782.7500      0.0000    389.3892      9.1601     88.6656
  2783.0000      0.0000    382.0683      9.2491     87.3392
  2783.2500      0.0000    375.4393      9.2910     85.2331
  2783.5000      0.0000    370.6079      9.2801     83.7143
  2783.7500      0.0000    367.6874      9.2233     83.1670
  2784.0000      0.0000    366.1082      9.1386     82.2885
  2784.2500      0.0000    365.2247      9.0467     79.6420
  2784.5000      0.0000    364.6268      8.9611     75.5448
  2784.7500      0.0000    364.1364      8.8854     72.1159
  2785.0000      0.0000    363.7153      8.8171     71.6355
  2785.2500      0.0000    363.3939      8.7515     74.8070
  2785.5000      0.0000    363.2501      8.6835     80.3366
  2785.7500      0.0000    363.4551      8.6124     86.1775
  2786.0000      0.0000    364.3744      8.5474     91.1650
  2786.2500      0.0000    366.6020      8.5066     95.1794
  2786.5000      0.0000    370.7379      8.5078     98.0056
  2786.7500      0.0000    377.1106      8.5561     98.9518
  2787.0000      0.0000    386.1640      8.6388     97.6768
  2787.2500      0.0000    399.8526      8.7297     94.6834
  2787.5000      0.0000    422.4433      8.8018     90.9011
  2787.7500      0.0000    458.0824      8.8421     87.2317
  2788.0000      0.0000    505.7027      8.8579     84.3453
  2788.2500      0.0000    556.7789      8.8690     82.4064
  2788.5000      0.0000    600.0384      8.8923     80.9686
  2788.7500      0.0000    628.6960      8.9320     79.4244
  2789.0000      0.0000    642.1826      8.9844     77.6668
  2789.2500      0.0000    641.7599      9.0481     76.2468
  2789.5000      0.0000    627.0593      9.1268     75.8649
  2789.7500      0.0000    598.7076      9.2213     76.7062
  2790.0000      0.0000    564.0732      9.3243     78.2975
  2790.2500      0.0000    537.3550      9.4229     80.0575
  2790.5000      0.0000    529.7310      9.5050     81.8863
  2790.7500      0.0000    538.4064      9.5631     83.9577
  2791.0000      0.0000    547.7973      9.5980     85.9551
  2791.2500      0.0000    542.4753      9.6193     86.9224
  2791.5000      0.0000    518.3359      9.6417     86.2120
  2791.7500      0.0000    482.9238      9.6756     84.5359
  2792.0000      0.0000    447.7858      9.7203     83.7448
  2792.2500      0.0000    420.6112      9.7655     85.3202
  2792.5000      0.0000    402.5616      9.8006     89.1201
  2792.7500      0.0000    391.1545      9.8197     93.7065
  2793.0000      0.0000    384.8041      9.8215     97.7982
  2793.2500      0.0000    384.9378      9.8063    101.1253
  2793.5000      0.0000    394.3886      9.7759    103.8756
  2793.7500      0.0000    413.1845      9.7357    105.7931
  2794.0000      0.0000    435.1571      9.6917    106.1895
  2794.2500      0.0000    450.4122      9.6470    104.6086
  2794.5000      0.0000    454.3150      9.5980    101.0915
  2794.7500      0.0000    454.1836      9.5354     95.8956
  2795.0000      0.0000    464.1828      9.4526     89.5612
  2795.2500      0.0000    491.7274      9.3592     83.5347
  2795.5000      0.0000    528.9183      9.2872     80.0460
  2795.7500      0.0000    557.5212      9.2769     80.5286
  2796.0000      0.0000    563.3251      9.3489     84.1929
  2796.2500      0.0000    547.9023      9.4855     88.5351
  2796.5000      0.0000    527.1959      9.6402     91.0942
  2796.7500      0.0000    516.5886      9.7644     90.8184
  2797.0000      0.0000    516.3956      9.8313     88.5171
  2797.2500      0.0000    513.5762      9.8406     86.3524
  2797.5000      0.0000    497.0859      9.8086     86.3715
  2797.7500      0.0000    468.6869      9.7534     89.0714
  2798.0000      0.0000    439.0818      9.6880     93.2750
  2798.2500      0.0000    417.2211      9.6230     97.2091
  2798.5000      0.0000    404.8843      9.5718     99.5152
  2798.7500      0.0000    399.0191      9.5494     99.5408
  2799.0000      0.0000    396.5018      9.5576     97.3794
  2799.2500      0.0000    396.7219      9.5654     93.9951
  2799.5000      0.0000    400.8652      9.5065     90.9917
  2799.7500      0.0000    409.0676      9.3103     89.8503
  2800.0000      0.0000    418.2766      8.9586     91.1927
  2800.2500      0.0000    423.6395      8.5241     94.5137
  2800.5000      0.0000    422.5646      8.1446     98.3427
  2800.7500      0.0000    416.7628      7.9366    100.8908
  2801.0000      0.0000    409.8942      7.9239    100.9335
  2801.2500     -2.0000    404.0338      8.0439     98.3107
  2801.5000     -2.0000    398.9033      8.2068     93.8446
  2801.7500      0.0000    393.6700      8.3410     89.1106
  2802.0000      0.0000    388.4440      8.4102     86.0070
  2802.2500      0.0000    383.7775      8.4326     85.6890
  2802.5000      0.0000    379.1825      8.4978     87.5543
  2802.7500      0.0000    373.0169      8.7359     89.7485
  2803.0000      0.0000    364.2832      9.2204     90.7921
  2803.2500      0.0000    354.1396      9.8825     90.2436
  2803.5000      0.0000    345.0977     10.5387     87.8715
  2803.7500      0.0000    338.9552     11.0183     82.8500
  2804.0000      0.0000    335.8075     11.2645     74.0368
  2804.2500      0.0000    334.6752     11.3265     61.0001
  2804.5000      0.0000    334.5287     11.2867     44.9589
  2804.7500      0.0000    334.7515     11.2081     28.7770
  2805.0000      0.0000    335.1234     11.1264     15.5817
  2805.2500      0.0000    335.7645     11.0603      6.9864
  2805.5000      0.0000    337.3549     11.0168      2.5513
  2805.7500      0.0000    341.6292     10.9950      0.7496
  2806.0000      0.0000    351.8144     10.9922      0.1752
  2806.2500      0.0000    372.1585     11.0054      0.0320
  2806.5000      0.0000    405.5990     11.0269      0.0041
  2806.7500      0.0000    450.2518     11.0442      0.0000
  2807.0000      0.0000    498.1273     11.0464   -999.2500
  2807.2500      0.0000    538.9767     11.0321   -999.2500
  2807.5000      0.0000    566.4873     11.0105   -999.2500
  2807.7500      0.0000    580.7793     10.9985   -999.2500
  2808.0000      0.0000    585.5043     11.0136   -999.2500
  2808.2500      0.0000    584.1007     11.0622   -999.2500
  2808.5000      0.0000    579.0550     11.1216   -999.2500
  2808.7500      0.0000    572.3400     11.1199   -999.2500
  2809.0000      0.0000    562.0016     10.9127   -999.2500
  2809.2500      0.0000    536.5346     10.2861   -999.2500
  2809.5000      0.0000    478.2711      9.0509   -999.2500
  2809.7500      0.0000    380.1302      7.2288   -999.2500
  2810.0000      0.0000    259.0452      5.1570   -999.2500
  2810.2500      0.0000    147.1251      3.3278   -999.2500
  2810.5000      0.0000     68.3040      2.0712   -999.2500
  2810.7500      0.0000     25.5791      1.3990   -999.2500
  2811.0000      0.0000      7.6535      1.1190   -999.2500
  2811.2500      0.0000      1.8170      1.0282   -999.2500
  2811.5000      0.0000      0.3363      1.0052   -999.2500
  2811.7500      0.0000      0.0447      1.0007   -999.2500
  2812.0000      0.0000   -999.2500   -999.2500   -999.2500
  2812.2500      0.0000   -999.2500   -999.2500   -999.2500
  2812.5000      0.0000   -999.2500   -999.2500   -999.2500
  2812.7500      0.0000   -999.2500   -999.2500   -999.2500
  2813.0000      0.0000   -999.2500   -999.2500   -999.2500
  2813.2500      0.0000   -999.2500   -999.2500   -999.2500
  2813.5000      0.0000   -999.2500   -999.2500   -999.2500
  2813.7500      0.0000   -999.2500   -999.2500   -999.2500
  2814.0000      0.0000   -999.2500   -999.2500   -999.2500
  2814.2500      0.0000   -999.2500   -999.2500   -999.2500
  2814.5000      0.0000   -999.2500   -999.2500   -999.2500
  2814.7500      0.0000   -999.2500   -999.2500   -999.2500
  2815.0000      0.0000   -999.2500   -999.2500   -999.2500
  2815.2500      0.0000   -999.2500   -999.2500   -999.2500
  2815.5000      0.0000   -999.2500   -999.2500   -999.2500
  2815.7500      0.0000   -999.2500   -999.2500   -999.2500
