~Version Information
 VERS.                                  2.0 : CWLS LAS VERSION
 WRAP.                                   NO : WRAPING MODE
 SWARE .                 MController 2.5.0N : SOFTWARE VERSION
~Well Information
 WELL.                           King 22-13 : WELL
 COMP.    Pioneer Natural Resources USA Inc : COMPANY
 FLD.                      Purgatoire River : FIELD
 LOC.                SE/NW Sec 13 T32S R66W : LOCATION
 DATE.                           3/30-31/05 : DATE(S) LOGGED
 SRVC.       Blanco Geological Services LLC : SERVICE COMPANY
 STAT.                                   CO : STATE
 CNTY.                           Las Animas : COUNTY
 CTRY.                                  USA : COUNTRY
 API.                       05-071-08318-00 : API NUMBER
 STRT.FT                             603.00 : START DEPTH
 STOP.FT                            2185.00 : STOP DEPTH
 STEP.FT                               1.00 : DEPTH INCREMENT
 NULL.                                -9999 : NULL VALUE
~Curve information
 DEPTH.FT                                   :
 ROP.MIN/FT                                 :
 GAS.UNITS                                  :
~ASCII Log data
# ...
      1403.0         0.17       2566.0 
      1404.0         0.27       3239.9 
      1405.0         0.37       4443.5 
      1406.0         2.95       7254.3 
      1407.0         0.33       3482.0 
      1408.0         0.58       2619.3 
      1409.0         0.47       2205.8 
      1410.0         0.50       2037.3 
      1411.0         0.63       2745.6 
      1412.0         0.57       2996.2 
      1413.0         0.37       3129.3 
      1414.0         0.45       3328.2 
      1415.0         0.50       3381.2 
      1416.0         0.53       3354.7 
      1417.0         0.37       3015.5 
      1418.0         0.40       2781.9 
      1419.0         0.83       2716.5 
      1420.0         0.43       2510.0 
      1421.0         0.42       2346.5 
      1422.0         0.40       2157.0 
      1423.0         0.37       2013.1 
      1424.0         0.37       1855.7 
      1425.0         0.37       1623.5 
      1426.0         0.50       1566.5 
      1427.0         0.40       2038.9 
      1428.0         0.30       2470.5 
      1429.0         0.23       2470.5 
      1430.0         0.28       2392.6 
      1431.0         0.20       2349.7 
      1432.0         0.30       1738.0 
      1433.0         0.40       1885.2 
      1434.0         0.33       2277.1 
      1435.0         0.37       2874.2 
      1436.0         4.05       6063.2 
      1437.0         0.53       3269.0 
      1438.0         0.17       3387.1 
      1439.0         0.35       3424.1 
      1440.0         0.23       3429.7 
      1441.0         0.20       3388.4 
      1442.0         0.17       3388.4 
      1443.0         0.27       3354.4 
      1444.0         0.27       3354.4 
      1445.0         0.30       3347.9 
      1446.0         0.20       3317.4 
      1447.0         0.47       3292.3 
      1448.0         0.30       3207.2 
      1449.0         0.33       3220.3 
      1450.0         0.27       3240.2 
      1451.0         0.35       3240.9 
      1452.0         0.23       3225.5 
      1453.0         0.23       3226.8 
      1454.0         0.27       3259.2 
      1455.0         0.27       3346.2 
      1456.0         0.37       3358.0 
      1457.0         0.27       3378.6 
      1458.0         0.17       2942.2 
      1459.0         0.27       2380.5 
      1460.0         0.27       2134.5 
      1461.0         0.27       2381.8 
      1462.0         0.23       2381.8 
      1463.0         0.27       2975.2 
      1464.0         0.28       3698.6 
      1465.0         0.40       5244.3 
      1466.0         3.98       7862.5 
      1467.0         0.73       1886.8 
      1468.0         0.50       2159.7 
      1469.0         0.40       2294.4 
      1470.0         0.37       2435.1 
      1471.0         0.38       2626.8 
      1472.0         0.37       2714.5 
      1473.0         0.33       2765.5 
      1474.0         0.40       2761.0 
      1475.0         0.33       2710.3 
      1476.0         0.33       2696.8 
      1477.0         0.37       2638.6 
      1478.0         0.40       2461.6 
      1479.0         0.40       2548.3 
      1480.0         0.38       2643.2 
      1481.0         0.30       2740.4 
      1482.0         0.23       2798.3 
      1483.0         0.30       2870.6 
      1484.0         0.23       2921.9 
      1485.0         0.33       2921.9 
      1486.0         0.33       2961.8 
      1487.0         0.33       3035.4 
      1488.0         0.33       3155.2 
      1489.0         0.33       3164.7 
      1490.0         0.33       3100.5 
      1491.0         0.32       2635.0 
      1492.0         0.33       2641.2 
      1493.0         0.37       3255.0 
      1494.0         0.30       4021.8 
      1495.0         0.37       5064.7 
      1496.0         3.28       6459.7 
      1497.0         0.73       2945.5 
      1498.0         0.40       3014.2 
      1499.0         0.30       3050.2 
      1500.0         0.40       3114.3 
      1501.0         0.35       3218.0 
      1502.0         0.27       3305.3 
      1503.0         0.20       3329.9 
      1504.0         0.27       3334.8 
      1505.0         0.20       3334.8 
      1506.0         0.23       3347.9 
      1507.0         0.23       3358.0 
      1508.0         0.33       3374.0 
      1509.0         0.27       3387.8 
      1510.0         0.27       3397.9 
      1511.0         0.33       3395.6 
      1512.0         0.30       3409.4 
      1513.0         0.32       3432.9 
      1514.0         0.33       3469.2 
      1515.0         0.33       3436.2 
      1516.0         0.27       3331.8 
      1517.0         0.33       3226.8 
      1518.0         0.40       3114.0 
      1519.0         0.37       2395.9 
      1520.0         0.47       2154.1 
      1521.0         0.17       2176.0 
      1522.0         0.20       2232.3 
      1523.0         0.17       2343.2 
      1524.0         0.18       2644.5 
      1525.0         0.20       2644.5 
      1526.0         3.98       6748.2 
      1527.0         0.57       3557.2 
      1528.0         0.53       2439.7 
      1529.0         0.37       1955.2 
      1530.0         0.40       2189.8 
      1531.0         0.33       2436.8 
      1532.0         0.32       2685.4 
      1533.0         0.30       2953.3 
      1534.0         0.23       3056.7 
      1535.0         0.27       3149.0 
      1536.0         0.27       3240.2 
      1537.0         0.23       3275.9 
      1538.0         0.23       3316.5 
      1539.0         0.30       3311.9 
      1540.0         0.27       3327.3 
      1541.0         0.23       3348.2 
      1542.0         0.23       3371.4 
      1543.0         0.33       3412.3 
      1544.0         0.23       3460.7 
      1545.0         0.25       3527.8 
      1546.0         0.27       3600.1 
      1547.0         0.23       3600.1 
      1548.0         0.23       3627.6 
      1549.0         0.27       3491.8 
      1550.0         0.27       3246.1 
      1551.0         0.27       2775.7 
      1552.0         0.33       2411.6 
      1553.0         0.40       2460.6 
      1554.0         0.33       3075.7 
      1555.0         0.30       3924.3 
      1556.0         4.10       7371.8 
      1557.0         0.60       1786.7 
      1558.0         0.40       2124.3 
      1559.0         0.30       2317.3 
      1560.0         0.43       2654.3 
      1561.0         0.30       2780.6 
      1562.0         0.23       2951.7 
      1563.0         0.33       3020.7 
      1564.0         0.30       3147.7 
      1565.0         0.28       3187.9 
      1566.0         0.27       3215.7 
      1567.0         0.20       3232.4 
      1568.0         0.23       3233.4 
      1569.0         0.20       3239.6 
      1570.0         0.20       3253.6 
      1571.0         0.23       3265.4 
      1572.0         0.17       3292.6 
      1573.0         0.33       3298.8 
      1574.0         0.33       3325.0 
      1575.0         0.27       3376.3 
      1576.0         0.30       3405.4 
      1577.0         0.30       3079.3 
      1578.0         0.28       3011.2 
      1579.0         0.30       2700.1 
      1580.0         0.33       2165.9 
      1581.0         0.30       2350.1 
      1582.0         0.27       3014.5 
      1583.0         0.13       3114.9 
      1584.0         0.23       4025.7 
      1585.0         0.30       4878.9 
      1586.0         2.12       6734.5 
      1587.0         0.53       5179.2 
      1588.0         0.50       3521.9 
      1589.0         0.40       2641.2 
      1590.0         0.33       2681.5 
      1591.0         0.27       2837.5 
      1592.0         0.23       2905.9 
      1593.0         0.28       3050.2 
      1594.0         0.30       3177.8 
      1595.0         0.30       3315.2 
      1596.0         0.23       3382.5 
      1597.0         0.27       3442.7 
      1598.0         0.23       3506.9 
      1599.0         0.20       3540.6 
      1600.0         0.23       3632.2 
      1601.0         0.20       3632.2 
      1602.0         0.33       3684.8 
