~Version Information
VERS.                      2.0: CWLS Log ASCII Standard - VERSION 2.0
WRAP.                       NO: One line per depth step
~Well Information Block
STRT.FT               506.1000: 
STOP.FT              2140.0000: 
STEP.FT                 0.1000: 
NULL.                -999.2500: 
COMP.          Petrogulf Corporation: COMPANY
WELL.            Montoya 1-44R: WELL
FLD.           Purgatorie River: FIELD
LOC.           658' FSL & 1052' FWL: LOCATION
CNTY.               Las Animas: COUNTY
SRVC.                         : SERVICE COMPANY
DATE.          Tue Nov 16 04:33:40 2004: LOG DATE
UWI.           05 071 08239 00: UNIQUE WELL ID
STAT.                 Colorado: STATE
~Curve Information Block
DEPT.FT            0 000 00 00: Depth
DCAL.in                       : CDL Caliper
RHOB.g/cc                     : CDL Bulk Density
RHOC.g/cc                     : CDL Density Correction
DPOR.pu                       : CDL Density Porosity
GR.GAPI                       : Gamma Ray
NPOR.pu                       : Neutron Porosity
~Parameter Information Block
~A  Depth       DCAL        RHOB        RHOC        DPOR         GR         NPOR    
# ...
  1398.9000      8.1968      1.5849     -0.0158     64.5489    102.0691     31.8791
  1399.0000      8.1906      1.4879     -0.0298     70.4277     88.6342     31.7695
  1399.1000      8.1906      1.3855     -0.0648     76.6362     79.7714     32.1041
  1399.2000      8.1906      1.3033     -0.1119     81.6194     74.4699     32.8348
  1399.3000      8.2179      1.2677     -0.0345     83.7751     69.8659     33.7488
  1399.4000      8.2179      1.2637      0.0180     84.0157     62.9802     34.7166
  1399.5000      8.3490      1.2646      0.0173     83.9645     54.1749     35.8495
  1399.6000      8.3490      1.2666      0.0061     83.8445     46.5706     36.4296
  1399.7000      8.3490      1.2753      0.0169     83.3153     41.8932     35.6258
  1399.8000      8.5513      1.2887      0.0391     82.5015     40.2700     34.4699
  1399.9000      8.5513      1.3017      0.0748     81.7146     39.8478     34.0551
  1400.0000      8.6147      1.3114      0.0745     81.1289     39.3105     33.9174
  1400.1000      8.6147      1.3141      0.0780     80.9649     38.7828     33.8056
  1400.2000      8.6147      1.3075      0.0468     81.3642     37.8216     33.7263
  1400.3000      8.4928      1.2986      0.0321     81.9045     36.9290     33.8132
  1400.4000      8.4928      1.2992      0.0315     81.8646     36.7183     34.7622
  1400.5000      8.5114      1.3158      0.0696     80.8607     36.8015     36.2417
  1400.6000      8.5114      1.3504      0.0605     78.7638     37.5956     36.4905
  1400.7000      8.5114      1.4046      0.0545     75.4788     38.5831     35.1917
  1400.8000      8.8165      1.4730      0.0771     71.3320     39.1729     34.1027
  1400.9000      8.8165      1.5511      0.0722     66.5999     40.8530     34.0345
  1401.0000      9.2518      1.6480      0.1160     60.7285     44.3685     33.7100
  1401.1000      9.2518      1.7689      0.1549     53.4025     48.1598     32.5916
  1401.2000      9.2518      1.8913      0.2410     45.9793     51.5054     31.8351
  1401.3000      9.5271      1.9819      0.2350     40.4886     56.5135     32.0346
  1401.4000      9.5271      2.0400      0.1888     36.9688     65.6882     32.7398
  1401.5000      9.5242      2.0910      0.1743     33.8792     76.1881     33.4406
  1401.6000      9.5242      2.1359      0.1936     31.1580     82.7360     33.7730
  1401.7000      9.5242      2.1541      0.0905     30.0561     85.3699     33.8660
  1401.8000      9.1665      2.1453      0.0490     30.5853     88.1869     34.0606
  1401.9000      9.1665      2.1296      0.0459     31.5385     90.1744     34.1065
  1402.0000      8.5679      2.1256      0.0272     31.7798     88.3942     33.7393
  1402.1000      8.5679      2.1421      0.0416     30.7817     86.6922     33.2910
  1402.2000      8.5679      2.1731      0.0719     28.9016     89.7929     32.9722
  1402.3000      8.2033      2.2049      0.1240     26.9731     94.7738     32.4921
  1402.4000      8.2033      2.2319      0.1357     25.3400     99.1694     31.9395
  1402.5000      8.1331      2.2631      0.1227     23.4508    102.6010     32.0192
  1402.6000      8.1331      2.3071      0.1177     20.7839    102.7033     32.5114
  1402.7000      8.1331      2.3548      0.1264     17.8933    102.1866     32.2499
  1402.8000      8.1752      2.3964      0.0880     15.3693    104.3763     31.3632
  1402.9000      8.1752      2.4407      0.1010     12.6862    108.2833     30.8667
  1403.0000      8.2219      2.4979      0.1153      9.2179    115.0632     30.5131
  1403.1000      8.2219      2.5589      0.1691      5.5186    122.7012     29.5860
  1403.2000      8.2219      2.5969      0.1925      3.2200    125.5542     28.6194
  1403.3000      8.2060      2.6020      0.1463      2.9092    124.5903     28.5009
  1403.4000      8.2060      2.5931      0.1382      3.4460    124.9534     29.0780
  1403.5000      8.1633      2.5815      0.1115      4.1502    128.8016     29.8135
  1403.6000      8.1633      2.5617      0.1059      5.3519    132.9401     30.4173
  1403.7000      8.1633      2.5333      0.0688      7.0732    133.5153     30.3689
  1403.8000      8.1231      2.5085      0.0213      8.5742    130.8563     29.6413
  1403.9000      8.1231      2.5001      0.0053      9.0859    127.7932     29.1052
  1404.0000      8.1053      2.5077      0.0536      8.6248    126.4201     29.2816
  1404.1000      8.1053      2.5180      0.0808      8.0027    126.9095     29.1964
  1404.2000      8.1053      2.5187      0.0615      7.9550    127.6708     28.0559
  1404.3000      8.1050      2.5126      0.0573      8.3278    128.5424     26.8063
  1404.4000      8.1050      2.5121      0.0705      8.3554    130.5258     26.3449
  1404.5000      8.1034      2.5251      0.0712      7.5720    131.1519     26.7138
  1404.6000      8.1034      2.5461      0.0783      6.2952    127.8491     27.4011
  1404.7000      8.1034      2.5581      0.1081      5.5687    124.2545     27.6766
  1404.8000      8.1048      2.5547      0.0663      5.7753    123.9366     27.3330
  1404.9000      8.1048      2.5483      0.0850      6.1641    125.0157     26.4324
  1405.0000      8.1096      2.5427      0.0915      6.5029    125.0153     25.1941
  1405.1000      8.1096      2.5364      0.0910      6.8878    122.9405     24.1178
  1405.2000      8.1096      2.5326      0.0991      7.1156    119.4243     23.7920
  1405.3000      8.1115      2.5349      0.0761      6.9772    118.1679     24.1891
  1405.4000      8.1115      2.5424      0.0691      6.5223    122.7706     24.9053
  1405.5000      8.1096      2.5437      0.1251      6.4454    131.0667     25.9430
  1405.6000      8.1096      2.5268      0.1161      7.4686    135.6986     27.1273
  1405.7000      8.1096      2.4971      0.0720      9.2692    134.6863     27.7848
  1405.8000      8.1123      2.4688      0.0565     10.9829    134.2651     27.8261
  1405.9000      8.1123      2.4434      0.0433     12.5231    132.9302     27.8017
  1406.0000      8.1163      2.4080      0.0531     14.6651    127.1621     27.8065
  1406.1000      8.1163      2.3525      0.0396     18.0332    122.2121     27.1910
  1406.2000      8.1163      2.2742      0.0202     22.7737    121.9904     25.8251
  1406.3000      8.1174      2.1722     -0.0351     28.9605    123.0589     25.2659
  1406.4000      8.1174      2.0570     -0.0732     35.9415    122.1308     26.8094
  1406.5000      8.1240      1.9534     -0.0654     42.2176    118.9354     29.4108
  1406.6000      8.1240      1.8713     -0.0341     47.1967    115.0797     31.0129
  1406.7000      8.1240      1.8046     -0.0519     51.2357    112.1004     31.1745
  1406.8000      8.1465      1.7663     -0.0273     53.5556    109.4330     31.1221
  1406.9000      8.1465      1.7820      0.0371     52.6069    106.0927     31.2111
  1407.0000      8.1930      1.8456      0.1937     48.7503    103.7985     31.1636
  1407.1000      8.1930      1.9251      0.2282     43.9356    104.4087     31.0439
  1407.2000      8.1930      2.0102      0.2208     38.7784    104.8793     30.7452
  1407.3000      8.2329      2.1105      0.2529     32.6980    101.6646     30.1190
  1407.4000      8.2329      2.2185      0.2989     26.1512     96.1434     29.5901
  1407.5000      8.2161      2.3123      0.2312     20.4693     94.2681     29.4930
  1407.6000      8.2161      2.3809      0.2185     16.3085     97.6691     29.2265
  1407.7000      8.2161      2.4275      0.1515     13.4854    101.4809     28.1347
  1407.8000      8.1582      2.4620      0.0882     11.3953    101.7861     26.2423
  1407.9000      8.1582      2.4946      0.0770      9.4206     99.0830     24.4998
  1408.0000      8.1176      2.5271      0.1007      7.4467     98.3266     24.0502
  1408.1000      8.1176      2.5443      0.1557      6.4042    101.1169     24.4849
  1408.2000      8.1176      2.5320      0.0887      7.1491    101.8462     24.4435
  1408.3000      8.1085      2.5037      0.0986      8.8670     99.8181     24.0282
  1408.4000      8.1085      2.4859      0.0449      9.9466     98.0209     24.2343
