~Version Information
VERS.                      2.0: CWLS Log ASCII Standard - VERSION 2.0
WRAP.                       NO: One line per depth step
~Well Information Block
STRT.FT               630.0000: 
STOP.FT              1155.5000: 
STEP.FT                 0.1000: 
NULL.                -999.2500: 
COMP.          Pioneer Natural Resources: COMPANY
WELL.          Drewmeister 34-34: WELL
FLD.           Purgatoire River: FIELD
LOC.           958' FSL & 1857' FEL: LOCATION
STAT.                 Colorado: State
CNTY.               Las Animas: COUNTY
CTRY. USA : Country
SECT. 34 : Section
TOWN. 32S : Township
RANG. 65W : Range
SRVC.                Patterson: SERVICE COMPANY
DATE.          Tue Oct 04 08:23:16 2005: LOG DATE
API.           05 071 08131 00: UNIQUE WELL ID
~Curve Information Block
DEPT.FT            0 000 00 00: Depth
DCAL.in                       : CDL Caliper
RHOB.g/cc                     : CDL Bulk Density
RHOC.g/cc                     : CDL Density Correction
DPOR.pu                       : CDL Density Porosity
GR.GAPI                       : Gamma Ray
NPOR.pu                       : Neutron Porosity
~Parameter Information Block
~A  Depth       DCAL        RHOB        RHOC        DPOR         GR         NPOR    
# ...
   831.6000      8.1135      2.5455      0.0320      6.3323     55.2827     20.4098
   831.7000      8.1135      2.5377      0.0180      6.8079     55.6819     20.0584
   831.8000      8.1124      2.5391      0.0499      6.7214     55.5031     19.5413
   831.9000      8.1124      2.5424      0.0281      6.5224     56.5405     19.4366
   832.0000      8.1125      2.5494      0.0190      6.0989     60.8458     19.5599
   832.1000      8.1125      2.5685      0.0167      4.9412     65.5992     19.1580
   832.2000      8.1125      2.5937      0.0605      3.4099     65.8274     18.0944
   832.3000      8.1127      2.6118      0.0728      2.3124     63.7907     17.1194
   832.4000      8.1127      2.6262      0.0574      1.4441     63.6607     16.8047
   832.5000      8.1129      2.6445      0.1275      0.3327     65.6358     17.3535
   832.6000      8.1129      2.6506      0.1425     -0.0352     68.1313     18.7390
   832.7000      8.1129      2.6267      0.0728      1.4108     68.0083     20.1230
   832.8000      8.1126      2.5896      0.0439      3.6619     66.1281     20.2359
   832.9000      8.1126      2.5706      0.0032      4.8134     65.8145     19.3228
   833.0000      8.1112      2.5760      0.0028      4.4873     65.1450     18.9031
   833.1000      8.1112      2.5823      0.0355      4.1052     61.3448     19.4417
   833.2000      8.1112      2.5722     -0.0117      4.7139     56.0182     19.9410
   833.3000      8.1106      2.5557     -0.0299      5.7149     52.3097     19.7215
   833.4000      8.1106      2.5461      0.0112      6.2990     53.6411     19.3088
   833.5000      8.1103      2.5460     -0.0006      6.3020     59.1256     18.9144
   833.6000      8.1103      2.5583     -0.0004      5.5590     63.2944     18.2401
   833.7000      8.1103      2.5815      0.0056      4.1544     64.1473     17.7228
   833.8000      8.1100      2.6014      0.0423      2.9458     64.1155     18.0477
   833.9000      8.1100      2.6054      0.0331      2.7005     66.0397     18.8250
   834.0000      8.1104      2.5934      0.0394      3.4281     68.9117     18.9404
   834.1000      8.1104      2.5711      0.0210      4.7842     70.4110     18.3195
   834.2000      8.1104      2.5510     -0.0154      6.0027     69.2108     17.9373
   834.3000      8.1122      2.5429      0.0200      6.4906     64.3769     18.0937
   834.4000      8.1122      2.5434      0.0012      6.4592     58.4050     18.3681
   834.5000      8.1145      2.5432      0.0031      6.4701     56.0157     18.5440
   834.6000      8.1145      2.5413     -0.0144      6.5888     57.3655     18.4916
   834.7000      8.1145      2.5468     -0.0118      6.2573     58.3602     18.1855
   834.8000      8.1143      2.5609      0.0065      5.4030     60.3158     17.9964
   834.9000      8.1143      2.5754      0.0176      4.5215     64.4316     18.3005
   835.0000      8.1131      2.5850      0.0420      3.9366     65.0338     19.1092
   835.1000      8.1131      2.5878      0.0349      3.7706     61.3410     19.7414
   835.2000      8.1131      2.5779      0.0440      4.3688     58.9448     19.4087
   835.3000      8.1121      2.5520      0.0277      5.9380     58.3933     18.4309
   835.4000      8.1121      2.5281     -0.0207      7.3871     57.2232     17.6895
   835.5000      8.1115      2.5240      0.0111      7.6361     54.7130     17.6439
   835.6000      8.1115      2.5309     -0.0071      7.2175     52.3256     18.1906
   835.7000      8.1115      2.5361      0.0538      6.9030     51.7718     18.5848
   835.8000      8.1119      2.5406      0.0718      6.6311     51.5197     18.2402
   835.9000      8.1119      2.5513      0.0598      5.9798     51.5720     17.6078
   836.0000      8.1128      2.5660      0.0564      5.0916     54.4026     17.4957
   836.1000      8.1128      2.5664      0.0759      5.0662     57.8727     17.8557
   836.2000      8.1128      2.5405      0.0219      6.6358     58.9499     18.1070
   836.3000      8.1133      2.5138     -0.0203      8.2562     58.3362     17.9760
   836.4000      8.1133      2.5229     -0.0091      7.7029     57.5018     17.7525
   836.5000      8.1146      2.5586      0.0793      5.5416     58.0862     17.9265
   836.6000      8.1146      2.5818      0.0572      4.1350     59.4615     18.5498
   836.7000      8.1146      2.5888      0.0409      3.7087     57.8391     19.1452
   836.8000      8.1184      2.6027      0.0808      2.8644     52.6681     19.4518
   836.9000      8.1184      2.6285      0.1208      1.3059     49.9495     19.3836
   837.0000      8.1209      2.6504      0.1028     -0.0251     53.9345     18.7721
   837.1000      8.1209      2.6593      0.0986     -0.5612     60.0064     17.9571
   837.2000      8.1209      2.6588      0.0905     -0.5326     61.3466     17.3437
   837.3000      8.1174      2.6542      0.0797     -0.2539     58.5759     17.0331
   837.4000      8.1174      2.6455      0.0491      0.2741     57.3046     17.0104
   837.5000      8.1113      2.6294      0.0244      1.2470     59.5573     17.0991
   837.6000      8.1113      2.6030      0.0136      2.8464     63.3122     17.2955
   837.7000      8.1113      2.5671     -0.0079      5.0243     65.6058     17.7028
   837.8000      8.1069      2.5358     -0.0443      6.9188     64.2985     17.9669
   837.9000      8.1069      2.5234     -0.0241      7.6726     59.8304     17.8749
   838.0000      8.1085      2.5193     -0.0263      7.9197     57.3655     17.9110
   838.1000      8.1085      2.5033      0.0033      8.8931     62.8510     18.2868
   838.2000      8.1085      2.4713     -0.0614     10.8309     75.3335     18.7314
   838.3000      8.1115      2.4421     -0.0854     12.5993     88.2931     19.1341
   838.4000      8.1115      2.4334     -0.0149     13.1254     94.7400     19.4993
   838.5000      8.1126      2.4398     -0.0125     12.7376     93.0132     19.6804
   838.6000      8.1126      2.4502      0.0011     12.1112     90.7645     19.7408
   838.7000      8.1126      2.4652      0.0171     11.2008     94.7992     19.6156
   838.8000      8.1129      2.4847      0.0409     10.0182    103.0865     19.2112
   838.9000      8.1129      2.4973      0.0454      9.2558    110.8655     19.4132
   839.0000      8.1133      2.4957      0.0320      9.3488    116.4649     20.7235
   839.1000      8.1133      2.4876      0.0232      9.8416    119.9561     22.0490
   839.2000      8.1133      2.4819      0.0477     10.1873    121.2592     22.5779
   839.3000      8.1136      2.4812      0.0259     10.2281    119.7622     22.9786
   839.4000      8.1136      2.4845      0.0186     10.0279    116.7747     23.6381
   839.5000      8.1129      2.4921      0.0197      9.5685    113.8994     23.8606
   839.6000      8.1129      2.5071      0.0129      8.6604    112.0485     23.4017
   839.7000      8.1129      2.5207      0.0547      7.8349    114.4409     22.6596
   839.8000      8.1122      2.5153      0.0477      8.1625    119.0316     21.9566
   839.9000      8.1122      2.4975      0.0045      9.2420    119.6380     21.4552
   840.0000      8.1127      2.4923     -0.0037      9.5588    116.3894     21.0883
   840.1000      8.1127      2.5076      0.0382      8.6278    114.2005     21.1364
   840.2000      8.1127      2.5298      0.0452      7.2872    116.6908     22.2070
   840.3000      8.1132      2.5424      0.0763      6.5233    121.2973     23.6345
   840.4000      8.1132      2.5430      0.0471      6.4860    124.4965     24.2151
   840.5000      8.1129      2.5372      0.0529      6.8390    127.4743     23.7257
   840.6000      8.1129      2.5298      0.0325      7.2862    128.7837     22.7600
   840.7000      8.1129      2.5290      0.0504      7.3349    123.3534     22.4066
   840.8000      8.1126      2.5297      0.0726      7.2901    112.1541     22.7195
   840.9000      8.1126      2.5197      0.0243      7.8996    101.6587     22.6097
   841.0000      8.1125      2.5053      0.0282      8.7710     93.4410     21.9054
   841.1000      8.1125      2.5005      0.0228      9.0583     88.7138     21.7501
