~Version Information
VERS.                      2.0: CWLS Log ASCII Standard - VERSION 2.0
WRAP.                       NO: One line per depth step
~Well Information Block
STRT.FT                -4.5000: 
STOP.FT              1680.2500: 
STEP.FT                 0.2500: 
NULL.                -999.2500: 
COMP.          Pioneer Natural Resources: COMPANY
WELL.            Salty 42-6 Tr: WELL
FLD.           Purgatorie River: FIELD
LOC.           2409' FNL & 599' FEL--: LOCATION
PROV.                       CO: PROVINCE
CNTY.               Las Animas: COUNTRY
SRVC.                         : SERVICE COMPANY
DATE.          Mon Dec 20 13:36:48 2004: LOG DATE
UWI.           071-08238      : UNIQUE WELL ID
~Curve Information Block
DEPT.FT            0 000 00 00: Depth
HVOLTA.V                      : Head Voltage Apparent
GR.GAPI                       : Gamma Ray
CCL.                          : Casing Collar Locator
TT3.usec                      : CBL 3' Travel Time
AMP3.mV                       : CBL 3' Amplitude
~Parameter Information Block
~A  Depth      HVOLTA        GR         CCL         TT3         AMP3    
# ...
  1535.5000     97.1312    134.7717      0.0000    701.4696      6.2919
  1535.7500     97.2650    151.0028      0.0000    698.6328      6.2505
  1536.0000     97.0977    167.3234      0.0000    694.6345      6.2177
  1536.2500     96.9497    180.0930      0.0000    690.7582      6.2114
  1536.5000     96.8827    187.2099      0.0000    688.3224      6.2466
  1536.7500     96.8481    188.3860      0.0000    687.1921      6.3256
  1537.0000     96.8434    184.8815      0.0000    685.7010      6.4349
  1537.2500     96.9425    178.9710      0.0000    682.8438      6.5466
  1537.5000     97.0488    172.6518      0.0000    680.1827      6.6240
  1537.7500     96.9640    166.6430      0.0000    680.4419      6.6343
  1538.0000     96.9568    160.9737      0.0000    684.3538      6.5613
  1538.2500     96.8409    155.9772      0.0000    689.8528      6.4149
  1538.5000     97.1790    152.0514      0.0000    694.1901      6.2333
  1538.7500     97.1623    148.7701      0.0000    696.2357      6.0719
  1539.0000     97.1216    144.8574      0.0000    696.9192      5.9840
  1539.2500     97.1694    139.4467      0.0000    697.7897      6.0009
  1539.5000     97.1109    133.3756      0.0000    699.3742      6.1223
  1539.7500     96.9604    128.6357      0.0000    701.0013      6.3166
  1540.0000     96.9675    126.1988      0.0000    701.7978      6.5363
  1540.2500     96.8755    124.8266      0.0000    701.4590      6.7416
  1540.5000     96.9914    122.2868      0.0000    700.5283      6.9129
  1540.7500     96.9472    117.4680      0.0000    700.4017      7.0425
  1541.0000     97.1694    111.4103      0.0000    702.6237      7.1242
  1541.2500     97.1551    106.7856      0.0000    707.4305      7.1600
  1541.5000     97.0560    106.3247      0.0000    713.1292      7.1685
  1541.7500     97.0392    110.8797      0.0000    717.4106      7.1707
  1542.0000     97.0667    118.3154      0.0000    719.2247      7.1673
  1542.2500     96.8684    124.4582      0.0000    719.1714      7.1380
  1542.5000     96.9640    125.8335      0.0000    718.3727      7.0655
  1542.7500     97.1109    122.1018      0.0000    717.5243      6.9526
  1543.0000     97.0178    116.0073      0.0000    717.1149      6.8170
  1543.2500     96.9771    110.9312      0.0000    717.8018      6.6771
  1543.5000     97.0692    108.6201      0.0000    719.7797      6.5479
  1543.7500     97.0906    109.0941      0.0000    722.1509      6.4430
  1544.0000     97.2507    111.6109      0.0000    723.8600      6.3729
  1544.2500     97.0225    114.9161      0.0000    725.1611      6.3343
  1544.5000     97.0774    117.3844      0.0000    727.2084      6.3079
  1544.7500     97.0321    118.0399      0.0000    730.0277      6.2676
  1545.0000     97.0560    117.3558      0.0000    731.6844      6.1964
  1545.2500     96.9675    116.6679      0.0000    729.9270      6.0964
  1545.5000     97.0428    116.9221      0.0000    724.5008      5.9890
  1545.7500     97.0153    118.1874      0.0000    717.6583      5.9032
  1546.0000     97.0941    120.3134      0.0000    712.2271      5.8564
  1546.2500     97.0977    123.8451      0.0000    709.1533      5.8414
  1546.5000     97.0225    129.8782      0.0000    707.0715      5.8387
  1546.7500     96.9782    138.6907      0.0000    703.9644      5.8460
  1547.0000     96.8648    148.6676      0.0000    698.8506      5.8906
  1547.2500     97.1719    156.7260      0.0000    692.2614      6.0028
  1547.5000     97.0321    159.8813      0.0000    685.7606      6.1772
  1547.7500     96.9258    157.0074      0.0000    680.9655      6.3630
  1548.0000     97.0285    149.7137      0.0000    678.7673      6.4974
  1548.2500     97.1444    141.3222      0.0000    679.3358      6.5477
  1548.5000     96.9055    134.5039      0.0000    682.3907      6.5203
  1548.7500     96.8816    129.8251      0.0000    687.1232      6.4328
  1549.0000     96.9640    126.3242      0.0000    692.1023      6.2914
  1549.2500     96.9222    122.7940      0.0000    695.8629      6.1014
  1549.5000     97.0285    118.4158      0.0000    698.0855      5.8873
  1549.7500     97.0524    113.1083      0.0000    700.1475      5.6892
  1550.0000     97.1754    108.1283      0.0000    703.7417      5.5392
  1550.2500     96.8481    106.1231      0.0000    708.5975      5.4496
  1550.5000     96.9162    109.5567      0.0000    712.3325      5.4196
  1550.7500     96.9436    118.4022      0.0000    712.9586      5.4416
  1551.0000     97.0178    129.6264      0.0000    710.7313      5.4993
  1551.2500     97.0010    139.3238      0.0000    707.1102      5.5729
  1551.5000     97.0667    145.4670      0.0000    702.7975      5.6538
  1551.7500     97.1526    148.9449      0.0000    697.5176      5.7469
  1552.0000     97.0906    152.3314      0.0000    691.5483      5.8559
  1552.2500     96.9101    157.3641      0.0000    686.9265      5.9689
  1552.5000     96.9354    163.0692      0.0000    686.5408      6.0567
  1552.7500     97.1444    166.3096      0.0000    691.5188      6.0767
  1553.0000     97.0595    164.8317      0.0000    699.4370      5.9888
  1553.2500     97.1444    160.0512      0.0000    705.4401      5.7836
  1553.5000     96.9807    156.1922      0.0000    705.2830      5.5016
  1553.7500     97.2924    156.2126      0.0000    697.4653      5.2209
  1554.0000     97.0595    159.1402      0.0000    683.4847      5.0173
  1554.2500     96.8612    161.5917      0.0000    667.5154      4.9280
  1554.5000     96.9986    161.0512      0.0000    655.7914      4.9385
  1554.7500     97.0249    157.4288      0.0000    654.1579      5.0012
  1555.0000     97.0763    152.5970      0.0000    664.0963      5.0810
  1555.2500     97.1587    148.9954      0.0000    680.9348      5.1896
  1555.5000     97.1002    147.6652      0.0000    697.0638      5.3597
  1555.7500     97.0667    146.8652      0.0000    707.6168      5.5730
  1556.0000     97.0966    143.2820      0.0000    713.1710      5.7449
  1556.2500     97.1754    135.2432      0.0000    717.4689      5.8079
  1556.5000     97.0703    124.4323      0.0000    723.2354      5.7861
  1556.7500     96.8445    114.3479      0.0000    730.0739      5.7662
  1557.0000     96.9532    107.6119      0.0000    735.6090      5.8157
  1557.2500     96.9675    104.5365      2.0000    738.0820      5.9435
  1557.5000     97.1312    103.3394      2.0000    737.6989      6.1136
  1557.7500     96.9843    101.3828      0.0000    735.4907      6.2767
  1558.0000     97.1038     96.8943      0.0000    731.0016      6.3985
  1558.2500     97.0046     90.0739      0.0000    721.7444      6.4805
  1558.5000     97.0214     82.5139      0.0000    705.9197      6.5545
  1558.7500     96.8923     75.6288      0.0000    686.0391      6.6532
  1559.0000     97.0082     70.2064      0.0000    669.0544      6.7915
  1559.2500     96.9401     67.5977      0.0000    661.7778      6.9728
  1559.5000     96.9890     70.4547      0.0000    665.7805      7.1909
  1559.7500     97.0153     81.1460      0.0000    676.7896      7.4195
  1560.0000     97.0189     98.9672      0.0000    688.6249      7.6232
  1560.2500     97.1013    119.2359      0.0000    697.3644      7.7856
  1560.5000     96.9472    135.8364      0.0000    702.4457      7.9141
  1560.7500     97.1323    145.2241      0.0000    705.2094      8.0131
  1561.0000     96.8862    148.2238      0.0000    707.2549      8.0635
  1561.2500     97.2633    148.2081      0.0000    709.7646      8.0333
  1561.5000     97.1499    147.9685      0.0000    713.3820      7.9029
  1561.7500     96.9939    148.1916      0.0000    718.1511      7.6870
  1562.0000     97.0834    148.0025      0.0000    723.6212      7.4326
  1562.2500     97.0392    146.2451      0.0000    729.1703      7.1928
  1562.5000     97.0046    142.6724      0.0000    734.1433      6.9982
  1562.7500     96.9151    138.6413      0.0000    737.7390      6.8507
  1563.0000     96.9090    136.6088      0.0000    739.1249      6.7387
  1563.2500     96.9700    138.4398      0.0000    737.8961      6.6537
