~Version Information
VERS.                      2.0: CWLS Log ASCII Standard - VERSION 2.0
WRAP.                       NO: One line per depth step
~Well Information Block
STRT.FT               553.0000: 
STOP.FT              1576.5000: 
STEP.FT                 0.2500: 
NULL.                -999.2500: 
COMP.          Pioneer Natural Resources: COMPANY
WELL.           Telna 24-22 Tr: WELL
FLD.           Purgatoire River: FIELD
LOC.           748' FSL & 1931' FWL: LOCATION
PROV.                 Colorado: PROVINCE
CNTY.               Las Animas: COUNTRY
SRVC.                Patterson: SERVICE COMPANY
DATE.          Mon May 02 07:15:29 2005: LOG DATE
UWI.           05 071 08304 00: UNIQUE WELL ID
~Curve Information Block
DEPT.FT            0 000 00 00: Depth
DCAL.in                       : CDL Caliper
RHOB.g/cc                     : CDL Bulk Density
RHOC.g/cc                     : CDL Density Correction
DPOR.pu                       : CDL Density Porosity
GR.GAPI                       : Gamma Ray
NPOR.pu                       : Neutron Porosity
~Parameter Information Block
~A  Depth       DCAL        RHOB        RHOC        DPOR         GR         NPOR    
# ...
  1369.0000      7.8961      2.4641     -0.0259     11.2692    148.3554     23.2742
  1369.2500      7.8893      2.4620     -0.0056     11.3954    153.8450     24.4713
  1369.5000      7.8832      2.5100      0.0492      8.4824    143.8625     23.9929
  1369.7500      7.8862      2.5295      0.0856      7.3053    144.4720     24.3527
  1370.0000      7.8951      2.4987      0.0626      9.1673    130.3005     21.7989
  1370.2500      7.8991      2.5456      0.0740      6.3274    117.9351     22.2939
  1370.5000      7.8966      2.5539      0.0429      5.8258    113.9151     21.2618
  1370.7500      7.8861      2.5498      0.0685      6.0708    117.6447     21.9404
  1371.0000      7.8798      2.5622      0.1211      5.3207    122.7779     20.9421
  1371.2500      7.8871      2.5127      0.0512      8.3210    136.5929     23.1179
  1371.5000      7.8848      2.5520      0.1034      5.9372    149.6666     23.9649
  1371.7500      7.8662      2.5295      0.0955      7.3057    156.9357     24.6386
  1372.0000      7.8499      2.5319      0.1093      7.1576    167.6971     26.5998
  1372.2500      7.8491      2.5205      0.0544      7.8498    160.8200     26.4916
  1372.5000      7.8712      2.5016      0.1165      8.9935    143.0827     24.9521
  1372.7500      7.9187      2.4129      0.0704     14.3710    150.0015     25.4537
  1373.0000      7.9715      2.2969      0.0980     21.4015    143.4479     26.7016
  1373.2500      8.0063      2.1183     -0.0567     32.2243    120.8437     29.4475
  1373.5000      8.0503      1.7247     -0.0459     56.0805     76.9762     34.5571
  1373.7500      8.1659      1.4151     -0.1930     74.8452     60.3384     33.8911
  1374.0000      8.4121      1.2545     -0.1008     84.5748     50.6762     35.1945
  1374.2500      8.6984      1.2632      0.0210     84.0470     45.4419     34.6616
  1374.5000      8.7756      1.2529     -0.0019     84.6702     36.4507     34.1564
  1374.7500      8.6406      1.2181     -0.1125     86.7807     31.1050     33.2693
  1375.0000      8.5715      1.3624     -0.0103     78.0347     36.6393     33.6507
  1375.2500      8.5519      1.4871      0.0330     70.4796     46.8408     34.1322
  1375.5000      8.4308      1.6437      0.0844     60.9879     67.8136     33.7823
  1375.7500      8.2491      1.8165      0.0869     50.5159     74.9108     33.7383
  1376.0000      8.1095      1.8945     -0.0019     45.7869     85.0193     33.1935
  1376.2500      8.0487      2.1080      0.1235     32.8494     93.5554     31.7826
  1376.5000      8.0026      2.3096      0.0920     20.6291     96.8303     30.0541
  1376.7500      7.9589      2.3723      0.1010     16.8323     96.7266     29.6774
  1377.0000      7.9320      2.3669     -0.0153     17.1601    112.4100     26.3950
  1377.2500      7.9198      2.3671     -0.0256     17.1450    112.3433     22.5379
  1377.5000      7.9118      2.4292      0.0252     13.3819    120.3950     22.7444
  1377.7500      7.8982      2.4645      0.0389     11.2452    118.0289     23.7048
  1378.0000      7.8886      2.5119      0.0903      8.3723    116.6206     20.6665
  1378.2500      7.8875      2.5061      0.0679      8.7188    117.3395     22.0553
  1378.5000      7.8908      2.4891      0.0386      9.7500    107.7944     21.3957
  1378.7500      7.8935      2.4767     -0.0386     10.5029    102.5799     21.0809
  1379.0000      7.8897      2.5016      0.0368      8.9944    107.0041     21.1950
  1379.2500      7.8800      2.4979      0.0107      9.2191    100.9859     22.3481
  1379.5000      7.8751      2.4529      0.0133     11.9438    117.1155     21.4752
  1379.7500      7.8767      2.4228     -0.0284     13.7674    120.8863     22.1410
  1380.0000      7.8793      2.4003     -0.0170     15.1342    116.0679     21.8969
  1380.2500      7.8770      2.4507     -0.0052     12.0792    131.3059     22.1853
  1380.5000      7.8674      2.5396      0.1067      6.6887    121.3834     21.8413
  1380.7500      7.8568      2.5033      0.0842      8.8887    131.7407     22.9865
  1381.0000      7.8467      2.4637      0.0590     11.2927    122.4951     21.3770
  1381.2500      7.8314      2.4823      0.0447     10.1647    105.5251     21.4323
  1381.5000      7.8230      2.5122      0.0897      8.3522    102.0167     22.2943
  1381.7500      7.8316      2.5209      0.0338      7.8245    104.8410     20.1248
  1382.0000      7.8510      2.5978      0.1498      3.1645    100.9207     20.6940
  1382.2500      7.8658      2.5981      0.0902      3.1457     94.6026     18.4878
  1382.5000      7.8706      2.5440      0.0354      6.4216     87.7660     16.8577
  1382.7500      7.8701      2.5508      0.0656      6.0142     99.8368     16.8922
  1383.0000      7.8664      2.5381      0.0491      6.7810     94.0243     16.8675
  1383.2500      7.8643      2.5257      0.0211      7.5354     98.3154     17.2696
  1383.5000      7.8659      2.4549      0.0127     11.8251    100.0783     18.7844
  1383.7500      7.8712      2.3221     -0.0487     19.8743    100.0788     18.9894
  1384.0000      7.8761      2.3116     -0.0752     20.5082    107.8706     20.8578
  1384.2500      7.8605      2.4305      0.0625     13.3044    103.2020     20.7822
  1384.5000      7.8246      2.5197      0.1653      7.8987    112.3329     20.7497
  1384.7500      7.8002      2.5367      0.1235      6.8675    113.1648     21.8263
  1385.0000      7.8035      2.6751      0.1520     -1.5222    106.5621     23.2279
  1385.2500      7.8260      2.6643      0.1221     -0.8642     93.6605     21.1539
  1385.5000      7.8561      2.6292      0.0790      1.2584    101.0596     20.3023
  1385.7500      7.8784      2.5901      0.0772      3.6323    111.6255     18.4107
  1386.0000      7.8871      2.4886      0.0302      9.7838    126.3570     21.1212
  1386.2500      7.8903      2.4592      0.0299     11.5614    132.8855     22.7552
  1386.5000      7.8907      2.4867      0.0329      9.8973    133.9477     22.7070
  1386.7500      7.8873      2.5127      0.0898      8.3209    130.3484     22.8173
  1387.0000      7.8885      2.5033      0.0409      8.8909    135.8821     20.8957
  1387.2500      7.8975      2.5556      0.0796      5.7242    130.6754     22.3089
  1387.5000      7.9005      2.5904      0.1173      3.6115    119.5538     23.4035
  1387.7500      7.8981      2.6220      0.0718      1.6982    115.6828     20.9113
  1388.0000      7.8955      2.4917     -0.1583      9.5911    119.6094     21.6498
  1388.2500      7.8954      2.4636     -0.0553     11.2977    117.2847     20.9484
  1388.5000      7.9025      2.4961      0.0698      9.3256    111.4403     19.2123
  1388.7500      7.9023      2.4911      0.0180      9.6285    101.4331     17.2065
  1389.0000      7.8843      2.5632      0.0782      5.2607     86.3185     17.3307
  1389.2500      7.8559      2.6091      0.1183      2.4802     80.5324     17.7679
  1389.5000      7.8353      2.5695      0.1044      4.8817     77.1737     13.4333
  1389.7500      7.8478      2.5418      0.0180      6.5546     75.0012     11.2209
  1390.0000      7.8830      2.5023     -0.0326      8.9505     57.1385     13.1991
  1390.2500      7.8992      2.5221      0.0474      7.7488     52.9714     13.8913
  1390.5000      7.8970      2.4841     -0.0287     10.0525     61.3373     14.0214
  1390.7500      7.8959      2.4653     -0.0191     11.1949     66.5134     12.9001
  1391.0000      7.8911      2.4913     -0.0074      9.6200     81.1093     14.2479
  1391.2500      7.8783      2.5333      0.0560      7.0728     89.5350     17.1646
  1391.5000      7.8702      2.5222      0.0422      7.7436     92.6192     16.4182
  1391.7500      7.8732      2.5267      0.0788      7.4738     84.6399     18.4016
  1392.0000      7.8816      2.4937      0.0188      9.4757     85.7433     17.1333
  1392.2500      7.8893      2.4974     -0.0565      9.2504     90.3680     16.3583
  1392.5000      7.8937      2.5538      0.0543      5.8307     94.9911     18.0980
  1392.7500      7.8951      2.5158     -0.0224      8.1346     94.7179     19.3522
