~Version Information
VERS.                      2.0: CWLS Log ASCII Standard - VERSION 2.0
WRAP.                       NO: One line per depth step
~Well Information Block
STRT.FT               340.0000: 
STOP.FT              1731.0000: 
STEP.FT                 0.1000: 
NULL.                -999.2500: 
COMP.          Pioneer Natural Resources: COMPANY
WELL.          Rancher 12-35 Tr: WELL
FLD.           Purgatoire River: FIELD
LOC.           2242' FNL & 308' FWL SWNW 35 32S 67W: LOCATION
PROV.                 Colorado: PROVINCE
CNTY.               Las Animas: COUNTRY
SRVC.                Patterson: SERVICE COMPANY
DATE.          Tue Jul 05 07:18:22 2005: LOG DATE
UWI.              05 071 08430 00: UNIQUE WELL ID
~Curve Information Block
DEPT.FT            0 000 00 00: Depth
DCAL.in                       : CDL Caliper
RHOB.g/cc                     : CDL Bulk Density
RHOC.g/cc                     : CDL Density Correction
DPOR.pu                       : CDL Density Porosity
GR.GAPI                       : Gamma Ray
NPOR.pu                       : Neutron Porosity
~Parameter Information Block
~A  Depth       DCAL        RHOB        RHOC        DPOR         GR         NPOR    
# ...
  1616.8000      8.0960      2.2892      0.1814     21.8664    146.8421     31.5197
  1616.9000      8.0960      2.3532      0.1510     17.9857    144.3802     32.3024
  1617.0000      8.1374      2.4065      0.1368     14.7574    147.2567     32.7178
  1617.1000      8.1374      2.4450      0.1706     12.4214    159.2948     32.1784
  1617.2000      8.1374      2.4782      0.1676     10.4109    170.9852     30.9572
  1617.3000      8.0118      2.5123      0.1615      8.3477    174.5696     29.6237
  1617.4000      8.0118      2.5338      0.1877      7.0410    169.2502     28.3926
  1617.5000      7.9981      2.5367      0.0816      6.8686    158.1943     27.3145
  1617.6000      7.9981      2.5356      0.1000      6.9341    149.8576     26.9219
  1617.7000      7.9981      2.5376      0.0818      6.8129    144.8095     27.6289
  1617.8000      8.0319      2.5395      0.1078      6.6948    135.9178     28.4973
  1617.9000      8.0319      2.5465      0.0353      6.2744    123.3491     28.2791
  1618.0000      8.0218      2.5650      0.0444      5.1526    113.4344     27.0743
  1618.1000      8.0218      2.5845      0.0673      3.9719    109.7636     25.4455
  1618.2000      8.0218      2.5958      0.0638      3.2825    112.4663     23.7762
  1618.3000      8.0059      2.6042      0.0882      2.7760    118.3635     22.8233
  1618.4000      8.0059      2.6095      0.0458      2.4540    123.9342     22.4896
  1618.5000      7.9983      2.5975      0.0884      3.1844    128.3672     21.8508
  1618.6000      7.9983      2.5610      0.0723      5.3941    129.0194     21.1552
  1618.7000      7.9983      2.5290     -0.0322      7.3330    122.5208     21.1474
  1618.8000      8.0068      2.5282      0.0778      7.3795    112.2545     21.8518
  1618.9000      8.0068      2.5459      0.0406      6.3084    105.1349     22.5047
  1619.0000      8.0115      2.5626      0.0549      5.2941    105.2426     22.2646
  1619.1000      8.0115      2.5704      0.0672      4.8252    113.1152     21.7400
  1619.2000      8.0115      2.5743      0.0721      4.5902    123.2176     21.8618
  1619.3000      7.9788      2.5870      0.0773      3.8168    127.0860     22.2191
  1619.4000      7.9788      2.6020      0.1649      2.9121    125.9880     22.2070
  1619.5000      7.9373      2.5982      0.1278      3.1399    127.4969     21.8071
  1619.6000      7.9373      2.5792      0.0724      4.2934    133.6972     21.2251
  1619.7000      7.9373      2.5670      0.0507      5.0276    137.8767     21.3924
  1619.8000      7.9130      2.5699      0.0479      4.8547    136.7796     22.6595
  1619.9000      7.9130      2.5710      0.0669      4.7860    137.6734     23.8803
  1620.0000      7.9446      2.5544      0.0752      5.7933    147.1392     24.1494
  1620.1000      7.9446      2.5319      0.0303      7.1576    159.0119     23.6301
  1620.2000      7.9446      2.5235      0.0159      7.6654    161.3491     23.0345
  1620.3000      7.9822      2.5307      0.0463      7.2328    154.0368     22.8335
  1620.4000      7.9822      2.5418      0.0329      6.5567    150.2643     22.6634
  1620.5000      8.0136      2.5428      0.0867      6.4954    160.0191     22.5318
  1620.6000      8.0136      2.5288      0.0233      7.3455    174.6264     23.0537
  1620.7000      8.0136      2.5064      0.0350      8.7029    177.6017     23.6105
  1620.8000      7.9887      2.4878     -0.0099      9.8309    168.5486     23.2589
  1620.9000      7.9887      2.4870      0.0159      9.8805    159.1318     22.3740
  1621.0000      8.0130      2.4971      0.0102      9.2659    154.1581     21.5993
  1621.1000      8.0130      2.4987      0.0584      9.1667    150.9469     21.6118
  1621.2000      8.0130      2.4830      0.0755     10.1192    146.4294     22.6505
  1621.3000      8.0256      2.4578      0.0533     11.6489    139.6881     23.9416
  1621.4000      8.0256      2.4408      0.0788     12.6785    133.8897     24.8517
  1621.5000      7.9549      2.4455      0.0390     12.3958    132.2941     25.6676
  1621.6000      7.9549      2.4686      0.0776     10.9954    134.1622     26.9056
  1621.7000      7.9549      2.4913      0.0865      9.6168    134.8063     27.9961
  1621.8000      7.9319      2.5041      0.1024      8.8443    132.3720     28.3204
  1621.9000      7.9319      2.5153      0.0837      8.1618    127.3829     28.0748
  1622.0000      7.9173      2.5418      0.1227      6.5565    122.4452     27.3490
  1622.1000      7.9173      2.5843      0.1508      3.9813    124.8950     26.5224
  1622.2000      7.9173      2.6163      0.1519      2.0418    134.1801     26.2464
  1622.3000      7.9298      2.6145      0.1226      2.1490    142.2941     26.2905
  1622.4000      7.9298      2.5904      0.0741      3.6127    145.7616     25.6713
  1622.5000      7.9613      2.5757      0.0571      4.5044    144.1384     24.7454
  1622.6000      7.9613      2.5785      0.0547      4.3334    139.6005     24.5835
  1622.7000      7.9613      2.5812      0.0689      4.1693    137.4861     24.9679
  1622.8000      7.9862      2.5754      0.0068      4.5199    139.0038     25.3078
  1622.9000      7.9862      2.5683      0.0481      4.9516    139.0977     25.4900
  1623.0000      7.9883      2.5650      0.0223      5.1530    136.9445     25.5003
  1623.1000      7.9883      2.5722      0.0380      4.7159    139.8563     25.6589
  1623.2000      7.9883      2.5898      0.1058      3.6496    147.8127     25.6699
  1623.3000      7.9778      2.6004      0.0929      3.0043    151.1009     25.0689
  1623.4000      7.9778      2.6048      0.0564      2.7375    145.6992     24.3863
  1623.5000      7.9626      2.6205      0.0924      1.7858    138.2909     24.0610
  1623.6000      7.9626      2.6359      0.1415      0.8550    132.3966     24.1016
  1623.7000      7.9626      2.6299      0.0573      1.2156    125.8661     24.6197
  1623.8000      7.9513      2.6072      0.0578      2.5935    119.2884     25.6214
  1623.9000      7.9513      2.5753      0.0357      4.5250    117.8512     26.5152
  1624.0000      7.9486      2.5404      0.0074      6.6430    120.5509     26.1970
  1624.1000      7.9486      2.5176     -0.0067      8.0217    121.2107     24.8752
  1624.2000      7.9486      2.5159      0.0225      8.1243    121.3011     23.7325
  1624.3000      7.9572      2.5293      0.0113      7.3144    125.0027     23.5930
  1624.4000      7.9572      2.5500      0.0111      6.0628    128.6391     24.0708
  1624.5000      7.9970      2.5732      0.0132      4.6527    127.3968     23.9677
  1624.6000      7.9970      2.5887      0.0625      3.7145    125.0996     22.8261
  1624.7000      7.9970      2.5838      0.0626      4.0128    129.8854     21.4447
  1624.8000      8.0160      2.5636      0.0213      5.2375    142.6158     21.3700
  1624.9000      8.0160      2.5489      0.0066      6.1290    152.0759     22.7330
  1625.0000      8.0237      2.5505      0.0122      6.0299    150.1565     23.6874
  1625.1000      8.0237      2.5655      0.0133      5.1191    141.7610     23.0838
  1625.2000      8.0237      2.5827      0.0238      4.0783    131.9333     22.0043
  1625.3000      8.0227      2.5855      0.0413      3.9114    122.7521     21.6256
  1625.4000      8.0227      2.5749      0.0224      4.5544    119.9201     21.6089
  1625.5000      7.9961      2.5726     -0.0087      4.6886    125.1893     21.3551
  1625.6000      7.9961      2.5778      0.0479      4.3730    129.4884     20.8943
  1625.7000      7.9961      2.5664      0.0165      5.0639    127.2090     20.4674
  1625.8000      7.9912      2.5379      0.0202      6.7962    122.7965     20.2161
  1625.9000      7.9912      2.5122     -0.0361      8.3512    120.8903     20.2227
  1626.0000      7.9855      2.5046     -0.0033      8.8135    124.2811     20.5245
  1626.1000      7.9855      2.5149     -0.0054      8.1898    132.8342     21.0868
  1626.2000      7.9855      2.5343      0.0364      7.0138    139.8075     21.5961
  1626.3000      7.9913      2.5484      0.0882      6.1561    138.4799     21.7899
