~Version Information
VERS.                      2.0: CWLS Log ASCII Standard - VERSION 2.0
WRAP.                       NO: One line per depth step
~Well Information Block
STRT.FT               375.0000: 
STOP.FT              2637.2500: 
STEP.FT                 0.2500: 
NULL.                -999.2500: 
COMP.          Pioneer Natural Resources: COMPANY
WELL.            Cortina 23-25: WELL
FLD.           Purgatoire River: FIELD
LOC.           2344' FWL & 2526' FSL----: LOCATION
PROV.                 Colorado: PROVINCE
CNTY.               Las Animas: COUNTRY
SRVC.                Patterson: SERVICE COMPANY
DATE.          Wed Mar 23 19:09:49 2005: LOG DATE
UWI.           05 071 08340 00: UNIQUE WELL ID
~Curve Information Block
DEPT.FT            0 000 00 00: Depth
DIR.Ohm-m                     : IEL Induction Resistivity
SN.Ohm-m                      : IEL Short Normal
SP.mV                         : IEL Spontaneous Potential
GR.GAPI                       : Gamma Ray
~Parameter Information Block
~A  Depth       DIR          SN          SP          GR     
   375.0000 100000.0000   2000.0000   2000.0000     67.5017
   375.2500 100000.0000   2000.0000   2000.0000     67.6835
   375.5000 100000.0000   2000.0000   2000.0000     69.4260
   375.7500 100000.0000   2000.0000   2000.0000     71.5002
   376.0000 100000.0000   2000.0000   2000.0000     75.2411
   376.2500 100000.0000   2000.0000   2000.0000     77.5396
   376.5000 100000.0000   2000.0000   2000.0000     79.7499
   376.7500 100000.0000   2000.0000   2000.0000     80.0463
   377.0000 100000.0000   2000.0000   2000.0000     78.6442
   377.2500 100000.0000   2000.0000   2000.0000     76.9108
   377.5000 100000.0000   2000.0000   2000.0000     74.7112
   377.7500 100000.0000   2000.0000   2000.0000     74.4909
   378.0000 100000.0000   2000.0000   2000.0000     76.6501
   378.2500 100000.0000   2000.0000   2000.0000     52.9060
   378.5000 100000.0000   2000.0000   2000.0000     56.1061
   378.7500 100000.0000   2000.0000   2000.0000     58.2171
   379.0000 100000.0000   2000.0000   2000.0000     61.0630
   379.2500 100000.0000   2000.0000   2000.0000     62.6768
   379.5000 100000.0000   2000.0000   2000.0000     64.5794
   379.7500 100000.0000   2000.0000   2000.0000     65.4745
   380.0000 100000.0000   2000.0000   2000.0000     66.3625
   380.2500 100000.0000   2000.0000   2000.0000     66.8336
   380.5000 100000.0000   2000.0000   2000.0000     67.9211
   380.7500 100000.0000   2000.0000   2000.0000     69.3704
   381.0000 100000.0000   2000.0000   2000.0000     73.3817
   381.2500 100000.0000   2000.0000   2000.0000     77.3757
   381.5000 100000.0000   2000.0000   2000.0000     84.5735
   381.7500 100000.0000   2000.0000   2000.0000     89.3913
   382.0000 100000.0000   2000.0000   2000.0000     95.6891
   382.2500 100000.0000   2000.0000   2000.0000     99.2581
   382.5000 100000.0000   2000.0000   2000.0000    104.0645
   382.7500 100000.0000   2000.0000   2000.0000    106.8214
   383.0000 100000.0000   2000.0000   2000.0000    109.4457
   383.2500 100000.0000   2000.0000   2000.0000    109.7799
   383.5000     11.1220   2000.0000   2000.0000    108.4117
   383.7500      6.1349   2000.0000   2000.0000    106.9030
   384.0000      5.9271   2000.0000   2000.0000    104.9934
   384.2500      8.3816   2000.0000   2000.0000    104.3876
   384.5000     21.4495   2000.0000   2000.0000    104.4877
   384.7500 100000.0000   2000.0000   2000.0000    104.9474
   385.0000 100000.0000   2000.0000   2000.0000    105.6491
   385.2500 100000.0000   2000.0000   2000.0000    105.8735
   385.5000 100000.0000   2000.0000   2000.0000    105.8247
   385.7500 100000.0000   2000.0000   2000.0000    105.8310
   386.0000    890.3967   2000.0000   2000.0000    106.4351
   386.2500     27.3445   2000.0000   2000.0000    107.1796
   386.5000     15.7022   2000.0000   2000.0000    108.1594
   386.7500     12.6002   2000.0000   2000.0000    108.4505
   387.0000     11.8057   2000.0000   2000.0000    108.4757
   387.2500     12.0657   2000.0000   2000.0000    108.4344
   387.5000     12.9311   2000.0000   2000.0000    108.4488
   387.7500     14.1219   2000.0000   2000.0000    108.5500
   388.0000     15.3590   2000.0000   2000.0000    109.2251
   388.2500     16.3636   2000.0000   2000.0000    110.3806
   388.5000     16.9901   2000.0000   2000.0000    113.3309
   388.7500     17.3749   2000.0000   2000.0000    115.7696
   389.0000     17.9004   2000.0000   2000.0000    119.4773
   389.2500     19.0248   2000.0000   2000.0000    121.8758
   389.5000     21.1378   2000.0000   2000.0000    125.2435
   389.7500     24.3881   2000.0000   2000.0000    126.9766
   390.0000     28.2784   2000.0000   2000.0000    128.0666
   390.2500     31.2995   2000.0000   2000.0000    127.6523
   390.5000     31.8582   2000.0000   2000.0000    125.4891
   390.7500     30.0882   2000.0000   2000.0000    123.0861
   391.0000     27.4821   2000.0000   2000.0000    118.1883
   391.2500     25.2319   2000.0000   2000.0000    114.4772
   391.5000     23.7934   2000.0000   2000.0000    109.7509
   391.7500     23.2086   2000.0000   2000.0000    108.1969
   392.0000     23.3528   2000.0000   2000.0000    109.2664
   392.2500     24.0106   2000.0000   2000.0000    111.9965
   392.5000     24.8987   2000.0000   2000.0000    117.5679
   392.7500     25.7268   2000.0000   2000.0000    121.3356
   393.0000     26.2947   2000.0000   2000.0000    126.2365
   393.2500     26.5526   2000.0000   2000.0000    128.7817
   393.5000     26.5732   2000.0000   2000.0000    130.8403
   393.7500     26.4702   2000.0000   2000.0000    130.6441
   394.0000     26.3299   2000.0000   2000.0000    128.4594
   394.2500     26.1846   2000.0000   2000.0000    126.7585
   394.5000     26.0198   2000.0000   2000.0000    125.4936
   394.7500     25.8016   2000.0000   2000.0000    125.7025
   395.0000     25.5079   2000.0000   2000.0000    126.8268
   395.2500     25.1451   2000.0000   2000.0000    127.7119
   395.5000     24.7425   2000.0000   2000.0000    129.3235
   395.7500     24.3332   2000.0000   2000.0000    130.7974
   396.0000     23.9374   2000.0000   2000.0000    133.3538
   396.2500     23.5583   2000.0000   2000.0000    134.8070
   396.5000     23.1891   2000.0000   2000.0000    136.0593
   396.7500     22.8250   2000.0000   2000.0000    136.3075
   397.0000     22.4715   2000.0000   2000.0000    135.8418
   397.2500     22.1464   2000.0000   2000.0000    134.7189
   397.5000     21.8764   2000.0000   2000.0000    131.5354
   397.7500     21.6935   2000.0000   2000.0000    128.8151
   398.0000     21.6305   2000.0000   2000.0000    125.0603
   398.2500     21.7164   2000.0000   2000.0000    123.0749
   398.5000     21.9731   2000.0000   2000.0000    120.3567
   398.7500     22.4129   2000.0000   2000.0000    118.3325
   399.0000     23.0379   2000.0000   2000.0000    114.8604
   399.2500     23.8385   2000.0000   2000.0000    112.3276
   399.5000     24.7857   2000.0000   2000.0000    108.2118
   399.7500     25.8210   2000.0000   2000.0000    105.3741
   400.0000     26.8526   2000.0000   2000.0000    101.6354
   400.2500     27.7696   2000.0000   2000.0000     99.8244
   400.5000     28.4802   2000.0000   2000.0000     97.8908
   400.7500     28.9538   2000.0000   2000.0000     96.6307
   401.0000     29.2362   2000.0000   2000.0000     94.2514
   401.2500     29.4222   2000.0000   2000.0000     92.4228
   401.5000     29.6058   2000.0000   2000.0000     89.6514
   401.7500     29.8405   2000.0000   2000.0000     87.7673
   402.0000     30.1267   2000.0000   2000.0000     84.5653
   402.2500     30.4238   2000.0000   2000.0000     82.1754
   402.5000     30.6734   2000.0000   2000.0000     78.8250
   402.7500     30.8227   2000.0000   2000.0000     77.2456
   403.0000     30.8377   2000.0000   2000.0000     76.3530
   403.2500     30.7070   2000.0000   2000.0000     76.7655
   403.5000     30.4387   2000.0000   2000.0000     78.7267
   403.7500     30.0516   2000.0000   2000.0000     80.8148
   404.0000     29.5615   2000.0000   2000.0000     84.9059
   404.2500     28.9709   2000.0000   2000.0000     88.0961
   404.5000     28.2705   2000.0000   2000.0000     93.1346
   404.7500     27.4525   2000.0000   2000.0000     96.3480
   405.0000     26.5227   2000.0000   2000.0000    100.4075
   405.2500     25.4989   2000.0000   2000.0000    102.3747
   405.5000     24.4014   2000.0000   2000.0000    104.2779
   405.7500     23.2506   2000.0000   2000.0000    105.2839
   406.0000     22.0766   2000.0000   2000.0000    107.5490
   406.2500     20.9245   2000.0000   2000.0000    110.0851
   406.5000     19.8462   2000.0000   2000.0000    115.6338
   406.7500     18.8812   2000.0000   2000.0000    120.2333
   407.0000     18.0454   2000.0000   2000.0000    127.5732
   407.2500     17.3334   2000.0000   2000.0000    132.1202
   407.5000     16.7293   2000.0000   2000.0000    137.7242
   407.7500     16.2169   2000.0000   2000.0000    140.6829
   408.0000     15.7839   2000.0000   2000.0000    144.3981
   408.2500     15.4211   2000.0000   2000.0000    146.4663
