~Version Information
 VERS.                                  2.0 : CWLS LAS VERSION
 WRAP.                                   NO : WRAPING MODE
 SWARE .                 MController 2.5.0E : SOFTWARE VERSION
~Well Information
 WELL.                                  N/A : WELL
 COMP.                                  N/A : COMPANY
 FLD.                                   N/A : FIELD
 LOC.                                   N/A : LOCATION
 DATE.                                  N/A : DATE(S) LOGGED
 SRVC.                                  N/A : SERVICE COMPANY
 STAT.                                  N/A : STATE
 CNTY.                                  N/A : COUNTY
 CTRY.                                  N/A : COUNTRY
 API.                                   N/A : API NUMBER
 STRT.FT                            1016.00 : START DEPTH
 STOP.FT                            2595.00 : STOP DEPTH
 STEP.FT                               1.00 : DEPTH INCREMENT
 NULL.                                -9999 : NULL VALUE
~Curve information
 DEPTH.FT                                   :
 ROP.MIN/FT                                 :
 GAS.UNITS                                  :
~ASCII Log data
# ...
     1616.00        5.250         15.9 
     1617.00        0.367          1.9 
     1618.00        0.400         -2.1 
     1619.00        0.517         -3.1 
     1620.00        1.167         -3.4 
     1621.00        0.567          0.4 
     1622.00        0.467         14.5 
     1623.00        0.400         47.1 
     1624.00        0.267         47.1 
     1625.00        0.283         43.6 
     1626.00        0.267         24.3 
     1627.00        0.233         24.3 
     1628.00        0.267         18.8 
     1629.00        0.233         17.1 
     1630.00        0.267         12.4 
     1631.00        0.233         10.4 
     1632.00        0.233          9.1 
     1633.00        0.233          8.0 
     1634.00        0.233         10.8 
     1635.00        0.233         12.4 
     1636.00        0.267         20.0 
     1637.00        0.300         21.0 
     1638.00        0.350         20.0 
     1639.00        0.267         16.6 
     1640.00        0.300         14.4 
     1641.00        0.333         11.8 
     1642.00        0.300         10.4 
     1643.00        0.367          7.6 
     1644.00        0.367          6.9 
     1645.00        0.333          7.9 
     1646.00        6.333          6.6 
     1647.00        0.967         -6.1 
     1648.00        0.883         -2.5 
     1649.00        0.633          4.8 
     1650.00        0.567         17.0 
     1651.00        0.500         15.9 
     1652.00        0.500         12.0 
     1653.00        0.533          1.6 
     1654.00        0.650         -0.6 
     1655.00        0.500         10.5 
     1656.00        0.500         29.1 
     1657.00        0.567         43.9 
     1658.00        0.567         36.6 
     1659.00        0.600         32.0 
     1660.00        0.617         29.8 
     1661.00        0.467         15.2 
     1662.00        0.467         10.1 
     1663.00        0.500          7.5 
     1664.00        0.433         10.1 
     1665.00        0.500         28.0 
     1666.00        0.483         50.1 
     1667.00        1.533         51.4 
     1668.00        0.933         51.9 
     1669.00        6.700         88.3 
     1670.00        1.017         87.5 
     1671.00        0.833         48.4 
     1672.00        1.067         38.4 
     1673.00        1.200         67.0 
     1674.00        0.550         69.4 
     1675.00        0.600         60.8 
     1676.00        9.550         46.1 
     1677.00        0.933         36.1 
     1678.00        0.533         35.1 
     1679.00        0.433         36.3 
     1680.00        0.467         35.3 
     1681.00        0.417         32.5 
     1682.00        0.467         26.3 
     1683.00        0.567         32.3 
     1684.00        0.567         35.5 
     1685.00        0.900         34.2 
     1686.00        0.783         31.8 
     1687.00        0.433         33.1 
     1688.00        0.267         34.7 
     1689.00        0.267         35.0 
     1690.00        0.300         33.7 
     1691.00        0.300         30.4 
     1692.00        0.333         27.7 
     1693.00        0.300         27.3 
     1694.00        0.333         26.2 
     1695.00        0.333         26.0 
     1696.00        0.550         26.8 
     1697.00        0.867         39.2 
     1698.00        1.367         66.8 
     1699.00        1.117         45.2 
     1700.00        0.633         35.1 
     1701.00        0.800         39.0 
     1702.00        0.667         39.5 
     1703.00        0.867         33.1 
     1704.00        0.550         24.3 
     1705.00        0.533         21.8 
     1706.00      187.167        198.0 
     1707.00      173.683        101.8 
     1708.00        0.517         15.1 
     1709.00        0.267         16.0 
     1710.00        0.300         14.7 
     1711.00        0.300         13.1 
     1712.00        0.300         12.2 
     1713.00        0.333          9.7 
     1714.00        0.367          7.7 
     1715.00        0.267          7.0 
     1716.00        0.367          6.0 
     1717.00        0.267          5.8 
     1718.00        0.283          5.0 
     1719.00        0.267          4.9 
     1720.00        0.167          3.9 
     1721.00        0.233          2.9 
     1722.00        0.267          2.4 
     1723.00        0.233          2.3 
     1724.00        0.167          1.2 
     1725.00        0.167          1.2 
     1726.00        4.083          1.6 
     1727.00        0.267         -3.4 
     1728.00        0.167         -3.4 
     1729.00        0.267         -4.2 
     1730.00        0.200         -4.4 
     1731.00        0.483         -4.1 
     1732.00        0.400         -3.8 
     1733.00        0.400         -0.4 
     1734.00        0.400          8.3 
     1735.00        0.200         11.5 
     1736.00        0.167         14.6 
     1737.00        0.267         15.5 
     1738.00        0.167         13.4 
     1739.00        0.167         13.4 
     1740.00        0.200         12.2 
     1741.00        0.167         10.9 
     1742.00        0.167          8.2 
     1743.00        0.167          7.8 
     1744.00        0.183          6.0 
     1745.00        0.133          5.0 
     1746.00        0.167          2.0 
     1747.00        0.167          1.4 
     1748.00        0.267          0.8 
     1749.00        0.300          0.0 
     1750.00        0.367          0.9 
     1751.00        0.333          3.4 
     1752.00        0.333          4.3 
     1753.00        0.733          5.6 
     1754.00        0.300          4.0 
     1755.00        0.383          3.5 
     1756.00        3.383          2.8 
     1757.00        0.267         -1.9 
     1758.00        0.267         -2.2 
     1759.00        0.267         -1.6 
     1760.00        0.333         -1.9 
     1761.00        0.467         -2.7 
     1762.00        0.667         -2.2 
     1763.00        0.500         -1.8 
     1764.00        0.483         -2.5 
     1765.00        0.400         -2.7 
     1766.00        0.433         -5.7 
     1767.00        0.400         -6.3 
     1768.00        0.433         -6.6 
     1769.00        0.433         -7.0 
     1770.00        0.433         -6.8 
     1771.00        0.433         -3.1 
     1772.00        0.417          1.7 
     1773.00        0.400          7.8 
     1774.00        0.400         10.1 
     1775.00        0.467         10.9 
     1776.00        0.467          9.2 
     1777.00        0.467          7.0 
     1778.00        0.400          4.0 
     1779.00        0.367          3.4 
     1780.00        0.250          3.9 
     1781.00        0.500          4.6 
     1782.00        0.433          3.9 
     1783.00        0.433          2.7 
     1784.00        0.467          3.0 
     1785.00        0.400          1.9 
     1786.00        3.250          2.3 
     1787.00        0.433          1.3 
     1788.00        0.367          0.6 
     1789.00        0.383          1.0 
     1790.00        0.500          0.4 
     1791.00        0.500         -1.8 
     1792.00        0.267         -2.8 
     1793.00        0.267         -2.5 
     1794.00        0.333         -2.6 
     1795.00        0.300         -1.1 
     1796.00        0.267          7.9 
     1797.00        0.233         12.6 
     1798.00        0.200         25.8 
     1799.00        0.300         33.5 
     1800.00        0.217         33.9 
     1801.00        0.233         29.3 
     1802.00        0.233         24.6 
     1803.00        0.233         20.8 
     1804.00        0.200         17.3 
     1805.00        0.333         15.9 
     1806.00        0.300         11.3 
     1807.00        0.367         11.0 
     1808.00        0.367          8.8 
     1809.00        0.367          8.8 
     1810.00        0.367          7.2 
     1811.00        0.350          6.4 
     1812.00        0.333          5.1 
     1813.00        0.400          5.5 
     1814.00        0.367          4.1 
     1815.00        0.433          4.0 
