~Version Information
 VERS.                                  2.0 : CWLS LAS VERSION
 WRAP.                                   NO : WRAPING MODE
 SWARE .                 MController 2.5.0J : SOFTWARE VERSION
~Well Information
 WELL.                           Ywam 7-23V : WELL
 COMP.                       Petrogulf Corp : COMPANY
 FLD.                      Purgatorie River : FIELD
 LOC.                 NE/SW Sec 7 T33S R67W : LOCATION
 DATE.                          10/29-30/04 : DATE(S) LOGGED
 SRVC.       Blanco Geological Services LLC : SERVICE COMPANY
 STAT.                                   CO : STATE
 CNTY.                           Las Animas : COUNTY
 CTRY.                                  USA : COUNTRY
 API.                       05-071-08227-00 : API NUMBER
 STRT.FT                             634.00 : START DEPTH
 STOP.FT                            2611.00 : STOP DEPTH
 STEP.FT                               1.00 : DEPTH INCREMENT
 NULL.                                -9999 : NULL VALUE
~Curve information
 DEPTH.FT                                   :
 ROP.MIN/FT                                 :
 GAS.UNITS                                  :
~ASCII Log data
# ...
      1234.0         0.30         13.0 
      1235.0         0.30         14.3 
      1236.0         0.38         14.9 
      1237.0         0.30         12.7 
      1238.0         0.17         13.0 
      1239.0         0.20         12.7 
      1240.0         0.23         13.2 
      1241.0         0.17         13.0 
      1242.0         0.17         13.2 
      1243.0         0.20         13.4 
      1244.0         0.20         15.1 
      1245.0         0.20         13.8 
      1246.0         0.20         13.2 
      1247.0         0.23         13.4 
      1248.0         0.23         14.3 
      1249.0         0.20         13.4 
      1250.0         0.23         13.4 
      1251.0         0.22         13.2 
      1252.0         0.23         12.7 
      1253.0         0.30         12.7 
      1254.0         0.33         13.9 
      1255.0         0.33         13.9 
      1256.0         0.23         13.1 
      1257.0         0.30         15.2 
      1258.0         0.27         14.2 
      1259.0         0.27         14.7 
      1260.0         0.13         14.7 
      1261.0         0.20         13.7 
      1262.0         0.30         14.2 
      1263.0         0.27         14.3 
      1264.0         0.27         14.1 
      1265.0         0.33         14.4 
      1266.0         0.30         15.0 
      1267.0         0.23         14.1 
      1268.0         0.23         12.6 
      1269.0         0.25         13.0 
      1270.0         0.23         14.2 
      1271.0         0.27         13.4 
      1272.0         0.20         12.4 
      1273.0         0.20         13.0 
      1274.0         0.23         13.6 
      1275.0         0.17         13.3 
      1276.0         0.17         13.1 
      1277.0         0.20         13.5 
      1278.0         0.17         14.0 
      1279.0         0.13         13.6 
      1280.0         0.20         13.7 
      1281.0         0.20         13.8 
      1282.0         0.20         13.5 
      1283.0         0.20         13.0 
      1284.0         0.30         13.4 
      1285.0         0.28         13.3 
      1286.0         0.23         13.9 
      1287.0         0.23         15.1 
      1288.0         0.23         15.2 
      1289.0         0.23         15.1 
      1290.0         0.27         15.4 
      1291.0         0.13         14.8 
      1292.0         0.30         13.7 
      1293.0         0.30         13.9 
      1294.0         0.23         15.7 
      1295.0         0.30         15.9 
      1296.0         0.33         17.6 
      1297.0         0.33         16.6 
      1298.0         0.33         16.7 
      1299.0         0.27         16.8 
      1300.0         0.27         16.6 
      1301.0         0.28         16.4 
      1302.0         0.20         15.9 
      1303.0         0.17         13.5 
      1304.0         0.17         13.3 
      1305.0         0.17         13.6 
      1306.0         0.17         13.7 
      1307.0         0.17         14.7 
      1308.0         0.13         14.3 
      1309.0         0.13         14.2 
      1310.0         0.17         13.9 
      1311.0         0.13         13.9 
      1312.0         0.17         15.5 
      1313.0         0.17         16.4 
      1314.0         0.17         16.5 
      1315.0         0.17         15.9 
      1316.0         0.17         16.9 
      1317.0         0.17         16.4 
      1318.0         0.17         16.4 
      1319.0         0.17         17.2 
      1320.0         0.27         17.0 
      1321.0         0.47         17.5 
      1322.0         0.30         17.0 
      1323.0         0.27         16.7 
      1324.0         0.38         15.7 
      1325.0         0.27         15.7 
      1326.0         0.27         15.0 
      1327.0         0.27         14.5 
      1328.0         0.20         14.9 
      1329.0         0.20         14.0 
      1330.0         0.17         13.3 
      1331.0         0.20         14.3 
      1332.0         0.20         14.3 
      1333.0         0.17         14.9 
      1334.0         0.20         15.1 
      1335.0         0.17         15.3 
      1336.0         0.20         14.9 
      1337.0         0.20         14.5 
      1338.0         0.17         14.5 
      1339.0         0.20         14.6 
      1340.0         0.22         14.6 
      1341.0         0.20         14.5 
      1342.0         0.23         14.0 
      1343.0         0.30         14.1 
      1344.0         0.23         13.8 
      1345.0         0.30         13.9 
      1346.0         0.30         14.4 
      1347.0         0.27         14.3 
      1348.0         0.20         18.0 
      1349.0         0.23         17.9 
      1350.0         0.27         17.0 
      1351.0         0.27         17.1 
      1352.0         0.23         16.7 
      1353.0         0.30         16.1 
      1354.0         0.23         15.5 
      1355.0         0.22         15.7 
      1356.0         0.17         16.3 
      1357.0         0.13         16.3 
      1358.0         0.17         15.6 
      1359.0         0.13         15.4 
      1360.0         0.17         15.0 
      1361.0         0.23         15.1 
      1362.0         0.20         15.1 
      1363.0         0.20         15.8 
      1364.0         0.20         15.6 
      1365.0         0.33         15.6 
      1366.0         0.33         15.9 
      1367.0         0.30         15.5 
      1368.0         0.33         15.6 
      1369.0         0.38         15.5 
      1370.0         0.23         15.1 
      1371.0         0.17         14.9 
      1372.0         0.17         15.2 
      1373.0         0.20         15.6 
      1374.0         0.17         15.5 
      1375.0         0.20         15.4 
      1376.0         0.20         15.2 
      1377.0         0.13         18.1 
      1378.0         0.27         18.1 
      1379.0         0.27         18.9 
      1380.0         0.27         18.6 
      1381.0         0.23         18.3 
      1382.0         0.23         17.5 
      1383.0         0.23         17.5 
      1384.0         0.20         17.1 
      1385.0         0.23         16.6 
      1386.0         0.33         15.0 
      1387.0         0.30         15.8 
      1388.0         0.20         15.4 
      1389.0         0.23         15.4 
      1390.0         0.28         15.4 
      1391.0         0.27         15.6 
      1392.0         0.23         14.6 
      1393.0         0.30         15.1 
      1394.0         0.27         15.6 
      1395.0         0.17         15.2 
      1396.0         0.17         15.5 
      1397.0         0.17         15.8 
      1398.0         0.17         15.3 
      1399.0         0.20         16.1 
      1400.0         0.20         16.0 
      1401.0         0.13         15.9 
      1402.0         0.20         15.3 
      1403.0         0.30         16.0 
      1404.0         0.23         15.5 
      1405.0         0.18         15.1 
      1406.0         0.20         17.5 
      1407.0         0.17         17.5 
      1408.0         0.17         18.0 
      1409.0         0.27         19.0 
      1410.0         0.38         17.6 
      1411.0         0.43         16.9 
      1412.0         0.40         17.1 
      1413.0         0.37         15.7 
      1414.0         0.30         15.4 
      1415.0         0.33         14.9 
      1416.0         0.23         14.8 
      1417.0         0.20         15.2 
      1418.0         0.20         15.4 
      1419.0         0.23         15.2 
      1420.0         0.20         14.8 
      1421.0         0.17         14.6 
      1422.0         0.18         14.6 
      1423.0         0.17         14.8 
      1424.0         0.17         15.1 
      1425.0         0.17         15.1 
      1426.0         0.23         15.7 
      1427.0         0.23         15.0 
      1428.0         0.23         15.0 
      1429.0         0.20         15.4 
      1430.0         0.20         14.3 
      1431.0         0.13         14.6 
      1432.0         0.17         14.6 
      1433.0         0.17         14.6 
