~Version Information
VERS.                      2.0: CWLS Log ASCII Standard - VERSION 2.0
WRAP.                       NO: One line per depth step
~Well Information Block
STRT.FT               480.0000: 
STOP.FT              1994.2000: 
STEP.FT                 0.1000: 
NULL.                -999.2500: 
COMP.          Evergreen Operating Corporation: COMPANY
WELL.          McCullough 34-32 Tr: WELL
FLD.           Purgatoire River: FIELD
LOC.           394' FSL & 2077' FEL: LOCATION
PROV.                 Colorado: PROVINCE
CNTY.               Las Animas: COUNTRY
SRVC.                Patterson: SERVICE COMPANY
DATE.          Mon Sep 20 07:30:00 2004: LOG DATE
UWI.           05 071 08157 00: UNIQUE WELL ID
~Curve Information Block
DEPT.FT            0 000 00 00: Depth
DCAL.in                       : CDL Caliper
RHOB.g/cc                     : CDL Bulk Density
RHOC.g/cc                     : CDL Density Correction
DPOR.pu                       : CDL Density Porosity
NPOR.pu                       : Neutron Porosity
GR.GAPI                       : Gamma Ray
~Parameter Information Block
~A  Depth       DCAL        RHOB        RHOC        DPOR        NPOR         GR     
# ...
  1468.8000      7.9842      2.5086      0.0692      8.5704     20.9798    167.0851
  1468.9000      7.9842      2.5271      0.0463      7.4469     20.5894    166.1595
  1469.0000      7.9699      2.5654      0.1224      5.1297     19.7891    160.1448
  1469.1000      7.9699      2.5994      0.1181      3.0658     19.0580    145.1004
  1469.2000      7.9699      2.6128      0.1040      2.2528     18.8447    126.5781
  1469.3000      7.9621      2.6118      0.0663      2.3156     18.7519    116.6232
  1469.4000      7.9621      2.6141      0.0600      2.1779     18.2875    114.8530
  1469.5000      7.9575      2.6269      0.0769      1.3989     17.7991    110.5299
  1469.6000      7.9575      2.6333      0.0967      1.0115     17.8395    100.4441
  1469.7000      7.9575      2.6240      0.0335      1.5743     18.4992     93.8749
  1469.8000      7.9547      2.6122      0.0567      2.2898     19.2039     98.6765
  1469.9000      7.9547      2.6050      0.0186      2.7258     19.2315    108.9208
  1470.0000      7.9556      2.6030      0.0301      2.8501     18.6711    115.0275
  1470.1000      7.9556      2.6094      0.0322      2.4623     18.1530    116.1819
  1470.2000      7.9556      2.6206      0.0298      1.7803     17.9152    115.7197
  1470.3000      7.9568      2.6225      0.0616      1.6637     17.8916    115.0670
  1470.4000      7.9568      2.6094      0.0362      2.4592     17.9105    114.1815
  1470.5000      7.9558      2.5991      0.0430      3.0849     17.8101    113.0288
  1470.6000      7.9558      2.6059      0.0480      2.6755     17.6177    112.7283
  1470.7000      7.9558      2.6227      0.0523      1.6558     17.4158    114.0341
  1470.8000      7.9550      2.6343      0.0657      0.9509     17.3536    111.9592
  1470.9000      7.9550      2.6321      0.0645      1.0830     17.6335    104.1723
  1471.0000      7.9562      2.6253      0.0238      1.4995     18.0491     97.0656
  1471.1000      7.9562      2.6281      0.0614      1.3290     18.1166     93.8258
  1471.2000      7.9562      2.6379      0.0631      0.7358     17.5998     92.0523
  1471.3000      7.9565      2.6444      0.0576      0.3379     16.8007     91.8740
  1471.4000      7.9565      2.6422      0.0650      0.4752     16.5512     95.9049
  1471.5000      7.9562      2.6297      0.0507      1.2280     17.0981    103.4046
  1471.6000      7.9562      2.6111      0.0409      2.3588     17.5966    106.6646
  1471.7000      7.9562      2.5836      0.0145      4.0258     17.7719    102.6374
  1471.8000      7.9573      2.5476      0.0089      6.2075     18.4927    100.0617
  1471.9000      7.9573      2.5260     -0.0377      7.5150     19.7266    103.9903
  1472.0000      7.9579      2.5354      0.0332      6.9455     20.4133    110.6633
  1472.1000      7.9579      2.5533      0.0696      5.8595     20.2822    118.4173
  1472.2000      7.9579      2.5559      0.0227      5.7011     19.9422    126.4332
  1472.3000      7.9576      2.5522      0.0379      5.9265     19.8287    131.5335
  1472.4000      7.9576      2.5575      0.0569      5.6075     20.0241    135.4454
  1472.5000      7.9575      2.5637      0.0959      5.2278     20.5592    140.9603
  1472.6000      7.9575      2.5574      0.0430      5.6141     20.9895    144.3521
  1472.7000      7.9575      2.5492      0.0443      6.1114     20.4932    143.2826
  1472.8000      7.9575      2.5515      0.0672      5.9708     19.0584    138.2001
  1472.9000      7.9575      2.5543      0.0560      5.7970     17.7658    129.8671
  1473.0000      7.9567      2.5519      0.0563      5.9482     17.1883    118.5193
  1473.1000      7.9567      2.5552      0.0293      5.7459     16.9882    105.4451
  1473.2000      7.9567      2.5686      0.0190      4.9346     16.9971     98.7023
  1473.3000      7.9569      2.5809      0.0486      4.1876     17.3622    101.0938
  1473.4000      7.9569      2.5875      0.0198      3.7879     18.1527    104.9432
  1473.5000      7.9599      2.5928      0.0395      3.4686     18.9152    107.4693
  1473.6000      7.9599      2.5944      0.0642      3.3709     18.8602    108.4484
  1473.7000      7.9599      2.5922      0.0227      3.5028     17.7656    106.4636
  1473.8000      7.9607      2.5959      0.0076      3.2806     16.3626    104.8277
  1473.9000      7.9607      2.6097      0.0246      2.4397     15.5479    106.2093
  1474.0000      7.9591      2.6253      0.0362      1.4978     15.6524    106.1196
  1474.1000      7.9591      2.6321      0.0294      1.0853     16.3002    102.4716
  1474.2000      7.9591      2.6279      0.0564      1.3371     17.0354    102.5189
  1474.3000      7.9581      2.6182      0.0520      1.9292     17.5338    108.2602
  1474.4000      7.9581      2.6104      0.0684      2.4025     17.7269    112.5190
  1474.5000      7.9583      2.6032      0.0653      2.8380     17.8492    109.4902
  1474.6000      7.9583      2.5897      0.0433      3.6569     18.0999    100.2713
  1474.7000      7.9583      2.5663      0.0267      5.0758     18.5408     93.7371
  1474.8000      7.9596      2.5350      0.0163      6.9705     18.7953     94.0366
  1474.9000      7.9596      2.5090     -0.0183      8.5465     18.3874     96.9333
  1475.0000      7.9604      2.5070     -0.0173      8.6664     17.5783     99.2970
  1475.1000      7.9604      2.5307      0.0126      7.2301     17.3471    100.6968
  1475.2000      7.9604      2.5575      0.0141      5.6079     18.1080    101.2869
  1475.3000      7.9602      2.5655      0.0212      5.1184     19.0803    102.0390
  1475.4000      7.9602      2.5543     -0.0132      5.7983     19.4840    103.1529
  1475.5000      7.9600      2.5392     -0.0019      6.7148     19.5233    105.9033
  1475.6000      7.9600      2.5293      0.0178      7.3157     19.4005    110.1006
  1475.7000      7.9600      2.5269      0.0150      7.4609     18.7822    110.4997
  1475.8000      7.9608      2.5367      0.0167      6.8647     18.0674    105.6819
  1475.9000      7.9608      2.5559      0.0583      5.7041     18.1729    101.5878
  1476.0000      7.9607      2.5760      0.0423      4.4821     18.6571    102.0947
  1476.1000      7.9607      2.5986      0.0548      3.1144     18.6936    105.5128
  1476.2000      7.9607      2.6284      0.0394      1.3070     18.7325    108.5804
  1476.3000      7.9618      2.6553      0.1170     -0.3239     19.0198    110.1504
  1476.4000      7.9618      2.6645      0.0757     -0.8801     18.9667    113.1381
  1476.5000      7.9624      2.6599      0.0686     -0.5998     18.5177    116.9502
  1476.6000      7.9624      2.6426      0.0928      0.4457     18.2178    118.6649
  1476.7000      7.9624      2.6147      0.0490      2.1402     18.4077    118.6804
  1476.8000      7.9594      2.5952      0.0242      3.3232     19.1117    113.8502
  1476.9000      7.9594      2.5898      0.0508      3.6482     19.7144    105.1847
  1477.0000      7.9572      2.5895      0.0110      3.6684     19.4970    100.7954
  1477.1000      7.9572      2.5881      0.0572      3.7504     18.8184     99.4840
  1477.2000      7.9572      2.5748      0.0213      4.5548     18.3049     99.3767
  1477.3000      7.9583      2.5538     -0.0125      5.8314     18.0493    105.2845
  1477.4000      7.9583      2.5432      0.0145      6.4737     18.2877    113.2684
  1477.5000      7.9593      2.5441      0.0309      6.4169     19.1195    118.3638
  1477.6000      7.9593      2.5523      0.0114      5.9194     19.9346    120.0113
  1477.7000      7.9593      2.5716      0.0439      4.7530     20.2948    115.3474
  1477.8000      7.9601      2.5914      0.0813      3.5524     20.6351    106.9711
  1477.9000      7.9601      2.5991      0.0523      3.0869     21.2332    103.2928
  1478.0000      7.9638      2.6088      0.0168      2.4994     21.8753    111.5837
  1478.1000      7.9638      2.6269      0.0917      1.4012     22.4348    130.8340
  1478.2000      7.9638      2.6283      0.1137      1.3137     22.5095    146.5528
  1478.3000      7.9676      2.6005      0.0501      2.9999     21.9656    147.2772
