~Version Information
VERS.                      2.0: CWLS Log ASCII Standard - VERSION 2.0
WRAP.                       NO: One line per depth step
~Well Information Block
STRT.FT               185.2500: 
STOP.FT              2109.7500: 
STEP.FT                 0.2500: 
NULL.                -999.2500: 
COMP.    Petrogulf Corporation: COMPANY
WELL.             State 16-44V: WELL
FLD.          Purgatorie River: FIELD
LOC.       320' FSL & 320' FEL: LOCATION
PROV.                 Colorado: PROVINCE
CNTY.               Las Animas: COUNTRY
SRVC.                Patterson: SERVICE COMPANY
DATE. Thu Aug 11 12:58:04 2005: LOG DATE
UWI.               071-08263  : UNIQUE WELL ID
~Curve Information Block
DEPT.FT            0 000 00 00: Depth
GR.GAPI                       : Gamma Ray
CCL.                          : Casing Collar Locator
TT3.usec                      : CBL 3' Travel Time
AMP3.mV                       : CBL 3' Amplitude
~Parameter Information Block
~A  Depth        GR         CCL         TT3         AMP3    
# ...
  1324.2500    117.2564      0.0000    620.7585      1.7882
  1324.5000    125.3316      0.0000    617.0042      1.7064
  1324.7500    131.0607      0.0000    608.9504      1.6519
  1325.0000    134.6592      0.0000    599.3549      1.5905
  1325.2500    137.9766      0.0000    592.5955      1.5366
  1325.5000    142.2218      0.0000    591.4940      1.5482
  1325.7500    146.1697      0.0000    595.1791      1.6034
  1326.0000    147.1508      0.0000    600.4700      1.6191
  1326.2500    143.7068      0.0000    604.8921      1.5980
  1326.5000    137.1106      0.0000    606.8386      1.6041
  1326.7500    130.6277      0.0000    607.3294      1.6575
  1327.0000    127.6018      0.0000    611.5798      1.7406
  1327.2500    129.6373      2.0000    622.1024      1.8340
  1327.5000    135.4845      0.0000    633.6522      1.9172
  1327.7500    141.3246      0.0000    640.5422      1.9845
  1328.0000    142.8253      0.0000    643.0123      2.0902
  1328.2500    137.5628      0.0000    645.1472      2.2821
  1328.5000    125.8944      0.0000    650.7200      2.4704
  1328.7500    110.1928      0.0000    658.1489      2.5426
  1329.0000     93.6162      0.0000    659.5372      2.5549
  1329.2500     79.0362      0.0000    650.2828      2.6101
  1329.5000     68.2279      0.0000    637.4905      2.6988
  1329.7500     61.6188      0.0000    631.3203      2.7642
  1330.0000     58.6585      0.0000    630.5219      2.8113
  1330.2500     58.3358      0.0000    627.4380      2.9166
  1330.5000     59.4977      0.0000    622.1746      3.1256
  1330.7500     61.0560      0.0000    619.2564      3.3731
  1331.0000     62.2619      0.0000    618.1424      3.5522
  1331.2500     63.0662      0.0000    616.8385      3.6201
  1331.5000     64.2418      0.0000    618.6466      3.5931
  1331.7500     66.9604      0.0000    627.7181      3.4870
  1332.0000     72.1545      0.0000    639.0888      3.3137
  1332.2500     80.2926      0.0000    641.7337      3.1077
  1332.5000     91.4435      0.0000    633.5569      2.9288
  1332.7500    104.9582      0.0000    623.8213      2.8204
  1333.0000    118.8624      0.0000    619.7917      2.7584
  1333.2500    130.0290      0.0000    620.0710      2.6849
  1333.5000    135.7033      0.0000    620.7249      2.5934
  1333.7500    135.3082      0.0000    620.5819      2.5297
  1334.0000    130.8447      0.0000    620.3318      2.5250
  1334.2500    125.5073      0.0000    620.4495      2.5571
  1334.5000    121.8013      0.0000    620.8220      2.5806
  1334.7500    120.7238      0.0000    621.2861      2.5918
  1335.0000    122.3025      0.0000    622.0063      2.6336
  1335.2500    126.1846      0.0000    623.6351      2.7428
  1335.5000    131.3661      0.0000    627.3820      2.9116
  1335.7500    136.0740      0.0000    634.0214      3.1023
  1336.0000    138.7738      0.0000    642.2790      3.3023
  1336.2500    139.2499      0.0000    650.4155      3.5398
  1336.5000    138.3098      0.0000    660.5069      3.8364
  1336.7500    136.7398      0.0000    677.4045      4.1761
  1337.0000    134.8966      0.0000    699.6622      4.5078
  1337.2500    132.9117      0.0000    714.5892      4.7559
  1337.5000    130.7925      0.0000    710.6187      4.8519
  1337.7500    128.4440      0.0000    693.3118      4.7768
  1338.0000    125.7674      0.0000    679.4659      4.5743
  1338.2500    122.6983      0.0000    677.8742      4.3133
  1338.5000    119.4203      0.0000    683.0727      4.0380
  1338.7500    116.8440      0.0000    684.7037      3.7771
  1339.0000    116.4201      0.0000    679.6621      3.5681
  1339.2500    119.0113      0.0000    674.6934      3.4276
  1339.5000    124.2487      0.0000    675.4377      3.3418
  1339.7500    131.1762      0.0000    678.2654      3.2994
  1340.0000    139.1586      0.0000    678.1710      3.3054
  1340.2500    147.9013      0.0000    676.5099      3.3698
  1340.5000    156.6989      0.0000    676.0801      3.4800
  1340.7500    163.9606      0.0000    675.2930      3.5838
  1341.0000    167.8966      0.0000    670.9822      3.6187
  1341.2500    168.0433      0.0000    663.1501      3.5620
  1341.5000    166.0020      0.0000    654.2018      3.4453
  1341.7500    164.3636      0.0000    646.7585      3.3213
  1342.0000    164.7904      0.0000    644.3260      3.2228
  1342.2500    167.0958      0.0000    648.9865      3.1578
  1342.5000    170.0749      0.0000    657.1185      3.1269
  1342.7500    172.9650      0.0000    662.2985      3.1209
  1343.0000    175.7293      0.0000    662.1190      3.1145
  1343.2500    177.9897      0.0000    659.3933      3.0880
  1343.5000    178.3281      0.0000    657.4370      3.0437
  1343.7500    175.1894      0.0000    656.8692      2.9946
  1344.0000    168.4422      0.0000    656.8956      2.9574
  1344.2500    159.8190      0.0000    657.6044      2.9440
  1344.5000    151.8998      0.0000    661.6765      2.9558
  1344.7500    146.7739      0.0000    674.6145      2.9958
  1345.0000    145.5133      0.0000    698.9031      3.0693
  1345.2500    148.3601      0.0000    724.7681      3.1637
  1345.5000    154.5259      0.0000    734.5151      3.2550
  1345.7500    161.5897      0.0000    721.5302      3.3379
  1346.0000    166.2531      0.0000    697.3580      3.4316
  1346.2500    166.8910      0.0000    677.5990      3.5627
  1346.5000    165.3160      0.0000    668.6014      3.7535
  1346.7500    165.3775      0.0000    669.4107      4.0031
  1347.0000    169.6618      0.0000    678.0724      4.2648
  1347.2500    177.3793      0.0000    691.1923      4.4611
  1347.5000    184.9038      0.0000    701.9575      4.5434
  1347.7500    188.2350      0.0000    703.0367      4.5264
  1348.0000    185.5277      0.0000    691.7256      4.4610
  1348.2500    177.8402      0.0000    673.5244      4.3936
  1348.5000    167.8197      0.0000    659.9700      4.3511
  1348.7500    157.9615      0.0000    659.7643      4.3327
  1349.0000    149.9214      0.0000    673.3158      4.3149
  1349.2500    144.6192      0.0000    692.6337      4.2707
  1349.5000    142.1982      0.0000    702.7448      4.1804
  1349.7500    141.8077      0.0000    694.9082      4.0409
  1350.0000    141.8209      0.0000    678.1035      3.8720
  1350.2500    140.7785      0.0000    665.5394      3.6995
  1350.5000    138.5386      0.0000    660.1203      3.5442
  1350.7500    136.5025      0.0000    658.9111      3.4299
  1351.0000    136.3372      0.0000    660.7189      3.3721
  1351.2500    138.0241      0.0000    666.1053      3.3564
  1351.5000    139.2132      0.0000    673.5610      3.3459
  1351.7500    137.1282      0.0000    678.4872      3.3059
  1352.0000    131.2882      0.0000    678.1110      3.2212
  1352.2500    123.7102      0.0000    676.2409      3.1002
  1352.5000    116.4255      0.0000    678.9257      2.9691
  1352.7500    109.8143      0.0000    685.7499      2.8587
  1353.0000    103.5260      0.0000    690.4080      2.7871
  1353.2500     97.8380      0.0000    689.4159      2.7522
  1353.5000     93.4346      0.0000    685.5284      2.7513
  1353.7500     90.5528      0.0000    681.5255      2.8059
  1354.0000     88.9015      0.0000    675.9580      2.9422
  1354.2500     88.1256      0.0000    667.4934      3.1364
  1354.5000     87.9838      0.0000    657.1147      3.2981
  1354.7500     88.2145      0.0000    644.0369      3.3302
  1355.0000     88.6644      0.0000    627.7790      3.2046
  1355.2500     89.7496      0.0000    614.5850      2.9781
  1355.5000     92.6519      0.0000    612.4496      2.7365
  1355.7500     98.7677      0.0000    619.5959      2.5297
  1356.0000    108.5752      0.0000    626.3454      2.3557
  1356.2500    120.8639      0.0000    628.5028      2.1988
  1356.5000    133.2756      0.0000    629.6667      2.0734
  1356.7500    143.7938      0.0000    631.4299      2.0080
  1357.0000    151.6840      0.0000    631.3195      1.9898
  1357.2500    156.9847      0.0000    629.8235      1.9770
  1357.5000    159.3939      0.0000    630.8575      1.9580
