~Version Information
VERS.                      2.0: CWLS Log ASCII Standard - VERSION 2.0
WRAP.                       NO: One line per depth step
~Well Information Block
STRT.FT                -8.5000: 
STOP.FT              1968.0000: 
STEP.FT                 0.2500: 
NULL.                -999.2500: 
COMP.          Pioneer Natural Resources: COMPANY
WELL.           Firehawk 34-26: WELL
FLD.           Purgatorie River: FIELD
LOC.           1196' FSL & 1595' FEL--: LOCATION
STAT.                       CO: State
CNTY.               Las Animas: COUNTY
CTRY. USA : Country
SECT. 26 : Section
TOWN. 32S : Township
RANG. 66W : Range 
SRVC.          Patterson Wireline: SERVICE COMPANY
DATE.          Tue Oct 25 14:45:07 2005: LOG DATE
API.           05 071 08389 00: UNIQUE WELL ID
~Curve Information Block
DEPT.FT            0 000 00 00: Depth
CCL.                          : Casing Collar Locator
TT3.usec                      : CBL 3' Travel Time
AMP3.mV                       : CBL 3' Amplitude
GR.GAPI                       : Gamma Ray
~Parameter Information Block
~A  Depth       CCL         TT3         AMP3         GR     
# ...
  1432.0000      0.0000    688.4953      6.5304    172.4172
  1432.2500      0.0000    688.7249      6.4721    166.4238
  1432.5000      0.0000    688.7657      6.2660    160.7626
  1432.7500      0.0000    688.4123      5.9623    156.5065
  1433.0000      0.0000    687.1002      5.6668    153.7448
  1433.2500      0.0000    683.4172      5.4734    152.2481
  1433.5000      0.0000    674.8392      5.4193    152.0756
  1433.7500      0.0000    658.5732      5.4989    153.5737
  1434.0000      0.0000    633.8820      5.7003    156.9319
  1434.2500      0.0000    604.3284      6.0121    161.6708
  1434.5000      0.0000    576.8890      6.3971    166.4915
  1434.7500      0.0000    557.0484      6.7748    169.8097
  1435.0000      0.0000    544.4942      7.0416    170.7789
  1435.2500      0.0000    534.9473      7.1221    169.8210
  1435.5000      0.0000    525.8099      7.0181    167.8046
  1435.7500      0.0000    517.6103      6.8099    164.6161
  1436.0000      0.0000    510.8044      6.5991    159.1138
  1436.2500      0.0000    505.0093      6.4404    151.1655
  1436.5000      0.0000    501.2270      6.3292    143.2748
  1436.7500      0.0000    501.9029      6.2398    138.9807
  1437.0000      0.0000    509.5841      6.1623    139.4773
  1437.2500      0.0000    527.0985      6.1072    143.0755
  1437.5000      0.0000    556.1039      6.0998    148.1678
  1437.7500      0.0000    592.7838      6.1784    155.0135
  1438.0000      0.0000    627.5623      6.3766    163.8696
  1438.2500      0.0000    651.7652      6.6854    172.9232
  1438.5000      0.0000    663.5228      7.0310    179.2758
  1438.7500      0.0000    666.7430      7.3054    181.0927
  1439.0000      0.0000    666.3057      7.4243    178.1142
  1439.2500      0.0000    664.9500      7.3586    171.0480
  1439.5000      0.0000    663.3243      7.1248    161.4368
  1439.7500      0.0000    661.4255      6.7615    151.5437
  1440.0000      0.0000    659.1078      6.3225    143.4069
  1440.2500      0.0000    655.4379      5.8843    137.8866
  1440.5000      0.0000    649.0899      5.5412    134.6008
  1440.7500      0.0000    639.8525      5.3665    132.5082
  1441.0000      0.0000    628.3773      5.3671    130.7565
  1441.2500      0.0000    614.6248      5.4816    129.4401
  1441.5000      0.0000    598.4913      5.6278    129.4400
  1441.7500      0.0000    581.8753      5.7527    131.2365
  1442.0000      0.0000    568.2992      5.8457    134.0363
  1442.2500      0.0000    560.3475      5.9209    136.2836
  1442.5000      0.0000    558.6271      5.9909    136.9351
  1442.7500      0.0000    562.8585      6.0515    136.1135
  1443.0000      0.0000    572.3660      6.0837    134.6294
  1443.2500      0.0000    585.0902      6.0700    133.0435
  1443.5000      0.0000    597.8753      6.0101    131.2957
  1443.7500      0.0000    609.5220      5.9236    129.2127
  1444.0000      0.0000    622.7264      5.8432    127.3737
  1444.2500      0.0000    640.7968      5.8074    127.4107
  1444.5000      0.0000    662.3333      5.8521    131.1673
  1444.7500      0.0000    680.7900      5.9967    139.2604
  1445.0000      0.0000    689.3007      6.2322    150.2238
  1445.2500      0.0000    684.4061      6.5220    161.1765
  1445.5000      0.0000    665.9177      6.8123    169.6854
  1445.7500      0.0000    636.4307      7.0381    175.0031
  1446.0000      0.0000    602.0363      7.1330    177.5359
  1446.2500      0.0000    570.7905      7.0576    177.6650
  1446.5000      0.0000    548.4080      6.8319    175.4276
  1446.7500      0.0000    535.3975      6.5390    170.9979
  1447.0000      0.0000    527.2398      6.2916    165.0197
  1447.2500      0.0000    516.2900      6.1772    158.3781
  1447.5000      0.0000    496.2669      6.2136    151.9247
  1447.7500      0.0000    467.6945      6.3441    146.5941
  1448.0000      0.0000    437.9187      6.4874    143.3119
  1448.2500      0.0000    414.6674      6.5987    142.1654
  1448.5000      0.0000    400.5800      6.6794    141.9056
  1448.7500      0.0000    393.6367      6.7339    140.7740
  1449.0000      0.0000    390.5952      6.7397    137.7184
  1449.2500      0.0000    389.1531      6.6698    132.8868
  1449.5000      0.0000    388.2124      6.5287    127.5686
  1449.7500      0.0000    387.4385      6.3529    123.6445
  1450.0000      0.0000    386.8745      6.1831    122.4515
  1450.2500      0.0000    386.6744      6.0480    124.0037
  1450.5000      0.0000    386.9426      5.9669    127.4994
  1450.7500      0.0000    387.6978      5.9496    132.3148
  1451.0000      0.0000    388.9835      5.9879    138.1307
  1451.2500      0.0000    390.9134      6.0572    144.0888
  1451.5000      0.0000    393.3903      6.1380    148.2971
  1451.7500      0.0000    395.6941      6.2339    148.5888
  1452.0000      0.0000    396.6938      6.3609    143.8879
  1452.2500      0.0000    395.8836      6.5160    135.0260
  1452.5000      0.0000    394.1700      6.6575    124.4293
  1452.7500      0.0000    393.3934      6.7173    114.9459
  1453.0000      0.0000    395.0005      6.6418    108.8174
  1453.2500      0.0000    399.0042      6.4322    107.1768
  1453.5000      0.0000    403.9056      6.1468    109.3914
  1453.7500      0.0000    407.8514      5.8610    112.6417
  1454.0000      0.0000    410.6914      5.6264    113.4568
  1454.2500      0.0000    415.9131      5.4739    110.7308
  1454.5000      0.0000    430.6743      5.4321    106.9533
  1454.7500      0.0000    462.0620      5.5113    105.9152
  1455.0000      0.0000    510.4979      5.6694    109.2603
  1455.2500      0.0000    566.1442      5.8192    115.0906
  1455.5000      0.0000    613.7477      5.8769    119.4299
  1455.7500      0.0000    642.4913      5.7969    119.0661
  1456.0000      0.0000    651.3328      5.5650    113.6418
  1456.2500      0.0000    646.3230      5.1877    105.3793
  1456.5000      0.0000    634.7687      4.7117     96.9131
  1456.7500      0.0000    621.7651      4.2443     89.6064
  1457.0000      0.0000    610.5519      3.9194     83.6645
  1457.2500      0.0000    604.7288      3.8179     78.9232
  1457.5000      0.0000    608.2559      3.9183     75.1483
  1457.7500      0.0000    621.8026      4.1181     72.1352
  1458.0000      0.0000    639.8708      4.2988     70.0145
  1458.2500     -2.0000    653.5652      4.3878     69.4823
  1458.5000      2.0000    657.0531      4.3808     71.5085
  1458.7500      0.0000    651.9409      4.3093     76.3357
  1459.0000      0.0000    645.4600      4.1957     82.5270
  1459.2500      0.0000    643.3728      4.0527     87.3881
  1459.5000      0.0000    645.0330      3.9159     88.9027
  1459.7500      0.0000    645.9672      3.8484     87.3613
  1460.0000      0.0000    643.2291      3.8970     84.8981
  1460.2500      0.0000    637.1063      4.0547     83.4881
  1460.5000      0.0000    629.9663      4.2659     83.4794
  1460.7500      0.0000    625.0195      4.4591     83.7475
  1461.0000      0.0000    624.5988      4.5831     83.0364
  1461.2500      0.0000    628.6041      4.6258     81.1815
  1461.5000      0.0000    635.1299      4.6076     79.0122
  1461.7500      0.0000    642.2048      4.5597     77.1405
  1462.0000      0.0000    647.7645      4.5080     75.3129
  1462.2500      0.0000    648.7600      4.4694     73.1503
  1462.5000      0.0000    642.7183      4.4503     71.0869
  1462.7500      0.0000    631.6216      4.4442     70.2713
  1463.0000      0.0000    622.9186      4.4346     71.7156
  1463.2500      0.0000    624.1901      4.4060     75.5054
  1463.5000      0.0000    636.3267      4.3528     80.5687
  1463.7500      0.0000    653.1421      4.2811     85.2543
  1464.0000      0.0000    667.4854      4.2077     88.4072
  1464.2500      0.0000    676.3520      4.1584     89.9767
  1464.5000      0.0000    680.7162      4.1614     90.5129
  1464.7500      0.0000    682.7005      4.2299     90.1691
  1465.0000      0.0000    683.7339      4.3487     88.4843
  1465.2500      0.0000    684.3757      4.4777     85.2596
