~Version Information
VERS.                      2.0: CWLS Log ASCII Standard - VERSION 2.0
WRAP.                       NO: One line per depth step
~Well Information Block
STRT.FT               450.0000: 
STOP.FT              2753.5000: 
STEP.FT                 0.1000: 
NULL.                -999.2500: 
COMP.          Pioneer Natural Resources: COMPANY
WELL.             Squeal 11-26: WELL
FLD.           Purgatoire River: FIELD
LOC.           1186' FNL & 152' FWL: LOCATION
PROV.                 Colorado: PROVINCE
CNTY.               Las Animas: COUNTRY
SRVC.                Patterson: SERVICE COMPANY
DATE.          Wed Jun 15 09:11:52 2005: LOG DATE
UWI.           05 071 08404 00: UNIQUE WELL ID
~Curve Information Block
DEPT.FT            0 000 00 00: Depth
DCAL.in                       : CDL Caliper
RHOB.g/cc                     : CDL Bulk Density
RHOC.g/cc                     : CDL Density Correction
DPOR.pu                       : CDL Density Porosity
GR.GAPI                       : Gamma Ray
NPOR.pu                       : Neutron Porosity
~Parameter Information Block
~A  Depth       DCAL        RHOB        RHOC        DPOR         GR         NPOR    
# ...
  1976.4000      8.0060      2.6742      0.0671     -1.4664    123.4972     20.9630
  1976.5000      7.9931      2.6957      0.0986     -2.7703    114.4034     19.8137
  1976.6000      7.9931      2.6965      0.1151     -2.8212    101.1010     18.6310
  1976.7000      7.9931      2.6683      0.0831     -1.1065     88.7652     17.8402
  1976.8000      7.9848      2.6246      0.0173      1.5374     80.2254     18.1044
  1976.9000      7.9848      2.5943     -0.0012      3.3749     75.2781     19.1774
  1977.0000      7.9529      2.5955      0.0144      3.3019     70.0374     19.9802
  1977.1000      7.9529      2.6303      0.0375      1.1951     62.5850     19.7857
  1977.2000      7.9529      2.6844      0.0813     -2.0831     57.6265     18.9166
  1977.3000      7.9310      2.7255      0.1337     -4.5739     57.1713     17.9139
  1977.4000      7.9310      2.7354      0.1657     -5.1735     57.5719     17.6083
  1977.5000      7.9311      2.7298      0.1297     -4.8349     57.8826     18.4753
  1977.6000      7.9311      2.7195      0.1538     -4.2121     59.1949     19.8578
  1977.7000      7.9311      2.7001      0.0905     -3.0364     63.3069     20.9785
  1977.8000      7.9298      2.6833      0.0859     -2.0158     70.7513     21.6601
  1977.9000      7.9298      2.6735      0.1177     -1.4256     79.9890     22.4167
  1978.0000      7.9322      2.6497      0.1251      0.0175     91.4642     23.4085
  1978.1000      7.9322      2.6101      0.0734      2.4156    103.8693     24.3198
  1978.2000      7.9322      2.5841      0.0403      3.9931    114.9085     25.3083
  1978.3000      7.9473      2.5833      0.1098      4.0418    125.3553     26.4643
  1978.4000      7.9473      2.5950      0.0779      3.3311    133.9508     27.2416
  1978.5000      7.9953      2.6128      0.0420      2.2526    138.2254     27.4788
  1978.6000      7.9953      2.6271      0.0847      1.3907    140.9209     27.6700
  1978.7000      7.9953      2.6177      0.0704      1.9572    141.5861     27.9763
  1978.8000      8.0198      2.5853      0.0636      3.9211    139.5150     27.9178
  1978.9000      8.0198      2.5588      0.0221      5.5248    143.1177     27.2963
  1979.0000      8.0363      2.5598      0.0436      5.4685    153.4826     27.0140
  1979.1000      8.0363      2.5763      0.0766      4.4692    162.5788     27.6381
  1979.2000      8.0363      2.5824      0.0893      4.0942    166.6365     28.6227
  1979.3000      8.0377      2.5720      0.0137      4.7266    165.3361     29.2577
  1979.4000      8.0377      2.5655      0.0163      5.1223    160.9622     29.7693
  1979.5000      8.0502      2.5719      0.0537      4.7352    157.1045     30.2718
  1979.6000      8.0502      2.5714      0.0431      4.7617    154.5272     30.2997
  1979.7000      8.0502      2.5555      0.0277      5.7251    151.5922     30.2407
  1979.8000      8.0771      2.5349      0.0409      6.9754    149.2274     30.3305
  1979.9000      8.0771      2.5155      0.0416      8.1498    150.1988     30.1493
  1980.0000      8.0846      2.4984      0.0256      9.1855    153.2560     29.8750
  1980.1000      8.0846      2.4918     -0.0089      9.5859    155.7015     29.7311
  1980.2000      8.0846      2.5052      0.0133      8.7752    156.9557     29.6290
  1980.3000      8.0742      2.5277      0.0456      7.4108    159.3559     30.0531
  1980.4000      8.0742      2.5400      0.0441      6.6646    167.0675     31.2621
  1980.5000      8.0737      2.5367      0.0678      6.8639    178.8276     32.2397
  1980.6000      8.0737      2.5267      0.0343      7.4707    189.6993     32.0632
  1980.7000      8.0737      2.5163      0.0606      8.1019    196.1653     31.0829
  1980.8000      8.1005      2.4980      0.0653      9.2112    195.0271     30.3363
  1980.9000      8.1005      2.4723      0.0387     10.7681    190.2733     29.9266
  1981.0000      8.0968      2.4565      0.0232     11.7250    189.4119     29.3260
  1981.1000      8.0968      2.4658      0.0087     11.1614    188.7580     29.3328
  1981.2000      8.0968      2.4953      0.0897      9.3731    183.0619     30.3736
  1981.3000      8.0779      2.5260      0.0761      7.5175    176.7703     31.3442
  1981.4000      8.0779      2.5507      0.0631      6.0169    172.4274     31.2013
  1981.5000      8.1671      2.5742      0.0773      4.5930    169.8047     30.3849
  1981.6000      8.1671      2.5941      0.0656      3.3859    169.6903     30.0136
  1981.7000      8.1671      2.6051      0.0960      2.7212    170.3027     29.9325
  1981.8000      8.1741      2.6152      0.0474      2.1106    170.2344     29.4357
  1981.9000      8.1741      2.6356      0.0817      0.8752    170.7610     28.5939
  1982.0000      8.0515      2.6568      0.1202     -0.4098    172.9082     28.0976
  1982.1000      8.0515      2.6566      0.1101     -0.4007    175.1158     28.2548
  1982.2000      8.0515      2.6228      0.0951      1.6512    172.3291     28.3853
  1982.3000      8.0302      2.5736     -0.0140      4.6291    160.9149     28.0384
  1982.4000      8.0302      2.5497     -0.0439      6.0808    145.5110     27.6310
  1982.5000      8.0368      2.5652     -0.0648      5.1414    135.5782     27.5509
  1982.6000      8.0368      2.5995      0.0241      3.0623    134.1326     27.9053
  1982.7000      8.0368      2.6261      0.0396      1.4461    135.9795     28.6472
  1982.8000      8.0365      2.6354      0.0460      0.8823    138.4256     29.4025
  1982.9000      8.0365      2.6311      0.0463      1.1469    139.7736     29.4974
  1983.0000      8.0340      2.6225     -0.0023      1.6684    136.8840     28.6557
  1983.1000      8.0340      2.6204     -0.0082      1.7944    133.4225     27.5063
  1983.2000      8.0340      2.6211      0.0301      1.7488    134.6256     26.7547
  1983.3000      8.0372      2.6091      0.0761      2.4799    137.5305     26.4119
  1983.4000      8.0372      2.5939     -0.0291      3.3999    137.5572     26.2372
  1983.5000      8.0402      2.5980      0.0659      3.1540    135.5276     26.5008
  1983.6000      8.0402      2.6057      0.0666      2.6846    135.2177     27.0849
  1983.7000      8.0402      2.6008      0.0235      2.9825    137.5325     27.5727
  1983.8000      8.0427      2.5985      0.0112      3.1211    140.2404     27.8764
  1983.9000      8.0427      2.6034      0.0527      2.8256    141.5676     27.6832
  1984.0000      8.0479      2.6028      0.0834      2.8591    142.9444     27.2873
  1984.1000      8.0479      2.5981      0.0443      3.1456    144.7668     27.4618
  1984.2000      8.0479      2.5961      0.0614      3.2650    145.8818     28.2710
  1984.3000      8.0414      2.5894      0.0765      3.6703    148.3435     29.4911
  1984.4000      8.0414      2.5749      0.0198      4.5526    156.8945     30.5242
  1984.5000      8.0435      2.5650      0.0744      5.1516    169.1995     30.7391
  1984.6000      8.0435      2.5670      0.0668      5.0333    173.1743     30.2544
  1984.7000      8.0435      2.5795      0.0707      4.2740    167.1565     29.4537
  1984.8000      8.0357      2.5927      0.1085      3.4709    162.8216     28.2981
  1984.9000      8.0357      2.5914      0.1043      3.5503    164.8523     27.0229
  1985.0000      8.0285      2.5766      0.1060      4.4466    166.2317     26.6521
  1985.1000      8.0285      2.5672      0.0244      5.0188    160.6570     27.6968
  1985.2000      8.0285      2.5751      0.0437      4.5373    152.2077     29.1946
  1985.3000      8.0319      2.5917      0.0202      3.5339    149.2565     30.1367
  1985.4000      8.0319      2.6068      0.0404      2.6187    153.1486     30.2445
  1985.5000      8.0398      2.6193      0.0371      1.8600    156.2370     29.4661
  1985.6000      8.0398      2.6310      0.0792      1.1535    153.9309     28.2374
  1985.7000      8.0398      2.6306      0.0939      1.1755    149.5428     27.4701
  1985.8000      8.0405      2.5984      0.1215      3.1270    146.5315     27.4273
  1985.9000      8.0405      2.5440     -0.0136      6.4270    146.5779     27.6000
