~Version Information
VERS.                      2.0: CWLS Log ASCII Standard - VERSION 2.0
WRAP.                       NO: One line per depth step
~Well Information Block
STRT.FT               675.0000: 
STOP.FT              2371.5000: 
STEP.FT                 0.1000: 
NULL.                -999.2500: 
COMP.          Pioneer Natural Resources: COMPANY
WELL.            Harrier 44-33: WELL
FLD.           Purgatoire River: FIELD
LOC.           456' FSL & 930' FEL: LOCATION
PROV.                 Colorado: PROVINCE
CNTY.               Las Animas: COUNTRY
SRVC.                Patterson: SERVICE COMPANY
DATE.          Mon Jun 20 10:36:59 2005: LOG DATE
UWI.           05 071 08398 00: UNIQUE WELL ID
~Curve Information Block
DEPT.FT            0 000 00 00: Depth
DCAL.in                       : CDL Caliper
RHOB.g/cc                     : CDL Bulk Density
RHOC.g/cc                     : CDL Density Correction
DPOR.pu                       : CDL Density Porosity
GR.GAPI                       : Gamma Ray
NPOR.pu                       : Neutron Porosity
~Parameter Information Block
~A  Depth       DCAL        RHOB        RHOC        DPOR         GR         NPOR    
# ...
  1126.2000      7.9597      2.6183     -0.0440      1.9239    119.7712     26.1726
  1126.3000      7.9585      2.5946     -0.0305      3.3570    121.4833     26.0591
  1126.4000      7.9585      2.5706      0.0361      4.8109    125.5388     26.0275
  1126.5000      8.0458      2.5461      0.0154      6.2943    127.4506     26.0378
  1126.6000      8.0458      2.5242      0.0029      7.6262    128.0011     25.6832
  1126.7000      8.0458      2.5072     -0.0032      8.6523    128.8309     24.9733
  1126.8000      8.0512      2.4863      0.0134      9.9188    132.4651     24.1256
  1126.9000      8.0512      2.4620     -0.0282     11.3966    137.2537     23.3872
  1127.0000      8.0470      2.4469      0.0557     12.3086    138.6100     23.1468
  1127.1000      8.0470      2.4368      0.0422     12.9195    138.0855     23.4347
  1127.2000      8.0470      2.4162      0.0381     14.1703    139.6826     23.7197
  1127.3000      8.0301      2.3833      0.0170     16.1651    142.5007     23.6313
  1127.4000      8.0301      2.3498      0.0269     18.1936    142.7099     23.4028
  1127.5000      8.0306      2.3375     -0.0201     18.9394    139.7353     23.4261
  1127.6000      8.0306      2.3600      0.0786     17.5766    135.6709     23.7997
  1127.7000      8.0306      2.3943      0.1222     15.4946    131.1503     24.3225
  1127.8000      8.0203      2.4182      0.0825     14.0508    127.1755     24.8724
  1127.9000      8.0203      2.4388      0.1141     12.8000    124.7803     25.4366
  1128.0000      8.0162      2.4624      0.1210     11.3692    123.2337     25.6863
  1128.1000      8.0162      2.4927      0.0934      9.5351    123.0940     25.5833
  1128.2000      8.0162      2.5292      0.1582      7.3191    125.7875     25.5825
  1128.3000      8.0266      2.5407      0.1984      6.6244    129.3064     25.8771
  1128.4000      8.0266      2.5017      0.1179      8.9896    130.0786     26.3331
  1128.5000      8.0261      2.4414      0.0765     12.6407    128.8115     26.5847
  1128.6000      8.0261      2.3971      0.0572     15.3270    127.9710     26.4976
  1128.7000      8.0261      2.3636      0.0368     17.3568    127.7108     26.4284
  1128.8000      8.0250      2.3180      0.0281     20.1220    128.8205     26.3526
  1128.9000      8.0250      2.2681     -0.0785     23.1460    130.6861     25.8408
  1129.0000      8.0269      2.2503     -0.0060     24.2241    130.8879     25.2307
  1129.1000      8.0269      2.2866     -0.0002     22.0260    129.3709     25.1438
  1129.2000      8.0269      2.3754      0.1394     16.6418    128.4263     25.1421
  1129.3000      8.0378      2.4857      0.2047      9.9596    129.9077     24.5135
  1129.4000      8.0378      2.5560      0.3860      5.6981    129.8775     23.3537
  1129.5000      8.0300      2.5492      0.3114      6.1114    125.8698     22.0985
  1129.6000      8.0300      2.4930      0.2797      9.5133    123.0785     20.9309
  1129.7000      8.0300      2.4213      0.3137     13.8631    120.0639     19.9220
  1129.8000      8.0042      2.3420      0.1826     18.6675    111.7327     19.1830
  1129.9000      8.0042      2.2673      0.1433     23.1937    102.3332     18.7347
  1130.0000      7.9735      2.1955      0.0615     27.5457     96.6365     18.4687
  1130.1000      7.9735      2.1079      0.0246     32.8552     92.1857     18.2585
  1130.2000      7.9735      2.0178     -0.0684     38.3143     85.2669     17.9314
  1130.3000      7.9703      1.9680     -0.0558     41.3322     77.7976     17.4754
  1130.4000      7.9703      1.9649      0.0136     41.5232     72.6033     17.0343
  1130.5000      7.9888      1.9745      0.1029     40.9396     69.8554     16.6827
  1130.6000      7.9888      1.9813      0.0398     40.5301     69.3902     16.4336
  1130.7000      7.9888      1.9930      0.0473     39.8207     70.5938     16.3390
  1130.8000      8.0216      2.0010      0.1003     39.3360     72.8151     16.4171
  1130.9000      8.0216      1.9920      0.0168     39.8798     76.1343     16.5942
  1131.0000      8.0312      1.9758      0.0403     40.8596     79.4498     16.8164
  1131.1000      8.0312      1.9648      0.0487     41.5285     79.0753     17.1607
  1131.2000      8.0312      1.9706      0.0197     41.1761     73.5318     17.6118
  1131.3000      8.0758      2.0158      0.0204     38.4371     67.5831     17.9730
  1131.4000      8.0758      2.1050      0.0301     33.0302     66.3255     18.0073
  1131.5000      8.0434      2.2055      0.1206     26.9373     68.5140     17.6077
  1131.6000      8.0434      2.2875      0.0571     21.9694     71.2197     17.0523
  1131.7000      8.0434      2.3570      0.1246     17.7556     72.7957     16.7145
  1131.8000      8.0601      2.4240      0.2004     13.6977     71.5325     16.5752
  1131.9000      8.0601      2.4722      0.2570     10.7758     68.0015     16.4163
  1132.0000      7.9669      2.4757      0.1924     10.5660     64.9319     16.1779
  1132.1000      7.9669      2.4318      0.0146     13.2251     64.6948     15.9225
  1132.2000      7.9669      2.3624     -0.0520     17.4304     66.1083     15.6883
  1132.3000      7.9696      2.2869     -0.1355     22.0064     67.5198     15.5542
  1132.4000      7.9696      2.2158     -0.0961     26.3157     70.0638     15.6712
  1132.5000      8.0260      2.1507     -0.0949     30.2618     73.4199     16.1997
  1132.6000      8.0260      2.0874     -0.0548     34.0956     77.1530     16.9410
  1132.7000      8.0260      2.0306      0.0008     37.5416     83.1354     17.4061
  1132.8000      8.1032      1.9961      0.0225     39.6273     90.0886     17.8124
  1132.9000      8.1032      1.9961      0.0243     39.6273     92.4245     18.5982
  1133.0000      8.1657      2.0197      0.1180     38.1987     90.4279     19.5256
  1133.1000      8.1657      2.0457      0.1109     36.6258     90.6692     20.3035
  1133.2000      8.1657      2.0693      0.1120     35.1961     98.0294     20.9013
  1133.3000      8.1791      2.0930      0.1339     33.7567    111.4912     20.9445
  1133.4000      8.1791      2.1179      0.1134     32.2484    123.8701     20.4745
  1133.5000      8.1573      2.1426      0.0746     30.7516    128.8908     20.4290
  1133.6000      8.1573      2.1610      0.0681     29.6335    128.2826     21.1823
  1133.7000      8.1573      2.1729      0.0480     28.9133    127.9364     21.9976
  1133.8000      8.1509      2.1792      0.0542     28.5330    131.2781     22.1269
  1133.9000      8.1509      2.1648      0.1012     29.4042    135.5676     21.7940
  1134.0000      8.1574      2.1136      0.0566     32.5099    135.1286     21.4964
  1134.1000      8.1574      2.0400      0.0402     36.9688    132.1983     21.2993
  1134.2000      8.1574      1.9797      0.0383     40.6241    135.6979     21.1808
  1134.3000      8.1680      1.9574     -0.0130     41.9786    144.5074     21.2112
  1134.4000      8.1680      1.9774      0.0410     40.7650    146.1831     21.4632
  1134.5000      8.1860      2.0283      0.0886     37.6813    138.7797     21.9062
  1134.6000      8.1860      2.0908      0.1332     33.8926    131.9014     22.2724
  1134.7000      8.1860      2.1519      0.1828     30.1863    130.5834     22.3474
  1134.8000      8.1924      2.2125      0.2305     26.5131    130.4613     22.2689
  1134.9000      8.1924      2.2710      0.3373     22.9706    126.2961     22.2232
  1135.0000      8.1852      2.3111      0.2902     20.5375    122.6356     22.0949
  1135.1000      8.1852      2.3240      0.2193     19.7594    124.7755     21.7421
  1135.2000      8.1852      2.3203      0.1203     19.9792    127.0664     21.4275
  1135.3000      8.1591      2.3119      0.0593     20.4936    125.6610     21.5311
  1135.4000      8.1591      2.2901      0.1057     21.8125    125.2389     22.0216
  1135.5000      8.1660      2.2419      0.0779     24.7340    128.4819     22.5234
  1135.6000      8.1660      2.1802      0.0456     28.4705    132.8363     22.8946
  1135.7000      8.1660      2.1296      0.0631     31.5412    134.0767     23.2651
