~Version Information
VERS.                      2.0: CWLS Log ASCII Standard - VERSION 2.0
WRAP.                       NO: One line per depth step
~Well Information Block
STRT.FT               375.0000: 
STOP.FT              2637.2500: 
STEP.FT                 0.2500: 
NULL.                -999.2500: 
COMP.          Pioneer Natural Resources: COMPANY
WELL.            Cortina 23-25: WELL
FLD.           Purgatoire River: FIELD
LOC.           2344' FWL & 2526' FSL----: LOCATION
PROV.                 Colorado: PROVINCE
CNTY.               Las Animas: COUNTRY
SRVC.                Patterson: SERVICE COMPANY
DATE.          Wed Mar 23 19:09:49 2005: LOG DATE
UWI.           05 071 08340 00: UNIQUE WELL ID
~Curve Information Block
DEPT.FT            0 000 00 00: Depth
DIR.Ohm-m                     : IEL Induction Resistivity
SN.Ohm-m                      : IEL Short Normal
SP.mV                         : IEL Spontaneous Potential
GR.GAPI                       : Gamma Ray
~Parameter Information Block
~A  Depth       DIR          SN          SP          GR     
# ...
  1882.5000      7.0642      5.9779     22.4859    138.6129
  1882.7500      7.0429      6.6000     22.8765    136.1518
  1883.0000      7.0100      7.1023     23.1741    137.7063
  1883.2500      6.9653      7.4079     23.3800    141.2997
  1883.5000      6.9147      7.5163     23.5001    147.3123
  1883.7500      6.8662      7.4921     23.5428    150.4331
  1884.0000      6.8270      7.4170     23.5172    154.0383
  1884.2500      6.8018      7.3450     23.4315    156.5944
  1884.5000      6.7929      7.2889     23.2932    160.6427
  1884.7500      6.8012      7.2362     23.1090    162.2484
  1885.0000      6.8257      7.1758     22.8844    161.1744
  1885.2500      6.8633      7.1170     22.6250    158.4361
  1885.5000      6.9094      7.0883     22.3359    153.6504
  1885.7500      6.9598      7.1156     22.0216    151.4948
  1886.0000      7.0136      7.1996     21.6863    151.3552
  1886.2500      7.0748      7.3130     21.3337    153.2359
  1886.5000      7.1514      7.4251     20.9674    156.8726
  1886.7500      7.2532      7.5334     20.5916    158.0722
  1887.0000      7.3898      7.6699     20.2123    156.3518
  1887.2500      7.5694      7.8766     19.8379    153.2524
  1887.5000      7.7991      8.1766     19.4798    147.7941
  1887.7500      8.0838      8.5630     19.1523    144.6205
  1888.0000      8.4259      9.0109     18.8712    140.5318
  1888.2500      8.8239      9.4950     18.6521    137.3375
  1888.5000      9.2719     10.0001     18.5070    130.3350
  1888.7500      9.7591     10.5130     18.4424    124.1116
  1889.0000     10.2672     11.0124     18.4562    113.6204
  1889.2500     10.7675     11.4710     18.5375    106.7329
  1889.5000     11.2209     11.8656     18.6669     97.7325
  1889.7500     11.5842     12.1836     18.8191     93.1490
  1890.0000     11.8253     12.4224     18.9676     89.3368
  1890.2500     11.9370     12.5858     19.0890     89.2986
  1890.5000     11.9408     12.6784     19.1671     93.1554
  1890.7500     11.8760     12.7009     19.1961     98.0284
  1891.0000     11.7808     12.6510     19.1805    108.1481
  1891.2500     11.6791     12.5225     19.1337    116.4349
  1891.5000     11.5770     12.2961     19.0747    129.6887
  1891.7500     11.4695     11.9358     19.0241    137.2378
  1892.0000     11.3518     11.4137     19.0002    143.0634
  1892.2500     11.2265     10.7603     19.0155    142.3056
  1892.5000     11.1057     10.0966     19.0743    135.5891
  1892.7500     11.0082      9.6110     19.1713    129.3327
  1893.0000     10.9547      9.4857     19.2917    120.4145
  1893.2500     10.9631      9.8122     19.4132    115.8498
  1893.5000     11.0440     10.5425     19.5094    111.6744
  1893.7500     11.1961     11.5078     19.5541    110.5884
  1894.0000     11.4030     12.4992     19.5265    110.9319
  1894.2500     11.6356     13.3576     19.4146    111.9205
  1894.5000     11.8627     14.0169     19.2174    113.3140
  1894.7500     12.0662     14.4907     18.9448    113.5506
  1895.0000     12.2530     14.8364     18.6154    112.7143
  1895.2500     12.4540     15.1263     18.2539    111.8017
  1895.5000     12.7098     15.4271     17.8872    110.3431
  1895.7500     13.0540     15.7845     17.5418    109.0584
  1896.0000     13.4988     16.2084     17.2406    106.3931
  1896.2500     14.0260     16.6617     17.0015    104.5642
  1896.5000     14.5816     17.0667     16.8363    102.9229
  1896.7500     15.0810     17.3372     16.7502    102.8765
  1897.0000     15.4315     17.4194     16.7424    103.8728
  1897.2500     15.5699     17.3164     16.8066    104.4899
  1897.5000     15.4948     17.0878     16.9321    104.3447
  1897.7500     15.2687     16.8333     17.1046    103.9299
  1898.0000     14.9874     16.6624     17.3083    105.2488
  1898.2500     14.7411     16.6555     17.5284    108.8056
  1898.5000     14.5887     16.8316     17.7546    118.4516
  1898.7500     14.5519     17.1395     17.9848    126.5621
  1899.0000     14.6212     17.4829     18.2280    137.6817
  1899.2500     14.7666     17.7658     18.5037    142.0731
  1899.5000     14.9487     17.9295     18.8395    141.3567
  1899.7500     15.1273     17.9600     19.2642    135.9299
  1900.0000     15.2672     17.8783     19.8011    122.8344
  1900.2500     15.3428     17.7307     20.4608    112.8794
  1900.5000     15.3377     17.5742     21.2375     99.1306
  1900.7500     15.2402     17.4456     22.1088     91.9022
  1901.0000     15.0370     17.3267     23.0393     85.1591
  1901.2500     14.7116     17.1374     23.9861     83.8929
  1901.5000     14.2524     16.7730     24.9061     87.6153
  1901.7500     13.6653     16.1650     25.7616     94.2337
  1902.0000     12.9803     15.3175     26.5247    110.2245
  1902.2500     12.2457     14.2947     27.1795    123.6343
  1902.5000     11.5133     13.1856     27.7210    143.4203
  1902.7500     10.8259     12.0785     28.1540    153.7350
  1903.0000     10.2108     11.0449     28.4889    162.8820
  1903.2500      9.6807     10.1301     28.7394    165.2022
  1903.5000      9.2382      9.3592     28.9195    165.2159
  1903.7500      8.8795      8.7568     29.0420    164.6710
  1904.0000      8.5964      8.3506     29.1183    166.2686
  1904.2500      8.3774      8.1465     29.1584    169.8696
  1904.5000      8.2088      8.1045     29.1714    177.1365
  1904.7500      8.0755      8.1482     29.1651    180.6369
  1905.0000      7.9634      8.1990     29.1464    180.3569
  1905.2500      7.8618      8.2060     29.1195    176.4066
  1905.5000      7.7643      8.1524     29.0856    168.0863
  1905.7500      7.6685      8.0464     29.0421    163.6670
  1906.0000      7.5734      7.9113     28.9829    162.0985
  1906.2500      7.4783      7.7777     28.8988    164.6830
  1906.5000      7.3821      7.6690     28.7797    171.5693
  1906.7500      7.2860      7.5847     28.6162    175.9581
  1907.0000      7.1952      7.5029     28.4017    179.6640
  1907.2500      7.1203      7.4056     28.1340    180.3959
  1907.5000      7.0755      7.3014     27.8153    181.2447
  1907.7500      7.0764      7.2218     27.4509    182.8050
  1908.0000      7.1378      7.2063     27.0462    187.0251
  1908.2500      7.2731      7.2984     26.6031    190.7964
  1908.5000      7.4940      7.5482     26.1176    196.8918
  1908.7500      7.8105      8.0120     25.5780    199.8277
  1909.0000      8.2307      8.7416     24.9668    198.3672
  1909.2500      8.7603      9.7708     24.2645    191.2044
  1909.5000      9.4037     11.1131     23.4538    170.7065
  1909.7500     10.1666     12.7910     22.5247    152.7935
  1910.0000     11.0596     14.8879     21.4773    125.5705
  1910.2500     12.1002     17.5556     20.3231    110.2249
  1910.5000     13.3090     20.9190     19.0850     93.9071
  1910.7500     14.6972     24.9263     17.7969     87.2985
  1911.0000     16.2490     29.2851     16.5021     81.8304
  1911.2500     17.9054     33.5568     15.2523     80.0257
  1911.5000     19.5595     37.3227     14.1042     79.3617
  1911.7500     21.0723     40.2886     13.1153     80.3938
  1912.0000     22.3077     42.2893     12.3386     83.8295
  1912.2500     23.1735     43.2602     11.8166     86.3634
  1912.5000     23.6462     43.2306     11.5761     88.4006
  1912.7500     23.7672     42.3272     11.6257     88.3229
  1913.0000     23.6125     40.7476     11.9553     88.1021
  1913.2500     23.2539     38.7009     12.5376     89.6161
  1913.5000     22.7333     36.3482     13.3322     95.7948
  1913.7500     22.0598     33.7861     14.2890    101.8390
  1914.0000     21.2263     31.0744     15.3530    110.7556
  1914.2500     20.2358     28.2759     16.4678    114.7151
  1914.5000     19.1186     25.4822     17.5798    116.1424
  1914.7500     17.9332     22.8176     18.6409    114.7520
  1915.0000     16.7483     20.4190     19.6112    112.5144
  1915.2500     15.6217     18.3967     20.4597    113.1597
  1915.5000     14.5897     16.7942     21.1654    119.2782
  1915.7500     13.6696     15.5757     21.7159    126.1000
