~Version Information
VERS.                      2.0: CWLS Log ASCII Standard - VERSION 2.0
WRAP.                       NO: One line per depth step
~Well Information Block
STRT.FT               550.0000: 
STOP.FT              2042.5000: 
STEP.FT                 0.1000: 
NULL.                -999.2500: 
COMP.          Petrogulf Corporation: COMPANY
WELL.          Robinson 15-12V: WELL
FLD.           Purgatorie River: FIELD
LOC.           1788' FNL & 466' FWL: LOCATION
PROV.                 Colorado: PROVINCE
CNTY.               Las Animas: COUNTRY
SRVC.                Patterson: SERVICE COMPANY
DATE.          Mon Sep 12 10:04:59 2005: LOG DATE
UWI.                          : UNIQUE WELL ID
~Curve Information Block
DEPT.FT            0 000 00 00: Depth
DCAL.in                       : CDL Caliper
RHOB.g/cc                     : CDL Bulk Density
RHOC.g/cc                     : CDL Density Correction
DPOR.pu                       : CDL Density Porosity
GR.GAPI                       : Gamma Ray
NPOR.pu                       : Neutron Porosity
~Parameter Information Block
~A  Depth       DCAL        RHOB        RHOC        DPOR         GR         NPOR    
# ...
  1135.6000      7.9847      2.5407      0.0592      6.6217    180.3389     24.3592
  1135.7000      7.9847      2.5247      0.0361      7.5963    181.2882     24.4477
  1135.8000      8.0039      2.5267      0.0905      7.4728    176.5298     24.5896
  1135.9000      8.0039      2.5359      0.0582      6.9150    170.3760     25.0892
  1136.0000      8.0181      2.5463      0.0675      6.2832    168.8939     25.4968
  1136.1000      8.0181      2.5598      0.0686      5.4642    170.3069     25.2643
  1136.2000      8.0181      2.5658      0.1106      5.1045    170.0789     24.4781
  1136.3000      7.9692      2.5622      0.0819      5.3207    166.7201     23.7894
  1136.4000      7.9692      2.5710      0.0474      4.7905    160.6870     23.8121
  1136.5000      7.9427      2.5955      0.0980      3.3013    153.0358     24.1096
  1136.6000      7.9427      2.6102      0.1025      2.4092    143.6010     23.9296
  1136.7000      7.9427      2.6055      0.1072      2.6943    133.3694     23.5276
  1136.8000      7.9453      2.5998      0.0649      3.0428    125.0310     23.2413
  1136.9000      7.9453      2.6059      0.0939      2.6736    117.6294     22.7106
  1137.0000      7.9464      2.6134      0.0683      2.2183    110.9951     21.7344
  1137.1000      7.9464      2.6137      0.0257      2.2012    106.8246     20.8729
  1137.2000      7.9464      2.6051      0.1186      2.7223    103.5320     20.5286
  1137.3000      7.9336      2.5822      0.0302      4.1108     99.9927     20.2250
  1137.4000      7.9336      2.5547      0.0015      5.7740     97.5485     19.6203
  1137.5000      7.9267      2.5417      0.0334      6.5635     96.7439     19.0434
  1137.6000      7.9267      2.5486      0.0362      6.1482     96.7599     18.8345
  1137.7000      7.9267      2.5642      0.0612      5.1999     96.6790     18.9931
  1137.8000      7.9257      2.5741      0.0912      4.6001     96.8733     19.2722
  1137.9000      7.9257      2.5784      0.0505      4.3406     97.6004     19.3914
  1138.0000      7.9236      2.5817      0.1042      4.1405     96.9037     19.3407
  1138.1000      7.9236      2.5742      0.0403      4.5943     94.6488     19.2175
  1138.2000      7.9236      2.5543      0.0370      5.8019     94.3951     19.2453
  1138.3000      7.9235      2.5412      0.0048      6.5962     97.9455     19.6463
  1138.4000      7.9235      2.5426      0.0856      6.5072    100.9694     19.9917
  1138.5000      7.9252      2.5426      0.0943      6.5085     98.9769     19.6278
  1138.6000      7.9252      2.5325      0.0918      7.1238     95.4893     18.7046
  1138.7000      7.9252      2.5207      0.0497      7.8380     93.5866     17.9293
  1138.8000      7.9301      2.5152      0.0778      8.1668     89.6557     17.5074
  1138.9000      7.9301      2.5135      0.0634      8.2709     83.5473     17.1894
  1139.0000      7.9284      2.5130      0.0716      8.3006     80.8256     16.9409
  1139.1000      7.9284      2.5170      0.0515      8.0613     82.9536     16.9304
  1139.2000      7.9284      2.5185      0.0952      7.9688     86.5862     17.0551
  1139.3000      7.9321      2.5051      0.0374      8.7798     89.2967     16.9925
  1139.4000      7.9321      2.4827      0.0348     10.1369     90.1988     16.7656
  1139.5000      7.9242      2.4664     -0.0029     11.1284     89.3083     16.6020
  1139.6000      7.9242      2.4618      0.0020     11.4055     89.7840     16.4497
  1139.7000      7.9242      2.4658      0.0346     11.1615     93.9066     16.3018
  1139.8000      7.9198      2.4760      0.0142     10.5453     98.5678     16.2435
  1139.9000      7.9198      2.4891      0.0342      9.7531    101.0454     16.0384
  1140.0000      7.9103      2.4995      0.0314      9.1197    102.2695     15.6530
  1140.1000      7.9103      2.5060      0.0523      8.7251    103.2525     15.3148
  1140.2000      7.9103      2.5093      0.0703      8.5302    103.1411     15.0369
  1140.3000      7.9092      2.5091      0.0635      8.5384     99.3858     14.7501
  1140.4000      7.9092      2.5106      0.0046      8.4467     93.2916     14.6033
  1140.5000      7.9032      2.5203      0.0479      7.8584     90.3866     14.8412
  1140.6000      7.9032      2.5345      0.0571      6.9995     92.8918     15.2793
  1140.7000      7.9032      2.5456      0.0943      6.3258     99.0465     15.6094
  1140.8000      7.9039      2.5531      0.0392      5.8722    107.1841     15.7301
  1140.9000      7.9039      2.5572      0.0819      5.6233    114.2796     15.6275
  1141.0000      7.9166      2.5480      0.0524      6.1815    114.6039     15.4630
  1141.1000      7.9166      2.5207      0.0375      7.8387    106.3674     15.4032
  1141.2000      7.9166      2.4878      0.0188      9.8328     96.4022     15.5864
  1141.3000      7.9278      2.4721     -0.0323     10.7819     92.2938     15.9058
  1141.4000      7.9278      2.4868      0.0134      9.8917     93.7520     15.9995
  1141.5000      7.9250      2.5165      0.0646      8.0917     96.6352     15.4633
  1141.6000      7.9250      2.5339      0.0754      7.0343     97.6039     14.6207
  1141.7000      7.9250      2.5290      0.0487      7.3348     95.9005     14.4209
  1141.8000      7.9312      2.5128      0.0379      8.3159     93.9778     14.7207
  1141.9000      7.9312      2.5052      0.0359      8.7766     94.7395     14.3346
  1142.0000      7.9285      2.5122      0.0949      8.3492     97.5013     13.2474
  1142.1000      7.9285      2.5262      0.0495      7.5052     98.2082     12.6780
  1142.2000      7.9285      2.5418      0.0762      6.5593     96.9129     13.0373
  1142.3000      7.9231      2.5512      0.1000      5.9871     97.2170     13.6431
  1142.4000      7.9231      2.5517      0.0963      5.9568     99.4691     13.6747
  1142.5000      7.9173      2.5529      0.1070      5.8852    101.6447     12.9621
  1142.6000      7.9173      2.5657      0.0997      5.1086    101.9088     12.2798
  1142.7000      7.9173      2.5890      0.0860      3.6969     99.5513     12.3421
  1142.8000      7.9248      2.6075      0.1219      2.5750     94.7093     12.7880
  1142.9000      7.9248      2.6107      0.1130      2.3840     88.5659     13.1379
  1143.0000      7.9335      2.6039      0.1069      2.7928     85.7874     13.6815
  1143.1000      7.9335      2.5939      0.1322      3.4028     88.6887     14.3501
  1143.2000      7.9335      2.5843      0.1088      3.9834     92.4195     14.5890
  1143.3000      7.9305      2.5822      0.0680      4.1087     91.6937     14.4941
  1143.4000      7.9305      2.5846      0.1045      3.9646     87.3718     14.3658
  1143.5000      7.9298      2.5813      0.0888      4.1646     83.7424     14.2612
  1143.6000      7.9298      2.5730      0.0660      4.6660     82.9053     14.2959
  1143.7000      7.9298      2.5639      0.0272      5.2157     83.9750     14.3734
  1143.8000      7.9285      2.5544      0.0663      5.7937     87.5976     14.1253
  1143.9000      7.9285      2.5489      0.0252      6.1300     92.9474     13.7237
  1144.0000      7.9263      2.5546      0.0429      5.7813     96.7793     13.6086
  1144.1000      7.9263      2.5653      0.0747      5.1356     98.8770     13.6697
  1144.2000      7.9263      2.5700      0.0633      4.8482     99.5701     13.6840
  1144.3000      7.9263      2.5713      0.0790      4.7708    100.3187     13.8191
  1144.4000      7.9263      2.5681      0.0735      4.9659    104.3631     14.0802
  1144.5000      7.9278      2.5591      0.0742      5.5081    109.6281     14.3252
  1144.6000      7.9278      2.5588      0.0322      5.5253    112.0615     14.5253
  1144.7000      7.9278      2.5708      0.0784      4.7993    113.4393     14.5417
  1144.8000      7.9239      2.5788      0.0475      4.3133    116.0507     14.5489
  1144.9000      7.9239      2.5781      0.0134      4.3554    118.2781     14.8780
  1145.0000      7.9228      2.5754      0.0614      4.5216    116.8080     15.3419
  1145.1000      7.9228      2.5753      0.0397      4.5257    110.6609     15.5635
