~Version Information
VERS.                      2.0: CWLS Log ASCII Standard - VERSION 2.0
WRAP.                       NO: One line per depth step
~Well Information Block
STRT.FT               946.8000: 
STOP.FT              2134.5000: 
STEP.FT                 0.1000: 
NULL.                -999.2500: 
COMP.          Petrogulf Corporation: COMPANY
WELL.             Valejo 8-12R: WELL
FLD.           Purgatorie River: FIELD
LOC.           1351'' FNL & 1562' FWL: LOCATION
CNTY.               Las Animas: COUNTY
SRVC.                         : SERVICE COMPANY
DATE.          Wed Apr 28 13:22:45 2004: LOG DATE
UWI.           05 071 08038 00: UNIQUE WELL ID
STAT.                 Colorado: STATE
~Curve Information Block
DEPT.FT            0 000 00 00: Depth
DCAL.in                       : CDL Caliper
RHOB.g/cc                     : CDL Bulk Density
RHOC.g/cc                     : CDL Density Correction
DPOR.pu                       : CDL Density Porosity
NPOR.pu                       : Neutron Porosity
GR.GAPI                       : Gamma Ray
~Parameter Information Block
~A  Depth       DCAL        RHOB        RHOC        DPOR        NPOR         GR     
# ...
  1340.4000      8.0249      2.5349      0.0386      6.9785     14.0265     57.4009
  1340.5000      8.0242      2.5242     -0.0099      7.6272     14.4053     58.6883
  1340.6000      8.0242      2.5384      0.0219      6.7635     14.1847     60.0919
  1340.7000      8.0242      2.5574      0.0922      5.6133     13.8022     60.4421
  1340.8000      8.0272      2.5564      0.0466      5.6753     13.9745     59.9845
  1340.9000      8.0272      2.5435      0.0537      6.4523     14.7797     58.2388
  1341.0000      8.0273      2.5304      0.0498      7.2482     15.4907     55.3544
  1341.1000      8.0273      2.5183      0.0396      7.9819     15.5775     52.8992
  1341.2000      8.0273      2.5163      0.0754      8.1057     15.3979     52.5007
  1341.3000      8.0245      2.5296      0.0683      7.2956     15.0999     53.5973
  1341.4000      8.0245      2.5447      0.0707      6.3789     14.6638     54.4251
  1341.5000      8.0227      2.5438      0.0735      6.4346     14.4536     53.0446
  1341.6000      8.0227      2.5311      0.0606      7.2060     14.4277     50.1037
  1341.7000      8.0227      2.5292      0.0459      7.3240     14.1664     48.4906
  1341.8000      8.0260      2.5378      0.1178      6.8012     13.7002     48.2163
  1341.9000      8.0260      2.5294      0.1345      7.3099     13.6586     47.1918
  1342.0000      8.0250      2.5058      0.0659      8.7405     14.2276     46.6664
  1342.1000      8.0250      2.4985      0.0190      9.1847     14.7290     48.4357
  1342.2000      8.0250      2.5098      0.1264      8.4986     14.8221     51.7427
  1342.3000      8.0224      2.5185      0.0817      7.9702     14.8462     53.4149
  1342.4000      8.0224      2.5209      0.0573      7.8270     14.9899     51.3000
  1342.5000      7.9819      2.5218      0.0228      7.7712     15.1715     48.8283
  1342.6000      7.9819      2.5243      0.0327      7.6189     15.3450     48.7822
  1342.7000      7.9819      2.5272      0.0556      7.4419     15.4412     50.4658
  1342.8000      7.9768      2.5295      0.0344      7.3038     15.5468     52.3268
  1342.9000      7.9768      2.5376      0.0704      6.8104     15.5425     52.9907
  1343.0000      7.9753      2.5498      0.0664      6.0735     15.4653     54.0494
  1343.1000      7.9753      2.5581      0.0784      5.5725     15.8445     57.8133
  1343.2000      7.9753      2.5586      0.0746      5.5418     16.4895     63.6179
  1343.3000      7.9765      2.5479      0.0777      6.1905     16.7690     67.7562
  1343.4000      7.9765      2.5307      0.0555      7.2289     16.7329     68.4741
  1343.5000      7.9699      2.5223      0.0546      7.7402     16.6267     68.5642
  1343.6000      7.9699      2.5250      0.0791      7.5763     16.4616     70.2548
  1343.7000      7.9699      2.5266      0.0523      7.4760     16.5475     73.2697
  1343.8000      7.9741      2.5237      0.0456      7.6558     17.0122     76.1705
  1343.9000      7.9741      2.5264      0.0534      7.4907     17.3419     79.2992
  1344.0000      7.9753      2.5461      0.0412      6.2955     17.3307     83.0669
  1344.1000      7.9753      2.5761      0.0910      4.4808     17.2560     83.7639
  1344.2000      7.9753      2.5962      0.0746      3.2582     17.3842     79.2064
  1344.3000      7.9743      2.6001      0.1031      3.0255     17.8068     73.8979
  1344.4000      7.9743      2.5974      0.0621      3.1909     18.2655     73.4117
  1344.5000      7.9705      2.5968      0.0789      3.2234     18.1328     75.0972
  1344.6000      7.9705      2.5946      0.0640      3.3597     17.3014     71.7371
  1344.7000      7.9705      2.5891      0.0490      3.6927     16.7067     67.0306
  1344.8000      7.9667      2.5807      0.0448      4.2030     16.8288     70.8196
  1344.9000      7.9667      2.5686      0.0384      4.9341     17.3123     77.3209
  1345.0000      7.9689      2.5661      0.0134      5.0878     17.5398     74.3415
  1345.1000      7.9689      2.5781      0.0579      4.3593     17.1318     66.5722
  1345.2000      7.9689      2.5802      0.0754      4.2288     16.4072     62.7740
  1345.3000      7.9661      2.5624      0.0316      5.3121     15.8659     63.1219
  1345.4000      7.9661      2.5500      0.0726      6.0602     15.7229     66.9511
  1345.5000      7.9659      2.5586      0.0858      5.5375     15.9268     71.2630
  1345.6000      7.9659      2.5765      0.0691      4.4540     16.2534     71.9071
  1345.7000      7.9659      2.5920      0.0865      3.5139     16.5895     68.9954
  1345.8000      7.9730      2.6037      0.0640      2.8051     16.8505     65.4771
  1345.9000      7.9730      2.6111      0.1090      2.3589     16.9979     62.3976
  1346.0000      7.9794      2.6109      0.0648      2.3717     17.1752     58.0442
  1346.1000      7.9794      2.6036      0.1098      2.8098     17.4352     51.3524
  1346.2000      7.9794      2.5934      0.0579      3.4275     17.7239     44.9575
  1346.3000      7.9737      2.5868      0.0317      3.8301     17.9933     44.4566
  1346.4000      7.9737      2.5865      0.0592      3.8485     18.0169     49.0415
  1346.5000      7.9714      2.5941      0.0344      3.3867     17.7440     52.8772
  1346.6000      7.9714      2.6031      0.1123      2.8454     17.6208     55.6974
  1346.7000      7.9714      2.5893      0.0986      3.6808     17.6939     58.3974
  1346.8000      7.9693      2.5525      0.0217      5.9067     17.5932     59.4921
  1346.9000      7.9693      2.5212      0.0511      7.8034     17.3177     60.1950
  1347.0000      7.9651      2.4981      0.0506      9.2069     16.8373     62.4407
  1347.1000      7.9651      2.4740      0.0024     10.6643     16.0173     63.5626
  1347.2000      7.9651      2.4613     -0.0397     11.4391     15.4295     64.1602
  1347.3000      7.9680      2.4611      0.0435     11.4507     15.6679     66.8116
  1347.4000      7.9680      2.4587      0.0088     11.5961     16.4988     66.8160
  1347.5000      7.9702      2.4552      0.0406     11.8082     17.1965     62.9196
  1347.6000      7.9702      2.4596      0.0422     11.5368     17.0513     61.0620
  1347.7000      7.9702      2.4728      0.0171     10.7393     16.1771     61.2162
  1347.8000      7.9687      2.4883      0.0633      9.8008     15.4091     60.6470
  1347.9000      7.9687      2.4966      0.0444      9.2942     15.2179     61.0900
  1348.0000      7.9661      2.4893      0.0828      9.7370     15.6279     62.7181
  1348.1000      7.9661      2.4699      0.0293     10.9170     16.5456     62.0413
  1348.2000      7.9661      2.4585      0.0664     11.6064     17.4310     57.6907
  1348.3000      7.9704      2.4658      0.0499     11.1648     17.5922     53.6722
  1348.4000      7.9704      2.4771      0.0767     10.4777     17.1441     53.5130
  1348.5000      7.9639      2.4739      0.0820     10.6702     16.4176     57.1398
  1348.6000      7.9639      2.4633      0.0284     11.3160     15.5688     63.4561
  1348.7000      7.9639      2.4639      0.0486     11.2799     14.9238     69.5624
  1348.8000      7.9659      2.4775      0.0660     10.4571     14.6883     71.5080
  1348.9000      7.9659      2.5021      0.0664      8.9661     14.7224     69.0981
  1349.0000      7.9655      2.5361      0.0878      6.9006     14.8149     66.4787
  1349.1000      7.9655      2.5616      0.1037      5.3573     15.0129     66.6497
  1349.2000      7.9655      2.5580      0.0941      5.5760     15.3663     67.5232
  1349.3000      7.9683      2.5384      0.0442      6.7645     15.6260     66.9681
  1349.4000      7.9683      2.5355      0.0659      6.9392     15.4621     65.9273
  1349.5000      7.9668      2.5507      0.0672      6.0185     15.0175     65.1689
  1349.6000      7.9668      2.5591      0.0497      5.5101     14.8763     66.6014
  1349.7000      7.9668      2.5539      0.0390      5.8272     15.2169     70.7068
  1349.8000      7.9667      2.5540      0.0221      5.8170     15.7105     74.2939
  1349.9000      7.9667      2.5684      0.0484      4.9427     16.2009     77.6299
