~Version Information
VERS.                      2.0: CWLS Log ASCII Standard - VERSION 2.0
WRAP.                       NO: One line per depth step
~Well Information Block
STRT.FT               375.0000: 
STOP.FT              1727.7000: 
STEP.FT                 0.1000: 
NULL.                -999.2500: 
COMP.          Pioneer Natural Resources: COMPANY
WELL.          Warrior 33-1 Tr: WELL
FLD.           Purgatoire River: FIELD
LOC.           2648' FSL & 2341' FEL--: LOCATION
PROV.                 Colorado: PROVINCE
CNTY.               Las Animas: COUNTRY
SRVC.                Patterson: SERVICE COMPANY
DATE.          Sat Jun 18 07:53:12 2005: LOG DATE
UWI.           05 071 08412 00: UNIQUE WELL ID
~Curve Information Block
DEPT.FT            0 000 00 00: Depth
DCAL.in                       : CDL Caliper
RHOB.g/cc                     : CDL Bulk Density
RHOC.g/cc                     : CDL Density Correction
DPOR.pu                       : CDL Density Porosity
NPOR.pu                       : Neutron Porosity
GR.GAPI                       : Gamma Ray
~Parameter Information Block
~A  Depth       DCAL        RHOB        RHOC        DPOR        NPOR         GR     
# ...
  1699.8000      7.7639      2.5149      0.0221      8.1881     18.6911   -999.2500
  1699.9000      7.7639      2.5018     -0.0367      8.9810     18.1100   -999.2500
  1700.0000      7.7634      2.5150      0.0318      8.1835     17.5582   -999.2500
  1700.1000      7.7634      2.5306      0.0589      7.2359     17.3841   -999.2500
  1700.2000      7.7634      2.5257      0.0765      7.5308     17.6079   -999.2500
  1700.3000      7.7561      2.5048      0.0387      8.8020     18.0202   -999.2500
  1700.4000      7.7561      2.5009     -0.0214      9.0351     18.7622   -999.2500
  1700.5000      7.7523      2.5300      0.0964      7.2712     19.9353   -999.2500
  1700.6000      7.7523      2.5638      0.0636      5.2248     20.8373   -999.2500
  1700.7000      7.7523      2.5724      0.0939      4.7033     20.8593   -999.2500
  1700.8000      7.7524      2.5569      0.0552      5.6409     20.7433   -999.2500
  1700.9000      7.7524      2.5375      0.0491      6.8202     22.6295   -999.2500
  1701.0000      7.7522      2.5302      0.0223      7.2623     29.3224   -999.2500
  1701.1000      7.7522      2.5430      0.0574      6.4853     39.6620   -999.2500
  1701.2000      7.7522      2.5688      0.1059      4.9207     47.1704   -999.2500
  1701.3000      7.7537      2.5873      0.1186      3.8030     49.9205   -999.2500
  1701.4000      7.7537      2.5865      0.0994      3.8515     50.4640   -999.2500
  1701.5000      7.7586      2.5777      0.0645      4.3840     50.5218   -999.2500
  1701.6000      7.7586      2.5879      0.0446      3.7665     50.5250   -999.2500
  1701.7000      7.7586      2.6253      0.0969      1.4965   -999.2500   -999.2500
  1701.8000      7.7635      2.6617      0.1298     -0.7094   -999.2500   -999.2500
  1701.9000      7.7635      2.6683      0.1383     -1.1082   -999.2500   -999.2500
  1702.0000      7.7660      2.6446      0.1206      0.3253   -999.2500   -999.2500
  1702.1000      7.7660      2.6106      0.0669      2.3906   -999.2500   -999.2500
  1702.2000      7.7660      2.5834      0.1128      4.0384   -999.2500   -999.2500
  1702.3000      7.7655      2.5659      0.0687      5.0944   -999.2500   -999.2500
  1702.4000      7.7655      2.5526      0.0560      5.9016   -999.2500   -999.2500
  1702.5000      7.7589      2.5399      0.0569      6.6697   -999.2500   -999.2500
  1702.6000      7.7589      2.5354      0.0642      6.9458   -999.2500   -999.2500
  1702.7000      7.7589      2.5444      0.0439      6.4001   -999.2500   -999.2500
  1702.8000      7.7521      2.5592      0.0795      5.5020   -999.2500   -999.2500
  1702.9000      7.7521      2.5654      0.0889      5.1243   -999.2500   -999.2500
  1703.0000      7.7503      2.5582      0.0623      5.5640   -999.2500   -999.2500
  1703.1000      7.7503      2.5483      0.0806      6.1618   -999.2500   -999.2500
  1703.2000      7.7503      2.5485      0.0551      6.1514   -999.2500   -999.2500
  1703.3000      7.7517      2.5622      0.0724      5.3187   -999.2500   -999.2500
  1703.4000      7.7517      2.5823      0.1524      4.1059   -999.2500   -999.2500
  1703.5000      7.7528      2.5930      0.1641      3.4567   -999.2500   -999.2500
  1703.6000      7.7528      2.5914      0.0873      3.5544   -999.2500   -999.2500
  1703.7000      7.7528      2.5917      0.0679      3.5353   -999.2500   -999.2500
  1703.8000      7.7544      2.6041      0.0475      2.7826   -999.2500   -999.2500
  1703.9000      7.7544      2.6193      0.1073      1.8607   -999.2500   -999.2500
  1704.0000      7.7584      2.6173      0.1207      1.9809   -999.2500   -999.2500
  1704.1000      7.7584      2.5997      0.1010      3.0492   -999.2500   -999.2500
  1704.2000      7.7584      2.5849      0.0785      3.9464   -999.2500   -999.2500
  1704.3000      7.7651      2.5784      0.0678      4.3401   -999.2500   -999.2500
  1704.4000      7.7651      2.5768      0.0825      4.4393   -999.2500   -999.2500
  1704.5000      7.7719      2.5782      0.0531      4.3519   -999.2500   -999.2500
  1704.6000      7.7719      2.5812      0.0466      4.1681   -999.2500   -999.2500
  1704.7000      7.7719      2.5806      0.1084      4.2067   -999.2500   -999.2500
  1704.8000      7.7735      2.5703      0.0774      4.8277   -999.2500   -999.2500
  1704.9000      7.7735      2.5624      0.0691      5.3077   -999.2500   -999.2500
  1705.0000      7.7694      2.5767      0.0849      4.4413   -999.2500   -999.2500
  1705.1000      7.7694      2.6038      0.0960      2.8006   -999.2500   -999.2500
  1705.2000      7.7694      2.6044      0.1333      2.7619   -999.2500   -999.2500
  1705.3000      7.7606      2.5642      0.0826      5.1971   -999.2500   -999.2500
  1705.4000      7.7606      2.5220      0.0395      7.7594   -999.2500   -999.2500
  1705.5000      7.7497      2.5105      0.0539      8.4530   -999.2500   -999.2500
  1705.6000      7.7497      2.5174      0.0680      8.0358   -999.2500   -999.2500
  1705.7000      7.7497      2.5224      0.0992      7.7360   -999.2500   -999.2500
  1705.8000      7.7407      2.5316      0.0294      7.1756   -999.2500   -999.2500
  1705.9000      7.7407      2.5493      0.1549      6.1022   -999.2500   -999.2500
  1706.0000      7.7382      2.5586      0.1289      5.5395   -999.2500   -999.2500
  1706.1000      7.7382      2.5587      0.1156      5.5335   -999.2500   -999.2500
  1706.2000      7.7382      2.5634      0.1244      5.2463   -999.2500   -999.2500
  1706.3000      7.7437      2.5751      0.1121      4.5368   -999.2500   -999.2500
  1706.4000      7.7437      2.5883      0.1483      3.7364   -999.2500   -999.2500
  1706.5000      7.7434      2.5969      0.1463      3.2187   -999.2500   -999.2500
  1706.6000      7.7434      2.5967      0.1174      3.2327   -999.2500   -999.2500
  1706.7000      7.7434      2.5927      0.0960      3.4724   -999.2500   -999.2500
  1706.8000      7.7345      2.5937      0.1185      3.4131   -999.2500   -999.2500
  1706.9000      7.7345      2.5987      0.0620      3.1073   -999.2500   -999.2500
  1707.0000      7.7306      2.5979      0.1215      3.1553   -999.2500   -999.2500
  1707.1000      7.7306      2.5778      0.1094      4.3766   -999.2500   -999.2500
  1707.2000      7.7306      2.5425      0.0496      6.5169   -999.2500   -999.2500
  1707.3000      7.7275      2.5132      0.0497      8.2898   -999.2500   -999.2500
  1707.4000      7.7275      2.4955      0.0239      9.3652   -999.2500   -999.2500
  1707.5000      7.6956      2.4787      0.0585     10.3816   -999.2500   -999.2500
  1707.6000      7.6956      2.4575      0.0421     11.6646   -999.2500   -999.2500
  1707.7000      7.6956      2.4402      0.0136     12.7150   -999.2500   -999.2500
  1707.8000      7.6312      2.4381      0.0144     12.8446   -999.2500   -999.2500
  1707.9000      7.6312      2.4559      0.0339     11.7653   -999.2500   -999.2500
  1708.0000      7.5844      2.4945      0.0728      9.4224   -999.2500   -999.2500
  1708.1000      7.5844      2.5516      0.0969      5.9638   -999.2500   -999.2500
  1708.2000      7.5844      2.6134      0.1406      2.2171   -999.2500   -999.2500
  1708.3000      7.5737      2.6540      0.1705     -0.2441   -999.2500   -999.2500
  1708.4000      7.5737      2.6731      0.1215     -1.4016   -999.2500   -999.2500
  1708.5000      7.5478      2.7158      0.1056     -3.9863   -999.2500   -999.2500
  1708.6000      7.5478      2.6949      0.1055     -2.7188   -999.2500   -999.2500
  1708.7000      7.5478      2.2262      0.6265     25.6822   -999.2500   -999.2500
  1708.8000      7.1851      1.2562      0.0500     84.4710   -999.2500   -999.2500
  1708.9000      7.1851      0.4248      0.0500    134.8634   -999.2500   -999.2500
  1709.0000      5.5793      0.0805   -999.2500    155.7244   -999.2500   -999.2500
  1709.1000      5.5793      0.0083   -999.2500    160.1032   -999.2500   -999.2500
  1709.2000      5.5793      0.0005   -999.2500    160.5788   -999.2500   -999.2500
  1709.3000      2.9540      0.0000   -999.2500    160.6061   -999.2500   -999.2500
