~Version Information
VERS.                      2.0: CWLS Log ASCII Standard - VERSION 2.0
WRAP.                       NO: One line per depth step
~Well Information Block
STRT.FT               -12.5000: 
STOP.FT              2742.5000: 
STEP.FT                 0.2500: 
NULL.                -999.2500: 
COMP.          Pioneer Natural Resources: COMPANY
WELL.            Rangely 22-28: WELL
FLD.           Purgatorie River: FIELD
LOC.           720' FSL & 1036' FEL--: LOCATION
PROV.                       CO: PROVINCE
CNTY.               Las Animas: COUNTRY
SRVC.                         : SERVICE COMPANY
DATE.          Wed Nov 10 08:59:10 2004: LOG DATE
UWI.                          : UNIQUE WELL ID
~Curve Information Block
DEPT.FT            0 000 00 00: Depth
GR.GAPI                       : Gamma Ray
CCL.                          : Casing Collar Locator
TT3.usec                      : CBL 3' Travel Time
AMP3.mV                       : CBL 3' Amplitude
~Parameter Information Block
~A  Depth        GR         CCL         TT3         AMP3    
# ...
  2701.0000     78.1245      0.0000    624.4864      2.1027
  2701.2500     79.1639      0.0000    624.8531      2.1374
  2701.5000     79.4974      0.0000    625.3720      2.1994
  2701.7500     80.5662      0.0000    625.0587      2.2806
  2702.0000     82.4213      0.0000    621.5000      2.3828
  2702.2500     84.0637      0.0000    610.5539      2.5112
  2702.5000     85.1387      0.0000    587.9871      2.6648
  2702.7500     86.0741      0.0000    553.2111      2.8348
  2703.0000     86.9761      0.0000    512.0209      3.0113
  2703.2500     87.3666      0.0000    474.6688      3.1839
  2703.5000     86.7611      0.0000    450.4337      3.3355
  2703.7500     84.9617      0.0000    443.8936      3.4426
  2704.0000     82.0746      0.0000    455.0845      3.4929
  2704.2500     78.6558      0.0000    480.1831      3.5090
  2704.5000     75.5880      0.0000    510.1797      3.5426
  2704.7500     73.5044      0.0000    531.4342      3.6296
  2705.0000     72.4243      0.0000    532.7762      3.7555
  2705.2500     72.0636      0.0000    514.0531      3.8820
  2705.5000     72.3209      0.0000    485.6145      3.9912
  2705.7500     73.2107      0.0000    458.9655      4.0868
  2706.0000     74.4837      0.0000    439.8364      4.1669
  2706.2500     75.8356      0.0000    429.7639      4.2183
  2706.5000     77.5635      2.0000    431.1354      4.2351
  2706.7500     80.5082      0.0000    448.9763      4.2363
  2707.0000     85.1367      0.0000    487.1298      4.2653
  2707.2500     90.9481      0.0000    540.7427      4.3595
  2707.5000     96.7921      0.0000    592.1837      4.5045
  2707.7500    101.5298      0.0000    618.8341      4.6327
  2708.0000    104.3814      0.0000    609.6263      4.6923
  2708.2500    104.8649      0.0000    573.7931      4.7026
  2708.5000    102.7464      0.0000    532.1565      4.7209
  2708.7500     98.3799      0.0000    501.3561      4.7750
  2709.0000     92.9633      0.0000    486.3030      4.8504
  2709.2500     87.8738      0.0000    483.1273      4.9207
  2709.5000     83.5163      0.0000    485.4647      4.9698
  2709.7500     79.2365      0.0000    488.6333      4.9910
  2710.0000     74.7178      0.0000    490.6851      4.9824
  2710.2500     71.1377      0.0000    491.5172      4.9513
  2710.5000     70.3952      0.0000    491.6301      4.9153
  2710.7500     73.1708      0.0000    491.4863      4.8914
  2711.0000     78.0796      0.0000    491.3858      4.8831
  2711.2500     82.8191      0.0000    491.4955      4.8834
  2711.5000     85.8437      0.0000    491.8271      4.8845
  2711.7500     86.9111      0.0000    492.1368      4.8785
  2712.0000     86.5306      0.0000    491.8058      4.8561
  2712.2500     85.2389      0.0000    489.8820      4.8152
  2712.5000     83.3341      0.0000    485.5171      4.7700
  2712.7500     81.1956      0.0000    478.7357      4.7420
  2713.0000     79.6942      0.0000    470.8437      4.7382
  2713.2500     79.9201      0.0000    463.7946      4.7433
  2713.5000     82.1388      0.0000    458.9487      4.7347
  2713.7500     85.0404      0.0000    456.4286      4.7065
  2714.0000     86.4620      0.0000    455.5440      4.6764
  2714.2500     85.2257      0.0000    455.6112      4.6701
  2714.5000     82.3375      0.0000    456.4563      4.7010
  2714.7500     80.3360      0.0000    458.4021      4.7635
  2715.0000     81.3761      0.0000    461.8581      4.8381
  2715.2500     85.7265      0.0000    466.8271      4.8997
  2715.5000     91.6933      0.0000    472.7809      4.9275
  2715.7500     96.7452      0.0000    478.9608      4.9135
  2716.0000     99.0103      0.0000    484.6271      4.8627
  2716.2500     98.1194      0.0000    489.0756      4.7888
  2716.5000     94.7655      0.0000    491.7066      4.7109
  2716.7500     89.6634      0.0000    492.1127      4.6505
  2717.0000     83.3860      0.0000    489.9966      4.6239
  2717.2500     77.2660      0.0000    485.2934      4.6329
  2717.5000     73.6788      0.0000    478.8461      4.6649
  2717.7500     74.5201      0.0000    473.0605      4.7049
  2718.0000     79.3393      0.0000    471.4177      4.7467
  2718.2500     85.5996      0.0000    476.9244      4.7903
  2718.5000     90.8874      0.0000    490.4342      4.8323
  2718.7500     94.4537      0.0000    509.1875      4.8622
  2719.0000     96.8351      0.0000    526.2700      4.8689
  2719.2500     98.8051      0.0000    533.2640      4.8509
  2719.5000    100.8280      0.0000    526.0261      4.8210
  2719.7500    102.9008      0.0000    507.9763      4.7968
  2720.0000    104.5711      0.0000    486.8310      4.7869
  2720.2500    105.3474      0.0000    468.8941      4.7867
  2720.5000    105.3106      0.0000    456.7888      4.7884
  2720.7500    105.3297      0.0000    450.6999      4.7927
  2721.0000    106.7341      0.0000    450.0448      4.8080
  2721.2500    110.6018      0.0000    454.0344      4.8374
  2721.5000    116.6658      0.0000    461.3798      4.8706
  2721.7500    122.6335      0.0000    470.2424      4.8923
  2722.0000    125.2665      0.0000    479.3169      4.8982
  2722.2500    122.9264      0.0000    489.6918      4.8996
  2722.5000    117.0697      0.0000    505.4486      4.9102
  2722.7500    110.9234      0.0000    531.1190      4.9349
  2723.0000    106.7534      0.0000    566.8124      4.9655
  2723.2500    104.7201      0.0000    605.4195      4.9844
  2723.5000    104.1391      0.0000    636.2028      4.9729
  2723.7500    105.0258      0.0000    652.7793      4.9231
  2724.0000    107.9244      0.0000    657.8521      4.8448
  2724.2500    112.8598      0.0000    659.8409      4.7599
  2724.5000    119.4068      0.0000    664.9817      4.6892
  2724.7500    127.6185      0.0000    672.8740      4.6379
  2725.0000    137.7737      0.0000    678.6946      4.5927
  2725.2500    148.9340      0.0000    677.9239      4.5342
  2725.5000    158.6489      0.0000    668.9804      4.4538
  2725.7500    164.7814      0.0000    653.7095      4.3562
  2726.0000    167.4164      0.0000    636.6953      4.2530
  2726.2500    168.5058      0.0000    622.9143      4.1617
  2726.5000    169.4634      0.0000    614.6285      4.1040
  2726.7500    169.3661      0.0000    610.5952      4.0911
  2727.0000    165.8003      0.0000    608.4426      4.1097
  2727.2500    157.4278      0.0000    607.1864      4.1245
  2727.5000    145.4859      0.0000    607.2854      4.0972
  2727.7500    132.8069      0.0000    608.9896      4.0102
  2728.0000    121.6506      0.0000    611.2645      3.8800
  2728.2500    112.4680      0.0000    612.3289      3.7478
  2728.5000    104.3805      0.0000    611.0534      3.6464
  2728.7500     96.6300      0.0000    607.2060      3.5678
  2729.0000     89.6489      0.0000    599.3311      3.4558
  2729.2500     84.8834      0.0000    581.3478      3.2191
  2729.5000     83.8178      0.0000    541.5458      2.7450
  2729.7500     87.2025      0.0000    468.3720      1.9402
  2730.0000     94.5454      0.0000    362.1391      0.8198
  2730.2500    103.7204      0.0000    241.7373     -0.4293
  2730.5000    111.5183      0.0000    135.4405     -1.5276
  2730.7500    115.3222      0.0000     62.3654     -2.2834
  2731.0000    114.3417      0.0000     23.2457     -2.6891
  2731.2500    109.4454      0.0000      6.9373     -2.8587
  2731.5000    102.4453      0.0000      1.6427     -2.9139
  2731.7500     95.5799      0.0000      0.3040     -2.9278
  2732.0000     90.8081      0.0000      0.0404     -2.9306
  2732.2500     88.8165      0.0000   -999.2500   -999.2500
  2732.5000     88.6689      0.0000   -999.2500   -999.2500
  2732.7500     88.6561      0.0000   -999.2500   -999.2500
  2733.0000     87.5473      0.0000   -999.2500   -999.2500
  2733.2500     85.0690      0.0000   -999.2500   -999.2500
  2733.5000     81.5678      0.0000   -999.2500   -999.2500
  2733.7500     77.8179      0.0000   -999.2500   -999.2500
  2734.0000     75.2117      0.0000   -999.2500   -999.2500
  2734.2500     75.3414      0.0000   -999.2500   -999.2500
