~Version Information
VERS.                      2.0: CWLS Log ASCII Standard - VERSION 2.0
WRAP.                       NO: One line per depth step
~Well Information Block
STRT.FT               275.0000: 
STOP.FT              1682.2000: 
STEP.FT                 0.1000: 
NULL.                -999.2500: 
COMP.          Pioneer Natural Resources: COMPANY
WELL.               Elmo 14-21: WELL
FLD.           Purgatoire River: FIELD
LOC.           623' FSL & 450' FWL----: LOCATION
PROV.                 Colorado: PROVINCE
CNTY.               Las Animas: COUNTRY
SRVC.                Patterson: SERVICE COMPANY
DATE.          Wed May 18 08:17:30 2005: LOG DATE
UWI.           05 071 08360 00: UNIQUE WELL ID
~Curve Information Block
DEPT.FT            0 000 00 00: Depth
DCAL.in                       : CDL Caliper
RHOB.g/cc                     : CDL Bulk Density
RHOC.g/cc                     : CDL Density Correction
DPOR.pu                       : CDL Density Porosity
NPOR.pu                       : Neutron Porosity
GR.GAPI                       : Gamma Ray
~Parameter Information Block
~A  Depth       DCAL        RHOB        RHOC        DPOR        NPOR         GR     
# ...
   822.2000      8.2871      2.5783      0.0892      4.3439     24.4281    125.9346
   822.3000      8.3309      2.5389      0.0561      6.7361     24.0694    131.9706
   822.4000      8.3309      2.4953     -0.0056      9.3775     23.5062    129.0211
   822.5000      8.3666      2.4783      0.0130     10.4077     23.2446    125.1981
   822.6000      8.3666      2.4890      0.0551      9.7564     23.3612    128.8444
   822.7000      8.3666      2.5015      0.0648      8.9996     23.1610    137.6778
   822.8000      8.3905      2.4896      0.0605      9.7207     22.6328    147.0915
   822.9000      8.3905      2.4572     -0.0136     11.6847     22.4617    152.3985
   823.0000      8.3988      2.4293      0.0113     13.3728     22.5420    151.5022
   823.1000      8.3988      2.4172     -0.0098     14.1061     22.4023    146.8656
   823.2000      8.3988      2.4165      0.0142     14.1524     22.0711    139.6764
   823.3000      8.3970      2.4192      0.0129     13.9859     21.6597    130.6432
   823.4000      8.3970      2.4200      0.0183     13.9410     21.4033    125.7951
   823.5000      8.3961      2.4190      0.0420     14.0020     21.3851    130.7692
   823.6000      8.3961      2.4171      0.0661     14.1175     21.3319    141.0186
   823.7000      8.3961      2.4189      0.0273     14.0072     21.3345    147.1160
   823.8000      8.3985      2.4333      0.0478     13.1314     21.5781    148.1585
   823.9000      8.3985      2.4474      0.0969     12.2805     21.7336    150.3132
   824.0000      8.4021      2.4345      0.0280     13.0610     21.7469    150.3271
   824.1000      8.4021      2.3890      0.0154     15.8183     21.9319    143.0445
   824.2000      8.4021      2.3186     -0.0312     20.0856     21.8680    134.9044
   824.3000      8.4099      2.2300     -0.0210     25.4565     21.0705    130.9790
   824.4000      8.4099      2.1298     -0.0390     31.5287     19.6431    130.3971
   824.5000      8.4203      2.0246     -0.0523     37.9038     17.7836    131.5274
   824.6000      8.4203      1.9251     -0.1229     43.9356     15.9184    129.8640
   824.7000      8.4203      1.8435     -0.0942     48.8793     14.3453    119.3541
   824.8000      8.4236      1.7731     -0.0667     53.1472     12.8094    102.4669
   824.9000      8.4236      1.7047     -0.1033     57.2934     11.2553     88.5424
   825.0000      8.4115      1.6607     -0.1043     59.9562      9.9588     81.3411
   825.1000      8.4115      1.6781     -0.0611     58.9026      8.9114     79.3552
   825.2000      8.4115      1.7672      0.0682     53.5056      7.9901     80.2132
   825.3000      8.3690      1.9040      0.1593     45.2121      7.1963     80.6947
   825.4000      8.3690      2.0549      0.2627     36.0680      6.7009     79.8274
   825.5000      8.3067      2.1904      0.3221     27.8530      6.7104     80.1843
   825.6000      8.3067      2.2950      0.3212     21.5130      7.1538     82.8463
   825.7000      8.3067      2.3802      0.2677     16.3498      7.7260     84.1485
   825.8000      8.2728      2.4679      0.2955     11.0355      8.3027     80.7207
   825.9000      8.2728      2.5487      0.3538      6.1408      9.0592     73.1722
   826.0000      8.2671      2.5870      0.2852      3.8174     10.2551     66.0217
   826.1000      8.2671      2.5724      0.1798      4.7016     11.7484     64.8614
   826.2000      8.2671      2.5369      0.0409      6.8556     12.9040     68.4916
   826.3000      8.2658      2.5177     -0.0025      8.0187     13.5691     69.3033
   826.4000      8.2658      2.5238      0.0391      7.6472     14.2103     64.7052
   826.5000      8.2642      2.5426      0.0265      6.5103     14.6992     59.9918
   826.6000      8.2642      2.5572      0.0643      5.6269     14.8510     59.0656
   826.7000      8.2642      2.5577      0.0511      5.5951     15.1744     60.3872
   826.8000      8.2642      2.5497      0.0405      6.0797     15.9356     62.4238
   826.9000      8.2642      2.5465      0.0270      6.2706     16.8117     65.7213
   827.0000      8.2655      2.5564      0.0394      5.6717     17.6219     68.7104
   827.1000      8.2655      2.5720      0.0606      4.7259     18.4861     69.0856
   827.2000      8.2655      2.5769      0.0383      4.4275     19.1489     69.0018
   827.3000      8.2659      2.5720      0.0358      4.7288     19.2672     71.8299
   827.4000      8.2659      2.5707      0.0469      4.8043     19.2256     76.5724
   827.5000      8.2643      2.5763      0.0478      4.4670     19.4794     80.5857
   827.6000      8.2643      2.5759      0.0872      4.4932     19.9773     84.4171
   827.7000      8.2643      2.5604      0.0359      5.4287     20.7167     88.3589
   827.8000      8.2641      2.5405     -0.0044      6.6380     21.7820     90.9174
   827.9000      8.2641      2.5246      0.0462      7.5996     22.7031     91.8182
   828.0000      8.2686      2.5122      0.0017      8.3531     23.0659     92.7141
   828.1000      8.2686      2.5102      0.0096      8.4711     23.1876     94.4701
   828.2000      8.2686      2.5245      0.0481      7.6043     23.3779     97.6092
   828.3000      8.2788      2.5438      0.0838      6.4359     23.5816    103.8349
   828.4000      8.2788      2.5565      0.0592      5.6690     23.7877    112.6870
   828.5000      8.2909      2.5653      0.0696      5.1327     23.7268    120.7817
   828.6000      8.2909      2.5694      0.0748      4.8834     23.1411    127.2488
   828.7000      8.2909      2.5549      0.1045      5.7647     22.5589    133.5795
   828.8000      8.2976      2.5233      0.0254      7.6802     22.3164    137.7210
   828.9000      8.2976      2.5003      0.0279      9.0708     21.9681    137.3868
   829.0000      8.2993      2.4990      0.0159      9.1541     21.6310    136.2368
   829.1000      8.2993      2.5056      0.0599      8.7489     21.8452    137.7896
   829.2000      8.2993      2.5036      0.0598      8.8720     22.3838    138.4364
   829.3000      8.2988      2.4981      0.0586      9.2044     22.8447    135.1175
   829.4000      8.2988      2.5036      0.0599      8.8703     23.2714    132.3556
   829.5000      8.2986      2.5144      0.0721      8.2186     23.7122    133.6599
   829.6000      8.2986      2.5107      0.0834      8.4402     23.9614    138.3412
   829.7000      8.2986      2.4965     -0.0035      9.3036     23.7254    145.1733
   829.8000      8.3009      2.4976      0.0335      9.2359     23.0666    150.7212
   829.9000      8.3009      2.5194      0.0302      7.9146     22.3815    151.8202
   830.0000      8.3063      2.5432      0.0716      6.4754     21.9977    150.6694
   830.1000      8.3063      2.5503      0.0663      6.0434     22.1436    151.8844
   830.2000      8.3063      2.5381      0.0717      6.7830     22.6846    154.5384
   830.3000      8.3111      2.5174      0.0282      8.0381     23.1405    151.5099
   830.4000      8.3111      2.5046      0.0228      8.8144     23.0990    143.9653
   830.5000      8.3115      2.5095      0.0424      8.5173     22.7150    142.1419
   830.6000      8.3115      2.5218      0.0512      7.7721     22.4994    147.3997
   830.7000      8.3115      2.5292      0.0481      7.3230     22.3365    148.7985
   830.8000      8.3102      2.5297      0.0702      7.2886     21.9108    140.7112
   830.9000      8.3102      2.5283      0.0353      7.3778     21.4247    131.3662
   831.0000      8.3100      2.5424      0.0399      6.5184     21.2038    126.6034
   831.1000      8.3100      2.5822      0.0930      4.1106     21.3988    124.6700
   831.2000      8.3100      2.6294      0.0843      1.2506     22.1493    124.2875
   831.3000      8.3090      2.6601      0.0904     -0.6149     23.2665    122.7096
   831.4000      8.3090      2.6756      0.0568     -1.5544     24.3405    115.7807
   831.5000      8.3066      2.6930      0.1138     -2.6041     25.2354    106.8978
   831.6000      8.3066      2.7150      0.1056     -3.9413     25.5498    103.8413
   831.7000      8.3066      2.7375      0.0750     -5.3044     25.0455    106.4388
