~Version Information
VERS.                      2.0: CWLS Log ASCII Standard - VERSION 2.0
WRAP.                       NO: One line per depth step
~Well Information Block
STRT.FT               998.8000: 
STOP.FT              2235.5000: 
STEP.FT                 0.1000: 
NULL.                -999.2500: 
COMP.          Petrogulf Corporation: COMPANY
WELL.          Latiluppe 8-13R: WELL
FLD.           Purgatorie River: FIELD
LOC.           1495' FSL & 946' FWL: LOCATION
CNTY.               Las Animas: COUNTY
SRVC.                         : SERVICE COMPANY
DATE.          Wed Apr 21 10:46:16 2004: LOG DATE
UWI.           05 071 08035 00: UNIQUE WELL ID
STAT.                 Colorado: STATE
~Curve Information Block
DEPT.FT            0 000 00 00: Depth
DCAL.in                       : CDL Caliper
RHOB.g/cc                     : CDL Bulk Density
RHOC.g/cc                     : CDL Density Correction
DPOR.pu                       : CDL Density Porosity
NPOR.pu                       : Neutron Porosity
GR.GAPI                       : Gamma Ray
~Parameter Information Block
~A  Depth       DCAL        RHOB        RHOC        DPOR        NPOR         GR     
# ...
  1085.2000      8.0667      2.4478      0.0515     12.2539     23.1844    177.8051
  1085.3000      8.3352      2.4188      0.0192     14.0119     24.0359    186.7060
  1085.4000      8.3352      2.4085      0.0662     14.6341     24.6779    189.9649
  1085.5000      9.1591      2.4059      0.0719     14.7910     24.8073    188.6251
  1085.6000      9.1591      2.4108      0.0873     14.4977     24.6074    188.9154
  1085.7000      9.1591      2.4143      0.1492     14.2873     24.3110    189.2454
  1085.8000      9.4928      2.3929      0.2026     15.5834     24.1216    189.2532
  1085.9000      9.4928      2.3465      0.1489     18.3935     24.2378    191.8285
  1086.0000      9.5199      2.2934      0.1827     21.6141     24.2961    195.2234
  1086.1000      9.5199      2.2211      0.1628     25.9944     23.8831    196.1964
  1086.2000      9.5199      2.1184      0.0215     32.2152     23.0314    194.6877
  1086.3000      9.4936      2.0147     -0.0198     38.5035     21.7461    189.6636
  1086.4000      9.4936      1.9285     -0.0115     43.7289     20.0463    180.9590
  1086.5000      9.4898      1.8453     -0.0507     48.7679     18.2231    173.8961
  1086.6000      9.4898      1.7465     -0.0274     54.7549     16.6655    171.2217
  1086.7000      9.4898      1.6280     -0.0830     61.9375     15.2477    167.2966
  1086.8000      9.4873      1.5031     -0.0505     69.5104     13.4122    158.3957
  1086.9000      9.4873      1.3803     -0.0227     76.9530     11.1916    148.3100
  1087.0000      9.4625      1.2566      0.0159     84.4455      9.2877    140.7476
  1087.1000      9.4625      1.1370     -0.0043     91.6990      8.1996    134.2021
  1087.2000      9.4625      1.0412     -0.0751     97.5035      7.8421    129.3146
  1087.3000      9.3393      1.0003     -0.1637     99.9832      7.8070    130.8082
  1087.4000      9.3393      1.0459     -0.1297     97.2207      7.9295    133.4070
  1087.5000      9.5485      1.1747      0.0474     89.4131      8.3298    130.4626
  1087.6000      9.5485      1.3288      0.3280     80.0754      8.9641    127.3015
  1087.7000      9.5485      1.4468      0.3760     72.9204      9.6767    126.8015
  1087.8000      9.5573      1.5223      0.3860     68.3480     10.5155    125.8703
  1087.9000      9.5573      1.5858      0.3647     64.4973     11.4900    124.8870
  1088.0000      9.3862      1.6650      0.3362     59.6944     12.3357    125.6733
  1088.1000      9.3862      1.7685      0.3135     53.4248     12.8050    128.7245
  1088.2000      9.3862      1.8792      0.3410     46.7172     12.9526    133.2611
  1088.3000      9.3524      1.9674      0.2957     41.3694     13.1704    137.6798
  1088.4000      9.3524      2.0236      0.2327     37.9608     13.8756    141.1935
  1088.5000      9.3472      2.0657      0.2281     35.4107     14.9881    144.3038
  1088.6000      9.3472      2.1125      0.2215     32.5746     16.1293    146.1313
  1088.7000      9.3472      2.1613      0.2786     29.6209     17.2641    145.8053
  1088.8000      9.3516      2.1952      0.2290     27.5642     18.5821    145.3481
  1088.9000      9.3516      2.2096      0.1550     26.6883     19.9029    146.9716
  1089.0000      9.3469      2.2099      0.1487     26.6742     20.8812    149.4037
  1089.1000      9.3469      2.1971      0.1065     27.4503     21.5962    149.4234
  1089.2000      9.3469      2.1847      0.0499     28.1987     22.2263    149.5494
  1089.3000      9.3482      2.2005      0.0563     27.2414     22.7438    152.1608
  1089.4000      9.3482      2.2499      0.1520     24.2476     23.2376    155.8259
  1089.5000      9.3504      2.3092      0.2310     20.6572     24.0365    162.0593
  1089.6000      9.3504      2.3600      0.2483     17.5767     25.1266    170.1382
  1089.7000      9.3504      2.3996      0.2395     15.1779     26.0400    175.6244
  1089.8000      9.3546      2.4268      0.2126     13.5261     26.5071    175.1301
  1089.9000      9.3546      2.4408      0.2142     12.6816     26.8789    167.3950
  1090.0000      9.3521      2.4388      0.2217     12.7997     27.4081    155.7164
  1090.1000      9.3521      2.4165      0.1781     14.1493     27.6825    148.3048
  1090.2000      9.3521      2.3823      0.1345     16.2269     27.4133    149.6655
  1090.3000      9.3513      2.3588      0.1094     17.6490     26.9425    152.4694
  1090.4000      9.3513      2.3586      0.1187     17.6610     26.7059    150.1280
  1090.5000      9.3457      2.3661      0.1962     17.2078     26.7886    146.1218
  1090.6000      9.3457      2.3580      0.1664     17.6960     26.8484    144.3538
  1090.7000      9.3457      2.3292      0.1601     19.4430     26.7118    142.3900
  1090.8000      9.3536      2.2862      0.1555     22.0492     26.5081    137.4599
  1090.9000      9.3536      2.2465      0.0968     24.4522     26.2988    133.2316
  1091.0000      9.3435      2.2269      0.1638     25.6448     26.0375    134.8393
  1091.1000      9.3435      2.2192      0.1769     26.1075     25.7492    139.7918
  1091.2000      9.3435      2.2130      0.1803     26.4839     25.5658    141.4434
  1091.3000      9.3344      2.2140      0.1478     26.4217     25.3865    138.7768
  1091.4000      9.3344      2.2239      0.2220     25.8256     25.0243    136.8113
  1091.5000      9.3053      2.2276      0.2380     25.5985     24.6031    136.6229
  1091.6000      9.3053      2.2154      0.2328     26.3402     24.4650    133.2087
  1091.7000      9.3053      2.1961      0.2012     27.5073     24.6878    126.2853
  1091.8000      9.2946      2.1813      0.2238     28.4089     24.8161    122.1313
  1091.9000      9.2946      2.1669      0.2100     29.2767     24.4492    123.5957
  1092.0000      9.2555      2.1444      0.2267     30.6416     23.8752    128.3403
  1092.1000      9.2555      2.1166      0.2073     32.3297     23.6880    133.9387
  1092.2000      9.2555      2.0985      0.1892     33.4236     23.8657    136.9646
  1092.3000      9.1970      2.1053      0.2117     33.0099     23.9550    135.1669
  1092.4000      9.1970      2.1367      0.2302     31.1101     23.7911    131.9437
  1092.5000      9.1510      2.1725      0.3123     28.9406     23.5639    129.0979
  1092.6000      9.1510      2.1890      0.3184     27.9383     23.0162    125.3656
  1092.7000      9.1510      2.1857      0.2865     28.1417     21.7144    121.8618
  1092.8000      9.1142      2.1816      0.2796     28.3884     19.9360    122.5636
  1092.9000      9.1142      2.1858      0.3027     28.1359     18.2478    127.9009
  1093.0000      9.0491      2.1898      0.2924     27.8895     16.9832    132.8851
  1093.1000      9.0491      2.1859      0.2431     28.1283     16.1600    134.0625
  1093.2000      9.0491      2.1759      0.2252     28.7334     15.6358    131.6541
  1093.3000      8.9534      2.1692      0.2144     29.1391     15.5371    130.4291
  1093.4000      8.9534      2.1757      0.2467     28.7435     16.2464    136.2321
  1093.5000      8.8862      2.1970      0.2569     27.4533     17.7000    144.2041
  1093.6000      8.8862      2.2300      0.2531     25.4538     19.4904    145.8899
  1093.7000      8.8862      2.2753      0.2193     22.7063     21.3047    142.0926
  1093.8000      8.8342      2.3330      0.2401     19.2147     22.8514    138.4221
  1093.9000      8.8342      2.3934      0.2712     15.5524     24.2189    137.4759
  1094.0000      8.8100      2.4425      0.2628     12.5739     25.7572    138.2959
  1094.1000      8.8100      2.4727      0.2379     10.7483     27.2318    137.8924
  1094.2000      8.8100      2.4863      0.2150      9.9202     28.0354    134.2892
  1094.3000      8.6017      2.4911      0.2198      9.6313     27.9937    133.3794
  1094.4000      8.6017      2.4869      0.1887      9.8847     27.4029    140.1266
  1094.5000      8.1353      2.4734      0.1426     10.7024     26.6479    146.7490
  1094.6000      8.1353      2.4634      0.0746     11.3080     26.0117    146.1942
  1094.7000      8.1353      2.4637      0.0625     11.2911     25.4747    143.4919
