~Version Information
VERS.                      2.0: CWLS Log ASCII Standard - VERSION 2.0
WRAP.                       NO: One line per depth step
~Well Information Block
STRT.FT                -5.7500: 
STOP.FT              1965.7500: 
STEP.FT                 0.2500: 
NULL.                -999.2500: 
COMP.          Pioneer Natural Resources: COMPANY
WELL.          Easton 12-30 Tr: WELL
FLD.           Purgatorie River: FIELD
LOC.           549' FWL & 2416' FNL--: LOCATION
PROV.                       CO: PROVINCE
CNTY.               Las Animas: COUNTRY
SRVC.          Patterson Wireline: SERVICE COMPANY
DATE.          Mon Jun 06 16:13:03 2005: LOG DATE
UWI.           05 071 08379 00: UNIQUE WELL ID
~Curve Information Block
DEPT.FT            0 000 00 00: Depth
CCL.                          : Casing Collar Locator
TT3.usec                      : CBL 3' Travel Time
AMP3.mV                       : CBL 3' Amplitude
GR.GAPI                       : Gamma Ray
~Parameter Information Block
~A  Depth       CCL         TT3         AMP3         GR     
# ...
   764.7500      0.0000    673.0372     13.4899    129.4128
   765.0000      0.0000    622.5220     13.8722    123.3375
   765.2500      0.0000    548.9844     14.3751    112.9483
   765.5000      0.0000    467.1276     14.9095    101.5869
   765.7500      0.0000    396.4954     15.3894     92.5668
   766.0000      0.0000    348.9580     15.7676     87.3868
   766.2500      0.0000    323.9352     16.0288     85.7010
   766.5000      0.0000    313.6287     16.1701     86.2748
   766.7500      0.0000    310.3258     16.2007     87.6058
   767.0000      0.0000    309.5363     16.1505     88.2373
   767.2500      0.0000    309.4455     16.0630     87.2739
   767.5000      0.0000    309.5129     15.9742     84.7398
   767.7500      0.0000    309.6118     15.9038     81.1338
   768.0000      0.0000    309.6989     15.8602     76.7397
   768.2500      0.0000    309.7511     15.8479     71.7420
   768.5000      0.0000    309.7574     15.8677     66.9022
   768.7500      0.0000    309.7267     15.9131     63.6358
   769.0000      0.0000    309.6748     15.9750     63.0900
   769.2500      0.0000    309.6071     16.0521     65.0413
   769.5000      0.0000    309.5191     16.1548     67.8134
   769.7500      0.0000    309.4124     16.2910     69.4440
   770.0000      0.0000    309.3069     16.4458     68.9912
   770.2500      0.0000    309.2335     16.5829     66.8239
   770.5000      0.0000    309.2115     16.6704     64.0607
   770.7500      0.0000    309.2363     16.7014     61.8530
   771.0000      0.0000    309.2838     16.6900     60.7124
   771.2500      0.0000    309.3255     16.6603     60.1468
   771.5000      0.0000    309.3394     16.6445     59.2409
   771.7500      0.0000    309.3158     16.6763     57.9567
   772.0000      0.0000    309.2922     16.7646     57.5332
   772.2500      0.0000    309.4203     16.8716     59.0845
   772.5000      0.0000    310.3105     16.9223     62.0687
   772.7500      0.0000    313.9135     16.8444     64.6305
   773.0000      0.0000    325.0228     16.6057     65.2824
   773.2500      0.0000    351.8713     16.2266     63.9103
   773.5000      0.0000    402.8622     15.7696     61.4762
   773.7500      0.0000    478.8473     15.3129     59.2949
   774.0000      0.0000    567.1987     14.9165     58.5258
   774.2500      0.0000    646.0551     14.5988     59.7551
   774.5000      0.0000    697.6380     14.3440     62.7183
   774.7500      0.0000    718.7748     14.1279     66.5809
   775.0000      0.0000    719.4310     13.9282     70.7424
   775.2500      0.0000    712.6979     13.7203     75.2595
   775.5000      0.0000    706.5859     13.4857     80.2974
   775.7500      0.0000    702.8784     13.2296     85.4784
   776.0000      0.0000    700.3313     12.9782     90.2630
   776.2500      0.0000    697.7391     12.7589     94.7651
   776.5000      0.0000    695.1459     12.5860     99.6647
   776.7500      0.0000    693.3266     12.4564    105.3668
   777.0000      0.0000    692.5921     12.3482    111.5637
   777.2500      0.0000    692.4061     12.2291    117.4735
   777.5000      0.0000    692.3668     12.0752    122.3208
   777.7500      0.0000    692.9382     11.8872    125.8301
   778.0000      0.0000    694.8388     11.6870    128.5186
   778.2500      0.0000    698.3660     11.4977    131.3333
   778.5000      0.0000    704.1152     11.3260    134.7298
   778.7500      0.0000    713.9406     11.1646    138.1368
   779.0000      0.0000    729.8331     11.0072    140.4359
   779.2500      0.0000    750.6984     10.8567    140.9099
   779.5000      0.0000    770.4330     10.7194    139.7617
   779.7500      0.0000    780.7288     10.5956    137.9684
   780.0000      0.0000    777.2458     10.4787    136.6880
   780.2500      0.0000    763.2668     10.3627    136.5172
   780.5000      0.0000    746.9062     10.2458    137.0356
   780.7500      0.0000    734.6056     10.1289    137.1198
   781.0000      0.0000    727.2989     10.0145    136.0484
   781.2500      0.0000    722.1930      9.9067    134.4215
   781.5000      0.0000    716.9728      9.8103    133.7594
   781.7500      0.0000    711.6686      9.7291    134.9661
   782.0000      0.0000    707.4097      9.6657    137.2748
   782.2500      0.0000    704.7397      9.6179    138.8675
   782.5000      0.0000    703.3876      9.5763    138.5396
   782.7500      0.0000    702.9990      9.5300    136.7492
   783.0000      0.0000    703.7577      9.4784    135.0395
   783.2500      0.0000    706.4868      9.4323    134.5674
   783.5000      0.0000    712.2072      9.3985    135.3484
   783.7500      0.0000    721.3710      9.3722    136.7696
   784.0000      0.0000    733.2303      9.3481    138.4015
   784.2500      0.0000    745.6736      9.3314    140.3470
   784.5000      0.0000    755.5842      9.3316    143.1086
   784.7500      0.0000    759.9845      9.3475    146.9319
   785.0000      0.0000    757.7012      9.3678    151.0337
   785.2500      0.0000    749.9100      9.3859    153.9257
   785.5000      0.0000    738.7236      9.4109    154.8184
   785.7500      0.0000    725.6733      9.4622    154.2201
   786.0000      0.0000    712.0630      9.5471    152.9733
   786.2500      0.0000    699.9430      9.6436    151.2463
   786.5000      0.0000    691.7401      9.7036    148.6776
   786.7500      0.0000    688.3063      9.6884    145.2362
   787.0000      0.0000    687.8782      9.6130    141.7361
   787.2500      0.0000    688.6956      9.5394    139.3183
   787.5000      0.0000    693.5356      9.5027    138.2962
   787.7500      0.0000    709.0974      9.4737    137.7701
   788.0000      0.0000    737.5411      9.4307    136.5246
   788.2500      0.0000    770.4519      9.4241    134.1494
   788.5000      0.0000    795.1048      9.5167    131.4207
   788.7500      0.0000    806.1297      9.6937    129.9505
   789.0000      2.0000    808.0602      9.8805    131.2482
   789.2500      0.0000    806.7930     10.0231    135.4622
   789.5000      0.0000    800.9542     10.1345    140.7112
   789.7500      0.0000    782.0000     10.2915    143.9104
   790.0000      0.0000    742.5861     10.5886    142.7972
   790.2500      0.0000    685.7159     11.0539    137.4746
   790.5000      0.0000    626.0585     11.6162    129.9272
   790.7500      0.0000    579.4868     12.2092    122.2156
   791.0000      0.0000    549.5011     12.8633    115.5273
   791.2500      0.0000    524.6511     13.6254    110.7008
   791.5000      0.0000    490.2087     14.4454    108.5880
   791.7500      0.0000    442.4093     15.2164    109.1319
   792.0000      0.0000    391.2619     15.8790    110.4904
   792.2500      0.0000    350.3377     16.4339    109.9720
   792.5000      0.0000    325.6480     16.8962    106.1164
   792.7500      0.0000    314.3022     17.2801     99.4298
   793.0000      0.0000    310.2729     17.6116     91.1727
   793.2500      0.0000    309.1151     17.9200     82.2051
   793.5000      0.0000    308.8003     18.2150     73.1258
   793.7500      0.0000    308.6805     18.4775     64.6260
   794.0000      0.0000    308.6454     18.6678     57.1388
   794.2500      0.0000    308.6769     18.7355     50.5553
   794.5000      0.0000    308.7850     18.6349     44.6846
   794.7500      0.0000    308.9666     18.3515     39.7799
   795.0000      0.0000    309.2059     17.9224     36.3220
   795.2500      0.0000    309.4800     17.4223     34.3816
   795.5000      0.0000    309.7563     16.9289     33.4953
   795.7500      0.0000    309.9817     16.5058     33.3839
   796.0000      0.0000    310.0900     16.2066     34.7966
   796.2500      0.0000    310.0403     16.0749     39.4167
   796.5000      0.0000    309.8477     16.1272     48.6553
   796.7500      0.0000    309.5740     16.3386     62.3171
   797.0000      0.0000    309.2923     16.6454     78.3570
   797.2500      0.0000    309.0591     16.9694     93.8398
   797.5000      0.0000    308.9023     17.2522    106.2695
   797.7500      0.0000    308.8193     17.4838    114.3639
   798.0000      0.0000    308.7827     17.6995    117.9590
