~Version Information
VERS.                      2.0: CWLS Log ASCII Standard - VERSION 2.0
WRAP.                       NO: One line per depth step
~Well Information Block
STRT.FT               866.0000: 
STOP.FT              2029.0000: 
STEP.FT                 0.2500: 
NULL.                -999.2500: 
COMP.          Petrogulf Corporation: COMPANY
WELL.             State 16-21R: WELL
FLD.           Purgatorie River: FIELD
LOC.           203' FNL & 1560' FWL: LOCATION
PROV.                 Colorado: PROVINCE
CNTY.               Las Animas: COUNTRY
SRVC.                Patterson: SERVICE COMPANY
DATE.          Tue Aug 16 12:55:36 2005: LOG DATE
UWI.                071 08313 : UNIQUE WELL ID
~Curve Information Block
DEPT.FT            0 000 00 00: Depth
SP.mV                         : DIL Spontaneous Potential
RILD.Ohm-m                    : DIL Deep Resistivity
RILM.Ohm-m                    : DIL Medium Resistivity
RLL3.Ohm-m                    : DIL Shallow Resistivity
GR.GAPI                       : Gamma Ray
~Parameter Information Block
~A  Depth        SP         RILD        RILM        RLL3         GR     
# ...
  1790.0000     56.3739     19.5204     23.2232     24.7781    104.6243
  1790.2500     58.6417     20.1737     21.4571     16.9075    113.0991
  1790.5000     59.3387     19.8189     20.7226     12.5155    111.8646
  1790.7500     58.7272     19.7658     20.9221     11.4488    107.0144
  1791.0000     58.3221     19.1453     21.9955     13.7334     94.3507
  1791.2500     59.4322     18.5598     23.8128     20.9866     84.5160
  1791.5000     61.3833     17.5806     25.6757     31.5630     76.9192
  1791.7500     63.8472     16.4618     26.4585     43.1371     77.3083
  1792.0000     66.5497     14.8313     26.8045     56.1445     66.2477
  1792.2500     69.0404     13.7542     24.7318     69.5133     68.2730
  1792.5000     71.2198     12.7246     21.5869     71.4556     77.5538
  1792.7500     73.4398     12.0363     18.5864     56.4795     96.9229
  1793.0000     76.1068     11.6644     15.4755     33.7563    122.7928
  1793.2500     79.2563     11.4026     13.5477     16.8677    123.5690
  1793.5000     81.7533     11.1896     12.0897      8.9632    131.4493
  1793.7500     82.8751     10.8413     11.1367      7.3895    136.5777
  1794.0000     82.6707     10.5621     10.6300      7.7904    143.6789
  1794.2500     82.2254     10.3321     10.3180      8.4889    143.7096
  1794.5000     82.1266     10.0529     10.2203      8.9296    146.1234
  1794.7500     81.5217      9.7848     10.1576      9.7229    147.0833
  1795.0000     80.8560      9.4434     10.0246     10.0303    139.4823
  1795.2500     80.6790      9.1030      9.9949     10.3251    135.8321
  1795.5000     79.6875      8.8206      9.9386     10.5288    138.3551
  1795.7500     77.8129      8.5988      9.9175     11.2748    129.5205
  1796.0000     76.0059      8.4232      9.9595     12.5589    133.3542
  1796.2500     74.0309      8.3260     10.0342     14.6214    137.7833
  1796.5000     73.0716      8.1524     10.0319     15.3176    127.0439
  1796.7500     73.0838      8.0850      9.9072     14.4130    126.3995
  1797.0000     73.4973      8.0693      9.5990     13.3559    125.7901
  1797.2500     73.9421      8.0813      9.3343     12.6358    131.2467
  1797.5000     73.0350      8.0616      8.9420     12.1691    128.9256
  1797.7500     71.4020      8.2038      8.5784     11.3684    129.1435
  1798.0000     69.0724      8.5536      8.1966     10.3365    117.9127
  1798.2500     67.8510      8.8838      7.8770      9.1481    116.0561
  1798.5000     67.4130      9.1985      7.7633      7.7075    100.8066
  1798.7500     66.0843      9.7139      7.8053      7.0274     97.8066
  1799.0000     63.5445     10.0703      8.1000      6.7330     85.2076
  1799.2500     60.3287     10.3179      8.8600      7.0845     81.8056
  1799.5000     57.4890     10.4347     10.2893      8.8075     82.1412
  1799.7500     56.2279     10.5570     12.3312     13.1264     78.8622
  1800.0000     57.1319     10.5839     14.4939     21.2107     80.5168
  1800.2500     59.6423     10.5873     16.2895     29.4275     85.6229
  1800.5000     62.1449     10.5842     17.1422     32.5903     94.1164
  1800.7500     63.2303     10.6335     16.9889     32.0356    103.3382
  1801.0000     63.6275     11.0411     16.3030     29.2562    106.2897
  1801.2500     63.6848     11.3247     16.0108     25.0839    110.7662
  1801.5000     64.0643     11.6366     15.4339     20.6329    104.9737
  1801.7500     64.6168     11.9889     15.1139     17.8060    109.2703
  1802.0000     65.9556     11.8765     14.6470     18.1624    122.5362
  1802.2500     66.8368     11.8910     14.0886     20.8159    116.0269
  1802.5000     66.5683     11.5443     13.2682     21.6141    121.8475
  1802.7500     65.2031     11.3545     12.2206     16.6509    132.5012
  1803.0000     63.6466     11.1953     11.2866     11.6332    138.4597
  1803.2500     61.9807     10.9384     10.6276      9.7821    137.3984
  1803.5000     60.2136     10.3319     10.3042      9.3682    152.1692
  1803.7500     58.1839      9.9622     10.1883      8.8558    138.2997
  1804.0000     56.4720      9.4337     10.3395      9.2777    115.6102
  1804.2500     55.1966      9.0535     10.3586     11.8471    117.3931
  1804.5000     54.0436      8.6139     10.3203     16.2257    107.6976
  1804.7500     52.2456      8.2330     10.1816     19.1487    117.9182
  1805.0000     49.9216      7.9712      9.6996     18.0210    130.4705
  1805.2500     47.8455      7.7525      9.0976     14.0634    140.8560
  1805.5000     47.7027      7.6876      8.6055     11.4040    145.4595
  1805.7500     47.6364      7.6523      8.2560     10.2158    139.3427
  1806.0000     46.1459      7.7482      8.0333      9.1592    132.0823
  1806.2500     42.9352      7.8481      7.8938      9.0243    133.2504
  1806.5000     39.0758      8.0754      7.8830      8.8989    139.2124
  1806.7500     35.0953      8.2574      7.9451      8.3061    135.8611
  1807.0000     31.9940      8.3595      8.0470      8.4828    142.0066
  1807.2500     29.7370      8.5192      8.2452      9.6145    140.0769
  1807.5000     27.7731      8.6725      8.4794     10.9706    137.5960
  1807.7500     25.8693      8.8118      8.8751     11.2706    130.0327
  1808.0000     23.3962      8.9979      9.3870     11.5197    110.2304
  1808.2500     20.2821      9.2349      9.9443     13.2599    113.8869
  1808.5000     16.4712      9.3867     10.6344     16.3803    103.4212
  1808.7500     12.9709      9.5619     11.4215     19.8887    100.0909
  1809.0000     10.3099      9.8996     12.0101     25.8139     98.0178
  1809.2500      7.9716     10.4473     12.4722     32.1716    103.3356
  1809.5000      5.5199     10.9829     12.7158     31.0826    112.0267
  1809.7500      2.6465     11.7857     12.9889     22.9699    124.8095
  1810.0000     -0.1547     12.7544     13.1308     15.6752    122.7177
  1810.2500     -3.1883     13.9120     13.7318     12.9061    121.1107
  1810.5000     -6.3636     14.7719     14.7678     13.5510    120.1798
  1810.7500     -9.4978     15.6548     15.9190     16.4049    103.4708
  1811.0000    -12.0623     16.4254     17.7276     20.3662    106.4178
  1811.2500    -14.8404     17.0058     19.3353     24.3141    102.3286
  1811.5000    -17.2221     17.3188     21.1393     28.9582     95.0967
  1811.7500    -20.4560     17.8152     22.5171     32.0836    101.1416
  1812.0000    -24.0607     18.1733     23.6850     32.4280     98.7086
  1812.2500    -27.0606     18.4006     24.8702     32.6980     95.2211
  1812.5000    -29.5849     19.0721     26.1801     38.6901     81.7121
  1812.7500    -30.4675     19.5137     26.8287     49.8119     78.8165
  1813.0000    -30.2002     20.3636     27.5022     60.7371     82.5933
  1813.2500    -30.8251     20.8051     27.0540     63.4162     85.0603
  1813.5000    -31.9006     21.1309     26.9627     56.1154     85.9094
  1813.7500    -32.5561     21.1843     26.2329     43.7301     93.8005
  1814.0000    -32.6070     21.8920     25.3598     34.2731     92.0707
  1814.2500    -31.2174     21.9255     24.8568     28.8872     83.5460
  1814.5000    -29.9012     21.4815     24.5783     29.0365     85.5035
  1814.7500    -29.0594     21.3130     24.1814     33.0414     91.1824
  1815.0000    -28.6165     20.8494     23.2858     33.2920     96.9148
  1815.2500    -28.4522     20.6986     21.7694     28.1025    111.0397
  1815.5000    -28.6586     20.8012     21.2472     22.7471    106.0463
  1815.7500    -29.5859     20.9814     20.6447     20.7176    105.7771
  1816.0000    -30.4845     20.8957     20.4276     20.6859    103.8269
  1816.2500    -30.6467     21.1451     20.6500     21.3820     99.2443
  1816.5000    -30.5018     21.8236     21.3743     22.5133     99.4660
  1816.7500    -31.0518     22.2568     22.8196     24.4271     91.4915
  1817.0000    -32.0144     22.3841     24.1644     31.0488     84.2589
  1817.2500    -32.8899     23.0082     25.5177     41.5911     74.2932
  1817.5000    -33.6129     23.7380     27.1336     47.3466     71.5300
  1817.7500    -33.6949     24.7472     28.8918     46.6987     77.5077
