~Version Information
VERS.                      2.0: CWLS Log ASCII Standard - VERSION 2.0
WRAP.                       NO: One line per depth step
~Well Information Block
STRT.FT                -7.0000: 
STOP.FT               867.2500: 
STEP.FT                 0.2500: 
NULL.                -999.2500: 
COMP.          Pioneer Natural Resources: COMPANY
WELL.          Claim Jumper 41-22: WELL
FLD.           Purgatorie River: FIELD
LOC.           1120' FNL & 977' FEL--: LOCATION
PROV.                       CO: PROVINCE
CNTY.               Las Animas: COUNTRY
SRVC.          Patterson Wireline: SERVICE COMPANY
DATE.          Mon Jun 27 12:47:30 2005: LOG DATE
UWI.           05 071 08405 00: UNIQUE WELL ID
~Curve Information Block
DEPT.FT            0 000 00 00: Depth
CCL.                          : Casing Collar Locator
TT3.usec                      : CBL 3' Travel Time
AMP3.mV                       : CBL 3' Amplitude
GR.GAPI                       : Gamma Ray
~Parameter Information Block
~A  Depth       CCL         TT3         AMP3         GR     
# ...
   730.0000      0.0000    766.3990      8.0916     62.3812
   730.2500      0.0000    766.8570      8.0513     61.1129
   730.5000      0.0000    767.2131      7.9929     58.6249
   730.7500      0.0000    767.5031      7.9010     55.9666
   731.0000      0.0000    767.6806      7.7627     53.9800
   731.2500      0.0000    767.7470      7.5882     53.0568
   731.5000      0.0000    767.7415      7.4081     53.2675
   731.7500      0.0000    767.6796      7.2424     54.4403
   732.0000      0.0000    767.5739      7.0843     56.1556
   732.2500      0.0000    767.5391      6.9258     57.7869
   732.5000      0.0000    767.8813      6.7833     58.6643
   732.7500      0.0000    768.9856      6.6868     58.3855
   733.0000      0.0000    770.8761      6.6481     57.0157
   733.2500      0.0000    772.7407      6.6545     54.9176
   733.5000      0.0000    773.0760      6.6869     52.4998
   733.7500      0.0000    770.6555      6.7285     50.2022
   734.0000      0.0000    765.4448      6.7577     48.4325
   734.2500      0.0000    758.5281      6.7539     47.2677
   734.5000      0.0000    751.2404      6.7199     46.4359
   734.7500      0.0000    744.5050      6.6827     45.7866
   735.0000      0.0000    738.9402      6.6632     45.6145
   735.2500      0.0000    735.3193      6.6563     46.3815
   735.5000      0.0000    734.5975      6.6509     48.2830
   735.7500      0.0000    737.3141      6.6527     51.2399
   736.0000      0.0000    742.8721      6.6737     55.1405
   736.2500      0.0000    749.3687      6.7078     59.8125
   736.5000      0.0000    754.4597      6.7364     64.7153
   736.7500      0.0000    756.8599      6.7489     68.8669
   737.0000      0.0000    757.1932      6.7433     71.3344
   737.2500      0.0000    757.2686      6.7149     71.8169
   737.5000      0.0000    758.4035      6.6654     70.6352
   737.7500      0.0000    760.4909      6.6234     68.3035
   738.0000      0.0000    762.5671      6.6292     65.3634
   738.2500      0.0000    763.9109      6.6884     62.4496
   738.5000      0.0000    764.4653      6.7544     60.1427
   738.7500      0.0000    764.5572      6.7730     58.7071
   739.0000      0.0000    764.5192      6.7383     58.1798
   739.2500      0.0000    764.5193      6.6887     58.7575
   739.5000      0.0000    764.5706      6.6572     60.8822
   739.7500      0.0000    764.6392      6.6472     64.6994
   740.0000      0.0000    764.7416      6.6585     69.4875
   740.2500      0.0000    764.8925      6.7122     73.9442
   740.5000      0.0000    764.9273      6.8320     76.9995
   740.7500      0.0000    764.3357      7.0131     78.0882
   741.0000      0.0000    762.3194      7.2137     77.0086
   741.2500      0.0000    758.2850      7.3752     74.1273
   741.5000      0.0000    752.6897      7.4541     70.4700
   741.7500      0.0000    747.4370      7.4478     66.9875
   742.0000      0.0000    744.8779      7.3917     63.8803
   742.2500      0.0000    745.8419      7.3279     61.0316
   742.5000      0.0000    748.6722      7.2772     58.6972
   742.7500      0.0000    750.6446      7.2455     57.1680
   743.0000      0.0000    750.5693      7.2398     56.0985
   743.2500      0.0000    749.8289      7.2651     54.9179
   743.5000      0.0000    750.7040      7.3137     53.8001
   743.7500      0.0000    753.9452      7.3743     53.5631
   744.0000      0.0000    758.2716      7.4463     54.5575
   744.2500      0.0000    761.8702      7.5355     56.1954
   744.5000      0.0000    763.7942      7.6390     57.7060
   744.7500      0.0000    764.0060      7.7468     58.8749
   745.0000      0.0000    762.7543      7.8473     59.8211
   745.2500      0.0000    760.3175      7.9171     60.5856
   745.5000      0.0000    757.1429      7.9060     61.3214
   745.7500      0.0000    753.7579      7.7444     62.5241
   746.0000      0.0000    750.5577      7.3846     64.6080
   746.2500      0.0000    748.3585      6.8622     67.3226
   746.5000      0.0000    749.4664      6.3216     69.8331
   746.7500      0.0000    757.0057      5.9454     71.3062
   747.0000      0.0000    771.5042      5.8250     71.1567
   747.2500      0.0000    787.9277      5.9029     68.9079
   747.5000      0.0000    797.7701      6.0450     64.4324
   747.7500      0.0000    795.8992      6.1444     58.5850
   748.0000      0.0000    785.7372      6.1548     53.0953
   748.2500      0.0000    776.9598      6.0662     49.3569
   748.5000      0.0000    777.3944      5.9009     47.5092
   748.7500      0.0000    786.7629      5.7439     46.9266
   749.0000      0.0000    797.9140      5.7288     47.1814
   749.2500      0.0000    803.4695      5.9345     48.1375
   749.5000      0.0000    801.0923      6.2894     49.4481
   749.7500      0.0000    793.4955      6.6233     50.4897
   750.0000      0.0000    784.8599      6.8159     50.8644
   750.2500      0.0000    777.6613      6.8660     50.8464
   750.5000      0.0000    772.2857      6.8352     51.3655
   750.7500      0.0000    768.3924      6.7775     53.4759
   751.0000      0.0000    765.7524      6.7246     57.4066
   751.2500      0.0000    764.0583      6.6944     61.8812
   751.5000      0.0000    762.8936      6.6872     64.7549
   751.7500      0.0000    762.2166      6.6849     64.7165
   752.0000      0.0000    762.4761      6.6677     62.2316
   752.2500      0.0000    763.7169      6.6277     58.8017
   752.5000      0.0000    764.7350      6.5720     55.7684
   752.7500      0.0000    763.8327      6.5203     54.0296
   753.0000      0.0000    760.6422      6.4951     54.2883
   753.2500      0.0000    756.7130      6.5098     56.8123
   753.5000      0.0000    754.1696      6.5671     60.8910
   753.7500      0.0000    754.1149      6.6650     65.1675
   754.0000      0.0000    756.1612      6.7874     68.9082
   754.2500      0.0000    759.0156      6.8924     72.6154
   754.5000      0.0000    761.4235      6.9220     77.1083
   754.7500      0.0000    762.7660      6.8267     82.2190
   755.0000      0.0000    762.9750      6.5859     86.5223
   755.2500      0.0000    762.2662      6.2225     88.2769
   755.5000      0.0000    761.4879      5.8063     86.6255
   755.7500      0.0000    762.9392      5.4311     81.9192
   756.0000      0.0000    770.2532      5.1745     75.1507
   756.2500      0.0000    786.1299      5.0671     67.5164
   756.5000      0.0000    809.2297      5.0837     60.4092
   756.7500      0.0000    833.7822      5.1621     55.2557
   757.0000      0.0000    853.4917      5.2432     53.1562
   757.2500      0.0000    866.0375      5.2984     54.8044
   757.5000      0.0000    873.1257      5.3256     60.7342
   757.7500      0.0000    876.6681      5.3361     71.3124
   758.0000      0.0000    876.2668      5.3572     85.8116
   758.2500      0.0000    870.3770      5.4370    101.1903
   758.5000      0.0000    858.5688      5.6269    112.7160
   758.7500      0.0000    842.2076      5.9459    116.9965
   759.0000      0.0000    823.7280      6.3523    114.5104
   759.2500      0.0000    805.8558      6.7512    108.8708
   759.5000      0.0000    791.1272      7.0396    103.9103
   759.7500      0.0000    781.4332      7.1601    101.6232
   760.0000      0.0000    777.4156      7.1252    102.0781
   760.2500      0.0000    777.8160      6.9989    104.1460
   760.5000      0.0000    779.3879      6.8525    105.9742
   760.7500      0.0000    778.4371      6.7309    105.4980
   761.0000      0.0000    773.5242      6.6456    101.4658
   761.2500      0.0000    766.5081      6.5871     94.2526
   761.5000      0.0000    760.4911      6.5403     85.5506
   761.7500      0.0000    757.2882      6.4970     77.3521
   762.0000      0.0000    757.0211      6.4553     71.2858
   762.2500      0.0000    759.0099      6.4135     68.3974
   762.5000      0.0000    762.4759      6.3710     68.8512
   762.7500      0.0000    767.0629      6.3337     71.6286
   763.0000      0.0000    772.9802      6.3097     74.8059
   763.2500      0.0000    780.1896      6.2994     76.5375
