~Version Information
VERS.                      2.0: CWLS Log ASCII Standard - VERSION 2.0
WRAP.                       NO: One line per depth step
~Well Information Block
STRT.FT               260.0000: 
STOP.FT              2269.5000: 
STEP.FT                 0.1000: 
NULL.                -999.2500: 
COMP.          Pioneer Natural Resources: COMPANY
WELL.            Moo Moo 31-36: WELL
FLD.           Purgatoire River: FIELD
LOC.           612' FNL & 2326' FEL: LOCATION
PROV.                 Colorado: PROVINCE
CNTY.               Las Animas: COUNTRY
SRVC.                Patterson: SERVICE COMPANY
DATE.          Fri Jun 17 07:04:43 2005: LOG DATE
UWI.           05 071 08395 00: UNIQUE WELL ID
~Curve Information Block
DEPT.FT            0 000 00 00: Depth
DCAL.in                       : CDL Caliper
RHOB.g/cc                     : CDL Bulk Density
RHOC.g/cc                     : CDL Density Correction
DPOR.pu                       : CDL Density Porosity
GR.GAPI                       : Gamma Ray
NPOR.pu                       : Neutron Porosity
~Parameter Information Block
~A  Depth       DCAL        RHOB        RHOC        DPOR         GR         NPOR    
# ...
   663.2000      8.1326      2.5357      0.0425      6.9286     54.4417     19.8798
   663.3000      8.1291      2.5480      0.0607      6.1791     52.4306     20.5106
   663.4000      8.1291      2.5566      0.0620      5.6614     51.3631     21.0625
   663.5000      8.1246      2.5646      0.0920      5.1766     49.4546     21.0664
   663.6000      8.1246      2.5763      0.0855      4.4655     47.6162     20.5218
   663.7000      8.1246      2.5820      0.0631      4.1205     47.2422     20.1005
   663.8000      8.1210      2.5764      0.1274      4.4579     47.7247     20.2125
   663.9000      8.1210      2.5690      0.1299      4.9104     48.0065     20.4256
   664.0000      8.1145      2.5698      0.1027      4.8583     47.8593     20.2405
   664.1000      8.1145      2.5756      0.1151      4.5090     47.1841     19.5661
   664.2000      8.1145      2.5767      0.0797      4.4440     46.6749     18.7354
   664.3000      8.1051      2.5722      0.0658      4.7143     45.3478     18.1080
   664.4000      8.1051      2.5621      0.0672      5.3289     43.3784     17.4976
   664.5000      8.0944      2.5407      0.0785      6.6258     43.7930     16.8172
   664.6000      8.0944      2.5084      0.0674      8.5800     45.7864     16.1919
   664.7000      8.0944      2.4774      0.0328     10.4587     46.0038     15.4903
   664.8000      8.0911      2.4614     -0.0301     11.4290     42.5446     14.7433
   664.9000      8.0911      2.4582      0.0319     11.6221     36.8470     14.4469
   665.0000      8.0908      2.4537      0.0404     11.8972     34.0512     14.7479
   665.1000      8.0908      2.4393      0.0604     12.7668     36.2088     15.1526
   665.2000      8.0908      2.4117      0.0512     14.4410     39.4359     15.3132
   665.3000      8.1157      2.3820     -0.0089     16.2432     40.4564     15.3628
   665.4000      8.1157      2.3774      0.0023     16.5208     40.5969     15.4917
   665.5000      8.2336      2.4038      0.0873     14.9221     41.7141     15.6042
   665.6000      8.2336      2.4316      0.0482     13.2393     42.7594     15.6708
   665.7000      8.2336      2.4360      0.0853     12.9704     42.5975     15.7946
   665.8000      8.2802      2.4229      0.0838     13.7613     42.1143     15.7148
   665.9000      8.2802      2.4146      0.0813     14.2666     41.9825     15.2478
   666.0000      8.2996      2.4194      0.0534     13.9767     43.1476     14.8594
   666.1000      8.2996      2.4172      0.1104     14.1094     45.3609     14.8714
   666.2000      8.2996      2.3931      0.0370     15.5683     46.3189     15.2113
   666.3000      8.3190      2.3728     -0.0162     16.8008     46.5542     15.5839
   666.4000      8.3190      2.3795      0.0234     16.3956     46.8498     15.7082
   666.5000      8.3020      2.4005      0.0160     15.1235     46.9053     15.8375
   666.6000      8.3020      2.4008      0.0610     15.1046     47.1713     16.2316
   666.7000      8.3020      2.3623      0.0172     17.4383     46.8339     16.5738
   666.8000      8.2972      2.3258     -0.0405     19.6508     44.3959     16.5372
   666.9000      8.2972      2.3347     -0.0125     19.1083     41.2378     16.3722
   667.0000      8.3348      2.3699      0.0482     16.9743     39.2430     16.3682
   667.1000      8.3348      2.3941      0.0567     15.5084     37.6579     16.4755
   667.2000      8.3348      2.4048     -0.0037     14.8578     35.6544     16.7330
   667.3000      8.3577      2.4140      0.0331     14.3053     34.2927     16.9950
   667.4000      8.3577      2.4144      0.0933     14.2786     34.2519     16.9509
   667.5000      8.3388      2.3968      0.0276     15.3432     34.4816     16.6476
   667.6000      8.3388      2.3740      0.0028     16.7294     33.7506     16.2870
   667.7000      8.3388      2.3662      0.0213     17.1996     32.8884     16.1568
   667.8000      8.3382      2.3767      0.0175     16.5643     32.5144     16.3448
   667.9000      8.3382      2.3908      0.0519     15.7104     33.3384     16.6279
   668.0000      8.3369      2.3955      0.0493     15.4224     36.7596     16.8601
   668.1000      8.3369      2.3890      0.0696     15.8198     40.9931     16.9582
   668.2000      8.3369      2.3764      0.0372     16.5837     42.5301     16.9085
   668.3000      8.2710      2.3644      0.0750     17.3107     42.5879     16.8697
   668.4000      8.2710      2.3498      0.0402     18.1928     46.0044     16.8785
   668.5000      8.2541      2.3304      0.0177     19.3726     50.8823     16.9177
   668.6000      8.2541      2.3142      0.0079     20.3491     51.8061     17.0740
   668.7000      8.2541      2.3090     -0.0036     20.6659     49.0745     17.1812
   668.8000      8.2365      2.3232     -0.0462     19.8065     45.5130     16.9199
   668.9000      8.2365      2.3584      0.0054     17.6722     42.5258     16.3750
   669.0000      8.2347      2.3920      0.0355     15.6387     40.0225     15.9355
   669.1000      8.2347      2.3970      0.0674     15.3312     37.7868     16.0223
   669.2000      8.2347      2.3736      0.0173     16.7523     36.7184     16.6516
   669.3000      8.2386      2.3480      0.0290     18.3008     38.2473     17.1709
   669.4000      8.2386      2.3408      0.0246     18.7375     42.4242     17.0690
   669.5000      8.2412      2.3455      0.0444     18.4565     46.3440     16.7265
   669.6000      8.2412      2.3427      0.0010     18.6239     46.8297     16.5408
   669.7000      8.2412      2.3304     -0.0188     19.3709     45.2040     16.3520
   669.8000      8.2451      2.3219      0.0013     19.8852     44.1043     16.1374
   669.9000      8.2451      2.3250      0.0015     19.6994     43.0594     16.2093
   670.0000      8.2358      2.3426      0.0215     18.6278     41.8947     16.4993
   670.1000      8.2358      2.3701      0.0542     16.9634     42.1938     16.6118
   670.2000      8.2358      2.3918      0.1044     15.6477     44.2979     16.4526
   670.3000      8.2063      2.3979      0.0662     15.2791     45.7732     16.3364
   670.4000      8.2063      2.3899      0.0708     15.7632     44.3671     16.5839
   670.5000      8.1516      2.3793      0.0113     16.4077     41.5418     17.0202
   670.6000      8.1516      2.3738      0.0724     16.7419     40.8590     17.2155
   670.7000      8.1516      2.3650      0.0188     17.2715     43.2719     17.1192
   670.8000      8.1424      2.3552      0.0052     17.8660     45.2963     16.8533
   670.9000      8.1424      2.3588      0.0170     17.6501     45.3892     16.5142
   671.0000      8.1602      2.3822      0.0151     16.2274     45.3119     16.2420
   671.1000      8.1602      2.4232      0.0421     13.7451     44.6190     16.0481
   671.2000      8.1602      2.4663      0.0780     11.1338     42.0986     16.0127
   671.3000      8.1687      2.4886      0.0912      9.7829     38.9628     16.1968
   671.4000      8.1687      2.4821      0.0533     10.1742     38.0323     16.3212
   671.5000      8.1810      2.4633      0.0004     11.3162     41.4949     16.2344
   671.6000      8.1810      2.4509      0.0121     12.0641     48.7832     16.3654
   671.7000      8.1810      2.4394      0.0799     12.7639     54.9115     16.9629
   671.8000      8.1939      2.4224      0.0303     13.7943     54.7523     17.5979
   671.9000      8.1939      2.4164      0.0181     14.1578     50.3948     18.1141
   672.0000      8.2094      2.4275      0.0664     13.4841     46.3526     18.5203
   672.1000      8.2094      2.4386      0.0530     12.8114     43.6080     18.4914
   672.2000      8.2094      2.4414     -0.0082     12.6395     42.9034     18.4427
   672.3000      8.2295      2.4403      0.0715     12.7080     44.5670     18.9673
   672.4000      8.2295      2.4364      0.0078     12.9437     47.3641     19.5380
   672.5000      8.2323      2.4391      0.0009     12.7845     50.5168     19.3805
   672.6000      8.2323      2.4534      0.0250     11.9146     53.9941     18.8611
   672.7000      8.2323      2.4730      0.0207     10.7282     56.6093     18.5182
