~Version Information
VERS.                      2.0: CWLS Log ASCII Standard - VERSION 2.0
WRAP.                       NO: One line per depth step
~Well Information Block
STRT.FT               -13.5000: 
STOP.FT              2092.5000: 
STEP.FT                 0.2500: 
NULL.                -999.2500: 
COMP.          Petrogulf Corporation: COMPANY
WELL.          Robinson 15-11V: WELL
FLD.           Purgatorie River: FIELD
LOC.           226' FNL & 592' FWL--: LOCATION
CNTY.               Las Animas: COUNTY
SRVC.                         : SERVICE COMPANY
DATE.          Tue Aug 17 13:05:46 2004: LOG DATE
UWI.                          : UNIQUE WELL ID
STAT.                       CO: STATE
~Curve Information Block
DEPT.FT            0 000 00 00: Depth
CCL.                          : Casing Collar Locator
TT3.usec                      : CBL 3' Travel Time
AMP3.mV                       : CBL 3' Amplitude
GR.GAPI                       : Gamma Ray
~Parameter Information Block
~A  Depth       CCL         TT3         AMP3         GR     
   -13.5000   -999.2500   -999.2500   -999.2500    117.7364
   -13.2500   -999.2500   -999.2500   -999.2500    119.6954
   -13.0000   -999.2500   -999.2500   -999.2500    122.6309
   -12.7500   -999.2500   -999.2500   -999.2500    124.8614
   -12.5000   -999.2500   -999.2500   -999.2500    125.1625
   -12.2500   -999.2500   -999.2500   -999.2500    123.9628
   -12.0000   -999.2500   -999.2500   -999.2500    122.4968
   -11.7500   -999.2500   -999.2500   -999.2500    121.1773
   -11.5000   -999.2500   -999.2500   -999.2500    119.2904
   -11.2500   -999.2500   -999.2500   -999.2500    116.2924
   -11.0000   -999.2500   -999.2500   -999.2500    113.0173
   -10.7500   -999.2500   -999.2500   -999.2500    111.3159
   -10.5000   -999.2500   -999.2500   -999.2500    112.5196
   -10.2500   -999.2500   -999.2500   -999.2500    116.3769
   -10.0000   -999.2500   -999.2500   -999.2500    121.4627
    -9.7500   -999.2500   -999.2500   -999.2500    126.3630
    -9.5000   -999.2500   -999.2500   -999.2500    130.0678
    -9.2500   -999.2500   -999.2500   -999.2500    131.4777
    -9.0000   -999.2500   -999.2500   -999.2500    129.4944
    -8.7500   -999.2500   -999.2500   -999.2500    123.9687
    -8.5000   -999.2500    798.0000      2.2479    116.2855
    -8.2500   -999.2500    798.0000      2.2122    109.0028
    -8.0000   -999.2500    798.0000      2.1724    104.8114
    -7.7500   -999.2500    798.0000      2.1337    104.9938
    -7.5000   -999.2500    798.0000      2.0894    108.3393
    -7.2500   -999.2500    798.0000      2.0393    111.7920
    -7.0000   -999.2500    798.0000      2.0026    112.3850
    -6.7500   -999.2500    798.0000      2.0038    108.7121
    -6.5000   -999.2500    798.0000      2.0420    101.1673
    -6.2500   -999.2500    798.0000      2.0828     91.5010
    -6.0000   -999.2500    798.0000      2.0911     82.0838
    -5.7500   -999.2500    798.0000      2.0693     74.7803
    -5.5000   -999.2500    798.0000      2.0530     69.7505
    -5.2500   -999.2500    798.0000      2.0698     65.3176
    -5.0000   -999.2500    798.0000      2.1109     59.4605
    -4.7500   -999.2500    798.0000      2.1461     51.7410
    -4.5000   -999.2500    798.0000      2.1534     43.7932
    -4.2500   -999.2500    798.0000      2.1263     38.0473
    -4.0000   -999.2500    798.0000      2.0595     36.1817
    -3.7500   -999.2500    798.0000      1.9461     38.5444
    -3.5000   -999.2500    798.0000      1.7985     44.2818
    -3.2500   -999.2500    798.0000      1.6650     51.5761
    -3.0000   -999.2500    798.0000      1.6087     58.2265
    -2.7500      0.0000    798.0000      1.6582     62.8018
    -2.5000      0.0000    798.0000      1.7801     65.5527
    -2.2500      0.0000    798.0000      1.9081     67.8627
    -2.0000      0.0000    798.0000      1.9946     70.3699
    -1.7500      0.0000    798.0000      2.0303     71.8385
    -1.5000      0.0000    798.0000      2.0246     70.4018
    -1.2500      0.0000    797.9644      1.9862     65.7836
    -1.0000      0.0000    797.7319      1.9364     59.7291
    -0.7500      0.0000    796.5515      1.9709     54.3717
    -0.5000      0.0000    791.8830      2.3719     50.7861
    -0.2500      0.0000    743.0082      7.0765     48.9945
     0.0000      0.0000    678.5646     13.2080     48.6272
     0.2500      0.0000    584.8026     22.0388     49.3869
     0.5000      0.0000    478.5607     31.9789     51.1705
     0.7500      0.0000    384.8087     40.7087     53.8018
     1.0000      0.0000    320.3816     46.6797     56.7099
     1.2500      0.0000    285.9048     49.8665     59.1986
     1.5000      0.0000    271.5399     51.2417     61.0188
     1.7500      0.0000    266.8771     51.8428     62.2713
     2.0000      0.0000    265.6876     52.2787     62.7966
     2.2500      0.0000    265.4315     52.7333     62.1829
     2.5000      0.0000    265.3653     53.1677     60.5078
     2.7500      0.0000    265.3382     53.5090     58.6051
     3.0000      0.0000    265.3208     53.7410     57.2821
     3.2500      0.0000    265.3125     53.8905     56.6658
     3.5000      0.0000    265.3087     53.9839     56.7851
     3.7500      0.0000    265.3062     54.0236     58.3843
     4.0000      0.0000    265.3062     53.9944     62.3421
     4.2500      0.0000    265.3119     53.8850     68.2805
     4.5000      0.0000    265.3220     53.7106     74.3791
     4.7500      0.0000    265.3281     53.5228     78.6389
     5.0000      0.0000    265.3192     53.3971     80.0418
     5.2500      0.0000    265.2932     53.4023     78.7902
     5.5000      0.0000    265.2631     53.5695     75.9682
     5.7500      0.0000    265.2487     53.8751     72.7826
     6.0000      0.0000    265.2611     54.2460     69.6291
     6.2500      0.0000    265.2954     54.5898     66.0259
     6.5000      0.0000    265.3379     54.8357     61.7986
     6.7500      0.0000    265.3786     54.9647     58.0258
     7.0000      0.0000    265.4162     55.0051     56.4226
     7.2500      0.0000    265.4536     54.9972     58.0195
     7.5000      0.0000    265.4947     54.9602     62.5704
     7.7500      0.0000    265.5438     54.8977     68.7715
     8.0000      0.0000    265.6009     54.8278     74.7489
     8.2500      0.0000    265.6548     54.7861     78.7904
     8.5000      0.0000    265.6868     54.7964     80.1575
     8.7500      0.0000    265.6840     54.8549     79.2914
     9.0000      0.0000    265.6483     54.9519     77.1242
     9.2500      0.0000    265.5936     55.1010     74.2526
     9.5000      0.0000    265.5370     55.3297     70.8648
     9.7500      0.0000    265.4959     55.6395     67.2155
    10.0000      0.0000    265.4859     55.9781     63.8650
    10.2500      0.0000    265.5141     56.2580     61.4809
    10.5000      0.0000    265.5699     56.4117     60.4710
    10.7500      0.0000    265.6259     56.4414     60.7240
    11.0000      0.0000    265.6541     56.4249     61.7382
    11.2500      0.0000    265.6440     56.4687     63.0739
    11.5000      0.0000    265.6101     56.6352     64.5890
    11.7500      0.0000    265.5828     56.8987     66.3706
    12.0000      0.0000    265.5856     57.1717     68.5659
    12.2500      0.0000    265.6187     57.3780     71.0825
    12.5000      0.0000    265.6620     57.4971     73.3716
    12.7500      0.0000    265.6958     57.5422     74.8145
    13.0000      0.0000    265.7198     57.5241     75.2870
    13.2500      0.0000    265.7488     57.4625     74.9656
    13.5000      0.0000    265.7921     57.4200     73.7741
    13.7500      0.0000    265.8408     57.4864     71.7611
    14.0000      0.0000    265.8736     57.7126     69.9184
    14.2500      0.0000    265.8750     58.0624     69.8263
    14.5000      0.0000    265.8475     58.4311     72.4016
    14.7500      0.0000    265.8112     58.7069     77.3905
    15.0000      0.0000    265.7891     58.8194     83.6804
    15.2500      0.0000    265.7917     58.7491     89.6597
    15.5000      0.0000    265.8117     58.5127     93.8465
    15.7500      0.0000    265.8330     58.1500     95.9175
    16.0000      0.0000    265.8425     57.7212     96.9782
    16.2500      0.0000    265.8411     57.2995     98.6811
    16.5000      0.0000    265.8434     56.9521    102.2291
    16.7500      0.0000    265.8659     56.7181    107.8400
    17.0000      0.0000    265.9099     56.6031    114.5472
    17.2500      0.0000    265.9591     56.5881    120.6041
    17.5000      0.0000    265.9906     56.6436    124.5647
    17.7500      0.0000    265.9874     56.7464    126.2148
    18.0000      0.0000    265.9436     56.8885    126.4131
    18.2500      0.0000    265.8692     57.0614    125.9585
    18.5000      0.0000    265.7911     57.2274    124.7382
    18.7500      0.0000    265.7417     57.3244    122.3278
    19.0000      0.0000    265.7374     57.3127    119.3982
    19.2500      0.0000    265.7671     57.2174    117.8320
    19.5000      0.0000    265.8015     57.1276    118.8359
    19.7500      0.0000    265.8155     57.1548    121.0698
