~Version Information
VERS.                      2.0: CWLS Log ASCII Standard - VERSION 2.0
WRAP.                       NO: One line per depth step
~Well Information Block
STRT.FT               491.0000: 
STOP.FT              1056.0000: 
STEP.FT                 0.2500: 
NULL.                -999.2500: 
COMP.          Evergreen Operating Corporation: COMPANY
WELL.              Sunset 24-3: WELL
FLD.           Purgatorie River: FIELD
LOC.           467' FSL & 2262' FWL: LOCATION
PROV.                 Colorado: PROVINCE
CNTY.               Las Animas: COUNTRY
SRVC.                         : SERVICE COMPANY
DATE.          Wed Sep 22 11:23:45 2004: LOG DATE
UWI.           05 071 08158 00: UNIQUE WELL ID
~Curve Information Block
DEPT.FT            0 000 00 00: Depth
SN.Ohm-m                      : IEL Short Normal
SP.mV                         : IEL Spontaneous Potential
DIR.Ohm-m                     : IEL Induction Resistivity
GR.GAPI                       : Gamma Ray
~Parameter Information Block
~A  Depth        SN          SP         DIR          GR     
# ...
   625.0000     13.5663    -53.8488     11.6880    146.3572
   625.2500     13.6414    -53.8919     11.8178    143.0069
   625.5000     13.7526    -53.8874     11.9611    138.5844
   625.7500     13.9042    -53.8436     12.1165    136.4786
   626.0000     14.0946    -53.7719     12.2775    134.8694
   626.2500     14.3153    -53.6847     12.4369    134.9566
   626.5000     14.5531    -53.5941     12.5925    136.7353
   626.7500     14.7923    -53.5099     12.7491    138.4717
   627.0000     15.0186    -53.4387     12.9155    140.2763
   627.2500     15.2215    -53.3826     13.0987    140.1995
   627.5000     15.3962    -53.3387     13.2997    138.2567
   627.7500     15.5443    -53.2996     13.5142    136.5181
   628.0000     15.6731    -53.2541     13.7360    134.6126
   628.2500     15.7924    -53.1895     13.9592    134.0594
   628.5000     15.9119    -53.0939     14.1775    133.8905
   628.7500     16.0389    -52.9583     14.3834    133.9634
   629.0000     16.1778    -52.7787     14.5664    134.2553
   629.2500     16.3314    -52.5569     14.7168    134.4939
   629.5000     16.4992    -52.3001     14.8281    134.4140
   629.7500     16.6762    -52.0202     14.8992    133.6293
   630.0000     16.8522    -51.7316     14.9338    130.5097
   630.2500     17.0155    -51.4503     14.9396    126.6143
   630.5000     17.1590    -51.1919     14.9298    117.4956
   630.7500     17.2855    -50.9706     14.9229    109.5087
   631.0000     17.4083    -50.7987     14.9388     96.5260
   631.2500     17.5452    -50.6857     14.9916     88.8098
   631.5000     17.7107    -50.6377     15.0835     81.0636
   631.7500     17.9093    -50.6564     15.2035     79.1330
   632.0000     18.1339    -50.7391     15.3300     80.9839
   632.2500     18.3673    -50.8779     15.4328     84.8834
   632.5000     18.5849    -51.0608     15.4700     93.2769
   632.7500     18.7594    -51.2727     15.3861     99.2763
   633.0000     18.8685    -51.4973     15.1179    106.2203
   633.2500     18.9051    -51.7192     14.6173    108.1914
   633.5000     18.8830    -51.9258     13.8805    106.5880
   633.7500     18.8315    -52.1087     12.9590    103.5166
   634.0000     18.7799    -52.2640     11.9444     99.4704
   634.2500     18.7406    -52.3917     10.9359     99.2006
   634.5000     18.7027    -52.4950     10.0117    103.9428
   634.7500     18.6386    -52.5792      9.2172    109.9290
   635.0000     18.5179    -52.6508      8.5683    120.4310
   635.2500     18.3190    -52.7173      8.0607    126.7543
   635.5000     18.0354    -52.7861      7.6808    133.5578
   635.7500     17.6758    -52.8661      7.4149    136.2164
   636.0000     17.2604    -52.9632      7.2584    137.8528
   636.2500     16.8159    -53.0828      7.2329    137.5960
   636.5000     16.3689    -53.2263      7.4176    135.7336
   636.7500     15.9424    -53.3856      8.0207    134.1469
   637.0000     15.5549    -53.5421      9.6091    132.4718
   637.2500     15.2240    -53.6627     14.3484    132.2151
   637.5000     14.9667    -53.6952     46.5782    133.1969
   637.7500     14.7963    -53.5703 100000.0000    134.7004
   638.0000     14.7161    -53.2058 100000.0000    137.9831
   638.2500     14.7153    -52.5191 100000.0000    140.4683
   638.5000     14.7704    -51.4513 100000.0000    143.5865
   638.7500     14.8521    -49.9885 100000.0000    144.6693
   639.0000     14.9328    -48.1897 100000.0000    144.2462
   639.2500     14.9917    -46.2030 100000.0000    142.6179
   639.5000     15.0182    -44.2620 100000.0000    138.7969
   639.7500     15.0143    -42.6607 100000.0000    135.9370
   640.0000     14.9940    -41.7122 100000.0000    132.1418
   640.2500     14.9773    -41.7003 100000.0000    130.2745
   640.5000     14.9794    -42.8417 100000.0000    128.6740
   640.7500     15.0023    -45.2627 100000.0000    128.3680
   641.0000     15.0356    -49.0063 100000.0000    128.6653
   641.2500     15.0667    -54.0522 100000.0000    128.8999
   641.5000     15.0900    -60.3494 100000.0000    128.0998
   641.7500     15.1074    -67.8429 100000.0000    126.0467
   642.0000     15.1176    -76.4923 100000.0000    119.9789
   642.2500     15.1026    -86.2732 100000.0000    114.1218
   642.5000     15.0221    -97.1746 100000.0000    103.8698
   642.7500     14.8185   -109.1825 100000.0000     97.1539
   643.0000     14.4267   -122.2674 100000.0000     89.3251
   643.2500     13.7789   -136.3655      7.7575     86.5064
   643.5000     12.8097   -151.3688      1.6418     86.1250
   643.7500     11.4707   -167.1103      0.6024     87.7068
   644.0000      9.7611   -183.3452      0.2364     90.5037
   644.2500      7.7597   -199.7335      0.0840     91.0446
   644.5000      5.6301   -215.8132      0.0303     87.6327
   644.7500      3.5829   -230.9854      0.0134     82.1543
   645.0000      1.8090   -244.5220      0.0077     70.6749
   645.2500      0.4240   -255.6048      0.0057     62.6872
   645.5000     -0.5467   -263.4013      0.0052     53.2003
   645.7500     -1.1447   -267.1778      0.0052     49.4005
   646.0000     -1.4447   -266.4052      0.0055     47.3575
   646.2500     -1.5293   -260.8564      0.0058     47.9643
   646.5000     -1.4685   -250.6583      0.0057     51.3950
   646.7500     -1.3021   -236.2908      0.0055     55.5084
   647.0000     -1.0286   -218.5446      0.0055     64.8342
   647.2500     -0.6102   -198.4314      0.0062     72.9843
   647.5000      0.0037   -177.0806      0.0086     86.5356
   647.7500      0.8449   -155.6285      0.0153     95.0523
   648.0000      1.9028   -135.1094      0.0360    105.1241
   648.2500      3.1202   -116.3706      0.1026    109.7397
   648.5000      4.4072   -100.0162      0.2925    114.2331
   648.7500      5.6667    -86.3888      0.7948    116.2145
   649.0000      6.8186    -75.5882      3.0564    118.3652
   649.2500      7.8138    -67.5210 100000.0000    119.4054
   649.5000      8.6351    -61.9643 100000.0000    120.2904
   649.7500      9.2882    -58.6364 100000.0000    120.3031
   650.0000      9.7918    -57.2547 100000.0000    119.5427
   650.2500     10.1720    -57.5803 100000.0000    118.8069
   650.5000     10.4562    -59.4426 100000.0000    117.7590
   650.7500     10.6663    -62.7467 100000.0000    117.0129
   651.0000     10.8113    -67.4675 100000.0000    115.4597
   651.2500     10.8855    -73.6291 100000.0000    114.1811
   651.5000     10.8738    -81.2902 100000.0000    112.5359
   651.7500     10.7573    -90.5156 100000.0000    111.9422
   652.0000     10.5124   -101.3641 100000.0000    111.7655
   652.2500     10.1047   -113.8707 100000.0000    111.9200
   652.5000      9.4844   -128.0249 100000.0000    112.4545
   652.7500      8.5951   -143.7445 100000.0000    113.0483
   653.0000      7.3998   -160.8495      8.9193    113.9751
   653.2500      5.9170   -179.0269      1.3267    114.2348
   653.5000      4.2460   -197.8185      0.5653    113.7429
   653.7500      2.5548   -216.6269      0.2971    112.8673
   654.0000      1.0307   -234.7535      0.1709    110.4996
   654.2500     -0.1861   -251.4657      0.1073    107.7060
   654.5000     -1.0471   -266.0782      0.0743    100.9639
   654.7500     -1.5942   -278.0351      0.0567     94.9917
   655.0000     -1.9201   -286.9721      0.0471     85.2907
   655.2500     -2.1169   -292.7478      0.0422     79.3709
   655.5000     -2.2440   -295.4300      0.0404     72.6973
   655.7500     -2.3254   -295.2524      0.0410     70.1275
   656.0000     -2.3663   -292.5526      0.0435     68.8273
   656.2500     -2.3695   -287.7179      0.0477     68.9700
   656.5000     -2.3405   -281.1393      0.0542     69.5304
   656.7500     -2.2828   -273.2030      0.0642     70.0941
   657.0000     -2.1906   -264.3002      0.0812     72.3043
   657.2500     -2.0460   -254.8429      0.1115     75.3418
   657.5000     -1.8249   -245.2730      0.1662     82.2888
   657.7500     -1.5158   -236.0437      0.2617     87.8382
   658.0000     -1.1441   -227.5673      0.4219     95.7360
   658.2500     -0.7813   -220.1429      0.6949     99.6441
