~Version Information
VERS.                      2.0: CWLS Log ASCII Standard - VERSION 2.0
WRAP.                       NO: One line per depth step
~Well Information Block
STRT.FT                -8.5000: 
STOP.FT              1597.7500: 
STEP.FT                 0.2500: 
NULL.                -999.2500: 
COMP.          Pioneer Natural Resources: COMPANY
WELL.          Dude Canyon 22-32 Tr: WELL
FLD.           Purgatorie River: FIELD
LOC.           1741' FnL & 2331' FWL--: LOCATION
PROV.                       CO: PROVINCE
CNTY.               Las Animas: COUNTRY
SRVC.          Patterson Wireline: SERVICE COMPANY
DATE.          Fri Jul 15 14:44:37 2005: LOG DATE
UWI.           05 071 08421 00: UNIQUE WELL ID
~Curve Information Block
DEPT.FT            0 000 00 00: Depth
CCL.                          : Casing Collar Locator
TT3.usec                      : CBL 3' Travel Time
AMP3.mV                       : CBL 3' Amplitude
GR.GAPI                       : Gamma Ray
~Parameter Information Block
~A  Depth       CCL         TT3         AMP3         GR     
# ...
   728.5000      0.0000    773.1226      9.0788     59.5381
   728.7500      0.0000    746.8395      9.2173     59.0167
   729.0000      0.0000    735.5989      9.2833     56.8756
   729.2500      0.0000    746.6896      9.2722     53.5684
   729.5000      0.0000    772.7943      9.1981     50.0188
   729.7500      0.0000    799.3789      9.0867     47.4404
   730.0000      0.0000    817.0975      8.9658     46.5787
   730.2500      0.0000    825.4603      8.8684     47.0579
   730.5000      0.0000    828.1890      8.8386     47.8016
   730.7500      0.0000    828.4570      8.9116     48.0879
   731.0000      0.0000    827.4924      9.0721     47.9319
   731.2500      0.0000    825.0090      9.2471     47.6697
   731.5000      0.0000    820.1430      9.3578     47.7774
   731.7500      0.0000    812.9711      9.3770     49.0781
   732.0000      0.0000    805.5943      9.3347     52.4797
   732.2500      0.0000    800.8972      9.2768     58.3201
   732.5000      0.0000    799.2058      9.2277     66.2115
   732.7500      0.0000    797.2822      9.1853     75.4764
   733.0000      0.0000    792.3673      9.1417     85.4795
   733.2500      0.0000    786.6959      9.1033     95.5904
   733.5000      0.0000    785.9232      9.0920    105.1155
   733.7500      0.0000    792.7289      9.1253    113.4043
   734.0000      0.0000    803.5371      9.1951    120.0963
   734.2500      0.0000    811.9510      9.2703    125.3799
   734.5000      0.0000    814.1148      9.3223    130.0299
   734.7500      0.0000    810.7051      9.3483    134.9398
   735.0000      0.0000    805.4539      9.3662    140.1714
   735.2500      0.0000    802.3303      9.3909    144.4482
   735.5000      0.0000    803.0953      9.4206    146.2634
   735.7500      0.0000    806.7307      9.4433    145.9120
   736.0000      0.0000    811.0967      9.4505    145.7501
   736.2500      0.0000    814.5505      9.4420    147.8022
   736.5000      0.0000    815.3273      9.4217    151.4815
   736.7500      0.0000    809.7755      9.3925    154.2294
   737.0000      0.0000    792.6224      9.3556    154.2764
   737.2500      0.0000    760.1125      9.3131    152.2934
   737.5000      0.0000    712.8954      9.2691    150.3274
   737.7500      0.0000    655.4815      9.2215    149.6577
   738.0000      0.0000    594.1940      9.1541    150.0275
   738.2500      0.0000    538.0305      9.0446    150.2726
   738.5000      0.0000    499.1181      8.8885    148.9004
   738.7500      0.0000    486.0971      8.7077    144.5295
   739.0000      0.0000    495.6546      8.5115    136.8375
   739.2500      0.0000    514.7105      8.2515    127.2815
   739.5000      0.0000    532.3112      7.8590    118.5221
   739.7500      0.0000    547.3208      7.3467    112.9961
   740.0000      0.0000    565.4143      6.8356    111.7767
   740.2500      0.0000    591.4476      6.4531    114.3678
   740.5000      0.0000    624.4768      6.2347    119.3198
   740.7500      2.0000    658.1981      6.1324    125.1004
   741.0000      2.0000    685.1904      6.0768    130.5824
   741.2500      0.0000    700.8481      6.0173    134.9515
   741.5000      0.0000    705.7065      5.9409    137.5455
   741.7500      0.0000    706.3890      5.8823    138.0576
   742.0000      0.0000    712.0760      5.9098    136.8481
   742.2500      0.0000    726.5737      6.0856    134.9391
   742.5000      0.0000    744.6456      6.4243    133.6510
   742.7500      0.0000    757.8995      6.8726    133.8558
   743.0000      0.0000    762.6416      7.3210    135.3689
   743.2500      0.0000    761.6031      7.6589    137.3615
   743.5000      0.0000    760.2788      7.8383    139.3513
   743.7500      0.0000    762.2948      7.8885    141.3351
   744.0000      0.0000    767.5836      7.8760    143.0431
   744.2500      0.0000    774.4881      7.8583    143.9146
   744.5000      0.0000    782.1600      7.8669    143.9556
   744.7500      0.0000    789.5284      7.9104    143.7558
   745.0000      0.0000    793.0029      7.9812    143.4128
   745.2500      0.0000    787.7057      8.0624    142.2951
   745.5000      0.0000    771.9847      8.1356    140.3443
   745.7500      0.0000    750.1052      8.1886    138.8640
   746.0000      0.0000    729.8265      8.2207    139.1587
   746.2500      0.0000    717.3226      8.2378    140.8247
   746.5000      0.0000    714.0178      8.2425    142.3865
   746.7500      0.0000    716.8049      8.2299    143.4451
   747.0000      0.0000    719.9429      8.1955    145.0927
   747.2500      0.0000    717.8887      8.1433    147.9310
   747.5000      0.0000    709.2277      8.0831    150.5283
   747.7500      0.0000    699.4324      8.0225    150.4726
   748.0000      0.0000    698.1198      7.9654    146.7076
   748.2500      0.0000    711.0462      7.9173    140.6362
   748.5000      0.0000    734.4813      7.8924    135.1508
   748.7500      0.0000    757.7104      7.9118    132.5151
   749.0000      0.0000    769.6020      7.9880    132.5822
   749.2500      0.0000    761.9072      8.1095    132.7921
   749.5000      0.0000    729.0706      8.2414    130.4545
   749.7500      0.0000    669.9598      8.3454    125.4982
   750.0000      0.0000    592.8005      8.4007    120.5545
   750.2500      0.0000    516.1251      8.4091    117.8698
   750.5000      0.0000    459.4545      8.3877    116.5781
   750.7500      0.0000    430.2278      8.3590    113.6185
   751.0000      0.0000    420.7210      8.3447    107.0930
   751.2500      0.0000    418.1394      8.3630     98.1836
   751.5000      0.0000    415.5545      8.4223     89.9595
   751.7500      0.0000    412.2707      8.5153     84.9692
   752.0000      0.0000    407.5317      8.6177     83.8897
   752.2500      0.0000    398.7602      8.6949     85.7429
   752.5000      0.0000    385.5516      8.7156     89.1395
   752.7500      0.0000    371.4165      8.6703     93.6142
   753.0000      0.0000    360.4438      8.5845     99.8127
   753.2500      0.0000    353.9557      8.5123    108.4078
   753.5000      0.0000    350.7585      8.5086    119.0236
   753.7500      0.0000    349.1701      8.5958    129.9909
   754.0000      0.0000    348.2056      8.7514    138.8616
   754.2500      0.0000    347.5556      8.9236    143.7753
   754.5000      0.0000    347.1830      9.0605    144.9766
   754.7500      0.0000    347.0607      9.1329    144.5439
   755.0000      0.0000    347.1108      9.1413    144.0370
   755.2500      0.0000    347.2353      9.1050    142.9323
   755.5000      0.0000    347.3592      9.0436    139.9799
   755.7500      0.0000    347.4503      8.9682    135.4848
   756.0000      0.0000    347.5062      8.8855    131.3741
   756.2500      0.0000    347.5361      8.8067    129.1088
   756.5000      0.0000    347.5517      8.7474    128.1957
   756.7500      0.0000    347.5603      8.7228    126.9642
   757.0000      0.0000    347.5587      8.7428    124.4651
   757.2500      0.0000    347.5316      8.8085    121.2442
   757.5000      0.0000    347.4617      8.9090    118.4508
   757.7500      0.0000    347.3457      9.0211    116.7997
   758.0000      0.0000    347.2026      9.1173    116.4081
   758.2500      0.0000    347.0638      9.1777    116.9725
   758.5000      0.0000    346.9486      9.1989    117.8435
   758.7500      0.0000    346.8520      9.1900    118.4069
   759.0000      0.0000    346.7615      9.1618    118.6708
   759.2500      0.0000    346.6806      9.1183    119.1179
   759.5000      0.0000    346.6317      9.0576    119.8451
   759.7500      0.0000    346.6402      8.9762    120.3419
   760.0000      0.0000    346.7220      8.8760    120.2590
   760.2500      0.0000    346.8905      8.7703    119.7763
   760.5000      0.0000    347.1725      8.6815    119.0863
   760.7500      0.0000    347.6296      8.6303    118.1312
   761.0000      0.0000    348.4108      8.6263    116.9373
   761.2500      0.0000    349.8859      8.6654    115.5943
   761.5000      0.0000    352.7392      8.7338    113.9902
   761.7500      0.0000    357.6780      8.8130    112.2141
