~Version Information
VERS.                      2.0: CWLS Log ASCII Standard - VERSION 2.0
WRAP.                       NO: One line per depth step
~Well Information Block
STRT.FT               340.0000: 
STOP.FT              1542.5000: 
STEP.FT                 0.2500: 
NULL.                -999.2500: 
COMP.          Petrogulf Corporation: COMPANY
WELL.            Montoya 7-21R: WELL
FLD.           Purgatorie River: FIELD
LOC.           445' FNL & 1942' FWL: LOCATION
PROV.                 Colorado: PROVINCE
CNTY.               Las Animas: COUNTRY
SRVC.                Patterson: SERVICE COMPANY
DATE.          Thu Sep 15 10:37:42 2005: LOG DATE
UWI.                          : UNIQUE WELL ID
~Curve Information Block
DEPT.FT            0 000 00 00: Depth
SP.mV                         : DIL Spontaneous Potential
RILD.Ohm-m                    : DIL Deep Resistivity
RILM.Ohm-m                    : DIL Medium Resistivity
RLL3.Ohm-m                    : DIL Shallow Resistivity
GR.GAPI                       : Gamma Ray
~Parameter Information Block
~A  Depth        SP         RILD        RILM        RLL3         GR     
# ...
   564.0000   2000.0000     11.5502     11.2167   2000.0000    161.8836
   564.2500   2000.0000     11.4676     10.9395   2000.0000    177.5704
   564.5000   2000.0000     11.6888     10.7614   2000.0000    149.3889
   564.7500   2000.0000     11.4790     10.5291   2000.0000    148.1640
   565.0000   2000.0000     11.3784     10.5193   2000.0000    156.0657
   565.2500   2000.0000     11.1415     10.6903   2000.0000    148.4530
   565.5000   2000.0000     10.9495     10.8138   2000.0000    170.8002
   565.7500   2000.0000     10.8148     10.7699   2000.0000    167.0597
   566.0000   2000.0000     10.6482     10.6325   2000.0000    143.0521
   566.2500   2000.0000     10.7450     10.4252   2000.0000    150.4023
   566.5000   2000.0000     10.8822     10.2074   2000.0000    157.8299
   566.7500   2000.0000     11.0096      9.9384   2000.0000    146.5609
   567.0000   2000.0000     11.1780      9.7648   2000.0000    136.8188
   567.2500   2000.0000     11.4010      9.8116   2000.0000    127.8455
   567.5000   2000.0000     11.6177     10.2441   2000.0000    135.9888
   567.7500   2000.0000     11.9563     10.6352   2000.0000    133.6272
   568.0000   2000.0000     12.3445     11.3046   2000.0000    141.2108
   568.2500   2000.0000     12.5366     12.0202   2000.0000    144.1751
   568.5000   2000.0000     12.9762     12.5588   2000.0000    157.9396
   568.7500   2000.0000     13.1872     13.1754   2000.0000    159.5045
   569.0000   2000.0000     13.5875     13.9247   2000.0000    153.1375
   569.2500   2000.0000     14.2503     14.9416   2000.0000    143.7470
   569.5000   2000.0000     14.9529     15.8461   2000.0000    131.1054
   569.7500   2000.0000     15.5947     16.7803   2000.0000    135.8193
   570.0000   2000.0000     16.4454     18.2063   2000.0000    143.8062
   570.2500   2000.0000     16.5973     19.1400   2000.0000    123.5220
   570.5000   2000.0000     16.8058     19.9489   2000.0000    141.3655
   570.7500   2000.0000     17.0724     20.5564   2000.0000    128.0992
   571.0000   2000.0000     17.4692     20.4915   2000.0000    127.3318
   571.2500   2000.0000     17.8835     20.1107   2000.0000    116.4917
   571.5000   2000.0000     17.8158     19.6109   2000.0000    131.1369
   571.7500   2000.0000     17.7643     18.8381   2000.0000    134.3658
   572.0000   2000.0000     17.5037     17.6999   2000.0000    145.8756
   572.2500   2000.0000     17.3751     17.4816   2000.0000    127.2178
   572.5000   2000.0000     17.2941     17.2395   2000.0000    147.8328
   572.7500   2000.0000     17.0282     17.3399   2000.0000    136.7005
   573.0000   2000.0000     16.9726     16.9539   2000.0000    165.9773
   573.2500   2000.0000     16.9707     16.4775   2000.0000    185.6085
   573.5000   2000.0000     16.6780     16.1781   2000.0000    164.1336
   573.7500   2000.0000     16.4441     16.4176   2000.0000    167.7829
   574.0000   2000.0000     16.2986     16.5899   2000.0000    164.2740
   574.2500   2000.0000     16.4315     16.7742   2000.0000    158.8173
   574.5000   2000.0000     16.2910     17.1313   2000.0000    161.3336
   574.7500   2000.0000     16.4117     17.6059   2000.0000    160.5762
   575.0000   2000.0000     16.2424     17.4440   2000.0000    139.3035
   575.2500   2000.0000     16.5309     17.6343   2000.0000    138.6827
   575.5000   2000.0000     16.9204     17.5609   2000.0000    136.5142
   575.7500   2000.0000     17.3221     17.5619   2000.0000    113.0320
   576.0000   2000.0000     17.3763     17.6502   2000.0000    109.0602
   576.2500   2000.0000     17.6469     17.9861   2000.0000    115.6533
   576.5000   2000.0000     17.5725     18.3629   2000.0000    135.0083
   576.7500   2000.0000     17.8395     18.6708   2000.0000    137.1483
   577.0000   2000.0000     17.9291     18.4889   2000.0000    122.8399
   577.2500   2000.0000     17.8521     18.8028   2000.0000    119.7058
   577.5000   2000.0000     18.0385     18.4804   2000.0000    115.0216
   577.7500   2000.0000     18.3349     18.0881   2000.0000    110.8005
   578.0000   2000.0000     18.6840     17.7395   2000.0000    139.8028
   578.2500   2000.0000     19.3898     17.6847   2000.0000    105.2501
   578.5000   2000.0000     19.8795     17.7059   2000.0000    125.5111
   578.7500   2000.0000     20.4220     18.5181   2000.0000    131.8375
   579.0000   2000.0000     21.4037     19.4333   2000.0000    137.8141
   579.2500   2000.0000     22.1841     20.8827   2000.0000    136.0359
   579.5000   2000.0000     22.5021     23.1870   2000.0000    150.0689
   579.7500   2000.0000     23.0438     25.6245   2000.0000    146.5870
   580.0000   2000.0000     24.0964     26.1951   2000.0000    131.1565
   580.2500   2000.0000     25.2055     27.4306   2000.0000    112.9995
   580.5000   2000.0000     26.2989     29.0098   2000.0000    106.5868
   580.7500   2000.0000     28.5648     31.2816   2000.0000     92.7344
   581.0000   2000.0000     29.4153     32.6176   2000.0000     81.8275
   581.2500   2000.0000     31.0500     37.0517   2000.0000     78.4866
   581.5000   2000.0000     32.7958     40.9257   2000.0000     82.9786
   581.7500   2000.0000     32.4218     45.0608   2000.0000     86.6098
   582.0000   2000.0000     33.6460     48.2864   2000.0000     80.5720
   582.2500   2000.0000     35.3616     51.3728   2000.0000     58.5684
   582.5000   2000.0000     32.4466     51.1425   2000.0000     67.4627
   582.7500   2000.0000     31.2757     50.3607   2000.0000     63.4294
   583.0000   2000.0000     30.1963     48.2934   2000.0000     63.8011
   583.2500   2000.0000     28.8257     43.3528   2000.0000     65.7386
   583.5000   2000.0000     28.3271     37.0114   2000.0000     64.8296
   583.7500   2000.0000     26.7782     32.1168   2000.0000     65.5871
   584.0000   2000.0000     26.3556     27.7481   2000.0000     83.7771
   584.2500   2000.0000     24.9155     24.7989   2000.0000     86.5189
   584.5000   2000.0000     24.5927     23.1940   2000.0000     98.7111
   584.7500   2000.0000     23.0896     22.2145   2000.0000    111.9773
   585.0000   2000.0000     22.1314     21.3099   2000.0000    146.9845
   585.2500   2000.0000     21.1546     20.9080   2000.0000    141.8411
   585.5000   2000.0000     20.4998     20.3708   2000.0000    125.6218
   585.7500   2000.0000     19.6944     19.9798   2000.0000    103.7500
   586.0000   2000.0000     18.7147     19.4317   2000.0000    104.3179
   586.2500   2000.0000     18.0859     17.9471   2000.0000     94.5204
   586.5000   2000.0000     17.1588     17.8100   2000.0000     97.2792
   586.7500   2000.0000     17.2229     17.6532   2000.0000    113.8026
   587.0000   2000.0000     16.6924     17.5634   2000.0000    140.5074
   587.2500   2000.0000     16.5286     17.2982   2000.0000    153.2858
   587.5000   2000.0000     16.4075     16.4674   2000.0000    125.8261
   587.7500   2000.0000     16.4744     15.4398   2000.0000    122.9193
   588.0000   2000.0000     16.2718     14.6561   2000.0000    127.5181
   588.2500   2000.0000     16.3468     14.2550   2000.0000    110.5322
   588.5000   2000.0000     16.3516     14.2492   2000.0000    128.3889
   588.7500   2000.0000     16.3936     14.6930   2000.0000    131.9760
   589.0000   2000.0000     16.5236     15.1069   2000.0000    135.7711
   589.2500   2000.0000     16.1367     15.8922   2000.0000    133.9138
   589.5000   2000.0000     15.6209     16.4321   2000.0000    142.3752
   589.7500   2000.0000     15.3045     16.5752   2000.0000    138.8359
   590.0000   2000.0000     15.0981     16.4472   2000.0000    124.8262
   590.2500   2000.0000     14.5504     15.7620   2000.0000    119.2131
   590.5000   2000.0000     14.8616     14.9621   2000.0000    131.1947
   590.7500   2000.0000     15.3632     14.3914   2000.0000    126.8847
   591.0000   2000.0000     15.9730     13.9997   2000.0000    112.8111
   591.2500   2000.0000     16.5116     14.0105   2000.0000    123.9685
   591.5000   2000.0000     17.0234     14.3331   2000.0000    148.3580
   591.7500   2000.0000     17.7935     14.9420   2000.0000    142.6301
