~Version Information
VERS.                      2.0: CWLS Log ASCII Standard - VERSION 2.0
WRAP.                       NO: One line per depth step
~Well Information Block
STRT.FT                -0.2500: 
STOP.FT              2376.7500: 
STEP.FT                 0.2500: 
NULL.                -999.2500: 
COMP.          Petrogulf Corporation: COMPANY
WELL.             State 16-23V: WELL
FLD.           Purgatorie River: FIELD
LOC.           2414' FSL & 2215' FWL: LOCATION
PROV.                 Colorado: PROVINCE
CNTY.               Las Animas: COUNTRY
SRVC.          Patterson Wireline: SERVICE COMPANY
DATE.          Wed Jun 25 14:56:54 2003: LOG DATE
UWI.           05 071 07865 00: UNIQUE WELL ID
~Curve Information Block
DEPT.FT            0 000 00 00: Depth
CCL.                          : Casing Collar Locator
TT3.usec                      : CBL 3' Travel Time
AMP3.mV                       : CBL 3' Amplitude
GR.GAPI                       : Gamma Ray
~Parameter Information Block
~A  Depth       CCL         TT3         AMP3         GR     
# ...
  1105.2500      0.0000    256.1582     65.1681    118.5174
  1105.5000      0.0000    256.0205     65.1875    109.3009
  1105.7500      0.0000    255.8957     65.1214     98.3227
  1106.0000      0.0000    255.8294     64.9288     89.3019
  1106.2500      0.0000    255.8331     64.6000     85.5769
  1106.5000      0.0000    255.8813     64.1513     88.0505
  1106.7500      0.0000    255.9357     63.6302     95.4150
  1107.0000      0.0000    255.9735     63.1269    105.0942
  1107.2500      0.0000    255.9935     62.7683    114.0254
  1107.5000      0.0000    256.0066     62.6750    119.8474
  1107.7500      0.0000    256.0266     62.8979    121.7908
  1108.0000      0.0000    256.0651     63.3859    120.0970
  1108.2500      0.0000    256.1232     64.0182    115.0174
  1108.5000      0.0000    256.1848     64.6522    106.8967
  1108.7500      0.0000    256.2265     65.1433     96.7591
  1109.0000      0.0000    256.2408     65.3654     86.3162
  1109.2500      0.0000    256.2424     65.2695     77.4209
  1109.5000      0.0000    256.2430     64.9383     71.3176
  1109.7500      0.0000    256.2352     64.5630     68.0826
  1110.0000      0.0000    256.2118     64.3377     66.6736
  1110.2500      0.0000    256.1879     64.3633     65.5384
  1110.5000      0.0000    256.1861     64.6283     63.3668
  1110.7500      0.0000    256.2027     65.0280     59.5809
  1111.0000      0.0000    256.2060     65.3875     54.2993
  1111.2500      0.0000    256.1695     65.5283     48.0039
  1111.5000      0.0000    256.0944     65.3918     41.4426
  1111.7500      0.0000    256.0002     65.1171     35.7721
  1112.0000      0.0000    255.9064     64.9701     32.3690
  1112.2500      0.0000    255.8350     65.1589     32.0251
  1112.5000      0.0000    255.8115     65.6801     34.1785
  1112.7500      0.0000    255.8514     66.3079     37.1599
  1113.0000      0.0000    255.9438     66.7354     39.3226
  1113.2500      0.0000    256.0563     66.7771     39.9315
  1113.5000      0.0000    256.1495     66.4694     39.2714
  1113.7500      0.0000    256.1933     65.9882     38.3686
  1114.0000      0.0000    256.1848     65.4975     38.4165
  1114.2500      0.0000    256.1563     65.1034     39.8506
  1114.5000      0.0000    256.1564     64.9097     41.8801
  1114.7500      0.0000    256.2127     65.0159     43.2704
  1115.0000      0.0000    256.3058     65.4216     43.6256
  1115.2500      0.0000    256.3777     65.9717     43.6672
  1115.5000      0.0000    256.3760     66.4406     44.3476
  1115.7500      0.0000    256.2971     66.6884     46.1337
  1116.0000      0.0000    256.1857     66.7484     49.1907
  1116.2500      0.0000    256.0918     66.7644     53.6345
  1116.5000      0.0000    256.0358     66.8483     59.0623
  1116.7500      0.0000    256.0115     67.0069     64.0813
  1117.0000      0.0000    256.0053     67.1929     66.9169
  1117.2500      0.0000    256.0116     67.3897     66.8477
  1117.5000      0.0000    256.0363     67.6230     65.0884
  1117.7500      0.0000    256.0940     67.8999     64.2742
  1118.0000      0.0000    256.1945     68.1556     67.0673
  1118.2500      0.0000    256.3240     68.2772     74.9379
  1118.5000      0.0000    256.4402     68.1746     87.5453
  1118.7500      0.0000    256.4965     67.8371    102.6187
  1119.0000      0.0000    256.4731     67.3556    116.4799
  1119.2500      0.0000    256.3852     66.8904    125.4872
  1119.5000      0.0000    256.2677     66.5740    127.6950
  1119.7500      0.0000    256.1563     66.4314    123.3656
  1120.0000      0.0000    256.0735     66.4128    114.1008
  1120.2500      0.0000    256.0210     66.4797    101.8439
  1120.5000      0.0000    255.9834     66.6048     88.6733
  1120.7500      0.0000    255.9442     66.6854     76.9231
  1121.0000      0.0000    255.9095     66.4877     68.8034
  1121.2500      0.0000    255.9331     65.6626     65.6732
  1121.5000      0.0000    256.1238     63.8235     67.6636
  1121.7500      0.0000    256.6173     60.7003     73.8265
  1122.0000      0.0000    257.5147     56.3149     82.3985
  1122.2500      0.0000    258.8149     51.0441     91.0964
  1122.5000      0.0000    260.3759     45.5496     97.8948
  1122.7500      0.0000    261.9470     40.6250    102.1795
  1123.0000      0.0000    263.2795     36.9325    104.9513
  1123.2500      0.0000    264.2506     34.7194    107.5338
  1123.5000      0.0000    264.9232     33.7547    110.3725
  1123.7500     -2.0000    265.5251     33.5564    113.3808
  1124.0000     -2.0000    266.4015     33.6968    116.9099
  1124.2500      0.0000    267.8778     34.0499    121.6649
  1124.5000      0.0000    269.8901     34.8936    127.7319
  1124.7500      0.0000    271.6205     36.7183    134.0767
  1125.0000      0.0000    271.8239     39.7883    138.8906
  1125.2500      0.0000    269.9031     43.8914    140.4378
  1125.5000      0.0000    266.5524     48.5290    138.3530
  1125.7500      0.0000    263.1268     53.1651    134.5230
  1126.0000      0.0000    260.5634     57.2450    132.1578
  1126.2500      0.0000    259.0304     60.2870    133.5984
  1126.5000      0.0000    258.2738     62.1635    138.9087
  1126.7500      0.0000    257.9838     63.1570    146.0374
  1127.0000      0.0000    257.9243     63.6667    151.8527
  1127.2500      0.0000    257.9454     63.9478    153.5573
  1127.5000      0.0000    257.9749     64.0975    150.2182
  1127.7500      0.0000    257.9915     64.1364    143.5186
  1128.0000      0.0000    257.9978     64.0598    136.9041
  1128.2500      0.0000    257.9996     63.9018    133.5837
  1128.5000      0.0000    257.9999     63.7646    134.7498
  1128.7500      0.0000    258.0000     63.7476    138.8591
  1129.0000      0.0000    258.0000     63.8503    142.2512
  1129.2500      0.0000    258.0000     63.9836    141.2005
  1129.5000      0.0000    257.9999     64.0750    134.4239
  1129.7500      0.0000    257.9995     64.1237    123.8052
  1130.0000      0.0000    257.9973     64.1475    112.5982
  1130.2500      0.0000    257.9890     64.1252    103.3167
  1130.5000      0.0000    257.9642     64.0287     97.3726
  1130.7500      0.0000    257.9082     63.8780     95.5603
  1131.0000      0.0000    257.8142     63.7219     97.7425
  1131.2500      0.0000    257.7030     63.5798    102.3036
  1131.5000      0.0000    257.6245     63.4434    106.7234
  1131.7500      0.0000    257.6245     63.3247    108.8679
  1132.0000      0.0000    257.7030     63.2700    107.7937
  1132.2500      0.0000    257.8142     63.3095    103.6748
  1132.5000      0.0000    257.9078     63.3986     97.3141
  1132.7500      0.0000    257.9620     63.4400     89.7917
  1133.0000      0.0000    257.9802     63.3813     82.2099
  1133.2500      0.0000    257.9699     63.2650     75.3619
  1133.5000      0.0000    257.9325     63.1695     69.6750
  1133.7500      0.0000    257.8698     63.1383     65.7304
  1134.0000      0.0000    257.7947     63.1847     64.6844
  1134.2500      0.0000    257.7266     63.3168     67.5316
  1134.5000      0.0000    257.6738     63.5115     73.6644
  1134.7500      0.0000    257.6294     63.6891     80.6748
  1135.0000      0.0000    257.5873     63.7716     86.0397
  1135.2500      0.0000    257.5539     63.7615     88.8736
  1135.5000      0.0000    257.5406     63.7192     89.9693
  1135.7500      0.0000    257.5517     63.6703     90.5937
  1136.0000      0.0000    257.5786     63.5909     91.5481
  1136.2500      0.0000    257.6024     63.4880     93.0256
  1136.5000      0.0000    257.6086     63.4420     94.8349
  1136.7500      0.0000    257.6034     63.5298     96.5804
  1137.0000      0.0000    257.6099     63.7235     97.6749
  1137.2500      0.0000    257.6433     63.9063     97.3075
  1137.5000      0.0000    257.6917     63.9866     94.7321
  1137.7500      0.0000    257.7283     63.9648     90.0751
  1138.0000      0.0000    257.7412     63.8902     84.8773
  1138.2500      0.0000    257.7421     63.7888     81.2960
  1138.5000      0.0000    257.7412     63.6569     80.3093
