~Version Information
VERS.                      2.0: CWLS Log ASCII Standard - VERSION 2.0
WRAP.                       NO: One line per depth step
~Well Information Block
STRT.FT                -3.2500: 
STOP.FT              1637.5000: 
STEP.FT                 0.2500: 
NULL.                -999.2500: 
COMP.          Pioneer Natural Resources: COMPANY
WELL.            Mad Dog 42-31: WELL
FLD.           Purgatorie River: FIELD
LOC.           2064' FNL & 479' FEL--: LOCATION
PROV.                       CO: PROVINCE
CNTY.               Las Animas: COUNTRY
SRVC.                         : SERVICE COMPANY
DATE.          Fri Oct 15 16:13:39 2004: LOG DATE
UWI.          005 071 08195   : UNIQUE WELL ID
~Curve Information Block
DEPT.FT            0 000 00 00: Depth
HVOLTA.V                      : Head Voltage Apparent
GR.GAPI                       : Gamma Ray
CCL.                          : Casing Collar Locator
TT3.usec                      : CBL 3' Travel Time
AMP3.mV                       : CBL 3' Amplitude
~Parameter Information Block
~A  Depth      HVOLTA        GR         CCL         TT3         AMP3    
# ...
  1620.7500     96.9835     91.3343      0.0000    666.5308      6.0792
  1621.0000     97.1925     90.3828      0.0000    663.9727      6.0609
  1621.2500     96.9763     92.7633      0.0000    662.7224      6.0423
  1621.5000     96.9489     96.2476      0.0000    662.1389      6.0034
  1621.7500     96.8772     98.8107      0.0000    661.7967      5.9309
  1622.0000     97.1340    100.0250      0.0000    661.5306      5.8185
  1622.2500     97.1161    100.8518      0.0000    661.2846      5.6740
  1622.5000     97.0288    102.4163      0.0000    661.0078      5.5204
  1622.7500     96.9453    105.2482      0.0000    660.6640      5.3861
  1623.0000     96.9560    109.3067      0.0000    660.2848      5.2958
  1623.2500     96.9153    114.1723      0.0000    659.9571      5.2699
  1623.5000     96.9082    118.9862      0.0000    659.7020      5.3260
  1623.7500     96.9835    122.2451      0.0000    659.3113      5.4810
  1624.0000     97.0134    122.1822      0.0000    657.7991      5.7449
  1624.2500     97.0002    118.1751      0.0000    651.9780      6.0633
  1624.5000     96.9667    111.8153      0.0000    634.1389      6.2115
  1624.7500     96.8055    105.8976      0.0000    591.4149      5.7935
  1625.0000     96.8126    102.2421      0.0000    511.6335      4.4903
  1625.2500     96.8126    100.8999      0.0000    395.5575      2.3862
  1625.5000     96.8868    101.1302      0.0000    264.0137      0.0050
  1625.7500     97.1172    102.4332      0.0000    147.9124     -2.0286
  1626.0000     96.7744    104.6990      0.0000     68.1077     -3.3747
  1626.2500     96.9870    107.8408      0.0000     25.3869     -4.0721
  1626.5000     96.8365    111.3155      0.0000      7.5767     -4.3556
  1626.7500     96.8258    113.8994      0.0000      1.7942     -4.4460
  1627.0000     96.9835    114.1797      0.0000      0.3321     -4.4687
  1627.2500     96.9011    111.7405      0.0000      0.0442     -4.4730
  1627.5000     96.8868    107.9753     -2.0000   -999.2500   -999.2500
  1627.7500     96.9046    105.3817     -2.0000   -999.2500   -999.2500
  1628.0000     96.9596    105.7917      0.0000   -999.2500   -999.2500
  1628.2500     96.9596    109.1785      0.0000   -999.2500   -999.2500
  1628.5000     96.9585    113.7488      0.0000   -999.2500   -999.2500
  1628.7500     96.9560    116.9268      0.0000   -999.2500   -999.2500
  1629.0000     96.9321    116.8179      0.0000   -999.2500   -999.2500
  1629.2500     97.0277    113.4195      0.0000   -999.2500   -999.2500
  1629.5000     97.0277    108.5204      0.0000   -999.2500   -999.2500
  1629.7500     96.8796    104.2201      0.0000   -999.2500   -999.2500
  1630.0000     96.9428    101.4401      0.0000   -999.2500   -999.2500
  1630.2500     96.9524     99.8329      0.0000   -999.2500   -999.2500
  1630.5000     96.6920     98.9255      0.0000   -999.2500   -999.2500
  1630.7500     97.1029     98.8479      0.0000   -999.2500   -999.2500
  1631.0000     97.0420     99.7062      0.0000   -999.2500   -999.2500
  1631.2500     96.9392    100.8061      0.0000   -999.2500   -999.2500
  1631.5000     96.7841    101.0900      0.0000   -999.2500   -999.2500
  1631.7500     97.1922    100.2706      0.0000   -999.2500   -999.2500
  1632.0000     96.8343     99.1877      0.0000   -999.2500   -999.2500
  1632.2500     96.8151     98.9543      0.0000   -999.2500   -999.2500
  1632.5000     96.8747     99.8006      0.0000   -999.2500   -999.2500
  1632.7500     96.7709    100.8754      0.0000   -999.2500   -999.2500
  1633.0000     97.0313    101.3968   -999.2500   -999.2500   -999.2500
  1633.2500     96.8019    101.9074   -999.2500   -999.2500   -999.2500
  1633.5000     96.8986    103.8161   -999.2500   -999.2500   -999.2500
  1633.7500     96.9250    107.5476   -999.2500   -999.2500   -999.2500
  1634.0000     96.7577    111.7443   -999.2500   -999.2500   -999.2500
  1634.2500     97.0587    114.4428   -999.2500   -999.2500   -999.2500
  1634.5000     96.9489    114.1016   -999.2500   -999.2500   -999.2500
  1634.7500     96.9489    108.9582   -999.2500   -999.2500   -999.2500
  1635.0000     96.8747     96.7132   -999.2500   -999.2500   -999.2500
  1635.2500     96.7983     76.7038   -999.2500   -999.2500   -999.2500
  1635.5000     96.9225     52.3397   -999.2500   -999.2500   -999.2500
  1635.7500     97.0826     29.8339   -999.2500   -999.2500   -999.2500
  1636.0000     96.8497     13.9125   -999.2500   -999.2500   -999.2500
  1636.2500     96.7577      5.2330   -999.2500   -999.2500   -999.2500
  1636.5000     96.9906      1.5718   -999.2500   -999.2500   -999.2500
  1636.7500     96.8329      0.3743   -999.2500   -999.2500   -999.2500
  1637.0000     96.9214      0.0696   -999.2500   -999.2500   -999.2500
  1637.2500   -999.2500      0.0093   -999.2500   -999.2500   -999.2500
  1637.5000   -999.2500      0.0000   -999.2500   -999.2500   -999.2500
