~Version Information
VERS.                      2.0: CWLS Log ASCII Standard - VERSION 2.0
WRAP.                       NO: One line per depth step
~Well Information Block
STRT.FT               480.0000: 
STOP.FT              1625.5000: 
STEP.FT                 0.1000: 
NULL.                -999.2500: 
COMP.          Pioneer Natural Resources: COMPANY
WELL.          Dude Canyon 22-32 Tr: WELL
FLD.           Purgatoire River: FIELD
LOC.           1741' FNL & 2331' FWL: LOCATION
PROV.                 Colorado: PROVINCE
CNTY.               Las Animas: COUNTRY
SRVC.                Patterson: SERVICE COMPANY
DATE.          Mon Jul 11 10:33:06 2005: LOG DATE
UWI.           05 071 08421 00: UNIQUE WELL ID
~Curve Information Block
DEPT.FT            0 000 00 00: Depth
DCAL.in                       : CDL Caliper
RHOB.g/cc                     : CDL Bulk Density
RHOC.g/cc                     : CDL Density Correction
DPOR.pu                       : CDL Density Porosity
GR.GAPI                       : Gamma Ray
NPOR.pu                       : Neutron Porosity
~Parameter Information Block
~A  Depth       DCAL        RHOB        RHOC        DPOR         GR         NPOR    
# ...
  1238.4000      8.0428      2.5215      0.0510      7.7883    104.2822     23.8629
  1238.5000      7.9943      2.5282      0.0221      7.3830    100.9679     24.0736
  1238.6000      7.9943      2.5365      0.0668      6.8817    104.4130     24.3659
  1238.7000      7.9943      2.5369     -0.0049      6.8556    110.2113     24.1819
  1238.8000      7.9829      2.5436      0.0649      6.4476    111.6357     23.8614
  1238.9000      7.9829      2.5639      0.0527      5.2174    110.0805     24.2766
  1239.0000      7.9943      2.5904      0.0962      3.6118    110.5173     25.5532
  1239.1000      7.9943      2.6192      0.1450      1.8694    113.4834     26.7954
  1239.2000      7.9943      2.6510      0.1411     -0.0626    116.4320     27.1732
  1239.3000      7.9995      2.6861      0.2040     -2.1884    118.3381     26.9228
  1239.4000      7.9995      2.7218      0.1803     -4.3485    120.4651     27.0171
  1239.5000      7.9164      2.7514      0.2070     -6.1441    123.2475     27.5989
  1239.6000      7.9164      2.7699      0.1705     -7.2648    123.3467     27.5289
  1239.7000      7.9164      2.7880      0.1670     -8.3643    118.3574     26.4390
  1239.8000      7.8676      2.8135      0.1906     -9.9120    110.8441     25.8189
  1239.9000      7.8676      2.8257      0.1983    -10.6487    103.6076     26.4750
  1240.0000      7.8760      2.7967      0.1298     -8.8897     97.2802     27.1205
  1240.1000      7.8760      2.7301      0.0413     -4.8566     93.5960     26.7811
  1240.2000      7.8760      2.6592      0.0621     -0.5579     94.9858     26.2876
  1240.3000      7.9285      2.6124     -0.0142      2.2809    102.2872     25.8409
  1240.4000      7.9285      2.5959      0.0520      3.2801    112.8322     25.0731
  1240.5000      7.9535      2.5955      0.0196      3.3026    120.7126     24.3365
  1240.6000      7.9535      2.6048      0.0424      2.7411    122.5107     23.8109
  1240.7000      7.9535      2.6222      0.1112      1.6855    121.2048     22.7121
  1240.8000      7.9436      2.6349      0.1121      0.9167    119.6263     20.8931
  1240.9000      7.9436      2.6394      0.0899      0.6435    115.2890     19.2226
  1241.0000      7.9737      2.6379      0.1090      0.7322    109.4693     18.2365
  1241.1000      7.9737      2.6290      0.0849      1.2757    105.9842     18.4462
  1241.2000      7.9737      2.6260     -0.0054      1.4537    104.3165     19.9469
  1241.3000      7.9880      2.6306      0.1380      1.1734    103.0734     21.4397
  1241.4000      7.9880      2.6166      0.0653      2.0230    100.3217     21.8204
  1241.5000      7.9852      2.5882     -0.0047      3.7466     94.6609     21.5888
  1241.6000      7.9852      2.5757      0.0204      4.5060     87.3646     21.2227
  1241.7000      7.9852      2.5813      0.0809      4.1630     81.9956     20.5796
  1241.8000      7.9900      2.5893      0.0667      3.6768     80.6314     19.9496
  1241.9000      7.9900      2.5942      0.0927      3.3790     80.2990     19.5856
  1242.0000      7.9814      2.5958      0.0805      3.2825     78.9570     18.7421
  1242.1000      7.9814      2.5989      0.0840      3.0946     79.1942     17.6729
  1242.2000      7.9814      2.6124      0.0985      2.2780     80.6322     17.6463
  1242.3000      7.9409      2.6362      0.1304      0.8353     80.1100     18.8981
  1242.4000      7.9409      2.6547      0.1415     -0.2868     78.4972     20.5527
  1242.5000      7.9243      2.6512      0.1564     -0.0749     79.2013     21.4854
  1242.6000      7.9243      2.6290      0.0894      1.2752     84.5308     21.9132
  1242.7000      7.9243      2.5995      0.1239      3.0606     94.4097     22.7524
  1242.8000      7.9210      2.5620      0.0932      5.3327    103.6830     23.8203
  1242.9000      7.9210      2.5283      0.0036      7.3737    108.4659     25.1856
  1243.0000      7.9371      2.5263      0.0169      7.4944    111.5470     27.3785
  1243.1000      7.9371      2.5541      0.1249      5.8117    116.3235     29.4374
  1243.2000      7.9371      2.5782      0.1221      4.3527    124.3380     30.2329
  1243.3000      7.9385      2.5835      0.1017      4.0292    134.8543     30.3305
  1243.4000      7.9385      2.5815      0.1079      4.1533    142.7733     30.4003
  1243.5000      7.9778      2.5731      0.1186      4.6609    146.1836     30.2766
  1243.6000      7.9778      2.5440      0.1344      6.4222    147.4677     29.9544
  1243.7000      7.9778      2.5009      0.0554      9.0371    148.2428     29.6550
  1243.8000      8.0665      2.4702      0.0212     10.8993    146.1061     29.6188
  1243.9000      8.0665      2.4622      0.0282     11.3822    141.5141     29.8045
  1244.0000      8.0297      2.4763      0.0328     10.5258    141.6577     29.6701
  1244.1000      8.0297      2.5135      0.0717      8.2728    145.6992     28.9199
  1244.2000      8.0297      2.5663      0.1069      5.0718    141.7001     28.0024
  1244.3000      7.9660      2.6164      0.2086      2.0357    129.3559     27.2361
  1244.4000      7.9660      2.6414      0.2299      0.5202    119.6933     25.7788
  1244.5000      7.9560      2.6403      0.1922      0.5904    114.4766     23.1563
  1244.6000      7.9560      2.6336      0.1952      0.9948    109.1131     21.0192
  1244.7000      7.9560      2.6284      0.1910      1.3101    101.7112     20.5098
  1244.8000      7.9579      2.6149      0.1492      2.1253     93.6033     20.7365
  1244.9000      7.9579      2.5905      0.0845      3.6045     88.1294     20.5722
  1245.0000      7.9440      2.5716      0.0973      4.7538     85.4047     19.3857
  1245.1000      7.9440      2.5738      0.0949      4.6182     85.2675     17.7175
  1245.2000      7.9440      2.5916      0.0595      3.5384     87.3551     16.5018
  1245.3000      7.9417      2.6140      0.0783      2.1793     87.2919     15.9902
  1245.4000      7.9417      2.6312      0.1683      1.1383     82.1067     16.5031
  1245.5000      7.9572      2.6309      0.0976      1.1603     72.5925     17.9470
  1245.6000      7.9572      2.6142      0.1310      2.1719     63.9981     19.3693
  1245.7000      7.9572      2.5927      0.0885      3.4697     62.7700     19.9905
  1245.8000      7.9459      2.5829      0.0544      4.0668     67.7830     19.8011
  1245.9000      7.9459      2.5851      0.1102      3.9335     73.8918     19.3722
  1246.0000      7.9497      2.5738      0.0790      4.6152     79.5597     19.4807
  1246.1000      7.9497      2.5375      0.0583      6.8207     80.6261     19.5840
  1246.2000      7.9497      2.5007      0.0074      9.0484     73.4628     19.0112
  1246.3000      7.9486      2.4954      0.0232      9.3679     65.9736     18.3211
  1246.4000      7.9486      2.5224      0.0404      7.7313     65.9168     17.5981
  1246.5000      7.9762      2.5551      0.0609      5.7496     70.7209     16.9148
  1246.6000      7.9762      2.5748      0.0384      4.5605     74.2244     16.5087
  1246.7000      7.9762      2.5874      0.0661      3.7925     73.6703     16.4352
  1246.8000      7.9684      2.6072      0.0429      2.5957     68.9996     16.6275
  1246.9000      7.9684      2.6313      0.1052      1.1346     62.1112     17.1152
  1247.0000      7.9925      2.6367      0.1403      0.8046     59.5687     17.8941
  1247.1000      7.9925      2.6206      0.0620      1.7805     64.8863     18.8288
  1247.2000      7.9925      2.6046      0.1134      2.7544     72.0740     19.5899
  1247.3000      7.9955      2.5956      0.0891      3.2992     75.0517     19.6178
  1247.4000      7.9955      2.5982      0.0550      3.1405     75.0958     19.1689
  1247.5000      7.9656      2.6134      0.1111      2.2207     75.0825     19.3047
  1247.6000      7.9656      2.6209      0.0746      1.7641     76.5837     20.5147
  1247.7000      7.9656      2.6080      0.0736      2.5475     79.2117     21.9195
  1247.8000      7.9474      2.5849      0.0730      3.9451     82.3921     22.3752
  1247.9000      7.9474      2.5679      0.0732      4.9765     88.2834     22.5265
