~Version Information
VERS.                      2.0: CWLS Log ASCII Standard - VERSION 2.0
WRAP.                       NO: One line per depth step
~Well Information Block
STRT.FT               840.0000: 
STOP.FT              2020.0000: 
STEP.FT                 0.1000: 
NULL.                -999.2500: 
COMP.          Petrogulf Corporation: COMPANY
WELL.           Lavedure 7-44R: WELL
FLD.           Purgatorie River: FIELD
LOC.           946' FSL & 521' FEL: LOCATION
PROV.                 Colorado: PROVINCE
CNTY.               Las Animas: COUNTRY
SRVC.                Patterson: SERVICE COMPANY
DATE.          Mon Sep 26 08:30:48 2005: LOG DATE
UWI.                          : UNIQUE WELL ID
~Curve Information Block
DEPT.FT            0 000 00 00: Depth
DCAL.in                       : CDL Caliper
RHOB.g/cc                     : CDL Bulk Density
RHOC.g/cc                     : CDL Density Correction
DPOR.pu                       : CDL Density Porosity
GR.GAPI                       : Gamma Ray
NPOR.pu                       : Neutron Porosity
~Parameter Information Block
~A  Depth       DCAL        RHOB        RHOC        DPOR         GR         NPOR    
# ...
  1300.8000      8.0939      2.6040     -0.0015      2.7861    112.2128     24.5168
  1300.9000      8.0939      2.6153      0.0664      2.1021    110.2377     24.6320
  1301.0000      8.1032      2.6225      0.0122      1.6644    111.3155     24.7793
  1301.1000      8.1032      2.6271      0.0309      1.3885    115.9933     24.8495
  1301.2000      8.1032      2.6319      0.0451      1.0989    119.7196     25.1561
  1301.3000      8.1026      2.6262      0.0586      1.4431    120.8007     25.7771
  1301.4000      8.1026      2.6024      0.0298      2.8864    122.2161     26.3386
  1301.5000      8.1041      2.5736     -0.0230      4.6320    125.8112     26.4158
  1301.6000      8.1041      2.5586     -0.0419      5.5396    129.0311     26.0909
  1301.7000      8.1041      2.5618     -0.0733      5.3429    128.4501     26.0007
  1301.8000      8.1121      2.5718      0.0134      4.7380    124.9112     26.3436
  1301.9000      8.1121      2.5690      0.0389      4.9076    120.0194     26.5983
  1302.0000      8.1303      2.5549      0.0289      5.7653    114.7045     26.6228
  1302.1000      8.1303      2.5497      0.0373      6.0799    111.4279     26.7741
  1302.2000      8.1303      2.5567      0.0872      5.6547    112.2991     27.0153
  1302.3000      8.1189      2.5646      0.0323      5.1749    114.3557     27.0773
  1302.4000      8.1189      2.5672      0.0648      5.0210    113.8262     27.1141
  1302.5000      8.1270      2.5631      0.0363      5.2654    113.2451     27.3700
  1302.6000      8.1270      2.5602      0.0320      5.4409    115.0252     27.6502
  1302.7000      8.1270      2.5645      0.0381      5.1847    119.4520     27.7258
  1302.8000      8.1269      2.5673      0.0955      5.0124    125.0188     27.6597
  1302.9000      8.1269      2.5721     -0.0065      4.7236    127.8896     27.6555
  1303.0000      8.1245      2.5939      0.1006      3.4007    128.2467     27.8673
  1303.1000      8.1245      2.6205      0.0542      1.7890    129.2234     28.1321
  1303.2000      8.1245      2.6279      0.0568      1.3384    129.7951     28.2201
  1303.3000      8.1313      2.6110      0.0009      2.3621    128.9068     28.2600
  1303.4000      8.1313      2.5837      0.0392      4.0208    127.6404     28.4949
  1303.5000      8.1390      2.5618      0.0498      5.3481    124.4609     28.8392
  1303.6000      8.1390      2.5548      0.0178      5.7707    122.2561     29.1253
  1303.7000      8.1390      2.5581      0.0566      5.5711    126.5606     29.3463
  1303.8000      8.1378      2.5535      0.0966      5.8473    134.3090     29.6065
  1303.9000      8.1378      2.5399      0.0632      6.6718    138.6387     29.8237
  1304.0000      8.1439      2.5382      0.0094      6.7783    137.6162     29.7890
  1304.1000      8.1439      2.5583      0.0405      5.5595    134.3425     29.6001
  1304.2000      8.1439      2.5882      0.0396      3.7435    132.3114     29.5489
  1304.3000      8.1397      2.6159      0.0685      2.0657    131.5351     29.7075
  1304.4000      8.1397      2.6371      0.0866      0.7805    131.1657     29.7970
  1304.5000      8.1388      2.6440      0.1243      0.3628    131.3916     29.5453
  1304.6000      8.1388      2.6290      0.0815      1.2756    131.5012     29.0615
  1304.7000      8.1388      2.6004      0.0587      3.0045    132.4808     28.7481
  1304.8000      8.1377      2.5777      0.0290      4.3794    134.9373     28.7549
  1304.9000      8.1377      2.5704      0.0725      4.8243    136.3916     28.9547
  1305.0000      8.1423      2.5711      0.0526      4.7836    136.5228     29.2355
  1305.1000      8.1423      2.5698      0.0920      4.8596    135.4511     29.4727
  1305.2000      8.1423      2.5644      0.0904      5.1908    130.6928     29.5418
  1305.3000      8.1255      2.5576      0.0947      5.6015    124.3254     29.3782
  1305.4000      8.1255      2.5504      0.1096      6.0348    122.5555     29.0350
  1305.5000      8.1217      2.5382      0.1170      6.7759    127.1745     28.7707
  1305.6000      8.1217      2.5240      0.0730      7.6345    134.6640     28.7808
  1305.7000      8.1217      2.5225      0.0886      7.7280    140.5908     28.7655
  1305.8000      8.1190      2.5354      0.0804      6.9450    142.8021     28.3961
  1305.9000      8.1190      2.5528      0.0973      5.8933    141.7746     27.9687
  1306.0000      8.1227      2.5659      0.1406      5.0967    139.7505     27.9362
  1306.1000      8.1227      2.5660      0.1535      5.0879    139.9516     28.3219
  1306.2000      8.1227      2.5533      0.1203      5.8593    142.3767     28.7341
  1306.3000      8.1216      2.5398      0.0897      6.6773    142.7309     28.7675
  1306.4000      8.1216      2.5321      0.0713      7.1439    139.8575     28.4295
  1306.5000      8.1078      2.5278      0.0660      7.4088    136.0509     28.0925
  1306.6000      8.1078      2.5261      0.0815      7.5071    133.0383     28.0328
  1306.7000      8.1078      2.5249      0.1205      7.5810    131.0219     28.0682
  1306.8000      8.0957      2.5185      0.0884      7.9688    129.5324     27.8559
  1306.9000      8.0957      2.5103      0.0487      8.4641    129.0091     27.4935
  1307.0000      8.0938      2.5128      0.0359      8.3171    128.6446     27.3227
  1307.1000      8.0938      2.5295      0.0831      7.3023    126.6457     27.1717
  1307.2000      8.0938      2.5534      0.0704      5.8557    123.5203     26.6730
  1307.3000      8.0891      2.5736      0.1126      4.6275    122.1955     26.3116
  1307.4000      8.0891      2.5751      0.1074      4.5387    123.4617     26.7536
  1307.5000      8.0833      2.5520      0.0612      5.9417    126.4203     27.6962
  1307.6000      8.0833      2.5170      0.0402      8.0577    130.7882     28.6000
  1307.7000      8.0833      2.4910     -0.0046      9.6388    136.6169     29.1578
  1307.8000      8.0761      2.4883     -0.0146      9.7990    143.8753     29.0892
  1307.9000      8.0761      2.5068      0.0477      8.6797    150.6153     28.6466
  1308.0000      8.0842      2.5352      0.0465      6.9566    154.4790     28.3125
  1308.1000      8.0842      2.5699      0.0847      4.8552    154.4955     28.2869
  1308.2000      8.0842      2.6021      0.1183      2.9011    151.0002     28.4889
  1308.3000      8.0711      2.6127      0.1186      2.2613    146.6293     28.6910
  1308.4000      8.0711      2.5942      0.1212      3.3830    143.1131     28.8602
  1308.5000      8.1221      2.5604      0.0527      5.4291    142.2150     29.0454
  1308.6000      8.1221      2.5318      0.0186      7.1651    145.8695     29.0543
  1308.7000      8.1221      2.5191      0.0485      7.9359    151.0776     28.7810
  1308.8000      8.0347      2.5237      0.0416      7.6530    155.3571     28.4327
  1308.9000      8.0347      2.5377      0.0740      6.8086    157.3155     28.4202
  1309.0000      8.0194      2.5428      0.0644      6.4993    155.6754     28.8241
  1309.1000      8.0194      2.5355      0.0321      6.9410    155.6902     29.2295
  1309.2000      8.0194      2.5349      0.0171      6.9764    162.4059     29.4317
  1309.3000      8.0166      2.5520      0.0391      5.9415    172.0370     29.6195
  1309.4000      8.0166      2.5697      0.0762      4.8657    175.3880     29.8292
  1309.5000      8.0121      2.5639      0.0545      5.2189    168.9832     29.8128
  1309.6000      8.0121      2.5298      0.0330      7.2838    157.5381     29.5256
  1309.7000      8.0121      2.4831      0.0210     10.1149    148.4763     29.2333
  1309.8000      8.0034      2.4400      0.0295     12.7275    146.0350     29.0498
  1309.9000      8.0034      2.4116     -0.0441     14.4503    145.9369     28.8680
  1310.0000      8.0021      2.4054      0.0275     14.8231    142.2618     28.7181
  1310.1000      8.0021      2.4176     -0.0030     14.0842    137.5407     28.7086
  1310.2000      8.0021      2.4454      0.0241     12.4018    136.1881     28.8204
  1310.3000      8.0017      2.4836      0.1092     10.0838    136.9010     28.9763
