~Version Information
VERS.                      2.0: CWLS Log ASCII Standard - VERSION 2.0
WRAP.                       NO: One line per depth step
~Well Information Block
STRT.FT                -7.7500: 
STOP.FT              1383.2500: 
STEP.FT                 0.2500: 
NULL.                -999.2500: 
COMP.          Petrogulf Corporation: COMPANY
WELL.          Great Plains 22-22R: WELL
FLD.           Purgatoire River: FIELD
LOC.           2042' FNL & 1657' FWL SENW 22 33S 67W ----: LOCATION
PROV.                 Colorado: PROVINCE
CNTY.               Las Animas: COUNTRY
SRVC.                         : SERVICE COMPANY
DATE.          Thu Sep 22 14:55:58 2005: LOG DATE
UWI.             07108028     : UNIQUE WELL ID
~Curve Information Block
DEPT.FT            0 000 00 00: Depth
CCL.                          : Casing Collar Locator
TT3.usec                      : CBL 3' Travel Time
AMP3.mV                       : CBL 3' Amplitude
GR.GAPI                       : Gamma Ray
~Parameter Information Block
~A  Depth       CCL         TT3         AMP3         GR     
# ...
   260.2500      0.0000    351.0442     10.6975     62.7148
   260.5000      0.0000    346.6486     10.7443     62.2618
   260.7500      0.0000    344.6859     10.7630     60.9624
   261.0000      0.0000    344.1847     10.7584     59.9056
   261.2500      0.0000    344.8911     10.7356     59.8115
   261.5000      0.0000    347.4990     10.6967     60.5130
   261.7500      0.0000    353.3789     10.6453     61.3433
   262.0000      0.0000    363.4918     10.5907     61.9880
   262.2500      0.0000    376.8511     10.5452     62.9485
   262.5000      0.0000    390.2369     10.5169     65.0149
   262.7500      0.0000    400.1830     10.5071     68.2395
   263.0000      0.0000    405.4035     10.5151     71.6219
   263.2500      0.0000    407.0060     10.5448     73.9430
   263.5000      0.0000    406.7061     10.6017     74.8292
   263.7500      0.0000    405.3301     10.6819     74.9316
   264.0000      0.0000    402.7233     10.7616     75.0665
   264.2500      0.0000    398.5632     10.7971     75.2304
   264.5000      0.0000    393.1717     10.7304     74.6108
   264.7500      0.0000    387.5425     10.4885     72.6728
   265.0000      0.0000    382.4048      9.9824     70.0321
   265.2500      0.0000    377.6069      9.1424     67.9635
   265.5000      0.0000    373.0463      7.9943     67.1996
   265.7500      0.0000    369.8825      6.7135     67.5125
   266.0000      0.0000    369.7690      5.5825     68.3119
   266.2500      0.0000    372.7247      4.8648     69.1903
   266.5000      0.0000    376.6895      4.6830     69.8676
   266.7500      0.0000    379.6784      4.9763     70.1963
   267.0000      0.0000    381.9715      5.5418     70.5628
   267.2500     -2.0000    386.1993      6.1207     71.9069
   267.5000      2.0000    396.0854      6.4884     74.8368
   267.7500      0.0000    414.4432      6.5409     78.8075
   268.0000      0.0000    439.5335      6.3624     82.5269
   268.2500      0.0000    462.2493      6.2254     85.1393
   268.5000      0.0000    470.3448      6.4700     86.6553
   268.7500      0.0000    458.6406      7.2935     87.2570
   269.0000      0.0000    433.7900      8.5865     86.7360
   269.2500      0.0000    407.8366      9.9700     84.9989
   269.5000      0.0000    388.8789     11.0362     82.8675
   269.7500      0.0000    378.2165     11.5915     81.7300
   270.0000      0.0000    373.3571     11.7068     82.0977
   270.2500      0.0000    371.4921     11.5861     82.8363
   270.5000      0.0000    370.8664     11.4092     82.1898
   270.7500      0.0000    370.6770     11.2657     79.3959
   271.0000      0.0000    370.6190     11.1766     75.1635
   271.2500      0.0000    370.5796     11.1421     70.9129
   271.5000      0.0000    370.4901     11.1671     67.6796
   271.7500      0.0000    370.1868     11.2570     65.4252
   272.0000      0.0000    369.2786     11.4044     63.3488
   272.2500      0.0000    367.1115     11.5859     61.1630
   272.5000      0.0000    363.0606     11.7738     59.8187
   272.7500      0.0000    357.1420     11.9500     60.4396
   273.0000      0.0000    350.3749     12.1112     62.6681
   273.2500      0.0000    344.2956     12.2653     64.6350
   273.5000      0.0000    339.9347     12.4239     64.7661
   273.7500      0.0000    337.2552     12.5961     63.4926
   274.0000      0.0000    335.4160     12.7850     63.0707
   274.2500      0.0000    333.3841     12.9845     65.6216
   274.5000      0.0000    330.4284     13.1818     71.2292
   274.7500      0.0000    326.3764     13.3661     77.9193
   275.0000      0.0000    321.5474     13.5364     83.4257
   275.2500      0.0000    316.4571     13.6986     86.8204
   275.5000      0.0000    311.6440     13.8533     88.5867
   275.7500      0.0000    307.6639     13.9880     89.6509
   276.0000      0.0000    304.9587     14.0860     90.5799
   276.2500      0.0000    303.6883     14.1440     91.3624
   276.5000      0.0000    303.8821     14.1799     91.6552
   276.7500      0.0000    305.7542     14.2189     91.2222
   277.0000      0.0000    309.6296     14.2741     90.1055
   277.2500      0.0000    315.3613     14.3393     88.4020
   277.5000      0.0000    321.8986     14.3992     86.0939
   277.7500      0.0000    327.7115     14.4440     83.2336
   278.0000      0.0000    331.7521     14.4753     80.2248
   278.2500      0.0000    333.9508     14.4991     77.6923
   278.5000      0.0000    334.8759     14.5151     75.9737
   278.7500      0.0000    335.1453     14.5128     74.7768
   279.0000      0.0000    335.1475     14.4835     73.4172
   279.2500      0.0000    335.0706     14.4376     71.5745
   279.5000      0.0000    335.0060     14.4052     69.8957
   279.7500      0.0000    335.0017     14.4154     69.7119
   280.0000      0.0000    335.0724     14.4698     72.1096
   280.2500      0.0000    335.2039     14.5363     77.2127
   280.5000      0.0000    335.3731     14.5665     84.0313
   280.7500      0.0000    335.5740     14.5232     90.7914
   281.0000      0.0000    335.8354     14.4072     95.5851
   281.2500      0.0000    336.2101     14.2623     97.0517
   281.5000      0.0000    336.7337     14.1410     94.8517
   281.7500      0.0000    337.3894     14.0563     89.8823
   282.0000      0.0000    338.1102     13.9742     84.0540
   282.2500      0.0000    338.8130     13.8520     79.3276
   282.5000      0.0000    339.4265     13.6716     76.4527
   282.7500      0.0000    339.9006     13.4385     74.6322
   283.0000      0.0000    340.2081     13.1668     72.6767
   283.2500      0.0000    340.3503     12.8730     70.5129
   283.5000      0.0000    340.3534     12.5741     69.3977
   283.7500      0.0000    340.2448     12.2829     70.7013
   284.0000      0.0000    340.0114     12.0070     74.7847
   284.2500      0.0000    339.5715     11.7520     80.9048
   284.5000      0.0000    338.8173     11.5216     87.5350
   284.7500      0.0000    337.7395     11.3159     92.7197
   285.0000      0.0000    336.5148     11.1367     94.9934
   285.2500      0.0000    335.4234     10.9958     94.5132
   285.5000      0.0000    334.6646     10.9110     92.8707
   285.7500      0.0000    334.2596     10.8895     91.4985
   286.0000      0.0000    334.1072     10.9195     90.7441
   286.2500      0.0000    334.0918     10.9808     90.6267
   286.5000      0.0000    334.1454     11.0593     91.6830
   286.7500      0.0000    334.2434     11.1482     94.5667
   287.0000      0.0000    334.3698     11.2365     99.2201
   287.2500      0.0000    334.4933     11.3023    104.7317
   287.5000      0.0000    334.5767     11.3218    109.6705
   287.7500      0.0000    334.6020     11.2898    112.3302
   288.0000      0.0000    334.5828     11.2319    111.2362
   288.2500      0.0000    334.5500     11.1887    106.2449
   288.5000      0.0000    334.5292     11.1842     99.1122
   288.7500      0.0000    334.5316     11.2149     92.4076
   289.0000      0.0000    334.5547     11.2618     87.7579
   289.2500      0.0000    334.5827     11.3033     85.2869
   289.5000      0.0000    334.5903     11.3217     84.4242
   289.7500      0.0000    334.5595     11.3136     84.8173
   290.0000      0.0000    334.4962     11.2990     86.4094
   290.2500      0.0000    334.4244     11.3094     88.8343
   290.5000      0.0000    334.3652     11.3571     91.1166
   290.7500      0.0000    334.3295     11.4231     92.4036
   291.0000      0.0000    334.3311     11.4818     92.8265
   291.2500      0.0000    334.3880     11.5382     93.0178
   291.5000      0.0000    334.5007     11.6321     92.8203
   291.7500      0.0000    334.6372     11.8043     91.2269
   292.0000      0.0000    334.7443     12.0603     87.8447
   292.2500      0.0000    334.7756     12.3651     83.7811
   292.5000      0.0000    334.7147     12.6684     80.6486
   292.7500      0.0000    334.5843     12.9355     78.9857
   293.0000      0.0000    334.4364     13.1594     77.9680
   293.2500      0.0000    334.3284     13.3522     76.5343
   293.5000      0.0000    334.2949     13.5322     74.5347
