
~Version Information
 VERS.                                  2.0 : CWLS LAS VERSION
 WRAP.                                   NO : WRAPING MODE
 SWARE .                 MController 2.5.0N : SOFTWARE VERSION
~Well Information
 WELL.                          Whinny 42-4 : WELL
 COMP.                                  N/A : COMPANY
 FLD.                      Purgatoire River : FIELD
 LOC.                SE/NE Sec 2 T33S  R67W : LOCATION
 DATE.                           8/19-20/05 : DATE(S) LOGGED
 SRVC.       BLANCO Geological Services LLC : SERVICE COMPANY
 STAT.                                   CO : STATE
 CNTY.                           Las Animas : COUNTY
 CTRY.                                  USA : COUNTRY
 API.                       05-071-08406-00 : API NUMBER
 STRT.FT                             574.00 : START DEPTH
 STOP.FT                            2360.00 : STOP DEPTH
 STEP.FT                               1.00 : DEPTH INCREMENT
 NULL.                                -9999 : NULL VALUE
~Curve information
 DEPTH.FT                                   :
 ROP.MIN/FT                                 :
 GAS.UNITS                                  :
~ASCII Log data
# ...
      1374.0         0.30        195.2 
      1375.0         0.50        182.2 
      1376.0         0.40        186.0 
      1377.0         0.60        193.0 
      1378.0         0.53        214.1 
      1379.0         0.55        250.9 
      1380.0         0.50        240.5 
      1381.0         0.20        233.4 
      1382.0         0.40        226.2 
      1383.0         0.57        218.6 
      1384.0         0.50        214.4 
      1385.0         0.60        222.4 
      1386.0         0.27        182.7 
      1387.0         0.48        161.1 
      1388.0         0.40        164.4 
      1389.0         0.50        191.7 
      1390.0         0.53        186.9 
      1391.0         0.80        178.1 
      1392.0         0.53        190.5 
      1393.0         0.42        186.5 
      1394.0         0.50        176.6 
      1395.0         0.60        189.1 
      1396.0         0.70        184.1 
      1397.0         0.83        175.2 
      1398.0         0.82        201.7 
      1399.0         0.30        196.6 
      1400.0         0.30        184.0 
      1401.0         0.47        179.2 
      1402.0         0.40        176.3 
      1403.0         0.30        179.3 
      1404.0         0.30        192.5 
      1405.0         0.30        205.5 
      1406.0         0.30        202.6 
      1407.0         0.20        201.7 
      1408.0         0.32        199.0 
      1409.0         0.20        191.8 
      1410.0         0.20        187.8 
      1411.0         0.40        209.1 
      1412.0         0.20        215.4 
      1413.0         0.30        200.4 
      1414.0         0.20        191.8 
      1415.0         0.27        193.0 
      1416.0         0.20        194.4 
      1417.0         0.30        194.9 
      1418.0         0.20        196.0 
      1419.0         0.30        195.7 
      1420.0         0.30        194.7 
      1421.0         0.22        190.5 
      1422.0         0.30        183.1 
      1423.0         0.20        183.5 
      1424.0         0.40        187.6 
      1425.0         0.27        189.8 
      1426.0         0.20        192.4 
      1427.0         0.20        193.1 
      1428.0         0.30        189.3 
      1429.0         0.30        195.1 
      1430.0         0.10        196.0 
      1431.0         0.20        194.9 
      1432.0         0.30        193.5 
      1433.0         0.30        199.0 
      1434.0         0.42        200.8 
      1435.0         0.30        187.8 
      1436.0         0.30        179.5 
      1437.0         0.23        185.8 
      1438.0         0.30        192.1 
      1439.0         0.20        190.0 
      1440.0         0.33        177.7 
      1441.0         0.40        175.0 
      1442.0         0.20        177.6 
      1443.0         0.30        177.4 
      1444.0         0.30        175.4 
      1445.0         0.20        176.8 
      1446.0         0.42        178.9 
      1447.0         0.10        180.2 
      1448.0         0.30        187.1 
      1449.0         0.30        185.1 
      1450.0         0.30        180.6 
      1451.0         0.17        182.6 
      1452.0         0.60        186.9 
      1453.0         0.30        181.4 
      1454.0         0.40        180.6 
      1455.0         0.20        186.1 
      1456.0         0.42        193.4 
      1457.0         0.17        195.9 
      1458.0         0.50        206.5 
      1459.0         0.20        207.2 
      1460.0         0.40        204.2 
      1461.0         0.37        215.7 
      1462.0         0.50        212.7 
      1463.0         0.50        199.3 
      1464.0         0.30        205.5 
      1465.0         0.30        213.1 
      1466.0         0.32        209.2 
      1467.0         0.50        215.2 
      1468.0         0.40        230.3 
      1469.0         0.30        223.8 
      1470.0         0.30        202.1 
      1471.0         0.27        198.6 
      1472.0         0.37        186.2 
      1473.0         0.70        196.5 
      1474.0         0.32        199.6 
      1475.0         0.50        194.3 
      1476.0         0.60        195.1 
      1477.0         0.50        193.7 
      1478.0         0.30        197.5 
      1479.0         0.40        219.8 
      1480.0         0.50        215.9 
      1481.0         0.30        215.1 
      1482.0         0.42        205.1 
      1483.0         0.40        195.7 
      1484.0         0.50        194.5 
      1485.0         0.30        194.9 
      1486.0         0.50        194.1 
      1487.0         0.70        174.6 
      1488.0         0.50        174.8 
      1489.0         0.42        235.7 
      1490.0         0.63        293.3 
      1491.0         0.33        175.9 
      1492.0         0.37        135.4 
      1493.0         0.40        135.2 
      1494.0         0.40        142.0 
      1495.0         0.53        166.5 
      1496.0         0.55        278.9 
      1497.0         0.60        173.8 
      1498.0         0.40        160.8 
      1499.0         0.40        170.7 
      1500.0         0.30        171.0 
      1501.0         0.27        165.6 
      1502.0         0.40        161.1 
      1503.0         0.30        163.3 
      1504.0         0.20        169.2 
      1505.0         0.65        184.0 
      1506.0         0.40        179.2 
      1507.0         0.30        176.6 
      1508.0         0.70        195.1 
      1509.0         0.60        185.0 
      1510.0         0.40        195.2 
      1511.0         0.43        200.4 
      1512.0         0.52        182.6 
      1513.0         0.50        175.7 
      1514.0         0.50        183.3 
      1515.0         0.30        184.0 
      1516.0         0.50        183.1 
      1517.0         0.20        183.3 
      1518.0         0.30        185.2 
      1519.0         0.50        187.6 
      1520.0         0.42        185.8 
      1521.0         0.30        180.2 
      1522.0         0.40        179.8 
      1523.0         0.40        183.7 
      1524.0         0.70        225.1 
      1525.0         0.40        208.4 
      1526.0         0.30        195.0 
      1527.0         0.40        196.4 
      1528.0         0.32        186.4 
      1529.0         0.43        178.6 
      1530.0         0.50        185.7 
      1531.0         0.40        187.0 
      1532.0         0.70        194.9 
      1533.0         0.70        178.6 
      1534.0         0.92        177.9 
      1535.0         0.30        185.3 
      1536.0         0.53        236.3 
      1537.0         0.80        172.3 
      1538.0         0.77        152.7 
      1539.0         0.52        162.0 
      1540.0         0.70        162.3 
      1541.0         0.50        164.9 
      1542.0         0.47        169.2 
      1543.0         0.50        169.1 
      1544.0         0.60        168.1 
      1545.0         0.62        167.5 
      1546.0         0.73        226.1 
      1547.0         0.90        175.2 
      1548.0         0.57        168.0 
      1549.0         0.67        169.0 
      1550.0         0.52        162.3 
      1551.0         0.60        163.3 
      1552.0         0.40        169.6 
      1553.0         0.40        173.8 
      1554.0         0.40        181.1 
      1555.0         0.50        165.8 
      1556.0         0.20        162.6 
      1557.0         0.53        182.2 
      1558.0         0.22        190.3 
      1559.0         0.40        181.5 
      1560.0         0.33        172.1 
      1561.0         0.30        174.3 
      1562.0         0.50        177.2 
      1563.0         0.50        172.8 
      1564.0         0.30        172.1 
      1565.0         0.20        174.6 
      1566.0         0.30        178.8 
      1567.0         0.32        181.0 
      1568.0         0.40        189.8 
      1569.0         0.27        201.1 
      1570.0         0.40        190.0 
      1571.0         0.53        174.4 
      1572.0         0.50        174.3 
      1573.0         0.50        177.7 
