~Version Information
VERS.                      2.0: CWLS Log ASCII Standard - VERSION 2.0
WRAP.                       NO: One line per depth step
~Well Information Block
STRT.FT               902.0000: 
STOP.FT              2428.2000: 
STEP.FT                 0.1000: 
NULL.                -999.2500: 
COMP.          Pioneer Natural Resources: COMPANY
WELL.            Victory 12-14: WELL
FLD.           Purgatoire River: FIELD
LOC.           2434' FNL & 188' FWL: LOCATION
PROV.                 Colorado: PROVINCE
CNTY.               Las Animas: COUNTRY
SRVC.                Patterson: SERVICE COMPANY
DATE.          Mon Apr 18 07:24:17 2005: LOG DATE
UWI.           05 071 08332 00: UNIQUE WELL ID
~Curve Information Block
DEPT.FT            0 000 00 00: Depth
DCAL.in                       : CDL Caliper
RHOB.g/cc                     : CDL Bulk Density
RHOC.g/cc                     : CDL Density Correction
DPOR.pu                       : CDL Density Porosity
GR.GAPI                       : Gamma Ray
NPOR.pu                       : Neutron Porosity
~Parameter Information Block
~A  Depth       DCAL        RHOB        RHOC        DPOR         GR         NPOR    
# ...
  1199.6000      8.1383      2.4658     -0.0005     11.1664    138.8697     28.2921
  1199.7000      8.1383      2.4737      0.0001     10.6825    135.3201     27.7183
  1199.8000      8.1620      2.4725      0.0588     10.7581    131.2171     26.8912
  1199.9000      8.1620      2.4479      0.0352     12.2469    129.2973     26.4858
  1200.0000      8.1439      2.4249     -0.0644     13.6412    132.5284     26.2592
  1200.1000      8.1439      2.4338      0.0078     13.1022    138.9264     26.1406
  1200.2000      8.1439      2.4574      0.0432     11.6706    140.9227     26.3028
  1200.3000      8.1301      2.4656      0.0405     11.1735    137.4546     26.6105
  1200.4000      8.1301      2.4601      0.0202     11.5105    135.4312     26.7555
  1200.5000      8.1300      2.4586      0.0066     11.6011    138.5177     26.6829
  1200.6000      8.1300      2.4623      0.0431     11.3773    145.8050     26.7062
  1200.7000      8.1300      2.4596      0.0532     11.5366    152.6040     26.7973
  1200.8000      8.1142      2.4500      0.0358     12.1202    152.8569     26.5895
  1200.9000      8.1142      2.4363      0.0221     12.9519    147.1443     25.8348
  1201.0000      8.1118      2.4120      0.0127     14.4272    140.6512     24.6963
  1201.1000      8.1118      2.3766     -0.0201     16.5725    134.4488     23.9009
  1201.2000      8.1118      2.3421     -0.0284     18.6621    132.1143     23.6868
  1201.3000      8.1100      2.3101     -0.0101     20.6008    136.8789     23.4477
  1201.4000      8.1100      2.2680     -0.0166     23.1530    140.5220     22.8174
  1201.5000      8.1299      2.2216     -0.0418     25.9629    135.9650     21.9980
  1201.6000      8.1299      2.1806      0.0463     28.4471    129.7008     21.3114
  1201.7000      8.1299      2.1361     -0.0279     31.1483    130.3740     21.0313
  1201.8000      8.1339      2.0941     -0.0469     33.6889    133.0428     21.2644
  1201.9000      8.1339      2.0725     -0.0034     35.0004    130.6996     22.1241
  1202.0000      8.1472      2.0778     -0.0061     34.6789    126.1322     23.5869
  1202.1000      8.1472      2.1127      0.0414     32.5607    124.2301     25.0458
  1202.2000      8.1472      2.1705      0.1482     29.0615    125.7055     25.9916
  1202.3000      8.1546      2.2354      0.1414     25.1266    127.2733     26.4616
  1202.4000      8.1546      2.3012      0.2205     21.1374    129.7269     26.5626
  1202.5000      8.1656      2.3714      0.1232     16.8831    133.5494     26.5351
  1202.6000      8.1656      2.4408      0.1374     12.6775    135.4182     26.6927
  1202.7000      8.1656      2.4844      0.1236     10.0334    137.4742     27.0202
  1202.8000      8.1805      2.4917      0.0701      9.5917    138.0558     27.2555
  1202.9000      8.1805      2.4809      0.0980     10.2486    133.1901     27.2777
  1203.0000      8.1286      2.4672      0.0717     11.0794    128.6471     27.1604
  1203.1000      8.1286      2.4598      0.0086     11.5275    128.5123     27.0624
  1203.2000      8.1286      2.4668      0.0388     11.1038    128.4432     26.8118
  1203.3000      8.1086      2.4811     -0.0063     10.2365    124.3938     26.3294
  1203.4000      8.1086      2.4905      0.0407      9.6673    120.5384     25.9189
  1203.5000      8.0818      2.4924      0.0489      9.5517    121.9634     25.6847
  1203.6000      8.0818      2.4926      0.0365      9.5416    125.1313     25.5469
  1203.7000      8.0818      2.4859      0.0540      9.9462    126.3760     25.6432
  1203.8000      8.0735      2.4588      0.0386     11.5905    129.1517     25.9132
  1203.9000      8.0735      2.4264      0.0133     13.5501    133.4566     26.0088
  1204.0000      8.0755      2.4301     -0.0222     13.3294    133.4276     25.7789
  1204.1000      8.0755      2.4726      0.0388     10.7488    127.4109     25.5306
  1204.2000      8.0755      2.4989      0.1032      9.1577    120.5203     25.7446
  1204.3000      8.1136      2.4782      0.0084     10.4105    117.6734     26.4658
  1204.4000      8.1136      2.4506     -0.0330     12.0853    115.8327     27.3646
  1204.5000      8.1290      2.4499      0.0105     12.1258    111.7376     28.1036
  1204.6000      8.1290      2.4676      0.0242     11.0518    106.6818     28.2313
  1204.7000      8.1290      2.5030     -0.0334      8.9070    101.0109     27.6684
  1204.8000      8.1323      2.5562      0.0790      5.6820     97.4357     27.0088
  1204.9000      8.1323      2.5965      0.0475      3.2423     97.4819     26.6420
  1205.0000      8.1146      2.6019      0.0495      2.9151    100.1605     26.5938
  1205.1000      8.1146      2.5877      0.0268      3.7752    106.4110     26.9644
  1205.2000      8.1146      2.5798     -0.0018      4.2561    111.3548     27.4988
  1205.3000      8.1030      2.5810      0.0242      4.1816    109.8136     27.5013
  1205.4000      8.1030      2.5746      0.0238      4.5694    105.2367     26.8242
  1205.5000      8.1059      2.5603     -0.0029      5.4385    102.3390     26.0142
  1205.6000      8.1059      2.5402      0.0217      6.6551    101.5143     25.4650
  1205.7000      8.1059      2.5003      0.0204      9.0730    101.3567     25.2067
  1205.8000      8.1041      2.4500     -0.0282     12.1211    102.4925     25.1441
  1205.9000      8.1041      2.4285     -0.0205     13.4222    102.7128     25.1403
  1206.0000      8.0569      2.4520      0.0410     11.9990    100.2600     25.1225
  1206.1000      8.0569      2.4891      0.0644      9.7493     98.9197     25.0376
  1206.2000      8.0569      2.5073      0.0522      8.6459     98.2864     24.8692
  1206.3000      8.0320      2.5047      0.0307      8.8061     93.9664     24.7938
  1206.4000      8.0320      2.4994      0.0345      9.1287     87.3258     24.9316
  1206.5000      8.0294      2.5028      0.1503      8.9233     82.9253     25.0408
  1206.6000      8.0294      2.5094      0.0752      8.5191     81.2258     24.9848
  1206.7000      8.0294      2.5210      0.0507      7.8175     81.0292     25.0593
  1206.8000      7.9785      2.5353      0.1411      6.9532     82.6513     25.2890
  1206.9000      7.9785      2.5445      0.0536      6.3912     86.1011     25.4702
  1207.0000      7.9666      2.5556      0.0851      5.7221     89.1472     25.3822
  1207.1000      7.9666      2.5683      0.0826      4.9525     88.2865     24.8408
  1207.2000      7.9666      2.5666      0.1191      5.0517     82.6354     24.0699
  1207.3000      7.9676      2.5451      0.0723      6.3555     77.6850     23.5444
  1207.4000      7.9676      2.5229      0.0394      7.7020     75.1352     23.5829
  1207.5000      7.9757      2.5090      0.0901      8.5449     71.7926     23.8745
  1207.6000      7.9757      2.4886      0.0732      9.7808     70.7293     23.7892
  1207.7000      7.9757      2.4680      0.0189     11.0332     73.9730     23.4727
  1207.8000      7.9931      2.4761      0.0058     10.5392     77.6409     23.3722
  1207.9000      7.9931      2.5122      0.0887      8.3490     78.3480     23.3873
  1208.0000      7.9864      2.5372      0.1198      6.8344     78.1289     23.2889
  1208.1000      7.9864      2.5287      0.1303      7.3518     80.2972     23.0870
  1208.2000      7.9864      2.5130      0.0470      8.3029     82.9124     22.8921
  1208.3000      7.9836      2.5167      0.1179      8.0779     82.4882     22.8605
  1208.4000      7.9836      2.5301      0.0907      7.2691     78.7756     22.9695
  1208.5000      7.9825      2.5455      0.1096      6.3348     74.4848     23.0897
  1208.6000      7.9825      2.5611      0.1947      5.3873     71.1779     23.0726
  1208.7000      7.9825      2.5667      0.1738      5.0506     69.4193     22.7374
  1208.8000      7.9862      2.5699      0.1231      4.8571     67.8091     22.4467
  1208.9000      7.9862      2.5798      0.1763      4.2516     65.1778     22.6786
  1209.0000      7.9924      2.5923      0.1217      3.4947     64.4188     23.0870
  1209.1000      7.9924      2.6087      0.1731      2.5022     66.0905     22.9826
