~Version Information
VERS.                      2.0: CWLS Log ASCII Standard - VERSION 2.0
WRAP.                       NO: One line per depth step
~Well Information Block
STRT.FT                37.7500: 
STOP.FT              1898.5000: 
STEP.FT                 0.2500: 
NULL.                -999.2500: 
COMP.          Petrogulf Corporation: COMPANY
WELL.           Montoya 12-41R: WELL
FLD.           Purgatorie River: FIELD
LOC.           1086' FNL & 610' FEL--: LOCATION
PROV.                       CO: PROVINCE
CNTY.               Las Animas: COUNTRY
SRVC.                         : SERVICE COMPANY
DATE.          Wed Feb 09 11:45:45 2005: LOG DATE
UWI.         005 071 08241 : UNIQUE WELL ID
~Curve Information Block
DEPT.FT            0 000 00 00: Depth
CCL.                          : Casing Collar Locator
TT3.usec                      : CBL 3' Travel Time
AMP3.mV                       : CBL 3' Amplitude
GR.GAPI                       : Gamma Ray
~Parameter Information Block
~A  Depth       CCL         TT3         AMP3         GR     
# ...
   171.7500      0.0000    265.8512     82.2576    110.9904
   172.0000      0.0000    265.8282     82.1953    113.0443
   172.2500      0.0000    265.8004     82.1573    114.0750
   172.5000      0.0000    265.7710     82.2492    115.3816
   172.7500      0.0000    265.7396     82.5122    118.0720
   173.0000      0.0000    265.7085     82.8836    121.3659
   173.2500      0.0000    265.6833     83.2390    123.3900
   173.5000      0.0000    265.6680     83.4704    123.6094
   173.7500      0.0000    265.6662     83.5277    123.7575
   174.0000      0.0000    265.6823     83.4243    126.2577
   174.2500      0.0000    265.7155     83.2316    131.9506
   174.5000      0.0000    265.7534     83.0480    138.9172
   174.7500      0.0000    265.7803     82.9357    143.4194
   175.0000      0.0000    265.7914     82.8747    143.0538
   175.2500      0.0000    265.7957     82.7940    139.4550
   175.5000      0.0000    265.8044     82.6571    137.1130
   175.7500      0.0000    265.8183     82.5097    139.3692
   176.0000      0.0000    265.8310     82.4453    146.2207
   176.2500      0.0000    265.8362     82.5325    155.4086
   176.5000      0.0000    265.8313     82.7663    164.1979
   176.7500      0.0000    265.8170     83.0669    170.2203
   177.0000      0.0000    265.7999     83.3196    171.9064
   177.2500      0.0000    265.7889     83.4368    168.7927
   177.5000      0.0000    265.7859     83.4069    161.6260
   177.7500      0.0000    265.7840     83.2945    152.5451
   178.0000      0.0000    265.7780     83.1902    144.8688
   178.2500      0.0000    265.7709     83.1539    141.4708
   178.5000      0.0000    265.7665     83.1896    142.5889
   178.7500      0.0000    265.7603     83.2512    145.6570
   179.0000      0.0000    265.7452     83.2679    147.5843
   179.2500      0.0000    265.7259     83.1894    146.9501
   179.5000      0.0000    265.7178     83.0349    144.2772
   179.7500      0.0000    265.7295     82.8940    141.0773
   180.0000      0.0000    265.7511     82.8547    138.9093
   180.2500      0.0000    265.7626     82.9227    138.7587
   180.5000      0.0000    265.7534     83.0250    140.6351
   180.7500      0.0000    265.7319     83.0920    143.5700
   181.0000      0.0000    265.7157     83.1166    146.1359
   181.2500      0.0000    265.7157     83.1319    147.2496
   181.5000      0.0000    265.7300     83.1576    146.7491
   181.7500      0.0000    265.7505     83.1928    145.2964
   182.0000      0.0000    265.7700     83.2385    143.6661
   182.2500      0.0000    265.7848     83.2919    142.1060
   182.5000      0.0000    265.7907     83.3252    140.3963
   182.7500      0.0000    265.7815     83.3017    138.2904
   183.0000      0.0000    265.7531     83.2245    135.7886
   183.2500      0.0000    265.7122     83.1531    133.0367
   183.5000      0.0000    265.6760     83.1575    129.9036
   183.7500      0.0000    265.6589     83.2540    125.8787
   184.0000      0.0000    265.6593     83.3896    120.9149
   184.2500      0.0000    265.6628     83.4800    116.2522
   184.5000      0.0000    265.6608     83.4661    113.6848
   184.7500      0.0000    265.6620     83.3524    113.8823
   185.0000      0.0000    265.6808     83.1979    115.6247
   185.2500      0.0000    265.7182     83.0620    116.6021
   185.5000      0.0000    265.7555     82.9594    115.1544
   185.7500      0.0000    265.7670     82.8764    111.8941
   186.0000      0.0000    265.7401     82.8146    109.6303
   186.2500      0.0000    265.6863     82.7993    111.0736
   186.5000      0.0000    265.6339     82.8467    116.5118
   186.7500      0.0000    265.6065     82.9424    123.9722
   187.0000      0.0000    265.6071     83.0560    131.1708
   187.2500      0.0000    265.6203     83.1651    136.6015
   187.5000      0.0000    265.6303     83.2538    139.2634
   187.7500      0.0000    265.6333     83.2973    138.6525
   188.0000      0.0000    265.6353     83.2690    135.4294
   188.2500      0.0000    265.6438     83.1683    131.3686
   188.5000      0.0000    265.6619     83.0345    128.1512
   188.7500      0.0000    265.6855     82.9279    126.1818
   189.0000      0.0000    265.7046     82.8908    124.5205
   189.2500      0.0000    265.7100     82.9190    121.9730
   189.5000      0.0000    265.7006     82.9752    118.2071
   189.7500      0.0000    265.6828     83.0364    113.6576
   190.0000      0.0000    265.6644     83.1194    108.7250
   190.2500      0.0000    265.6489     83.2544    103.7969
   190.5000      0.0000    265.6369     83.4432     99.9049
   190.7500      0.0000    265.6328     83.6427     98.5474
   191.0000      0.0000    265.6452     83.7843    100.6821
   191.2500      0.0000    265.6784     83.8174    106.2760
   191.5000      0.0000    265.7242     83.7430    114.5980
   191.7500      0.0000    265.7675     83.6012    124.3744
   192.0000      0.0000    265.7993     83.4320    133.8097
   192.2500      0.0000    265.8217     83.2695    140.9999
   192.5000      0.0000    265.8389     83.1661    144.6887
   192.7500      0.0000    265.8474     83.1804    144.7924
   193.0000      0.0000    265.8404     83.3183    142.3060
   193.2500      0.0000    265.8170     83.5086    138.5706
   193.5000      0.0000    265.7840     83.6562    134.3426
   193.7500      0.0000    265.7503     83.7073    129.6173
   194.0000      0.0000    265.7249     83.6610    124.6677
   194.2500      0.0000    265.7150     83.5495    120.8688
   194.5000      0.0000    265.7206     83.4289    119.6017
   194.7500      0.0000    265.7328     83.3679    120.5302
   195.0000      0.0000    265.7423     83.4083    121.7718
   195.2500      0.0000    265.7491     83.5237    121.6733
   195.5000      0.0000    265.7592     83.6372    119.9378
   195.7500      0.0000    265.7735     83.6926    117.4902
   196.0000      0.0000    265.7852     83.7021    115.6200
   196.2500      0.0000    265.7882     83.7189    114.7554
   196.5000      0.0000    265.7850     83.7772    113.9405
   196.7500      0.0000    265.7835     83.8641    112.1099
   197.0000      0.0000    265.7870     83.9351    109.9330
   197.2500      0.0000    265.7905     83.9396    109.6040
   197.5000      0.0000    265.7879     83.8463    112.4349
   197.7500      0.0000    265.7797     83.6715    117.2407
   198.0000      0.0000    265.7704     83.4884    121.7260
   198.2500      0.0000    265.7620     83.3858    124.9839
   198.5000      0.0000    265.7536     83.3993    127.7404
   198.7500      0.0000    265.7470     83.4764    130.4358
   199.0000      0.0000    265.7489     83.5136    132.1644
   199.2500      0.0000    265.7647     83.4422    131.8022
   199.5000      0.0000    265.7891     83.2897    129.3527
   199.7500      0.0000    265.8063     83.1605    125.5537
   200.0000      0.0000    265.8037     83.1469    120.6034
   200.2500      0.0000    265.7849     83.2505    114.1321
   200.5000      0.0000    265.7662     83.3885    106.4435
   200.7500      0.0000    265.7570     83.4718     98.9102
   201.0000      0.0000    265.7495     83.4720     92.6617
   201.2500      0.0000    265.7278     83.4242     87.4670
   201.5000      0.0000    265.6860     83.3841     82.4562
   201.7500      0.0000    265.6368     83.3793     77.4003
   202.0000      0.0000    265.6021     83.3815     72.7073
   202.2500      0.0000    265.5952     83.3314     68.7414
   202.5000      0.0000    265.6098     83.2018     65.8373
   202.7500      0.0000    265.6263     83.0304     64.5899
   203.0000      0.0000    265.6284     82.8877     65.4045
   203.2500      0.0000    265.6169     82.8223     67.6905
   203.5000      0.0000    265.6071     82.8315     69.7585
   203.7500      0.0000    265.6154     82.8767     69.7971
   204.0000      0.0000    265.6460     82.9249     67.3375
   204.2500      0.0000    265.6855     82.9766     63.8264
   204.5000      0.0000    265.7111     83.0570     61.4815
   204.7500      0.0000    265.7054     83.1756     61.4895
   205.0000      0.0000    265.6700     83.2953     63.3340
