~Version Information
VERS.                      2.0: CWLS Log ASCII Standard - VERSION 2.0
WRAP.                       NO: One line per depth step
~Well Information Block
STRT.FT                15.0000: 
STOP.FT              1891.7500: 
STEP.FT                 0.2500: 
NULL.                -999.2500: 
COMP.          Pioneer Natural Resources: COMPANY
WELL.          Oink Oink 14-36 Tr: WELL
FLD.           Purgatoire River: FIELD
LOC.           236' FSL & 164' FWL: LOCATION
PROV.                 Colorado: PROVINCE
CNTY.               Las Animas: COUNTRY
SRVC.                Patterson: SERVICE COMPANY
DATE.          Wed Jun 22 11:40:13 2005: LOG DATE
UWI.           05 071 08393 00: UNIQUE WELL ID
~Curve Information Block
DEPT.FT            0 000 00 00: Depth
GR.GAPI                       : Gamma Ray
CCL.                          : Casing Collar Locator
TT3.usec                      : CBL 3' Travel Time
AMP3.mV                       : CBL 3' Amplitude
~Parameter Information Block
~A  Depth        GR         CCL         TT3         AMP3    
# ...
   618.0000    138.0754      0.0000    609.1092      5.7965
   618.2500    132.4083      0.0000    612.2476      5.8646
   618.5000    126.7854      0.0000    618.9576      5.9225
   618.7500    122.7513      0.0000    629.4628      5.9639
   619.0000    121.3068      0.0000    641.5458      5.9918
   619.2500    122.5494      0.0000    652.7122      6.0128
   619.5000    125.7698      0.0000    661.8843      6.0299
   619.7500    129.7984      0.0000    669.7050      6.0403
   620.0000    133.2413      0.0000    677.5460      6.0408
   620.2500    134.6722      0.0000    685.6403      6.0334
   620.5000    133.1507      0.0000    692.2257      6.0237
   620.7500    128.8193      0.0000    695.1689      6.0140
   621.0000    122.8493      0.0000    694.3506      6.0005
   621.2500    116.6970      0.0000    691.5989      5.9796
   621.5000    111.4713      0.0000    688.4992      5.9540
   621.7500    107.8074      0.0000    685.0516      5.9293
   622.0000    105.7520      0.0000    680.0931      5.9073
   622.2500    104.4588      0.0000    672.5894      5.8851
   622.5000    102.4209      0.0000    663.3272      5.8599
   622.7500     98.5625      0.0000    655.3286      5.8322
   623.0000     93.1228      0.0000    651.1760      5.8044
   623.2500     87.2750      0.0000    649.7911      5.7785
   623.5000     82.0920      0.0000    647.2611      5.7567
   623.7500     78.2526      0.0000    640.8929      5.7425
   624.0000     76.3635      0.0000    631.3389      5.7385
   624.2500     76.7699      0.0000    621.1746      5.7425
   624.5000     78.9623      0.0000    612.7079      5.7471
   624.7500     81.5710      0.0000    606.9772      5.7442
   625.0000     83.0948      0.0000    603.8544      5.7297
   625.2500     82.7853      0.0000    602.7138      5.7049
   625.5000     81.1686      0.0000    603.2159      5.6741
   625.7500     79.6584      0.0000    605.5767      5.6426
   626.0000     79.2412      0.0000    610.0313      5.6171
   626.2500     79.5450      0.0000    615.8959      5.6059
   626.5000     79.4400      0.0000    621.3030      5.6159
   626.7500     78.3461      0.0000    624.2650      5.6477
   627.0000     76.6547      0.0000    624.3884      5.6919
   627.2500     75.2112      0.0000    623.6490      5.7317
   627.5000     74.8764      0.0000    625.2178      5.7519
   627.7500     76.4031      0.0000    630.9576      5.7484
   628.0000     80.0200      0.0000    639.8155      5.7301
   628.2500     84.7320      0.0000    648.7976      5.7135
   628.5000     88.3212      0.0000    655.4319      5.7135
   628.7500     88.6315      0.0000    659.1685      5.7387
   629.0000     85.3085      0.0000    660.8703      5.7926
   629.2500     80.4717      0.0000    661.6154      5.8750
   629.5000     77.4559      0.0000    662.0480      5.9777
   629.7500     78.3345      0.0000    662.3739      6.0806
   630.0000     82.3412      0.0000    662.6128      6.1564
   630.2500     86.6731      0.0000    662.7830      6.1873
   630.5000     88.6989      0.0000    662.9508      6.1772
   630.7500     87.5127      0.0000    663.1844      6.1476
   631.0000     84.0031      0.0000    663.4878      6.1211
   631.2500     79.9728      0.0000    663.7666      6.1091
   631.5000     76.9944      0.0000    663.8732      6.1109
   631.7500     75.6262      0.0000    663.7167      6.1179
   632.0000     75.4923      0.0000    663.3483      6.1165
   632.2500     75.9806      0.0000    662.9451      6.0943
   632.5000     76.6681      0.0000    662.7293      6.0488
   632.7500     77.1668      0.0000    662.9051      5.9937
   633.0000     76.9808      0.0000    663.6538      5.9513
   633.2500     75.8792      0.0000    665.1431      5.9358
   633.5000     74.4056      0.0000    667.4828      5.9433
   633.7500     73.8107      0.0000    670.7300      5.9564
   634.0000     75.2199      0.0000    675.0842      5.9582
   634.2500     78.5746      0.0000    680.8915      5.9431
   634.5000     82.2223      0.0000    687.8877      5.9188
   634.7500     83.7918      0.0000    694.3345      5.8978
   635.0000     82.0318      0.0000    697.5643      5.8869
   635.2500     78.0722      0.0000    695.5776      5.8814
   635.5000     74.5795      0.0000    687.6814      5.8719
   635.7500     73.4465      0.0000    674.0293      5.8534
   636.0000     74.4699      0.0000    655.7621      5.8273
   636.2500     76.1409      0.0000    635.6041      5.7968
   636.5000     77.1615      0.0000    616.9284      5.7676
   636.7500     77.1346      0.0000    601.6899      5.7513
   637.0000     76.3711      0.0000    590.0772      5.7595
   637.2500     75.4683      0.0000    582.3073      5.7913
   637.5000     74.9623      0.0000    579.4604      5.8267
   637.7500     75.1404      0.0000    581.7850      5.8349
   638.0000     75.9510      0.0000    587.3589      5.7976
   638.2500     76.9463      0.0000    593.7466      5.7265
   638.5000     77.4484      0.0000    600.7431      5.6522
   638.7500     77.0108      0.0000    610.3735      5.5893
   639.0000     75.8217      0.0000    623.7945      5.5264
   639.2500     74.6753      0.0000    638.7000      5.4524
   639.5000     74.5321      0.0000    650.8958      5.3784
   639.7500     75.9393      0.0000    658.4756      5.3243
   640.0000     78.7246      3.0000    663.0806      5.2991
   640.2500     82.1783      3.0000    666.4483      5.3025
   640.5000     85.4577      0.0000    667.1915      5.3349
   640.7500     87.8294      0.0000    662.1563      5.4033
   641.0000     88.8493      0.0000    650.3445      5.5162
   641.2500     88.6056      0.0000    634.8091      5.6685
   641.5000     87.6198      0.0000    620.7375      5.8256
   641.7500     86.2954      0.0000    611.8715      5.9345
   642.0000     84.5678      0.0000    608.7460      5.9659
   642.2500     82.2062      0.0000    609.6956      5.9380
   642.5000     79.3269      0.0000    612.6093      5.8927
   642.7500     76.4843      0.0000    615.7626      5.8561
   643.0000     74.3460      0.0000    617.9841      5.8295
   643.2500     73.2731      0.0000    618.5980      5.8051
   643.5000     73.0692      0.0000    617.2178      5.7819
   643.7500     73.1185      0.0000    613.4927      5.7671
   644.0000     72.9195      0.0000    606.9982      5.7708
   644.2500     72.4909      0.0000    597.1895      5.7979
   644.5000     72.2528      0.0000    583.9203      5.8435
   644.7500     72.6469      0.0000    568.8405      5.8964
   645.0000     73.8992      0.0000    556.1862      5.9452
   645.2500     75.9829      0.0000    550.8759      5.9829
   645.5000     78.5631      0.0000    554.9432      6.0074
   645.7500     80.9216      0.0000    565.9897      6.0184
   646.0000     82.2691      0.0000    579.1105      6.0137
   646.2500     82.3935      0.0000    590.0755      5.9896
   646.5000     81.8830      0.0000    597.0896      5.9457
   646.7500     81.6668      0.0000    600.4616      5.8853
   647.0000     82.5390      0.0000    601.1864      5.8101
   647.2500     84.9256      0.0000    599.7477      5.7183
   647.5000     88.4945      0.0000    596.0064      5.6107
   647.7500     91.9014      0.0000    590.3034      5.4958
   648.0000     93.5407      0.0000    584.6588      5.3868
   648.2500     92.7851      0.0000    582.1572      5.2929
   648.5000     90.2370      0.0000    584.4138      5.2144
   648.7500     86.9929      0.0000    589.9942      5.1424
   649.0000     84.0594      0.0000    595.8702      5.0658
   649.2500     82.0433      0.0000    599.9867      4.9796
   649.5000     80.6817      0.0000    602.0933      4.8897
   649.7500     78.9187      0.0000    602.8405      4.8061
   650.0000     76.1105      0.0000    602.7532      4.7348
   650.2500     72.9965      0.0000    601.8347      4.6754
   650.5000     70.9818      0.0000    599.5677      4.6291
   650.7500     70.6477      0.0000    595.3069      4.6026
   651.0000     71.4116      0.0000    589.3019      4.5996
   651.2500     72.3785      0.0000    583.6167      4.6145
