~Version Information
 VERS.                                  2.0 : CWLS LAS VERSION
 WRAP.                                   NO : WRAPING MODE
 SWARE .                 MController 2.5.0N : SOFTWARE VERSION
~Well Information
 WELL.                       Guajardo 24-18 : WELL
 COMP.    Pioneer Natural Resources USA Inc : COMPANY
 FLD.                      Purgatoire River : FIELD
 LOC.                SE/SW Sec 18 T32S R65W : LOCATION
 DATE.                           8/4-5/2005 : DATE(S) LOGGED
 SRVC.       BLANCO Geological Services LLC : SERVICE COMPANY
 STAT.                                   CO : STATE
 CNTY.                           Las Animas : COUNTY
 CTRY.                                  USA : COUNTRY
 API.                       05-071-08377-00 : API NUMBER
 STRT.FT                             541.00 : START DEPTH
 STOP.FT                            1855.00 : STOP DEPTH
 STEP.FT                               1.00 : DEPTH INCREMENT
 NULL.                                -9999 : NULL VALUE
~Curve information
 DEPTH.FT                                   :
 ROP.MIN/FT                                 :
 GAS.UNITS                                  :
~ASCII Log data
# ...
       941.0         0.20         64.6 
       942.0         0.20         64.2 
       943.0         0.40         65.6 
       944.0         0.20         66.8 
       945.0         0.40         68.2 
       946.0         0.40         68.5 
       947.0         0.20         68.0 
       948.0         0.38         66.9 
       949.0         0.20         66.3 
       950.0         0.20         65.6 
       951.0         0.40         64.9 
       952.0         0.20         64.6 
       953.0         0.20         64.7 
       954.0         0.20         65.6 
       955.0         0.20         67.1 
       956.0         0.20         68.3 
       957.0         0.20         69.4 
       958.0         0.40         72.3 
       959.0         0.20         72.6 
       960.0         0.20         72.0 
       961.0         0.20         71.1 
       962.0         0.42         70.7 
       963.0         0.20         70.4 
       964.0         0.20         70.0 
       965.0         0.20         69.3 
       966.0         0.20         67.8 
       967.0         0.20         66.0 
       968.0         0.40         62.7 
       969.0         0.40         61.3 
       970.0         0.13         61.2 
       971.0         0.40         61.2 
       972.0         0.20         61.8 
       973.0         0.40         64.7 
       974.0         0.25         67.3 
       975.0         0.20         68.3 
       976.0         0.20         67.9 
       977.0         0.20         67.4 
       978.0         0.20         67.3 
       979.0         0.20         69.3 
       980.0         0.20         73.7 
       981.0         0.23         80.6 
       982.0         0.37         91.7 
       983.0         0.33        101.2 
       984.0         0.20        106.5 
       985.0         0.20        110.1 
       986.0         0.33        113.0 
       987.0         0.20        114.7 
       988.0         0.22        117.5 
       989.0         0.20        118.9 
       990.0         0.40        116.5 
       991.0         0.20        114.3 
       992.0         0.20        112.3 
       993.0         0.40        109.3 
       994.0         0.20        108.1 
       995.0         0.20        107.1 
       996.0         0.40        106.2 
       997.0         0.20        106.4 
       998.0         0.20        106.8 
       999.0         0.40        107.4 
      1000.0         0.38        109.1 
      1001.0         0.20        111.2 
      1002.0         0.40        112.2 
      1003.0         0.40        112.4 
      1004.0         0.40        115.9 
      1005.0         0.40        114.1 
      1006.0         0.20        112.5 
      1007.0         0.60        107.4 
      1008.0         0.40        106.5 
      1009.0         0.20        107.9 
      1010.0         0.48        114.4 
      1011.0         0.10        116.1 
      1012.0         0.10        117.6 
      1013.0         0.50        116.6 
      1014.0         0.10        114.3 
      1015.0         0.20        108.3 
      1016.0         0.20        101.4 
      1017.0         0.33         89.0 
      1018.0         0.10         85.6 
      1019.0         0.30         77.2 
      1020.0         0.30         75.0 
      1021.0         0.30         79.7 
      1022.0         0.45         90.0 
      1023.0         0.30         96.4 
      1024.0         0.40        102.5 
      1025.0         0.10        103.5 
      1026.0         0.20        105.3 
      1027.0         0.33        107.2 
      1028.0         0.20        108.2 
      1029.0         0.20        110.2 
      1030.0         0.10        111.6 
      1031.0         0.50        118.2 
      1032.0         0.10        119.5 
      1033.0         0.30        120.8 
      1034.0         0.40        117.4 
      1035.0         0.10        116.5 
      1036.0         0.22        114.8 
      1037.0         0.40        111.0 
      1038.0         0.10        110.3 
      1039.0         0.30        107.6 
      1040.0         0.40        107.8 
      1041.0         0.10        108.7 
      1042.0         0.50        108.8 
      1043.0         0.20        107.0 
      1044.0         0.43        103.7 
      1045.0         0.40        102.7 
      1046.0         0.10        102.9 
      1047.0         0.22        104.3 
      1048.0         0.40        111.2 
      1049.0         0.20        113.2 
      1050.0         0.10        113.1 
      1051.0         0.40        108.5 
      1052.0         0.20        105.9 
      1053.0         0.20        104.0 
      1054.0         0.30        102.2 
      1055.0         0.20        101.8 
      1056.0         0.10        101.8 
      1057.0         0.40        103.2 
      1058.0         0.10        103.8 
      1059.0         0.10        104.2 
      1060.0         0.52        105.9 
      1061.0         0.10        105.9 
      1062.0         0.30        105.9 
      1063.0         0.47        121.0 
      1064.0         0.10        126.9 
      1065.0         0.33        146.2 
      1066.0         0.47        165.1 
      1067.0         0.10        168.1 
      1068.0         0.20        173.1 
      1069.0         0.47        181.0 
      1070.0         0.20        183.3 
      1071.0         0.50        185.2 
      1072.0         0.12        184.9 
      1073.0         0.50        183.2 
      1074.0         0.20        182.6 
      1075.0         0.50        181.3 
      1076.0         0.10        181.2 
      1077.0         0.20        181.1 
      1078.0         0.40        182.0 
      1079.0         0.10        182.1 
      1080.0         0.10        182.2 
      1081.0         0.20        182.3 
      1082.0         0.30        182.6 
      1083.0         0.20        183.8 
      1084.0         0.10        184.7 
      1085.0         0.10        185.2 
      1086.0         0.42        181.6 
      1087.0         0.40        173.4 
      1088.0         0.10        171.9 
      1089.0         0.10        170.9 
      1090.0         0.40        169.5 
      1091.0         0.50        169.5 
      1092.0         0.10        169.6 
      1093.0         0.10        169.7 
      1094.0         0.50        174.0 
      1095.0         0.20        175.8 
      1096.0         0.40        178.1 
      1097.0         0.20        179.0 
      1098.0         0.22        179.5 
      1099.0         0.50        178.8 
      1100.0         0.20        177.9 
      1101.0         0.60        175.8 
      1102.0         0.40        175.5 
      1103.0         0.60        178.1 
      1104.0         0.50        178.5 
      1105.0         0.30        177.7 
      1106.0         0.52        176.3 
      1107.0         0.50        172.4 
      1108.0         0.20        170.5 
      1109.0         0.40        168.7 
      1110.0         0.50        173.9 
      1111.0         0.10        175.3 
      1112.0         0.90        187.3 
      1113.0         0.42        175.9 
      1114.0         0.37        160.1 
      1115.0       714.20         31.7 
      1116.0         0.37         42.7 
      1117.0         0.27         46.4 
      1118.0         0.27         76.9 
      1119.0         0.10         70.8 
      1120.0         0.10         59.1 
      1121.0         0.25         48.7 
      1122.0         0.07         48.5 
      1123.0         0.20         50.5 
      1124.0         0.20         53.4 
      1125.0         0.43         55.6 
      1126.0         0.10         55.7 
      1127.0         0.30         55.5 
      1128.0         0.10         55.5 
      1129.0         0.10         55.3 
      1130.0         0.32         55.1 
      1131.0         0.10         55.1 
      1132.0         0.10         55.4 
      1133.0         0.30         55.8 
      1134.0         0.40         54.5 
      1135.0         0.30         53.9 
      1136.0         0.40         53.3 
      1137.0         0.10         53.1 
      1138.0         0.10         53.0 
      1139.0         0.30         52.3 
      1140.0         0.10         52.3 
