~Version Information
VERS.                      2.0: CWLS Log ASCII Standard - VERSION 2.0
WRAP.                       NO: One line per depth step
~Well Information Block
STRT.FT               665.0000: 
STOP.FT              1972.5000: 
STEP.FT                 0.1000: 
NULL.                -999.2500: 
COMP.          Petrogulf Corporation: COMPANY
WELL.          Great Plains 22-21V: WELL
FLD.           Purgatorie River: FIELD
LOC.           63' FNL & 1895' FWL: LOCATION
PROV.                 Colorado: PROVINCE
CNTY.               Las Animas: COUNTRY
SRVC.                Patterson: SERVICE COMPANY
DATE.          Thu Sep 01 07:39:43 2005: LOG DATE
UWI.                          : UNIQUE WELL ID
~Curve Information Block
DEPT.FT            0 000 00 00: Depth
DCAL.in                       : CDL Caliper
RHOB.g/cc                     : CDL Bulk Density
RHOC.g/cc                     : CDL Density Correction
DPOR.pu                       : CDL Density Porosity
GR.GAPI                       : Gamma Ray
NPOR.pu                       : Neutron Porosity
~Parameter Information Block
~A  Depth       DCAL        RHOB        RHOC        DPOR         GR         NPOR    
# ...
  1529.0000      8.1271      2.5923      0.1432      3.4957    143.3626     25.2448
  1529.1000      8.1271      2.5923      0.0975      3.4979    142.6321     24.9911
  1529.2000      8.1271      2.5961      0.0745      3.2654    137.9639     25.0726
  1529.3000      8.1134      2.6013      0.0959      2.9491    132.2424     25.1818
  1529.4000      8.1134      2.6017      0.0625      2.9293    126.9851     25.2225
  1529.5000      8.1089      2.6018      0.0737      2.9220    121.9389     25.4260
  1529.6000      8.1089      2.6076      0.0344      2.5716    117.2587     25.6790
  1529.7000      8.1089      2.6123      0.0561      2.2836    113.0364     25.6414
  1529.8000      8.1252      2.6053      0.0659      2.7091    110.0420     25.3102
  1529.9000      8.1252      2.5889      0.0191      3.7037    108.4567     24.7439
  1530.0000      8.1622      2.5784     -0.0009      4.3385    105.7461     23.9878
  1530.1000      8.1622      2.5817      0.0276      4.1386    100.7098     23.2589
  1530.2000      8.1622      2.5919      0.0306      3.5200     96.7521     22.8043
  1530.3000      8.0848      2.5975      0.0229      3.1792     95.8044     22.6356
  1530.4000      8.0848      2.5925      0.0019      3.4820     98.0341     22.5912
  1530.5000      8.0943      2.5823      0.0250      4.1028    103.9968     22.6873
  1530.6000      8.0943      2.5765      0.0213      4.4566    111.3087     22.9638
  1530.7000      8.0943      2.5769      0.0848      4.4317    115.8143     23.2582
  1530.8000      8.1004      2.5797      0.0423      4.2593    116.3064     23.4718
  1530.9000      8.1004      2.5816      0.0618      4.1474    114.8324     23.6072
  1531.0000      8.1164      2.5763      0.0811      4.4678    111.3688     23.5673
  1531.1000      8.1164      2.5628      0.0615      5.2824    105.3042     23.5362
  1531.2000      8.1164      2.5493      0.0390      6.1060     99.5689     23.6826
  1531.3000      8.1258      2.5424      0.0642      6.5232     96.1345     23.6855
  1531.4000      8.1258      2.5421      0.0511      6.5365     93.5714     23.4793
  1531.5000      8.1060      2.5395      0.0849      6.6969     90.8083     23.3587
  1531.6000      8.1060      2.5230      0.0585      7.6983     87.7356     23.4924
  1531.7000      8.1060      2.4999      0.0268      9.0966     83.9158     23.7244
  1531.8000      8.1111      2.4896     -0.0126      9.7191     78.9120     23.7334
  1531.9000      8.1111      2.4954      0.0474      9.3722     74.5516     23.5092
  1532.0000      8.1182      2.5011      0.0506      9.0214     73.7175     23.2116
  1532.1000      8.1182      2.4954      0.0905      9.3714     75.0452     22.9174
  1532.2000      8.1182      2.4833      0.0418     10.1059     76.9204     22.8175
  1532.3000      8.1513      2.4810      0.0204     10.2425     78.9754     22.9164
  1532.4000      8.1513      2.4906      0.0538      9.6587     78.8716     23.0267
  1532.5000      8.1370      2.4969      0.0584      9.2758     77.2190     23.0161
  1532.6000      8.1370      2.4955      0.0792      9.3657     76.8469     22.6640
  1532.7000      8.1370      2.4869      0.0996      9.8836     75.9354     21.9505
  1532.8000      8.1295      2.4735      0.0573     10.6999     71.7517     21.3246
  1532.9000      8.1295      2.4673      0.0560     11.0733     66.5729     21.0553
  1533.0000      8.1376      2.4699      0.0505     10.9164     64.0093     21.0754
  1533.1000      8.1376      2.4688      0.0575     10.9831     66.1507     21.2595
  1533.2000      8.1376      2.4598      0.0450     11.5298     71.9713     21.5356
  1533.3000      8.1919      2.4516      0.0188     12.0252     76.2802     21.8113
  1533.4000      8.1919      2.4541      0.0123     11.8742     77.0924     21.9630
  1533.5000      8.1959      2.4621      0.0859     11.3878     75.8820     21.8230
  1533.6000      8.1959      2.4581      0.0732     11.6280     73.0651     21.4580
  1533.7000      8.1959      2.4369      0.0384     12.9129     71.4985     21.1887
  1533.8000      8.2192      2.4099      0.0371     14.5492     73.2023     21.1951
  1533.9000      8.2192      2.3935     -0.0170     15.5425     75.2406     21.1719
  1534.0000      8.2345      2.3927      0.0334     15.5916     74.7254     20.9457
  1534.1000      8.2345      2.3949      0.0328     15.4627     70.1462     21.0465
  1534.2000      8.2345      2.3982      0.0071     15.2602     63.1151     21.4698
  1534.3000      8.2188      2.4125      0.0477     14.3919     58.2017     21.4694
  1534.4000      8.2188      2.4310      0.0565     13.2744     57.1649     20.9814
  1534.5000      8.1932      2.4380      0.0612     12.8473     58.6483     20.5946
  1534.6000      8.1932      2.4323      0.0554     13.1953     60.9645     20.6048
  1534.7000      8.1932      2.4213      0.0608     13.8622     63.0140     20.7889
  1534.8000      8.1260      2.4075      0.0521     14.6943     63.5639     20.7653
  1534.9000      8.1260      2.4011     -0.0010     15.0841     62.9512     20.4542
  1535.0000      8.1372      2.4163      0.0381     14.1618     64.4673     20.2012
  1535.1000      8.1372      2.4423      0.0952     12.5908     67.4412     20.4015
  1535.2000      8.1372      2.4585      0.0708     11.6078     67.5297     20.9276
  1535.3000      8.1971      2.4627      0.0625     11.3521     64.4492     21.3384
  1535.4000      8.1971      2.4565      0.0746     11.7293     60.5116     21.4394
  1535.5000      8.1684      2.4431      0.0485     12.5389     57.9279     21.3009
  1535.6000      8.1684      2.4344      0.0564     13.0671     59.1799     21.0218
  1535.7000      8.1684      2.4367      0.0686     12.9296     61.9647     20.6039
  1535.8000      8.1398      2.4423      0.0827     12.5904     62.0295     20.2825
  1535.9000      8.1398      2.4400      0.0784     12.7269     59.8463     20.2943
  1536.0000      8.1340      2.4295      0.0531     13.3631     57.7832     20.4112
  1536.1000      8.1340      2.4164      0.0501     14.1566     56.5274     20.2593
  1536.2000      8.1340      2.4051      0.0377     14.8399     55.9675     19.9723
  1536.3000      8.1320      2.4016      0.0299     15.0561     56.5015     19.9774
  1536.4000      8.1320      2.4073      0.0404     14.7091     58.0508     20.2779
  1536.5000      8.1207      2.4147      0.0530     14.2583     58.5543     20.5848
  1536.6000      8.1207      2.4195      0.0660     13.9674     57.3217     20.9085
  1536.7000      8.1207      2.4277      0.0670     13.4737     56.1962     21.3140
  1536.8000      8.1238      2.4392      0.0841     12.7788     54.6906     21.6092
  1536.9000      8.1238      2.4407      0.0948     12.6871     51.3628     21.5953
  1537.0000      8.1289      2.4291      0.0683     13.3884     47.0664     21.3008
  1537.1000      8.1289      2.4193      0.0558     13.9792     44.4933     20.9382
  1537.2000      8.1289      2.4196      0.0754     13.9653     45.2829     20.6962
  1537.3000      8.1236      2.4265      0.0437     13.5468     47.1235     20.5190
  1537.4000      8.1236      2.4334      0.0866     13.1286     46.7607     20.3276
  1537.5000      8.1164      2.4301      0.0655     13.3286     45.2812     20.3073
  1537.6000      8.1164      2.4197      0.0310     13.9597     46.1318     20.3581
  1537.7000      8.1164      2.4150      0.0542     14.2422     49.6987     20.1771
  1537.8000      8.1071      2.4192      0.0614     13.9862     52.7473     19.8769
  1537.9000      8.1071      2.4314      0.0432     13.2476     53.3267     19.6467
  1538.0000      8.1085      2.4475      0.0714     12.2724     53.1337     19.3160
  1538.1000      8.1085      2.4585      0.0693     11.6068     52.9407     18.8063
  1538.2000      8.1085      2.4619      0.0886     11.4029     51.7008     18.2827
  1538.3000      8.0990      2.4598      0.0602     11.5284     50.5995     17.8299
  1538.4000      8.0990      2.4551      0.0768     11.8118     52.1894     17.7159
  1538.5000      8.0922      2.4541      0.0715     11.8728     56.1913     18.2566
