~Version Information
VERS.                      2.0: CWLS Log ASCII Standard - VERSION 2.0
WRAP.                       NO: One line per depth step
~Well Information Block
STRT.FT               221.2000: 
STOP.FT              2260.4000: 
STEP.FT                 0.1000: 
NULL.                -999.2500: 
COMP.          Petrogulf Corporation: COMPANY
WELL.          Anderson 18-43V: WELL
FLD.           Purgatorie River: FIELD
LOC.           1782' FSL & 887' FEL--: LOCATION
CNTY.               Las Animas: COUNTY
SRVC.                         : SERVICE COMPANY
DATE.          Mon Sep 13 14:11:09 2004: LOG DATE
UWI.                          : UNIQUE WELL ID
STAT.                       CO: STATE
~Curve Information Block
DEPT.FT            0 000 00 00: Depth
TT3.usec                      : CBL 3' Travel Time
AMP3.mV                       : CBL 3' Amplitude
GR.GAPI                       : Gamma Ray
CCL.                          : Casing Collar Locator
~Parameter Information Block
~A  Depth       TT3         AMP3         GR         CCL     
# ...
   636.6000    361.5735      6.7408     81.8756      0.0000
   636.7000    361.5735      6.7408     81.8756      0.0000
   636.8000    362.2052      6.6349     83.6331      0.0000
   636.9000    362.2052      6.6349     83.6331      0.0000
   637.0000    362.8939      6.6002     85.3769      0.0000
   637.1000    362.8939      6.6002     85.3769      0.0000
   637.2000    362.8939      6.6002     85.3769      0.0000
   637.3000    364.3825      6.6241     87.7749      0.0000
   637.4000    364.3825      6.6241     87.7749      0.0000
   637.5000    368.3561      6.6760     90.2356      0.0000
   637.6000    368.3561      6.6760     90.2356      0.0000
   637.7000    368.3561      6.6760     90.2356      0.0000
   637.8000    378.5067      6.7152     91.2853      0.0000
   637.9000    378.5067      6.7152     91.2853      0.0000
   638.0000    400.5121      6.7096     89.7220      0.0000
   638.1000    400.5121      6.7096     89.7220      0.0000
   638.2000    400.5121      6.7096     89.7220      0.0000
   638.3000    439.0746      6.6429     85.7251      0.0000
   638.4000    439.0746      6.6429     85.7251      0.0000
   638.5000    492.7312      6.5096     80.8901      0.0000
   638.6000    492.7312      6.5096     80.8901      0.0000
   638.7000    492.7312      6.5096     80.8901      0.0000
   638.8000    551.5997      6.3122     77.0667      0.0000
   638.9000    551.5997      6.3122     77.0667      0.0000
   639.0000    602.3719      6.0679     75.2550      0.0000
   639.1000    602.3719      6.0679     75.2550      0.0000
   639.2000    602.3719      6.0679     75.2550      0.0000
   639.3000    636.7144      5.8136     75.5508      0.0000
   639.4000    636.7144      5.8136     75.5508      0.0000
   639.5000    654.7838      5.5926     77.5013      0.0000
   639.6000    654.7838      5.5926     77.5013      0.0000
   639.7000    654.7838      5.5926     77.5013      0.0000
   639.8000    661.7883      5.4271     80.2551      0.0000
   639.9000    661.7883      5.4271     80.2551      0.0000
   640.0000    662.9803      5.3063     82.9659      0.0000
   640.1000    662.9803      5.3063     82.9659      0.0000
   640.2000    662.9803      5.3063     82.9659      0.0000
   640.3000    661.6833      5.2100     85.3175      0.0000
   640.4000    661.6833      5.2100     85.3175      0.0000
   640.5000    659.9332      5.1411     87.3421      0.0000
   640.6000    659.9332      5.1411     87.3421      0.0000
   640.7000    659.9332      5.1411     87.3421      0.0000
   640.8000    659.1764      5.1257     88.9665      0.0000
   640.9000    659.1764      5.1257     88.9665      0.0000
   641.0000    659.9899      5.1783     90.2180      0.0000
   641.1000    659.9899      5.1783     90.2180      0.0000
   641.2000    659.9899      5.1783     90.2180      0.0000
   641.3000    661.7814      5.2745     91.4170      0.0000
   641.4000    661.7814      5.2745     91.4170      0.0000
   641.5000    663.3205      5.3655     92.6829      0.0000
   641.6000    663.3205      5.3655     92.6829      0.0000
   641.7000    663.3205      5.3655     92.6829      0.0000
   641.8000    663.5424      5.4165     93.6848      0.0000
   641.9000    663.5424      5.4165     93.6848      0.0000
   642.0000    661.7744      5.4244     94.2449      0.0000
   642.1000    661.7744      5.4244     94.2449      0.0000
   642.2000    661.7744      5.4244     94.2449      0.0000
   642.3000    657.6839      5.4015     94.6537      0.0000
   642.4000    657.6839      5.4015     94.6537      0.0000
   642.5000    651.5548      5.3522     94.9367      0.0000
   642.6000    651.5548      5.3522     94.9367      0.0000
   642.7000    651.5548      5.3522     94.9367      0.0000
   642.8000    644.5674      5.2715     94.2144      0.0000
   642.9000    644.5674      5.2715     94.2144      0.0000
   643.0000    638.3562      5.1611     91.4047      0.0000
   643.1000    638.3562      5.1611     91.4047      0.0000
   643.2000    638.3562      5.1611     91.4047      0.0000
   643.3000    634.0758      5.0484     86.5243      0.0000
   643.4000    634.0758      5.0484     86.5243      0.0000
   643.5000    631.9784      4.9859     80.7267      0.0000
   643.6000    631.9784      4.9859     80.7267      0.0000
   643.7000    631.9784      4.9859     80.7267      0.0000
   643.8000    631.8647      5.0191     75.0580      0.0000
   643.9000    631.8647      5.0191     75.0580      0.0000
   644.0000    633.7002      5.1401     69.7496      0.0000
   644.1000    633.7002      5.1401     69.7496      0.0000
   644.2000    633.7002      5.1401     69.7496      0.0000
   644.3000    637.5447      5.2814     64.6643      0.0000
   644.4000    637.5447      5.2814     64.6643      0.0000
   644.5000    642.7894      5.3731     59.7689      0.0000
   644.6000    642.7894      5.3731     59.7689      0.0000
   644.7000    642.7894      5.3731     59.7689      0.0000
   644.8000    647.7109      5.4047     55.1099      0.0000
   644.9000    647.7109      5.4047     55.1099      0.0000
   645.0000    650.3850      5.4282     50.7600      0.0000
   645.1000    650.3850      5.4282     50.7600      0.0000
   645.2000    650.3850      5.4282     50.7600      0.0000
   645.3000    650.4484      5.5152     46.7601      0.0000
   645.4000    650.4484      5.5152     46.7601      0.0000
   645.5000    649.6970      5.7135     42.9514      0.0000
   645.6000    649.6970      5.7135     42.9514      0.0000
   645.7000    649.6970      5.7135     42.9514      0.0000
   645.8000    650.4655      6.0207     38.9543      0.0000
   645.9000    650.4655      6.0207     38.9543      0.0000
   646.0000    653.4460      6.3715     34.4461      0.0000
   646.1000    653.4460      6.3715     34.4461      0.0000
   646.2000    653.4460      6.3715     34.4461      0.0000
   646.3000    657.3630      6.6557     29.5713      0.0000
   646.4000    657.3630      6.6557     29.5713      0.0000
   646.5000    660.5283      6.7746     25.2307      0.0000
   646.6000    660.5283      6.7746     25.2307      0.0000
   646.7000    660.5283      6.7746     25.2307      0.0000
   646.8000    662.2021      6.6956     22.8611      0.0000
   646.9000    662.2021      6.6956     22.8611      0.0000
   647.0000    662.5376      6.4599     23.6194      0.0000
   647.1000    662.5376      6.4599     23.6194      0.0000
   647.2000    662.5376      6.4599     23.6194      0.0000
   647.3000    661.7722      6.1494     27.5153      0.0000
   647.4000    661.7722      6.1494     27.5153      0.0000
   647.5000    659.7488      5.8560     33.1614      0.0000
   647.6000    659.7488      5.8560     33.1614      0.0000
   647.7000    659.7488      5.8560     33.1614      0.0000
   647.8000    656.2313      5.6675     38.3616      0.0000
   647.9000    656.2313      5.6675     38.3616      0.0000
   648.0000    651.6503      5.6428     41.2594      0.0000
   648.1000    651.6503      5.6428     41.2594      0.0000
   648.2000    651.6503      5.6428     41.2594      0.0000
   648.3000    647.3241      5.7743     41.3730      0.0000
   648.4000    647.3241      5.7743     41.3730      0.0000
   648.5000    644.5573      5.9867     39.6525      0.0000
   648.6000    644.5573      5.9867     39.6525      0.0000
   648.7000    644.5573      5.9867     39.6525      0.0000
   648.8000    643.5262      6.1905     37.3301      0.0000
   648.9000    643.5262      6.1905     37.3301      0.0000
   649.0000    643.3928      6.3414     34.7124      0.0000
   649.1000    643.3928      6.3414     34.7124      0.0000
   649.2000    643.3928      6.3414     34.7124      0.0000
   649.3000    643.5000      6.4414     31.3752      0.0000
   649.4000    643.5000      6.4414     31.3752      0.0000
   649.5000    644.0491      6.4949     27.4932      0.0000
   649.6000    644.0491      6.4949     27.4932      0.0000
   649.7000    644.0491      6.4949     27.4932      0.0000
   649.8000    645.4918      6.4781     24.4326      0.0000
   649.9000    645.4918      6.4781     24.4326      0.0000
