~Version Information
VERS.                      2.0: CWLS Log ASCII Standard - VERSION 2.0
WRAP.                       NO: One line per depth step
~Well Information Block
STRT.FT               950.0000: 
STOP.FT              2417.7000: 
STEP.FT                 0.1000: 
NULL.                -999.2500: 
COMP.          Pioneer Natural Resources: COMPANY
WELL.            Chevron 13-13: WELL
FLD.           Purgatoire River: FIELD
LOC.           1560' FSL & 711' FWL--: LOCATION
CNTY.               Las Animas: COUNTY
SRVC.          Superior Well Services: SERVICE COMPANY
DATE.          Mon Feb 12 14:55:24 2007: LOG DATE
UWI.           05 071 08319 00: UNIQUE WELL ID
STAT.                 Colorado: STATE
~Curve Information Block
DEPT.FT            0 000 00 00: Depth
DCAL.in                       : CDL Caliper
RHOB.g/cc                     : CDL Bulk Density
RHOC.g/cc                     : CDL Density Correction
DPOR.pu                       : CDL Density Porosity
GR.GAPI                       : Gamma Ray
~Parameter Information Block
~A  Depth       DCAL        RHOB        RHOC        DPOR         GR     
# ...
  2282.8000      7.8629      2.4626      0.0576     11.3577     77.5192
  2282.9000      7.8629      2.4640      0.0465     11.2717     82.1054
  2283.0000      7.8640      2.4747      0.0667     10.6264     85.6435
  2283.1000      7.8640      2.4892      0.0713      9.7484     84.1041
  2283.2000      7.8640      2.4980      0.0810      9.2126     78.3452
  2283.3000      7.8641      2.4993      0.0702      9.1334     76.4506
  2283.4000      7.8641      2.4961      0.0838      9.3263     80.7668
  2283.5000      7.8608      2.4880      0.0783      9.8174     84.2967
  2283.6000      7.8608      2.4743      0.0590     10.6457     85.4856
  2283.7000      7.8608      2.4619      0.0364     11.4001     86.9905
  2283.8000      7.8576      2.4543      0.0611     11.8608     88.2757
  2283.9000      7.8576      2.4487      0.0530     12.1994     88.5866
  2284.0000      7.8578      2.4506      0.0027     12.0850     89.4433
  2284.1000      7.8578      2.4643      0.0425     11.2532     91.3692
  2284.2000      7.8578      2.4784      0.0484     10.3995     91.7289
  2284.3000      7.8586      2.4870      0.0455      9.8801     87.8209
  2284.4000      7.8586      2.4911      0.0692      9.6312     82.2454
  2284.5000      7.8587      2.4906      0.0548      9.6621     81.6796
  2284.6000      7.8587      2.4960      0.0403      9.3348     86.6007
  2284.7000      7.8587      2.5125      0.0712      8.3310     90.9953
  2284.8000      7.8616      2.5254      0.0963      7.5528     92.2802
  2284.9000      7.8616      2.5232      0.0917      7.6870     93.3399
  2285.0000      7.8679      2.5179      0.0670      8.0070     99.2183
  2285.1000      7.8679      2.5233      0.0617      7.6815    109.1316
  2285.2000      7.8679      2.5282      0.0972      7.3815    114.3696
  2285.3000      7.8727      2.5203      0.0377      7.8626    110.3052
  2285.4000      7.8727      2.5111      0.0345      8.4195    102.4794
  2285.5000      7.8721      2.5074      0.0525      8.6407     97.0413
  2285.6000      7.8721      2.4955      0.0781      9.3645     94.1653
  2285.7000      7.8721      2.4751     -0.0045     10.5993     92.6137
  2285.8000      7.8686      2.4668      0.0372     11.1049     90.4264
  2285.9000      7.8686      2.4762      0.0228     10.5345     84.5853
  2286.0000      7.8644      2.4936      0.0141      9.4810     77.6964
  2286.1000      7.8644      2.5114      0.0871      8.3982     77.1378
  2286.2000      7.8644      2.5307      0.0537      7.2329     84.3039
  2286.3000      7.8596      2.5509      0.0994      6.0090     96.5093
  2286.4000      7.8596      2.5580      0.0936      5.5765    111.4736
  2286.5000      7.8560      2.5477      0.0920      6.1982    121.6276
  2286.6000      7.8560      2.5354      0.0529      6.9446    120.5161
  2286.7000      7.8560      2.5244      0.0674      7.6148    113.8727
  2286.8000      7.8546      2.4986      0.0572      9.1762    107.6392
  2286.9000      7.8546      2.4632     -0.0067     11.3199    104.7467
  2287.0000      7.8517      2.4475     -0.0140     12.2751    109.9450
  2287.1000      7.8517      2.4632      0.0275     11.3240    117.3221
  2287.2000      7.8517      2.4952      0.0563      9.3827    117.1347
  2287.3000      7.8402      2.5251      0.0583      7.5675    111.5741
  2287.4000      7.8402      2.5459      0.0526      6.3104    105.8460
  2287.5000      7.8245      2.5556      0.0757      5.7216     99.5769
  2287.6000      7.8245      2.5573      0.0386      5.6191     92.3620
  2287.7000      7.8245      2.5593      0.0947      5.4999     89.7118
  2287.8000      7.8172      2.5650      0.0896      5.1538     96.2891
  2287.9000      7.8172      2.5752      0.0739      4.5309    106.5824
  2288.0000      7.8181      2.5920      0.1074      3.5138    110.9041
  2288.1000      7.8181      2.6121      0.0572      2.2996    106.7666
  2288.2000      7.8181      2.6190      0.0880      1.8787    102.2997
  2288.3000      7.8249      2.5969      0.0750      3.2200    103.7613
  2288.4000      7.8249      2.5713     -0.0341      4.7667    102.6642
  2288.5000      7.8409      2.5745      0.0607      4.5772     94.7382
  2288.6000      7.8409      2.5791      0.0842      4.2970     90.6415
  2288.7000      7.8409      2.5537      0.0171      5.8379     94.3285
  2288.8000      7.8622      2.5147      0.0076      8.1974     94.7632
  2288.9000      7.8622      2.4872     -0.0099      9.8692     89.2603
  2289.0000      7.8765      2.4783     -0.0085     10.4071     89.5413
  2289.1000      7.8765      2.4852      0.0191      9.9900    100.4388
  2289.2000      7.8765      2.5012      0.0265      9.0198    115.0275
  2289.3000      7.8820      2.5210      0.0396      7.8202    123.5865
  2289.4000      7.8820      2.5366      0.0314      6.8743    121.7988
  2289.5000      7.8838      2.5370      0.0674      6.8474    117.8300
  2289.6000      7.8838      2.5271      0.0117      7.4468    117.3035
  2289.7000      7.8838      2.5227      0.0467      7.7124    117.7470
  2289.8000      7.8831      2.5221      0.0703      7.7517    119.6041
  2289.9000      7.8831      2.5126      0.0517      8.3282    122.9150
  2290.0000      7.8813      2.4971      0.0131      9.2670    122.6508
  2290.1000      7.8813      2.4921      0.0227      9.5672    115.7549
  2290.2000      7.8813      2.5088      0.0198      8.5597    104.5038
  2290.3000      7.8795      2.5376      0.0642      6.8128     91.7212
  2290.4000      7.8795      2.5555      0.0629      5.7243     82.4381
  2290.5000      7.8769      2.5525      0.0731      5.9076     80.3123
  2290.6000      7.8769      2.5366      0.0694      6.8704     81.2652
  2290.7000      7.8769      2.5227      0.0600      7.7157     83.3661
  2290.8000      7.8752      2.5173      0.0386      8.0422     87.5791
  2290.9000      7.8752      2.5151      0.0534      8.1735     89.2921
  2291.0000      7.8744      2.5114      0.0601      8.3979     86.3882
  2291.1000      7.8744      2.5119      0.0386      8.3674     83.7157
  2291.2000      7.8744      2.5199      0.0659      7.8829     82.4257
  2291.3000      7.8734      2.5227      0.0750      7.7158     84.5313
  2291.4000      7.8734      2.5117      0.0420      8.3841     90.2833
  2291.5000      7.8734      2.4974      0.0315      9.2476     88.6832
  2291.6000      7.8734      2.4899      0.0427      9.7050     77.5021
  2291.7000      7.8734      2.4897      0.0167      9.7127     71.4768
  2291.8000      7.8753      2.4969      0.0364      9.2812     81.0239
  2291.9000      7.8753      2.5087      0.0290      8.5652     99.5999
  2292.0000      7.8767      2.5209      0.0335      7.8241    112.1934
  2292.1000      7.8767      2.5228      0.0734      7.7097    114.2774
  2292.2000      7.8767      2.5042      0.0531      8.8367    112.6974
  2292.3000      7.8761      2.4809     -0.0085     10.2476    110.7931
  2292.4000      7.8761      2.4774     -0.0197     10.4602    105.1001
  2292.5000      7.8752      2.4928      0.0214      9.5282     93.7823
  2292.6000      7.8752      2.5086      0.0794      8.5702     85.0242
  2292.7000      7.8752      2.5095      0.0365      8.5142     87.4319
  2292.8000      7.8751      2.4925      0.0619      9.5464     95.7239
  2292.9000      7.8751      2.4739     -0.0078     10.6720    101.0998
  2293.0000      7.8745      2.4742      0.0515     10.6522    103.4754
  2293.1000      7.8745      2.4842      0.0686     10.0506    103.5050
  2293.2000      7.8745      2.4818      0.0663     10.1925     98.8056
  2293.3000      7.8728      2.4693      0.0358     10.9531     93.1863
  2293.4000      7.8728      2.4662      0.0035     11.1367     91.8494
  2293.5000      7.8709      2.4738      0.0784     10.6801     92.8626
  2293.6000      7.8709      2.4776      0.0204     10.4498     94.6503
  2293.7000      7.8709      2.4774      0.0347     10.4594     99.0498
  2293.8000      7.8697      2.4766      0.0336     10.5075    106.6230
  2293.9000      7.8697      2.4717      0.0463     10.8048    113.6815
