~Version Information
VERS.                      2.0: CWLS Log ASCII Standard - VERSION 2.0
WRAP.                       NO: One line per depth step
~Well Information Block
STRT.FT               500.0000: 
STOP.FT              2732.5000: 
STEP.FT                 0.2500: 
NULL.                -999.2500: 
COMP.          Pioneer Natural Resources: COMPANY
WELL.          Dude Canyon 22-32: WELL
FLD.           Purgatoire River: FIELD
LOC.           1662' FNL & 2446' FWL----: LOCATION
PROV.                 Colorado: PROVINCE
CNTY.               Las Animas: COUNTRY
SRVC.                Patterson: SERVICE COMPANY
DATE.          Thu Mar 10 07:15:42 2005: LOG DATE
UWI.           05 071 08257 00: UNIQUE WELL ID
~Curve Information Block
DEPT.FT            0 000 00 00: Depth
DIR.Ohm-m                     : IEL Induction Resistivity
GR.GAPI                       : Gamma Ray
SN.Ohm-m                      : IEL Short Normal
SP.mV                         : IEL Spontaneous Potential
~Parameter Information Block
~A  Depth       DIR          GR          SN          SP     
   500.0000 100000.0000     73.1362   2000.0000   2000.0000
   500.2500 100000.0000     73.8930   2000.0000   2000.0000
   500.5000 100000.0000     75.1907   2000.0000   2000.0000
   500.7500 100000.0000     75.6310   2000.0000   2000.0000
   501.0000 100000.0000     75.4733   2000.0000   2000.0000
   501.2500 100000.0000     75.1134   2000.0000   2000.0000
   501.5000 100000.0000     74.6000   2000.0000   2000.0000
   501.7500 100000.0000     74.1326   2000.0000   2000.0000
   502.0000 100000.0000     72.6501   2000.0000   2000.0000
   502.2500 100000.0000     71.0611   2000.0000   2000.0000
   502.5000 100000.0000     68.5195   2000.0000   2000.0000
   502.7500 100000.0000     67.4377   2000.0000   2000.0000
   503.0000 100000.0000     67.6353   2000.0000   2000.0000
   503.2500 100000.0000     69.0221   2000.0000   2000.0000
   503.5000 100000.0000     72.1924   2000.0000   2000.0000
   503.7500 100000.0000     74.2718   2000.0000   2000.0000
   504.0000 100000.0000     76.0906   2000.0000   2000.0000
   504.2500 100000.0000     76.1325   2000.0000   2000.0000
   504.5000 100000.0000     75.1383   2000.0000   2000.0000
   504.7500 100000.0000     74.6428   2000.0000   2000.0000
   505.0000 100000.0000     75.0787   2000.0000   2000.0000
   505.2500 100000.0000     50.5890   2000.0000   2000.0000
   505.5000 100000.0000     51.1642   2000.0000   2000.0000
   505.7500 100000.0000     51.2482   2000.0000   2000.0000
   506.0000 100000.0000     51.4299   2000.0000   2000.0000
   506.2500 100000.0000     51.9304   2000.0000   2000.0000
   506.5000 100000.0000     53.1927   2000.0000   2000.0000
   506.7500 100000.0000     54.0280   2000.0000   2000.0000
   507.0000 100000.0000     54.7666   2000.0000   2000.0000
   507.2500 100000.0000     54.8411   2000.0000   2000.0000
   507.5000 100000.0000     54.4362   2000.0000   2000.0000
   507.7500 100000.0000     53.9457   2000.0000   2000.0000
   508.0000 100000.0000     53.2294   2000.0000   2000.0000
   508.2500 100000.0000     53.0663   2000.0000   2000.0000
   508.5000 100000.0000     53.8728   2000.0000   2000.0000
   508.7500 100000.0000     55.3392   2000.0000   2000.0000
   509.0000 100000.0000     58.8213   2000.0000   2000.0000
   509.2500 100000.0000     61.6553   2000.0000   2000.0000
   509.5000 100000.0000     65.9746   2000.0000   2000.0000
   509.7500 100000.0000     68.5579   2000.0000   2000.0000
   510.0000 100000.0000     71.5045   2000.0000   2000.0000
   510.2500 100000.0000     72.6833   2000.0000   2000.0000
   510.5000     20.3628     73.4370   2000.0000   2000.0000
   510.7500      5.5526     73.5500   2000.0000   2000.0000
   511.0000      4.0810     73.4174   2000.0000   2000.0000
   511.2500      4.4268     73.0460   2000.0000   2000.0000
   511.5000      6.8935     71.8331   2000.0000   2000.0000
   511.7500     22.4206     70.6131   2000.0000   2000.0000
   512.0000 100000.0000     68.5918   2000.0000   2000.0000
   512.2500 100000.0000     67.5225   2000.0000   2000.0000
   512.5000 100000.0000     66.9349   2000.0000   2000.0000
   512.7500 100000.0000     67.2345   2000.0000   2000.0000
   513.0000 100000.0000     68.0654   2000.0000   2000.0000
   513.2500 100000.0000     68.3618   2000.0000   2000.0000
   513.5000     66.9049     67.9902   2000.0000   2000.0000
   513.7500     22.3702     67.3461   2000.0000   2000.0000
   514.0000     16.1448     66.3831   2000.0000   2000.0000
   514.2500     14.7402     66.0099   2000.0000   2000.0000
   514.5000     15.1540     65.9593   2000.0000   2000.0000
   514.7500     16.6014     66.1920   2000.0000   2000.0000
   515.0000     18.6614     66.7181   2000.0000   2000.0000
   515.2500     20.8772     67.0409   2000.0000   2000.0000
   515.5000     22.7467     67.2644   2000.0000   2000.0000
   515.7500     24.0372     67.1726   2000.0000   2000.0000
   516.0000     25.1053     66.7374   2000.0000   2000.0000
   516.2500     26.8330     66.4170   2000.0000   2000.0000
   516.5000     30.4480     66.2963   2000.0000   2000.0000
   516.7500     37.6612     66.5718   2000.0000   2000.0000
   517.0000     50.8125     67.1430   2000.0000   2000.0000
   517.2500     70.3817     67.1656   2000.0000   2000.0000
   517.5000     85.1205     66.2489   2000.0000   2000.0000
   517.7500     78.3770     65.2578   2000.0000   2000.0000
   518.0000     60.6353     63.9436   2000.0000   2000.0000
   518.2500     46.5395     63.3557   2000.0000   2000.0000
   518.5000     38.1547     62.8277   2000.0000   2000.0000
   518.7500     33.8708     62.8028   2000.0000   2000.0000
   519.0000     32.3296     63.7097   2000.0000   2000.0000
   519.2500     32.6977     64.9822   2000.0000   2000.0000
   519.5000     34.3688     67.0566   2000.0000   2000.0000
   519.7500     36.7377     67.7950   2000.0000   2000.0000
   520.0000     39.1784     67.1973   2000.0000   2000.0000
   520.2500     41.2123     65.8318   2000.0000   2000.0000
   520.5000     42.6576     63.3363   2000.0000   2000.0000
   520.7500     43.5770     61.9872   2000.0000   2000.0000
   521.0000     44.1020     60.8893   2000.0000   2000.0000
   521.2500     44.3214     60.6059   2000.0000   2000.0000
   521.5000     44.2806     60.4425   2000.0000   2000.0000
   521.7500     44.0300     60.6028   2000.0000   2000.0000
   522.0000     43.6598     61.7711   2000.0000   2000.0000
   522.2500     43.2895     63.1899   2000.0000   2000.0000
   522.5000     43.0182     65.5798   2000.0000   2000.0000
   522.7500     42.8795     66.9064   2000.0000   2000.0000
   523.0000     42.8376     68.2779   2000.0000   2000.0000
   523.2500     42.8349     68.8900   2000.0000   2000.0000
   523.5000     42.8515     69.6351   2000.0000   2000.0000
   523.7500     42.9185     70.2284   2000.0000   2000.0000
   524.0000     43.0727     71.6646   2000.0000   2000.0000
   524.2500     43.3082     73.0976   2000.0000   2000.0000
   524.5000     43.5810     75.7492   2000.0000   2000.0000
   524.7500     43.8519     77.5322   2000.0000   2000.0000
   525.0000     44.1120     79.6857   2000.0000   2000.0000
   525.2500     44.3638     80.7250   2000.0000   2000.0000
   525.5000     44.5859     82.2468   2000.0000   2000.0000
   525.7500     44.7269     83.6845   2000.0000   2000.0000
   526.0000     44.7366     86.8812   2000.0000   2000.0000
   526.2500     44.6035     89.6866   2000.0000   2000.0000
   526.5000     44.3637     94.5060   2000.0000   2000.0000
   526.7500     44.0754     97.5662   2000.0000   2000.0000
   527.0000     43.7820    100.4497   2000.0000   2000.0000
   527.2500     43.4924    100.4863   2000.0000   2000.0000
   527.5000     43.1913     97.4595   2000.0000   2000.0000
   527.7500     42.8657     93.8464   2000.0000   2000.0000
   528.0000     42.5230     87.2157   2000.0000   2000.0000
   528.2500     42.1863     82.6210   2000.0000   2000.0000
   528.5000     41.8744     76.2901   2000.0000   2000.0000
   528.7500     41.5831     72.8238   2000.0000   2000.0000
   529.0000     41.2909     69.3607   2000.0000   2000.0000
   529.2500     40.9821     68.5040   2000.0000   2000.0000
   529.5000     40.6670     69.4858   2000.0000   2000.0000
   529.7500     40.3684     71.3630   2000.0000   2000.0000
   530.0000     40.0866     75.1479   2000.0000   2000.0000
   530.2500     39.7728     77.8776   2000.0000   2000.0000
   530.5000     39.3425     82.0264   2000.0000   2000.0000
   530.7500     38.7229     84.7966   2000.0000   2000.0000
   531.0000     37.8989     88.3175   2000.0000   2000.0000
   531.2500     36.9253     89.5992   2000.0000   2000.0000
   531.5000     35.8991     89.7974   2000.0000   2000.0000
   531.7500     34.9205     89.7217   2000.0000   2000.0000
   532.0000     34.0686     91.3755   2000.0000   2000.0000
   532.2500     33.3979     94.0821   2000.0000   2000.0000
   532.5000     32.9391     99.5372   2000.0000   2000.0000
   532.7500     32.6893    103.0988   2000.0000   2000.0000
   533.0000     32.5963    106.9859   2000.0000   2000.0000
   533.2500     32.5574    108.2376   2000.0000   2000.0000
