~Version Information
VERS.                      2.0: CWLS Log ASCII Standard - VERSION 2.0
WRAP.                       NO: One line per depth step
~Well Information Block
STRT.FT                15.0000: 
STOP.FT              1211.0000: 
STEP.FT                 0.2500: 
NULL.                -999.2500: 
COMP.          Pioneer Natural Resources: COMPANY
WELL.          Santa Fe 43-27 Tr: WELL
FLD.           Purgatoire River: FIELD
LOC.           2018' FSL & 534' FEL: LOCATION
PROV.                 Colorado: PROVINCE
CNTY.               Las Animas: COUNTRY
SRVC.                Patterson: SERVICE COMPANY
DATE.          Mon Mar 14 15:43:40 2005: LOG DATE
UWI.           05 071 08303 00: UNIQUE WELL ID
~Curve Information Block
DEPT.FT            0 000 00 00: Depth
GR.GAPI                       : Gamma Ray
CCL.                          : Casing Collar Locator
TT3.usec                      : CBL 3' Travel Time
AMP3.mV                       : CBL 3' Amplitude
AMP5.mV                       : CBL 5' Amplitude
~Parameter Information Block
~A  Depth        GR         CCL         TT3         AMP3        AMP5    
# ...
  1191.0000    121.1085      0.0000    828.0345     16.8472      2.9467
  1191.2500    121.2357      0.0000    828.0894     16.7315      2.9441
  1191.5000    121.0100      0.0000    827.8850     16.6780      2.9450
  1191.7500    120.6044      0.0000    827.5233     16.6664      2.9453
  1192.0000    119.3500      0.0000    827.1585     16.6501      2.9397
  1192.2500    116.1005      0.0000    826.8894     16.6068      2.9234
  1192.5000    110.3623      0.0000    826.7208     16.5615      2.8953
  1192.7500    103.1275      0.0000    826.5903     16.5519      2.8614
  1193.0000     96.4538      0.0000    826.4179     16.5799      2.8310
  1193.2500     92.1059      0.0000    826.1606     16.6028      2.8087
  1193.5000     90.4518      0.0000    825.8569     16.5721      2.7920
  1193.7500     90.4110      0.0000    825.6299     16.4811      2.7761
  1194.0000     90.3394      0.0000    825.7534     16.3813      2.7583
  1194.2500     89.1376      0.0000    826.9576     16.3578      2.7361
  1194.5000     86.7866      0.0000    831.0142     16.4744      2.6991
  1194.7500     84.0997      0.0000    840.8674     16.7217      2.6197
  1195.0000     82.0395      0.0000    858.9664     17.0054      2.4489
  1195.2500     81.1943      0.0000    883.2354     17.1781      2.1385
  1195.5000     81.8613      0.0000    902.9618     17.0622      1.6890
  1195.7500     84.4156      0.0000    898.1351     16.4121      1.1790
  1196.0000     89.2348      0.0000    844.8487     14.8818      0.7279
  1196.2500     96.2486      0.0000    727.8571     12.1659      0.4172
  1196.5000    104.6406      0.0000    555.8596      8.3436      0.2507
  1196.7500    112.9044      0.0000    365.2105      4.0877      0.1811
  1197.0000    119.2803      0.0000    201.3455      0.3631      0.1585
  1197.2500    122.5879      0.0000     91.3537     -2.1876      0.1528
  1197.5000    122.9868      0.0000     33.6191     -3.5513      0.1517
  1197.7500    121.8094      0.0000      9.9256     -4.1197   -999.2500
  1198.0000    120.3793      0.0000      2.3290     -4.3044   -999.2500
  1198.2500    119.0375      0.0000      0.4271     -4.3511   -999.2500
  1198.5000    117.3757      0.0000      0.0554     -4.3603   -999.2500
  1198.7500    115.1058      0.0000   -999.2500   -999.2500   -999.2500
  1199.0000    112.5195      0.0000   -999.2500   -999.2500   -999.2500
  1199.2500    110.2687      0.0000   -999.2500   -999.2500   -999.2500
  1199.5000    108.7937      0.0000   -999.2500   -999.2500   -999.2500
  1199.7500    107.8913      0.0000   -999.2500   -999.2500   -999.2500
  1200.0000    106.9075      0.0000   -999.2500   -999.2500   -999.2500
  1200.2500    105.4672      0.0000   -999.2500   -999.2500   -999.2500
  1200.5000    103.8726      0.0000   -999.2500   -999.2500   -999.2500
  1200.7500    102.7766      0.0000   -999.2500   -999.2500   -999.2500
  1201.0000    102.6301      0.0000   -999.2500   -999.2500   -999.2500
  1201.2500    103.2759      0.0000   -999.2500   -999.2500   -999.2500
  1201.5000    103.8721      0.0000   -999.2500   -999.2500   -999.2500
  1201.7500    103.6301      0.0000   -999.2500   -999.2500   -999.2500
  1202.0000    102.8761      0.0000   -999.2500   -999.2500   -999.2500
  1202.2500    102.8251      0.0000   -999.2500   -999.2500   -999.2500
  1202.5000    103.8941      0.0000   -999.2500   -999.2500   -999.2500
  1202.7500    104.7187      0.0000   -999.2500   -999.2500   -999.2500
  1203.0000    103.3976      0.0000   -999.2500   -999.2500   -999.2500
  1203.2500     99.4909      0.0000   -999.2500   -999.2500   -999.2500
  1203.5000     94.4391      0.0000   -999.2500   -999.2500   -999.2500
  1203.7500     90.2827      0.0000   -999.2500   -999.2500   -999.2500
  1204.0000     88.4575      0.0000   -999.2500   -999.2500   -999.2500
  1204.2500     89.6647   -999.2500   -999.2500   -999.2500   -999.2500
  1204.5000     94.0311   -999.2500   -999.2500   -999.2500   -999.2500
  1204.7500    100.8901   -999.2500   -999.2500   -999.2500   -999.2500
  1205.0000    108.8183   -999.2500   -999.2500   -999.2500   -999.2500
  1205.2500    116.4205   -999.2500   -999.2500   -999.2500   -999.2500
  1205.5000    122.9806   -999.2500   -999.2500   -999.2500   -999.2500
  1205.7500    128.0866   -999.2500   -999.2500   -999.2500   -999.2500
  1206.0000    130.8511   -999.2500   -999.2500   -999.2500   -999.2500
  1206.2500    129.9418   -999.2500   -999.2500   -999.2500   -999.2500
  1206.5000    124.5009   -999.2500   -999.2500   -999.2500   -999.2500
  1206.7500    114.6959   -999.2500   -999.2500   -999.2500   -999.2500
  1207.0000    101.0606   -999.2500   -999.2500   -999.2500   -999.2500
  1207.2500     83.7179   -999.2500   -999.2500   -999.2500   -999.2500
  1207.5000     63.1644   -999.2500   -999.2500   -999.2500   -999.2500
  1207.7500     41.7848   -999.2500   -999.2500   -999.2500   -999.2500
  1208.0000     23.4180   -999.2500   -999.2500   -999.2500   -999.2500
  1208.2500     10.8336   -999.2500   -999.2500   -999.2500   -999.2500
  1208.5000      4.0624   -999.2500   -999.2500   -999.2500   -999.2500
  1208.7500      1.2195   -999.2500   -999.2500   -999.2500   -999.2500
  1209.0000      0.2903   -999.2500   -999.2500   -999.2500   -999.2500
  1209.2500      0.0541   -999.2500   -999.2500   -999.2500   -999.2500
  1209.5000      0.0073   -999.2500   -999.2500   -999.2500   -999.2500
  1209.7500      0.0000   -999.2500   -999.2500   -999.2500   -999.2500
  1210.0000   -999.2500   -999.2500   -999.2500   -999.2500   -999.2500
  1210.2500   -999.2500   -999.2500   -999.2500   -999.2500   -999.2500
  1210.5000   -999.2500   -999.2500   -999.2500   -999.2500   -999.2500
  1210.7500   -999.2500   -999.2500   -999.2500   -999.2500   -999.2500
  1211.0000   -999.2500   -999.2500   -999.2500   -999.2500   -999.2500
