~Version Information
VERS.                      2.0: CWLS Log ASCII Standard - VERSION 2.0
WRAP.                       NO: One line per depth step
~Well Information Block
STRT.FT               -13.0000: 
STOP.FT              1411.2500: 
STEP.FT                 0.2500: 
NULL.                -999.2500: 
COMP.                         : COMPANY
WELL.                         : WELL
FLD.                          : FIELD
LOC.                          : LOCATION
CNTY.                         : COUNTY
SRVC.                         : SERVICE COMPANY
DATE.          Sat Jan 17 07:25:27 2004: LOG DATE
UWI.                          : UNIQUE WELL ID
STAT.                         : STATE
~Curve Information Block
DEPT.FT            0 000 00 00: Depth
CCL.                          : Casing Collar Locator
TT3.usec                      : CBL 3' Travel Time
AMP3.mV                       : CBL 3' Amplitude
GR.GAPI                       : Gamma Ray
~Parameter Information Block
~A  Depth       CCL         TT3         AMP3         GR     
   -13.0000   -999.2500   -999.2500   -999.2500     85.2871
   -12.7500   -999.2500   -999.2500   -999.2500     86.7926
   -12.5000   -999.2500   -999.2500   -999.2500     88.3890
   -12.2500   -999.2500   -999.2500   -999.2500     89.7052
   -12.0000   -999.2500   -999.2500   -999.2500     90.6962
   -11.7500   -999.2500   -999.2500   -999.2500     91.4596
   -11.5000   -999.2500   -999.2500   -999.2500     91.7087
   -11.2500   -999.2500   -999.2500   -999.2500     90.8595
   -11.0000   -999.2500   -999.2500   -999.2500     88.8716
   -10.7500   -999.2500   -999.2500   -999.2500     86.6208
   -10.5000   -999.2500   -999.2500   -999.2500     85.0367
   -10.2500   -999.2500   -999.2500   -999.2500     84.0828
   -10.0000   -999.2500   -999.2500   -999.2500     82.8441
    -9.7500   -999.2500   -999.2500   -999.2500     80.4223
    -9.5000   -999.2500   -999.2500   -999.2500     76.6903
    -9.2500   -999.2500   -999.2500   -999.2500     72.4907
    -9.0000   -999.2500   -999.2500   -999.2500     69.3373
    -8.7500   -999.2500   -999.2500   -999.2500     68.7242
    -8.5000   -999.2500   -999.2500   -999.2500     71.2456
    -8.2500   -999.2500   1402.4005      0.8751     76.0546
    -8.0000   -999.2500   1402.4098      0.8839     81.3182
    -7.7500   -999.2500   1402.4894      0.9407     85.3995
    -7.5000   -999.2500   1402.6241      1.0174     87.6574
    -7.2500   -999.2500   1402.7483      1.0846     88.3320
    -7.0000   -999.2500   1402.7964      1.1302     88.0263
    -6.7500   -999.2500   1402.7379      1.1550     87.3177
    -6.5000   -999.2500   1402.5889      1.1626     86.6247
    -6.2500   -999.2500   1402.3999      1.1568     86.3596
    -6.0000   -999.2500   1402.2332      1.1444     87.0709
    -5.7500   -999.2500   1402.1328      1.1330     89.0978
    -5.5000   -999.2500   1402.1143      1.1249     91.9617
    -5.2500   -999.2500   1402.1686      1.1132     94.2941
    -5.0000   -999.2500   1402.2727      1.0876     94.7083
    -4.7500   -999.2500   1402.3945      1.0464     93.0371
    -4.5000   -999.2500   1402.5002      1.0024     90.7209
    -4.2500   -999.2500   1402.5616      0.9706     89.6402
    -4.0000   -999.2500   1402.5619      0.9526     90.3702
    -3.7500   -999.2500   1402.5031      0.9379     91.7821
    -3.5000   -999.2500   1402.4056      0.9212     92.3872
    -3.2500   -999.2500   1402.3085      0.9089     91.6683
    -3.0000   -999.2500   1402.2600      0.9095     90.0628
    -2.7500      0.0000   1402.2974      0.9235     88.1637
    -2.5000     -4.0000   1402.4189      0.9432     86.1623
    -2.2500      0.0000   1402.5728      0.9591     83.8047
    -2.0000      4.0000   1402.6841      0.9665     80.6870
    -1.7500      0.0000   1402.7025      0.9677     76.5135
    -1.5000     -4.0000   1402.6355      0.9662     71.0848
    -1.2500      4.0000   1402.5397      0.9583     64.2405
    -1.0000      0.0000   1402.4734      0.9400     56.0950
    -0.7500      0.0000   1402.4590      0.9221     47.4047
    -0.5000      0.0000   1402.4822      0.9276     39.5620
    -0.2500      0.0000   1402.5177      0.9691     34.0116
     0.0000      0.0000   1402.5405      1.0343     31.5655
     0.2500      0.0000   1402.4491      1.1311     35.5860
     0.5000      0.0000   1402.3265      1.1394     40.8453
     0.7500      0.0000   1402.1956      1.1335     46.8975
     1.0000      0.0000   1402.0967      1.1281     52.2272
     1.2500      0.0000   1402.0472      1.1293     55.4966
     1.5000      0.0000   1402.0469      1.1351     56.3267
     1.7500      0.0000   1402.0950      1.1411     55.4383
     2.0000      0.0000   1402.1891      1.1454     53.9590
     2.2500      0.0000   1402.2321      1.1551     52.6200
     2.5000      0.0000   1401.8379      1.1930     51.5995
     2.7500      0.0000   1399.3650      1.3452     50.9407
     3.0000      4.0000   1389.3707      1.8952     50.8165
     3.2500     -4.0000   1358.5184      3.5484     51.2346
     3.5000      0.0000   1284.4556      7.5079     51.6780
     3.7500      0.0000   1146.0074     14.9508     51.4184
     4.0000      0.0000    944.4882     25.8893     50.2873
     4.2500      0.0000    716.0972     38.4618     48.8720
     4.5000      0.0000    514.5541     49.7934     47.8129
     4.7500      0.0000    376.0864     57.8533     47.1648
     5.0000      0.0000    302.0310     62.4446     46.6149
     5.2500      0.0000    271.1924     64.6114     46.0154
     5.5000      0.0000    261.1536     65.5215     45.3574
     5.7500      0.0000    258.5295     65.9138     44.4368
     6.0000      0.0000    257.8953     66.1481     43.0674
     6.2500      0.0000    257.6751     66.3997     41.6457
     6.5000      0.0000    257.5420     66.7403     41.0457
     6.7500      0.0000    257.4387     67.1439     41.8074
     7.0000      0.0000    257.3962     67.5257     43.7165
     7.2500      0.0000    257.4278     67.8318     46.1538
     7.5000      0.0000    257.5041     68.0804     48.4775
     7.7500      0.0000    257.5750     68.3138     50.0172
     8.0000      0.0000    257.6082     68.5356     50.1416
     8.2500      0.0000    257.6003     68.7151     48.7032
     8.5000      0.0000    257.5706     68.8439     46.3224
     8.7500      0.0000    257.5570     68.9602     43.9976
     9.0000      0.0000    257.5970     69.1082     42.4079
     9.2500      0.0000    257.6942     69.2860     41.6250
     9.5000      0.0000    257.8120     69.4446     41.4313
     9.7500      0.0000    257.9078     69.5396     41.9001
    10.0000      0.0000    257.9642     69.5756     43.6360
    10.2500      0.0000    257.9890     69.5975     47.1606
    10.5000      0.0000    257.9969     69.6544     51.9518
    10.7500      0.0000    257.9973     69.7866     56.4716
    11.0000      0.0000    257.9912     70.0251     59.4096
    11.2500      0.0000    257.9730     70.3617     60.6580
    11.5000      0.0000    257.9352     70.7146     60.9845
    11.7500      0.0000    257.8785     70.9612     61.1534
    12.0000      0.0000    257.8213     71.0337     61.5565
    12.2500      0.0000    257.7896     70.9782     62.3300
    12.5000      0.0000    257.7882     70.9120     63.5098
    12.7500      0.0000    257.7873     70.9289     65.1252
    13.0000      0.0000    257.7495     71.0426     67.1028
    13.2500      0.0000    257.6759     71.2135     68.8474
    13.5000      0.0000    257.6152     71.4040     69.1302
    13.7500      0.0000    257.6196     71.5966     67.0061
    14.0000      0.0000    257.6911     71.7766     62.9616
    14.2500      0.0000    257.7762     71.9242     58.7230
    14.5000      0.0000    257.8077     72.0319     55.8610
    14.7500      0.0000    257.7515     72.1108     54.9326
    15.0000      0.0000    257.6272     72.1595     55.8363
    15.2500      0.0000    257.5009     72.1411     58.2518
    15.5000      0.0000    257.4480     72.0203     61.4380
    15.7500      0.0000    257.5034     71.8146     64.2116
    16.0000      0.0000    257.6382     71.5876     65.6562
    16.2500      0.0000    257.7873     71.4002     65.6921
    16.5000      0.0000    257.8994     71.2739     64.6790
    16.7500      0.0000    257.9615     71.1816     62.7076
    17.0000      0.0000    257.9860     71.0730     59.7258
    17.2500      0.0000    257.9870     70.9257     56.2939
    17.5000      0.0000    257.9710     70.7583     53.6666
    17.7500      0.0000    257.9477     70.5727     52.8787
    18.0000      0.0000    257.9890     70.2521     53.9222
    18.2500      0.0000    258.3274     69.4764     55.8483
    18.5000      0.0000    259.4218     67.7407     57.4916
    18.7500      0.0000    261.7767     64.5879     58.2102
    19.0000      0.0000    265.3976     60.0099     58.2088
    19.2500      0.0000    269.3040     54.7058     58.1782
    19.5000      0.0000    271.9130     49.8467     58.5169
    19.7500      0.0000    272.2902     46.3936     58.9768
    20.0000      0.0000    270.9316     44.5554     59.1138
    20.2500      0.0000    269.1646     43.8941     58.8829
