~Version Information
 VERS.                                  2.0 : CWLS LAS VERSION
 WRAP.                                   NO : WRAPING MODE
 SWARE .                 MController 2.5.0I : SOFTWARE VERSION
~Well Information
 WELL.                       Montoya 13-41v : WELL
 COMP.                        Pertogulf Corp: COMPANY
 FLD.                      Pergatorie River : FIELD
 LOC.                NE/NE Sec 13 T33S R68W : LOCATION
 DATE.                           8/16-17/04 : DATE(S) LOGGED
 SRVC.       Blanco Geological Services LLC : SERVICE COMPANY
 STAT.                                   CO : STATE
 CNTY.                           Las Animas : COUNTY
 CTRY.                                  USA : COUNTRY
 API.                       05-071-08021-00 : API NUMBER
 STRT.FT                             767.00 : START DEPTH
 STOP.FT                            2499.00 : STOP DEPTH
 STEP.FT                               1.00 : DEPTH INCREMENT
 NULL.                                -9999 : NULL VALUE
~Curve information
 DEPTH.FT                                   :
 ROP.MIN/FT                                 :
 GAS.UNITS                                  :
~ASCII Log data
# ...
      2167.0          0.5          2.4 
      2168.0          0.6          2.4 
      2169.0          2.3         42.1 
      2170.0          0.4          8.3 
      2171.0          0.4          5.5 
      2172.0          0.4          4.5 
      2173.0          0.3          3.6 
      2174.0          0.4          3.6 
      2175.0          0.4          4.3 
      2176.0          0.3          4.2 
      2177.0          0.3          4.4 
      2178.0          0.4          5.0 
      2179.0          0.2          5.1 
      2180.0          0.3          6.1 
      2181.0          0.5          5.2 
      2182.0          0.6          4.1 
      2183.0          0.6          4.5 
      2184.0          0.6          4.6 
      2185.0          0.5          4.9 
      2186.0          0.8          4.5 
      2187.0          0.8          4.4 
      2188.0          0.7          4.5 
      2189.0          0.7          4.2 
      2190.0          0.6          4.3 
      2191.0          0.7          4.4 
      2192.0          0.6          4.5 
      2193.0          0.5          4.3 
      2194.0          0.5          4.6 
      2195.0          0.4          4.1 
      2196.0          0.3          4.3 
      2197.0          6.3        127.7 
      2198.0          0.5         92.1 
      2199.0          0.4         21.9 
      2200.0          0.6          9.2 
      2201.0          0.7          4.2 
      2202.0          0.7          3.7 
      2203.0          0.9          5.2 
      2204.0          0.9          6.2 
      2205.0          0.8          6.0 
      2206.0          0.7          5.5 
      2207.0          0.8          4.5 
      2208.0          0.7          4.1 
      2209.0          0.8          4.2 
      2210.0          0.8          4.3 
      2211.0          0.8          4.7 
      2212.0          0.8          4.6 
      2213.0          0.8          4.4 
      2214.0          0.7          4.2 
      2215.0          0.2          4.0 
      2216.0          0.2          4.1 
      2217.0          0.2          4.1 
      2218.0          0.4          4.1 
      2219.0          0.3          3.8 
      2220.0          0.2          4.0 
      2221.0          0.2          4.4 
      2222.0          0.2          4.4 
      2223.0          0.2          3.9 
      2224.0          0.3          4.6 
      2225.0          0.4          4.9 
      2226.0          0.4          7.3 
      2227.0          6.2         55.4 
      2228.0          0.3         38.2 
      2229.0          0.4         22.2 
      2230.0          0.3         11.9 
      2231.0          0.3          7.2 
      2232.0          0.3          5.7 
      2233.0          0.4          4.3 
      2234.0          0.4          3.3 
      2235.0          0.4          3.6 
      2236.0          0.7          4.1 
      2237.0          0.7          5.5 
      2238.0          0.7          5.8 
      2239.0          0.7          5.6 
      2240.0          0.6          4.4 
      2241.0          0.6          4.9 
      2242.0          0.7          4.3 
      2243.0          0.7          5.7 
      2244.0          0.4          5.0 
      2245.0          0.3          4.1 
      2246.0          0.3          4.0 
      2247.0          0.3          4.1 
      2248.0          0.2          3.8 
      2249.0          0.3          3.9 
      2250.0          0.3          3.8 
      2251.0          0.3          5.0 
      2252.0          0.3          4.3 
      2253.0          0.3          4.8 
      2254.0          0.3          5.5 
      2255.0          0.3          5.2 
      2256.0          0.2          5.8 
      2257.0          5.2         32.9 
      2258.0          0.3         16.2 
      2259.0          0.3          8.5 
      2260.0          0.4          5.2 
      2261.0          0.3          3.7 
      2262.0          0.4          3.4 
      2263.0          0.5          3.2 
      2264.0          0.7          3.4 
      2265.0          0.6          3.8 
      2266.0          0.5          4.8 
      2267.0          0.4          5.1 
      2268.0          0.3          4.7 
      2269.0          0.1          4.5 
      2270.0          0.1          4.8 
      2271.0          0.2          4.5 
      2272.0          0.2          4.3 
      2273.0          0.2          4.1 
      2274.0          0.3          3.9 
      2275.0          0.3          3.6 
      2276.0          0.3          3.7 
      2277.0          0.3          4.1 
      2278.0          0.3          4.7 
      2279.0          0.3          5.7 
      2280.0          0.3          7.3 
      2281.0          0.3          7.1 
      2282.0          0.3          4.8 
      2283.0          0.2          4.2 
      2284.0          0.3          4.8 
      2285.0          0.3          5.4 
      2286.0          0.3          5.6 
      2287.0          5.9         21.8 
      2288.0          0.4          9.4 
      2289.0          0.4          5.9 
      2290.0          0.4          3.4 
      2291.0          0.4          2.6 
      2292.0          0.4          2.6 
      2293.0          0.4          2.3 
      2294.0          0.4          2.1 
      2295.0          0.3          2.1 
      2296.0          0.4          2.0 
      2297.0          0.4          2.0 
      2298.0          0.4          1.8 
      2299.0          0.3          2.0 
      2300.0          0.3          1.8 
      2301.0          0.3          1.9 
      2302.0          0.5          1.8 
      2303.0          0.4          1.8 
      2304.0          0.3          1.5 
      2305.0          0.4          2.0 
      2306.0          0.3          1.9 
      2307.0          0.2          1.7 
      2308.0          0.2          1.8 
      2309.0          0.2          2.0 
      2310.0          0.3          2.4 
      2311.0          0.3          2.3 
      2312.0          0.3          2.6 
      2313.0          0.4          2.6 
      2314.0          0.4          3.1 
      2315.0          0.2          3.3 
      2316.0          0.3          4.5 
      2317.0         12.0         21.1 
      2318.0          0.4          2.6 
      2319.0          1.8          2.6 
      2320.0          1.2         11.3 
      2321.0          1.7          9.0 
      2322.0          0.3          2.8 
      2323.0          0.3          2.6 
      2324.0          0.4          2.6 
      2325.0          0.5          2.9 
      2326.0          0.6          3.1 
      2327.0          0.5          3.4 
      2328.0          0.5          3.8 
      2329.0          0.4          4.1 
      2330.0          0.6          4.1 
      2331.0          0.5          4.3 
      2332.0          0.6          3.9 
      2333.0          0.6          3.9 
      2334.0          0.5          4.4 
      2335.0          0.5          3.3 
      2336.0          0.6          3.6 
      2337.0          0.6          3.0 
      2338.0          0.6          3.2 
      2339.0          0.6          3.7 
      2340.0          0.6          3.2 
      2341.0          0.5          3.5 
      2342.0          0.6          3.4 
      2343.0          0.5          3.3 
      2344.0          0.5          3.3 
      2345.0          0.5          3.2 
      2346.0          0.2          2.8 
      2347.0          0.4          3.2 
      2348.0          0.3          3.5 
      2349.0          5.4         61.9 
      2350.0          0.6         21.1 
      2351.0          1.2          5.5 
      2352.0          0.3          2.0 
      2353.0          0.4          2.1 
      2354.0          0.5          2.0 
      2355.0          0.5          2.0 
      2356.0          0.4          1.8 
      2357.0          0.5          1.8 
      2358.0          0.5          2.0 
      2359.0          0.4          1.9 
      2360.0          0.5          2.5 
      2361.0          0.5          2.5 
      2362.0          0.6          2.8 
      2363.0          0.8          3.0 
      2364.0          0.8          3.1 
      2365.0          0.5          3.3 
      2366.0          0.4          3.0 
