~Version Information
VERS.                      2.0: CWLS Log ASCII Standard - VERSION 2.0
WRAP.                       NO: One line per depth step
~Well Information Block
STRT.FT               754.6000: 
STOP.FT              2329.0000: 
STEP.FT                 0.1000: 
NULL.                -999.2500: 
COMP.          Petrogulf Corporation: COMPANY
WELL.           Anderson 18-42: WELL
FLD.           Purgatoire River: FIELD
LOC.           1668' FNL & 1110' FEL: LOCATION
CNTY.               Las Animas: COUNTY
SRVC.                         : SERVICE COMPANY
DATE.          Tue Dec 16 12:18:55 2003: LOG DATE
UWI.                          : UNIQUE WELL ID
STAT.                 Colorado: STATE
~Curve Information Block
DEPT.FT            0 000 00 00: Depth
DCAL.in                       : CDL Caliper
RHOB.g/cc                     : CDL Bulk Density
RHOC.g/cc                     : CDL Density Correction
DPOR.pu                       : CDL Density Porosity
NPOR.pu                       : Neutron Porosity
GR.GAPI                       : Gamma Ray
~Parameter Information Block
~A  Depth       DCAL        RHOB        RHOC        DPOR        NPOR         GR     
# ...
  1090.6000      8.1643      2.5472     -0.0033      6.2314     26.8789    138.5051
  1090.7000      8.1643      2.5318     -0.0203      7.1665     27.2456    136.6018
  1090.8000      8.1676      2.5372     -0.0071      6.8367     27.2612    130.3947
  1090.9000      8.1676      2.5519      0.0116      5.9440     26.8227    125.2030
  1091.0000      8.1662      2.5560      0.0279      5.6976     26.5597    126.1852
  1091.1000      8.1662      2.5479      0.0048      6.1888     26.8373    130.0301
  1091.2000      8.1662      2.5415     -0.0063      6.5738     27.2335    133.3464
  1091.3000      8.1643      2.5470     -0.0053      6.2425     27.2691    138.0782
  1091.4000      8.1643      2.5618      0.0088      5.3445     27.0378    146.2858
  1091.5000      8.1358      2.5789      0.0232      4.3112     26.8333    151.4716
  1091.6000      8.1358      2.5879      0.0468      3.7650     26.7462    147.2310
  1091.7000      8.1358      2.5815      0.0329      4.1499     26.6904    139.8025
  1091.8000      8.1232      2.5674     -0.0003      5.0050     26.6114    134.3622
  1091.9000      8.1232      2.5551      0.0228      5.7531     26.5917    127.3331
  1092.0000      8.1151      2.5425     -0.0025      6.5155     26.5753    120.2293
  1092.1000      8.1151      2.5294     -0.0147      7.3067     26.5691    117.5012
  1092.2000      8.1151      2.5235     -0.0057      7.6652     26.6891    116.1055
  1092.3000      8.1072      2.5288     -0.0055      7.3449     26.8597    111.3541
  1092.4000      8.1072      2.5435      0.0103      6.4524     26.9472    105.4348
  1092.5000      8.0803      2.5548      0.0470      5.7680     26.8705    103.2231
  1092.6000      8.0803      2.5529     -0.0175      5.8864     26.8173    102.5298
  1092.7000      8.0803      2.5530      0.0038      5.8771     26.8914     98.9505
  1092.8000      8.1069      2.5662      0.0413      5.0796     26.9071     94.6739
  1092.9000      8.1069      2.5812      0.0461      4.1710     26.9082     92.4510
  1093.0000      8.1120      2.5909      0.0056      3.5804     26.9089     94.1139
  1093.1000      8.1120      2.5998      0.0036      3.0438     26.8899    103.2258
  1093.2000      8.1120      2.6071      0.0541      2.6011     26.9611    117.8929
  1093.3000      8.1146      2.6084     -0.0154      2.5211     27.0736    130.9013
  1093.4000      8.1146      2.6052     -0.0028      2.7160     26.9517    131.2833
  1093.5000      8.1166      2.5993      0.0064      3.0754     26.5314    117.1743
  1093.6000      8.1166      2.5932     -0.0027      3.4395     26.1479    102.5321
  1093.7000      8.1166      2.5930     -0.0068      3.4544     26.0647     94.2665
  1093.8000      8.1135      2.5967      0.0084      3.2326     26.0824     88.7098
  1093.9000      8.1135      2.5914      0.0286      3.5532     25.9991     84.7227
  1094.0000      8.1143      2.5706      0.0087      4.8133     25.9600     83.9777
  1094.1000      8.1143      2.5481     -0.0182      6.1782     26.2985     87.5966
  1094.2000      8.1143      2.5384     -0.0058      6.7658     26.9370     94.0849
  1094.3000      8.1134      2.5395     -0.0196      6.6984     27.3066    100.1158
  1094.4000      8.1134      2.5398      0.0136      6.6786     27.1997    104.3888
  1094.5000      8.1106      2.5308     -0.0026      7.2238     26.8625    107.5515
  1094.6000      8.1106      2.5179     -0.0134      8.0046     26.5942    110.1948
  1094.7000      8.1106      2.5146      0.0031      8.2044     26.5822    111.8704
  1094.8000      8.1119      2.5257      0.0053      7.5358     26.5411    114.6514
  1094.9000      8.1119      2.5362      0.0203      6.8989     26.3070    119.2014
  1095.0000      8.1136      2.5296     -0.0037      7.2941     26.1192    121.1247
  1095.1000      8.1136      2.5176     -0.0070      8.0251     25.9687    116.9377
  1095.2000      8.1136      2.5193     -0.0101      7.9195     25.6991    109.4604
  1095.3000      8.1089      2.5342     -0.0243      7.0167     25.2813    107.5902
  1095.4000      8.1089      2.5523      0.0276      5.9200     24.7790    112.9364
  1095.5000      8.1093      2.5644      0.0345      5.1880     24.3759    116.7574
  1095.6000      8.1093      2.5676      0.0034      4.9956     24.1290    113.7962
  1095.7000      8.1093      2.5652      0.0137      5.1379     24.0646    109.2693
  1095.8000      8.1113      2.5598     -0.0028      5.4684     24.2042    107.3343
  1095.9000      8.1113      2.5556     -0.0369      5.7204     24.3000    102.8003
  1096.0000      8.1094      2.5579     -0.0168      5.5846     24.2308     95.0985
  1096.1000      8.1094      2.5692     -0.0233      4.8957     24.1874     91.5592
  1096.2000      8.1094      2.5891     -0.0002      3.6936     24.1770     91.1136
  1096.3000      8.1091      2.6060      0.0219      2.6656     23.9869     89.0556
  1096.4000      8.1091      2.6083      0.0128      2.5293     23.7581     87.4532
  1096.5000      8.1093      2.5961      0.0285      3.2664     23.6775     87.6029
  1096.6000      8.1093      2.5774      0.0221      4.3995     23.4307     86.6634
  1096.7000      8.1093      2.5639      0.0154      5.2157     22.9790     83.4926
  1096.8000      8.1106      2.5605      0.0267      5.4229     22.6401     80.4724
  1096.9000      8.1106      2.5623      0.0165      5.3129     22.2739     78.6655
  1097.0000      8.1106      2.5657     -0.0086      5.1079     21.6445     78.0460
  1097.1000      8.1106      2.5662      0.0345      5.0787     20.9700     76.4761
  1097.2000      8.1106      2.5638     -0.0171      5.2260     20.5517     72.0165
  1097.3000      8.1138      2.5682      0.0218      4.9590     20.3227     68.8274
  1097.4000      8.1138      2.5821      0.0019      4.1182     20.2460     72.6369
  1097.5000      8.1120      2.5970      0.0492      3.2150     20.5610     81.4088
  1097.6000      8.1120      2.6004      0.0539      3.0046     21.1747     86.3018
  1097.7000      8.1120      2.5896      0.0265      3.6576     21.6037     82.8451
  1097.8000      8.1109      2.5784     -0.0090      4.3372     21.6568     74.0177
  1097.9000      8.1109      2.5734      0.0337      4.6426     21.6594     65.5852
  1098.0000      8.1106      2.5674      0.0261      5.0041     21.8286     60.9037
  1098.1000      8.1106      2.5617      0.0195      5.3507     22.0793     58.9570
  1098.2000      8.1106      2.5559      0.0139      5.7054     22.3883     60.4168
  1098.3000      8.1136      2.5431      0.0046      6.4816     22.5478     68.5357
  1098.4000      8.1136      2.5319     -0.0429      7.1587     22.3948     78.3289
  1098.5000      8.1109      2.5362     -0.0273      6.8940     22.3022     81.3784
  1098.6000      8.1109      2.5459     -0.0001      6.3087     22.3739     79.3039
  1098.7000      8.1109      2.5460     -0.0047      6.3015     22.3375     76.1883
  1098.8000      8.1133      2.5458     -0.0182      6.3147     22.3029     72.2375
  1098.9000      8.1133      2.5556     -0.0090      5.7209     22.4263     69.6639
  1099.0000      8.1135      2.5626      0.0460      5.2971     22.7455     71.6842
  1099.1000      8.1135      2.5568      0.0083      5.6471     23.1482     79.6987
  1099.2000      8.1135      2.5512     -0.0201      5.9883     23.1939     89.9204
  1099.3000      8.1115      2.5530      0.0046      5.8791     22.9785     95.2178
  1099.4000      8.1115      2.5540     -0.0052      5.8167     23.1934     94.1294
  1099.5000      8.1075      2.5559     -0.0094      5.7044     23.8725     90.9721
  1099.6000      8.1075      2.5667     -0.0044      5.0482     24.1976     89.1648
  1099.7000      8.1075      2.5795      0.0153      4.2755     23.9422     89.1170
  1099.8000      8.1065      2.5823      0.0142      4.1005     23.6189     86.7676
  1099.9000      8.1065      2.5776     -0.0111      4.3875     23.4052     79.5825
  1100.0000      8.1132      2.5734      0.0040      4.6445     23.4819     74.3083
  1100.1000      8.1132      2.5698      0.0147      4.8622     24.0650     78.1386
