~Version Information
VERS.                      2.0: CWLS Log ASCII Standard - VERSION 2.0
WRAP.                       NO: One line per depth step
~Well Information Block
STRT.FT               430.0000: 
STOP.FT              1910.2500: 
STEP.FT                 0.2500: 
NULL.                -999.2500: 
COMP.          Pioneer Natural Resources: COMPANY
WELL.          Formula 23-11 Tr: WELL
FLD.           Purgatoire River: FIELD
LOC.           1976' FSL & 1935' FWL--: LOCATION
PROV.                 Colorado: PROVINCE
CNTY.               Las Animas: COUNTRY
SRVC.                Patterson: SERVICE COMPANY
DATE.          Fri Jun 10 22:41:39 2005: LOG DATE
UWI.           05 071 08399 00: UNIQUE WELL ID
~Curve Information Block
DEPT.FT            0 000 00 00: Depth
SN.Ohm-m                      : IEL Short Normal
SP.mV                         : IEL Spontaneous Potential
DIR.Ohm-m                     : IEL Induction Resistivity
GR.GAPI                       : Gamma Ray
~Parameter Information Block
~A  Depth        SN          SP         DIR          GR     
# ...
   731.5000   2000.0000   2000.0000     20.4081    129.8051
   731.7500   2000.0000   2000.0000     19.9434    132.7061
   732.0000   2000.0000   2000.0000     19.4622    136.8622
   732.2500   2000.0000   2000.0000     19.0024    138.5146
   732.5000   2000.0000   2000.0000     18.6022    138.4334
   732.7500   2000.0000   2000.0000     18.3019    136.7873
   733.0000   2000.0000   2000.0000     18.1407    132.8969
   733.2500   2000.0000   2000.0000     18.1469    130.1368
   733.5000   2000.0000   2000.0000     18.3260    126.9891
   733.7500   2000.0000   2000.0000     18.6544    125.8713
   734.0000   2000.0000   2000.0000     19.0843    124.9769
   734.2500   2000.0000   2000.0000     19.5569    123.9454
   734.5000   2000.0000   2000.0000     20.0185    120.3738
   734.7500   2000.0000   2000.0000     20.4320    116.6816
   735.0000   2000.0000   2000.0000     20.7797    110.7323
   735.2500   2000.0000   2000.0000     21.0571    107.6355
   735.5000   2000.0000   2000.0000     21.2639    105.5268
   735.7500   2000.0000   2000.0000     21.3971    106.0814
   736.0000   2000.0000   2000.0000     21.4461    109.9022
   736.2500   2000.0000   2000.0000     21.3910    114.0115
   736.5000   2000.0000   2000.0000     21.2067    120.4041
   736.7500   2000.0000   2000.0000     20.8739    123.2664
   737.0000   2000.0000   2000.0000     20.3970    124.3000
   737.2500   2000.0000   2000.0000     19.8131    123.4862
   737.5000   2000.0000   2000.0000     19.1843    122.1945
   737.7500   2000.0000   2000.0000     18.5767    122.1873
   738.0000   2000.0000   2000.0000     18.0386    123.6371
   738.2500   2000.0000   2000.0000     17.5918    125.0613
   738.5000   2000.0000   2000.0000     17.2339    126.6425
   738.7500   2000.0000   2000.0000     16.9473    126.7857
   739.0000   2000.0000   2000.0000     16.7111    125.4343
   739.2500   2000.0000   2000.0000     16.5107    123.7675
   739.5000   2000.0000   2000.0000     16.3424    120.8665
   739.7500   2000.0000   2000.0000     16.2115    119.0359
   740.0000   2000.0000   2000.0000     16.1253    116.8370
   740.2500   2000.0000   2000.0000     16.0862    115.9151
   740.5000   2000.0000   2000.0000     16.0901    115.6979
   740.7500   2000.0000   2000.0000     16.1307    116.4333
   741.0000   2000.0000   2000.0000     16.2042    118.4426
   741.2500   2000.0000   2000.0000     16.3119    119.7833
   741.5000   2000.0000   2000.0000     16.4572    120.6803
   741.7500   2000.0000   2000.0000     16.6427    120.1734
   742.0000   2000.0000   2000.0000     16.8677    117.9160
   742.2500   2000.0000   2000.0000     17.1293    115.9150
   742.5000   2000.0000   2000.0000     17.4248    113.2684
   742.7500   2000.0000   2000.0000     17.7544    112.1232
   743.0000   2000.0000   2000.0000     18.1189    111.1873
   743.2500   2000.0000   2000.0000     18.5135    110.7706
   743.5000   2000.0000   2000.0000     18.9216    110.1157
   743.7500   2000.0000   2000.0000     19.3156    109.5440
   744.0000   2000.0000   2000.0000     19.6649    108.1606
   744.2500   2000.0000   2000.0000     19.9494    106.8212
   744.5000   2000.0000   2000.0000     20.1673    104.8908
   744.7500   2000.0000   2000.0000     20.3385    104.3896
   745.0000   2000.0000   2000.0000     20.5014    105.5359
   745.2500   2000.0000   2000.0000     20.7040    107.3341
   745.5000   2000.0000   2000.0000     20.9875    110.4255
   745.7500   2000.0000   2000.0000     21.3673    112.0279
   746.0000   2000.0000   2000.0000     21.8197    112.9614
   746.2500   2000.0000   2000.0000     22.2859    112.5392
   746.5000   2000.0000   2000.0000     22.6948    110.8439
   746.7500   2000.0000   2000.0000     22.9951    109.5068
   747.0000   2000.0000   2000.0000     23.1746    108.1381
   747.2500   2000.0000   2000.0000     23.2520    108.1768
   747.5000   2000.0000   2000.0000     23.2531    110.2287
   747.7500   2000.0000   2000.0000     23.1898    112.7656
   748.0000   2000.0000   2000.0000     23.0579    117.1109
   748.2500   2000.0000   2000.0000     22.8460    119.5974
   748.5000   2000.0000   2000.0000     22.5464    122.2234
   748.7500   2000.0000   2000.0000     22.1574    123.3848
   749.0000   2000.0000   2000.0000     21.6816    124.4884
   749.2500   2000.0000   2000.0000     21.1262    124.8120
   749.5000   2000.0000   2000.0000     20.5087    124.7744
   749.7500   2000.0000   2000.0000     19.8633    124.5792
   750.0000   2000.0000   2000.0000     19.2372    124.3794
   750.2500   2000.0000   2000.0000     18.6754    124.4211
   750.5000   2000.0000   2000.0000     18.2040    124.6868
   750.7500   2000.0000   2000.0000     17.8236    124.8479
   751.0000   2000.0000   2000.0000     17.5161    124.8023
   751.2500   2000.0000   2000.0000     17.2564    124.4660
   751.5000   2000.0000   2000.0000     17.0224    123.3293
   751.7500   2000.0000   2000.0000     16.7999    122.1677
   752.0000   2000.0000   2000.0000     16.5827    120.3926
   752.2500   2000.0000   2000.0000     16.3734    119.7199
   752.5000   2000.0000   2000.0000     16.1824    119.8789
   752.7500   2000.0000   2000.0000     16.0244    120.4239
   753.0000   2000.0000   2000.0000     15.9144    121.0717
   753.2500   2000.0000   2000.0000     15.8633    121.4725
   753.5000   2000.0000   2000.0000     15.8745    123.1337
   753.7500   2000.0000   2000.0000     15.9445    125.2250
   754.0000   2000.0000   2000.0000     16.0666    128.4147
   754.2500   2000.0000   2000.0000     16.2367    129.1753
   754.5000   2000.0000   2000.0000     16.4569    127.0183
   754.7500   2000.0000   2000.0000     16.7360    123.8111
   755.0000   2000.0000   2000.0000     17.0852    118.1005
   755.2500   2000.0000   2000.0000     17.5166    114.4555
   755.5000   2000.0000   2000.0000     18.0437    109.3647
   755.7500   2000.0000   2000.0000     18.6864    105.8690
   756.0000   2000.0000   2000.0000     19.4747    100.0710
   756.2500   2000.0000   2000.0000     20.4480     95.9923
   756.5000   2000.0000   2000.0000     21.6457     90.2012
   756.7500   2000.0000   2000.0000     23.0920     86.7755
   757.0000   2000.0000   2000.0000     24.7829     82.0433
   757.2500   2000.0000   2000.0000     26.6832     78.9076
   757.5000   2000.0000   2000.0000     28.7385     74.3591
   757.7500   2000.0000   2000.0000     30.8987     71.8268
   758.0000   2000.0000   2000.0000     33.1404     69.1580
   758.2500   2000.0000   2000.0000     35.4756     67.8716
   758.5000   2000.0000   2000.0000     37.9363     65.9072
   758.7500   2000.0000   2000.0000     40.5404     64.3975
   759.0000   2000.0000   2000.0000     43.2534     62.1971
   759.2500   2000.0000   2000.0000     45.9679     61.1175
   759.5000   2000.0000   2000.0000     48.5183     60.3229
   759.7500   2000.0000   2000.0000     50.7321     60.1178
   760.0000   2000.0000   2000.0000     52.5020     59.4280
   760.2500   2000.0000   2000.0000     53.8383     58.2995
   760.5000   2000.0000   2000.0000     54.8536     55.8010
   760.7500   2000.0000   2000.0000     55.6881     54.2286
   761.0000   2000.0000   2000.0000     56.4296     53.0737
   761.2500   2000.0000   2000.0000     57.0854     53.2668
   761.5000   2000.0000   2000.0000     57.6086     54.5718
   761.7500   2000.0000   2000.0000     57.9367     55.7998
   762.0000   2000.0000   2000.0000     58.0209     57.7280
   762.2500   2000.0000   2000.0000     57.8399     58.7504
   762.5000   2000.0000   2000.0000     57.3953     59.4182
   762.7500   2000.0000   2000.0000     56.6928     59.3359
   763.0000   2000.0000   2000.0000     55.7378     58.9520
   763.2500   2000.0000   2000.0000     54.5626     58.6951
   763.5000   2000.0000   2000.0000     53.2509     58.1417
   763.7500   2000.0000   2000.0000     51.9116     57.6150
   764.0000   2000.0000   2000.0000     50.6208     56.9965
   764.2500   2000.0000   2000.0000     49.3942     56.9919
   764.5000   2000.0000   2000.0000     48.2112     57.6369
   764.7500   2000.0000   2000.0000     47.0513     58.2786
