~Version Information
VERS.                      2.0: CWLS Log ASCII Standard - VERSION 2.0
WRAP.                       NO: One line per depth step
~Well Information Block
STRT.FT               260.0000: 
STOP.FT              2610.0000: 
STEP.FT                 0.1000: 
NULL.                -999.2500: 
COMP.          Pioneer Natural Resources: COMPANY
WELL.           Costello 44-24: WELL
FLD.           Purgatoire River: FIELD
LOC.           327' FSL & 378' FEL: LOCATION
PROV.                 Colorado: PROVINCE
CNTY.               Las Animas: COUNTRY
SRVC.                Patterson: SERVICE COMPANY
DATE.          Mon Jul 11 10:42:19 2005: LOG DATE
UWI.           05 071 08413 00: UNIQUE WELL ID
~Curve Information Block
DEPT.FT            0 000 00 00: Depth
DCAL.in                       : CDL Caliper
RHOB.g/cc                     : CDL Bulk Density
RHOC.g/cc                     : CDL Density Correction
DPOR.pu                       : CDL Density Porosity
GR.GAPI                       : Gamma Ray
NPOR.pu                       : Neutron Porosity
~Parameter Information Block
~A  Depth       DCAL        RHOB        RHOC        DPOR         GR         NPOR    
# ...
  1661.6000      8.7918      1.9901      0.4580     39.9969     89.7021     18.1044
  1661.7000      8.7918      2.0945      0.3797     33.6663     92.7278     20.3567
  1661.8000      9.2630      2.1558      0.2710     29.9499     99.3206     23.0826
  1661.9000      9.2630      2.2407      0.2574     24.8072    108.5725     25.5815
  1662.0000      9.0821      2.3741      0.3223     16.7232    117.2667     27.0116
  1662.1000      9.0821      2.4952      0.3384      9.3823    123.9969     27.4580
  1662.2000      9.0821      2.5440      0.1702      6.4213    128.3071     27.6582
  1662.3000      8.6907      2.5376      0.1370      6.8133    132.0237     27.8963
  1662.4000      8.6907      2.5260      0.0871      7.5177    138.7952     27.9606
  1662.5000      8.4026      2.5304      0.1315      7.2501    143.2846     28.0946
  1662.6000      8.4026      2.5365      0.1602      6.8797    139.5416     28.4544
  1662.7000      8.4026      2.5338      0.1034      7.0416    135.1793     28.4396
  1662.8000      8.3502      2.5324      0.0643      7.1270    136.5488     27.8393
  1662.9000      8.3502      2.5314      0.0902      7.1898    138.3982     27.0234
  1663.0000      8.2047      2.5185      0.0925      7.9701    136.2843     26.0362
  1663.1000      8.2047      2.4944      0.0431      9.4280    132.0467     24.9337
  1663.2000      8.2047      2.4609      0.0375     11.4609    127.8292     23.9712
  1663.3000      8.1708      2.4130     -0.0319     14.3612    126.1575     23.0502
  1663.4000      8.1708      2.3484      0.0040     18.2810    128.0004     21.9245
  1663.5000      8.1621      2.2742     -0.0616     22.7730    130.5393     20.7857
  1663.6000      8.1621      2.2090     -0.0862     26.7301    132.2240     19.7960
  1663.7000      8.1621      2.1503      0.0194     30.2864    130.9480     19.0927
  1663.8000      8.1607      2.0790     -0.0133     34.6040    125.6118     18.7761
  1663.9000      8.1607      2.0051     -0.0140     39.0862    123.0540     18.2158
  1664.0000      8.1681      1.9478      0.0530     42.5575    126.4588     17.1080
  1664.1000      8.1681      1.8780      0.1581     46.7907    129.2820     16.0600
  1664.2000      8.1681      1.7428      0.0829     54.9824    126.4312     14.8644
  1664.3000      8.1948      1.5475      0.0327     66.8207    118.9984     12.9319
  1664.4000      8.1948      1.3496     -0.0322     78.8114    109.8930     10.9508
  1664.5000      8.3355      1.1882     -0.0659     88.5932    103.6301      9.7354
  1664.6000      8.3355      1.0637     -0.1233     96.1406    103.3176      9.2299
  1664.7000      8.3355      0.9766     -0.1799    101.4201    105.9976      9.1775
  1664.8000      8.3851      0.9463     -0.0959    103.2568    107.1899      9.3895
  1664.9000      8.3851      1.0118     -0.1825     99.2846    106.8552      9.6987
  1665.0000      8.6158      1.2031     -0.0323     87.6905    108.2786     10.1399
  1665.1000      8.6158      1.4723      0.1561     71.3782    112.3174     11.0845
  1665.2000      8.6158      1.7261      0.3014     55.9929    117.4589     12.8833
  1665.3000      9.0808      1.9257      0.4387     43.8984    123.9292     15.1298
  1665.4000      9.0808      2.0880      0.4190     34.0622    129.4003     17.0773
  1665.5000     10.0040      2.2103      0.4808     26.6473    128.7961     18.3887
  1665.6000     10.0040      2.2606      0.3282     23.5992    123.6341     19.6574
  1665.7000     10.0040      2.2545      0.1881     23.9686    122.8562     21.8784
  1665.8000     10.1306      2.2411      0.1638     24.7799    131.3638     24.8539
  1665.9000     10.1306      2.2221      0.2047     25.9345    145.0469     27.3333
  1666.0000      8.9565      2.1802      0.1001     28.4741    157.2730     28.4471
  1666.1000      8.9565      2.1453      0.0115     30.5887    164.5336     28.1510
  1666.2000      8.9565      2.1559      0.0484     29.9431    167.8964     27.2294
  1666.3000      8.4279      2.2095      0.0644     26.6992    169.5526     26.9094
  1666.4000      8.4279      2.2775      0.1569     22.5784    169.6520     27.4625
  1666.5000      8.2528      2.3316      0.1902     19.2964    169.6612     28.1048
  1666.6000      8.2528      2.3639      0.2158     17.3364    168.8890     28.2480
  1666.7000      8.2528      2.3834      0.1950     16.1567    162.4524     28.0653
  1666.8000      8.2097      2.3887      0.1860     15.8355    154.1113     27.6396
  1666.9000      8.2097      2.3661      0.1390     17.2065    152.1824     26.8304
  1667.0000      8.2057      2.3231      0.0253     19.8094    154.7691     25.9373
  1667.1000      8.2057      2.2965      0.0305     21.4257    156.9765     25.4229
  1667.2000      8.2057      2.3180      0.0366     20.1237    159.3591     25.2202
  1667.3000      8.2044      2.4002      0.0848     15.1420    161.0911     25.1475
  1667.4000      8.2044      2.5302      0.2109      7.2594    160.9425     25.3445
  1667.5000      8.1912      2.6607      0.3973     -0.6456    159.7874     25.6827
  1667.6000      8.1912      2.7412      0.4223     -5.5278    156.8370     25.7853
  1667.7000      8.1912      2.7577      0.4241     -6.5261    153.2744     25.6550
  1667.8000      8.1920      2.7157      0.3859     -3.9793    152.6515     25.4799
  1667.9000      8.1920      2.6399      0.2229      0.6092    153.4078     25.5369
  1668.0000      8.2935      2.5855      0.1069      3.9064    152.9361     25.9685
  1668.1000      8.2935      2.5766      0.0779      4.4461    151.1258     26.5706
  1668.2000      8.2935      2.5794      0.0802      4.2782    148.5629     27.0051
  1668.3000      8.4327      2.5735      0.0282      4.6336    144.9640     27.0366
  1668.4000      8.4327      2.5836      0.0594      4.0254    139.2993     26.7129
  1668.5000      8.1947      2.6211      0.1159      1.7486    133.2764     26.4337
  1668.6000      8.1947      2.6615      0.1504     -0.6998    130.6318     26.4260
  1668.7000      8.1947      2.6807      0.1731     -1.8590    133.0653     26.5365
  1668.8000      8.1280      2.6783      0.1307     -1.7124    138.2885     26.5870
  1668.9000      8.1280      2.6578      0.1695     -0.4725    142.3052     26.5092
  1669.0000      8.1216      2.6153      0.1261      2.1034    144.6631     26.4648
  1669.1000      8.1216      2.5571      0.1122      5.6278    147.1622     26.4539
  1669.2000      8.1216      2.5078      0.0107      8.6183    149.1767     26.2898
  1669.3000      8.1206      2.4955      0.0034      9.3643    150.0496     26.2543
  1669.4000      8.1206      2.5127      0.0821      8.3190    154.2841     26.4509
  1669.5000      8.1213      2.5263      0.0307      7.4991    163.3160     26.5045
  1669.6000      8.1213      2.5297      0.0301      7.2913    170.5570     26.0971
  1669.7000      8.1213      2.5341      0.0480      7.0223    171.6148     25.3250
  1669.8000      8.1174      2.5397      0.0736      6.6819    171.6167     24.7669
  1669.9000      8.1174      2.5483      0.0927      6.1624    176.5506     25.0247
  1670.0000      8.1148      2.5606      0.1247      5.4202    180.5121     25.8982
  1670.1000      8.1148      2.5664      0.1449      5.0653    176.4468     26.4961
  1670.2000      8.1148      2.5640      0.0926      5.2126    172.0941     26.5457
  1670.3000      8.1187      2.5591      0.1115      5.5119    174.1162     26.4324
  1670.4000      8.1187      2.5432      0.1227      6.4721    175.8318     26.1040
  1670.5000      8.1148      2.5187      0.0276      7.9581    174.6234     25.4754
  1670.6000      8.1148      2.5060      0.0322      8.7246    176.3283     24.9387
  1670.7000      8.1148      2.5033      0.0848      8.8882    181.0504     24.7720
  1670.8000      8.1339      2.4971      0.0734      9.2686    182.9125     25.1095
  1670.9000      8.1339      2.5001      0.0509      9.0852    179.4154     25.8778
  1671.0000      8.1960      2.5329      0.0616      7.0998    170.6545     26.5592
  1671.1000      8.1960      2.5859      0.1613      3.8837    161.1311     26.8260
