~Version Information
VERS.                      2.0: CWLS Log ASCII Standard - VERSION 2.0
WRAP.                       NO: One line per depth step
~Well Information Block
STRT.FT                -8.8000: 
STOP.FT              2006.2000: 
STEP.FT                 0.1000: 
NULL.                -999.2500: 
COMP.          Petrogulf Corporation: COMPANY
WELL.             J & P 12-33V: WELL
FLD.           Purgatorie River: FIELD
LOC.           2005' FSL & 1928' FEL: LOCATION
CNTY.               Las Animas: COUNTY
SRVC.                         : SERVICE COMPANY
DATE.          Fri Jul 29 13:37:28 2005: LOG DATE
UWI.                          : UNIQUE WELL ID
STAT.                 Colorado: STATE
~Curve Information Block
DEPT.FT            0 000 00 00: Depth
GR.GAPI                       : Gamma Ray
CCL.                          : Casing Collar Locator
TT3.usec                      : CBL 3' Travel Time
AMP3.mV                       : CBL 3' Amplitude
~Parameter Information Block
~A  Depth        GR         CCL         TT3         AMP3    
# ...
   259.2000     89.1451      0.0000    255.1983     80.8758
   259.3000     86.4038      0.0000    255.2242     80.6824
   259.4000     86.4038      0.0000    255.2242     80.6824
   259.5000     83.0216      0.0000    255.2481     80.5468
   259.6000     83.0216      0.0000    255.2481     80.5468
   259.7000     83.0216      0.0000    255.2481     80.5468
   259.8000     80.0026      0.0000    255.2658     80.5135
   259.9000     80.0026      0.0000    255.2658     80.5135
   260.0000     77.9997      0.0000    255.2931     80.5012
   260.1000     77.9997      0.0000    255.2931     80.5012
   260.2000     77.9997      0.0000    255.2931     80.5012
   260.3000     77.3954      0.0000    255.3304     80.4275
   260.4000     77.3954      0.0000    255.3304     80.4275
   260.5000     78.3283      0.0000    255.3534     80.3212
   260.6000     78.3283      0.0000    255.3534     80.3212
   260.7000     78.3283      0.0000    255.3534     80.3212
   260.8000     80.4584      0.0000    255.3508     80.2635
   260.9000     80.4584      0.0000    255.3508     80.2635
   261.0000     82.9835      0.0000    255.3432     80.2760
   261.1000     82.9835      0.0000    255.3432     80.2760
   261.2000     82.9835      0.0000    255.3432     80.2760
   261.3000     85.1763      0.0000    255.3503     80.3155
   261.4000     85.1763      0.0000    255.3503     80.3155
   261.5000     87.0718      0.0000    255.3650     80.3514
   261.6000     87.0718      0.0000    255.3650     80.3514
   261.7000     87.0718      0.0000    255.3650     80.3514
   261.8000     89.6240      0.0000    255.3672     80.4038
   261.9000     89.6240      0.0000    255.3672     80.4038
   262.0000     93.9827      0.0000    255.3416     80.5102
   262.1000     93.9827      0.0000    255.3416     80.5102
   262.2000     93.9827      0.0000    255.3416     80.5102
   262.3000    100.3685      0.0000    255.2921     80.6702
   262.4000    100.3685      0.0000    255.2921     80.6702
   262.5000    107.4231      0.0000    255.2568     80.8110
   262.6000    107.4231      0.0000    255.2568     80.8110
   262.7000    107.4231      0.0000    255.2568     80.8110
   262.8000    112.6101      0.0000    255.2749     80.8423
   262.9000    112.6101      0.0000    255.2749     80.8423
   263.0000    113.6131      0.0000    255.3353     80.7650
   263.1000    113.6131      0.0000    255.3353     80.7650
   263.2000    113.6131      0.0000    255.3353     80.7650
   263.3000    109.7798      0.0000    255.3886     80.6574
   263.4000    109.7798      0.0000    255.3886     80.6574
   263.5000    102.2996      0.0000    255.4022     80.5705
   263.6000    102.2996      0.0000    255.4022     80.5705
   263.7000    102.2996      0.0000    255.4022     80.5705
   263.8000     93.0088      0.0000    255.3834     80.5178
   263.9000     93.0088      0.0000    255.3834     80.5178
   264.0000     83.2623      0.0000    255.3536     80.5453
   264.1000     83.2623      0.0000    255.3536     80.5453
   264.2000     83.2623      0.0000    255.3536     80.5453
   264.3000     73.9616      0.0000    255.3233     80.6822
   264.4000     73.9616      0.0000    255.3233     80.6822
   264.5000     66.0935      0.0000    255.2988     80.8401
   264.6000     66.0935      0.0000    255.2988     80.8401
   264.7000     66.0935      0.0000    255.2988     80.8401
   264.8000     60.6927      0.0000    255.2859     80.9072
   264.9000     60.6927      0.0000    255.2859     80.9072
   265.0000     58.4178      0.0000    255.2858     80.8958
   265.1000     58.4178      0.0000    255.2858     80.8958
   265.2000     58.4178      0.0000    255.2858     80.8958
   265.3000     59.5630      0.0000    255.2966     80.8740
   265.4000     59.5630      0.0000    255.2966     80.8740
   265.5000     64.3595      0.0000    255.3109     80.8481
   265.6000     64.3595      0.0000    255.3109     80.8481
   265.7000     64.3595      0.0000    255.3109     80.8481
   265.8000     72.7130      0.0000    255.3194     80.8108
   265.9000     72.7130      0.0000    255.3194     80.8108
   266.0000     83.5046      0.0000    255.3199     80.7761
   266.1000     83.5046      0.0000    255.3199     80.7761
   266.2000     83.5046      0.0000    255.3199     80.7761
   266.3000     94.5370      0.0000    255.3149     80.7407
   266.4000     94.5370      0.0000    255.3149     80.7407
   266.5000    103.5301      0.0000    255.3058     80.6988
   266.6000    103.5301      0.0000    255.3058     80.6988
   266.7000    103.5301      0.0000    255.3058     80.6988
   266.8000    109.3216      0.0000    255.2938     80.6746
   266.9000    109.3216      0.0000    255.2938     80.6746
   267.0000    112.2884      0.0000    255.2888     80.7090
   267.1000    112.2884      0.0000    255.2888     80.7090
   267.2000    112.2884      0.0000    255.2888     80.7090
   267.3000    113.8477      0.0000    255.3013     80.8023
   267.4000    113.8477      0.0000    255.3013     80.8023
   267.5000    115.4822      0.0000    255.3290     80.8633
   267.6000    115.4822      0.0000    255.3290     80.8633
   267.7000    115.4822      0.0000    255.3290     80.8633
   267.8000    117.8703      0.0000    255.3597     80.7934
   267.9000    117.8703      0.0000    255.3597     80.7934
   268.0000    120.6217      0.0000    255.3772     80.6117
   268.1000    120.6217      0.0000    255.3772     80.6117
   268.2000    120.6217      0.0000    255.3772     80.6117
   268.3000    122.7929      0.0000    255.3696     80.4279
   268.4000    122.7929      0.0000    255.3696     80.4279
   268.5000    123.7130      0.0000    255.3434     80.3395
   268.6000    123.7130      0.0000    255.3434     80.3395
   268.7000    123.7130      0.0000    255.3434     80.3395
   268.8000    123.1996      0.0000    255.3284     80.3452
   268.9000    123.1996      0.0000    255.3284     80.3452
   269.0000    121.1530      0.0000    255.3576     80.3390
   269.1000    121.1530      0.0000    255.3576     80.3390
   269.2000    121.1530      0.0000    255.3576     80.3390
   269.3000    117.6368      0.0000    255.4283     80.2504
   269.4000    117.6368      0.0000    255.4283     80.2504
   269.5000    113.5704      0.0000    255.5001     80.1755
   269.6000    113.5704      0.0000    255.5001     80.1755
   269.7000    113.5704      0.0000    255.5001     80.1755
   269.8000    110.6471      0.0000    255.5362     80.2617
   269.9000    110.6471      0.0000    255.5362     80.2617
   270.0000    110.0144      0.0000    255.5347     80.4752
   270.1000    110.0144      0.0000    255.5347     80.4752
   270.2000    110.0144      0.0000    255.5347     80.4752
   270.3000    111.2933      0.0000    255.5150     80.6522
   270.4000    111.2933      0.0000    255.5150     80.6522
   270.5000    113.2141      0.0000    255.4950     80.7135
   270.6000    113.2141      0.0000    255.4950     80.7135
   270.7000    113.2141      0.0000    255.4950     80.7135
   270.8000    114.9635      0.0000    255.4895     80.6856
   270.9000    114.9635      0.0000    255.4895     80.6856
   271.0000    116.6709      0.0000    255.5033     80.6180
   271.1000    116.6709      0.0000    255.5033     80.6180
   271.2000    116.6709      0.0000    255.5033     80.6180
   271.3000    118.8081      0.0000    255.5238     80.5482
   271.4000    118.8081      0.0000    255.5238     80.5482
   271.5000    121.3242      0.0000    255.5368     80.4974
   271.6000    121.3242      0.0000    255.5368     80.4974
   271.7000    121.3242      0.0000    255.5368     80.4974
   271.8000    123.3173      0.0000    255.5360     80.4738
   271.9000    123.3173      0.0000    255.5360     80.4738
   272.0000    123.5365      0.0000    255.5193     80.4639
   272.1000    123.5365      0.0000    255.5193     80.4639
   272.2000    123.5365      0.0000    255.5193     80.4639
   272.3000    121.3339      0.0000    255.4875     80.4617
   272.4000    121.3339      0.0000    255.4875     80.4617
   272.5000    117.2450      0.0000    255.4489     80.5120
