~Version Information
VERS.                      2.0: CWLS Log ASCII Standard - VERSION 2.0
WRAP.                       NO: One line per depth step
~Well Information Block
STRT.FT               500.0000: 
STOP.FT              2760.5000: 
STEP.FT                 0.1000: 
NULL.                -999.2500: 
COMP.          Petrogulf Corporation: COMPANY
WELL.              Silva 1-43V: WELL
FLD.           Purgatorie River: FIELD
LOC.           2010' FSL & 614' FEL: LOCATION
PROV.                 Colorado: PROVINCE
CNTY.               Las Animas: COUNTRY
SRVC.                Patterson: SERVICE COMPANY
DATE.          Mon Aug 29 08:02:37 2005: LOG DATE
UWI.                          : UNIQUE WELL ID
~Curve Information Block
DEPT.FT            0 000 00 00: Depth
DCAL.in                       : CDL Caliper
RHOB.g/cc                     : CDL Bulk Density
RHOC.g/cc                     : CDL Density Correction
DPOR.pu                       : CDL Density Porosity
GR.GAPI                       : Gamma Ray
NPOR.pu                       : Neutron Porosity
~Parameter Information Block
~A  Depth       DCAL        RHOB        RHOC        DPOR         GR         NPOR    
# ...
   951.2000      8.2238      2.6103      0.0418      2.4091     82.1374     24.7826
   951.3000      8.2181      2.6081      0.0552      2.5416     78.7992     25.2795
   951.4000      8.2181      2.6056      0.0357      2.6902     77.3007     25.2949
   951.5000      8.2097      2.6063      0.0077      2.6461     77.2625     24.7712
   951.6000      8.2097      2.6103      0.0461      2.4061     77.4954     24.1903
   951.7000      8.2097      2.6094      0.0276      2.4583     77.8097     24.0303
   951.8000      8.2077      2.6045      0.0064      2.7552     78.8507     24.2303
   951.9000      8.2077      2.6032      0.0183      2.8348     80.1350     24.6103
   952.0000      8.2015      2.6055      0.0451      2.6998     79.2315     25.0445
   952.1000      8.2015      2.6077      0.0383      2.5645     76.1177     25.2858
   952.2000      8.2015      2.6057      0.0523      2.6836     74.6397     25.2292
   952.3000      8.2022      2.5927      0.0535      3.4727     76.8563     24.8964
   952.4000      8.2022      2.5700      0.0334      4.8508     80.1160     24.3519
   952.5000      8.1931      2.5480      0.0110      6.1799     82.5386     23.6202
   952.6000      8.1931      2.5401     -0.0044      6.6625     84.1874     22.8376
   952.7000      8.1931      2.5504      0.0098      6.0363     84.3076     22.3235
   952.8000      8.1856      2.5583      0.0613      5.5585     82.8191     22.1066
   952.9000      8.1856      2.5431      0.0520      6.4789     80.4799     22.1265
   953.0000      8.2213      2.5199      0.0134      7.8822     78.3295     22.3919
   953.1000      8.2213      2.5086      0.0461      8.5700     77.8805     22.6598
   953.2000      8.2213      2.5014      0.0743      9.0059     78.7278     22.6546
   953.3000      8.2108      2.4903      0.0398      9.6789     77.8326     22.4179
   953.4000      8.2108      2.4833      0.0182     10.1018     75.4443     22.2541
   953.5000      8.2002      2.4875      0.0250      9.8462     74.8337     22.3439
   953.6000      8.2002      2.4977      0.0786      9.2319     74.8343     22.5438
   953.7000      8.2002      2.5067      0.0438      8.6822     73.3831     22.6158
   953.8000      8.2122      2.5180      0.0390      7.9970     70.9675     22.5398
   953.9000      8.2122      2.5288      0.0921      7.3456     69.0676     22.4347
   954.0000      8.2171      2.5277      0.0569      7.4139     68.0696     22.2642
   954.1000      8.2171      2.5202      0.0495      7.8673     66.9625     22.0103
   954.2000      8.2171      2.5170      0.0753      8.0630     66.5295     21.8612
   954.3000      8.2202      2.5155      0.0289      8.1517     67.5650     21.7394
   954.4000      8.2202      2.5106      0.0540      8.4497     70.3418     21.4885
   954.5000      8.2123      2.4989      0.0364      9.1552     74.2394     21.2747
   954.6000      8.2123      2.4866      0.0282      9.9059     76.9077     21.2484
   954.7000      8.2123      2.4876      0.0289      9.8395     78.0403     21.4051
   954.8000      8.2154      2.5061      0.0424      8.7227     78.3312     21.4142
   954.9000      8.2154      2.5290      0.0630      7.3304     77.5290     21.0262
   955.0000      8.2095      2.5456      0.0373      6.3291     75.5951     20.4872
   955.1000      8.2095      2.5583      0.0703      5.5573     71.9034     20.1295
   955.2000      8.2095      2.5689      0.0909      4.9152     67.4608     20.0631
   955.3000      8.2047      2.5754      0.0731      4.5239     65.6294     20.1940
   955.4000      8.2047      2.5812      0.0515      4.1692     65.5183     20.3691
   955.5000      8.1757      2.5862      0.0614      3.8644     63.9372     20.3413
   955.6000      8.1757      2.5841      0.0567      3.9913     62.4269     20.1686
   955.7000      8.1757      2.5756      0.0404      4.5114     63.2999     20.1489
   955.8000      8.1731      2.5662     -0.0115      5.0784     65.9150     19.9962
   955.9000      8.1731      2.5597      0.0161      5.4755     69.4990     19.1919
   956.0000      8.1891      2.5575     -0.0010      5.6063     72.7289     17.9235
   956.1000      8.1891      2.5577      0.0430      5.5936     72.2793     17.0302
   956.2000      8.1891      2.5593      0.0042      5.4973     67.9917     16.9516
   956.3000      8.1684      2.5667      0.0580      5.0507     64.6304     17.1518
   956.4000      8.1684      2.5749      0.0687      4.5508     64.7088     17.0755
   956.5000      8.1863      2.5803      0.0441      4.2225     66.4076     16.9431
   956.6000      8.1863      2.5872      0.1143      3.8073     67.1444     17.0723
   956.7000      8.1863      2.5906      0.0962      3.5975     66.5420     17.3137
   956.8000      8.1938      2.5864      0.0986      3.8553     65.3546     17.4203
   956.9000      8.1938      2.5799      0.0623      4.2489     64.4875     17.4138
   957.0000      8.2010      2.5680      0.0998      4.9724     64.9476     17.3963
   957.1000      8.2010      2.5423      0.0580      6.5302     66.6444     17.4476
   957.2000      8.2010      2.5203      0.0073      7.8617     68.6039     17.4834
   957.3000      8.2126      2.5240      0.0543      7.6344     69.9346     17.4904
   957.4000      8.2126      2.5454      0.0495      6.3384     70.1665     17.7015
   957.5000      8.2170      2.5612      0.0967      5.3795     68.6958     18.1016
   957.6000      8.2170      2.5564      0.0717      5.6736     66.6392     18.3295
   957.7000      8.2170      2.5350      0.0714      6.9676     66.6616     18.2556
   957.8000      8.2221      2.5159      0.0448      8.1298     68.8965     18.1746
   957.9000      8.2221      2.5128      0.0676      8.3131     70.5230     18.3642
   958.0000      8.2444      2.5193      0.0844      7.9207     69.2007     18.9682
   958.1000      8.2444      2.5193      0.0919      7.9211     66.1054     19.8465
   958.2000      8.2444      2.5082      0.0875      8.5934     64.9395     20.3370
   958.3000      8.3008      2.4893      0.0858      9.7386     67.2772     20.2065
   958.4000      8.3008      2.4694      0.0650     10.9427     69.2337     20.0856
   958.5000      8.3633      2.4613      0.0255     11.4381     67.3217     20.2936
   958.6000      8.3633      2.4655      0.0643     11.1789     64.6548     20.5454
   958.7000      8.3633      2.4711      0.0635     10.8428     64.6095     20.7313
   958.8000      8.3352      2.4872      0.0035      9.8664     65.5886     21.0786
   958.9000      8.3352      2.5224      0.1014      7.7361     65.8293     21.6360
   959.0000      8.3500      2.5459      0.1328      6.3089     67.3753     22.1534
   959.1000      8.3500      2.5327      0.0851      7.1113     70.6833     22.4926
   959.2000      8.3500      2.4979      0.0791      9.2182     74.0816     22.8681
   959.3000      8.3461      2.4704      0.0235     10.8861     78.8964     23.4808
   959.4000      8.3461      2.4637      0.0355     11.2933     83.8315     24.0690
   959.5000      8.3478      2.4668      0.0685     11.1020     84.0145     24.1623
   959.6000      8.3478      2.4665      0.0364     11.1184     79.9507     23.8041
   959.7000      8.3478      2.4612      0.0735     11.4424     76.6788     23.4770
   959.8000      8.3722      2.4508      0.0355     12.0720     75.8205     23.3866
   959.9000      8.3722      2.4413      0.0486     12.6495     75.6597     23.2681
   960.0000      8.3453      2.4398      0.0466     12.7414     75.6149     22.9980
   960.1000      8.3453      2.4403      0.0633     12.7064     75.3014     22.9960
   960.2000      8.3453      2.4353      0.0440     13.0138     74.3195     23.3603
   960.3000      8.3474      2.4394      0.0039     12.7632     73.4355     23.3673
   960.4000      8.3474      2.4671      0.0723     11.0856     72.0723     22.8096
   960.5000      8.3565      2.4948      0.1129      9.4068     70.3381     22.4257
   960.6000      8.3565      2.4944      0.1058      9.4290     70.3220     22.4371
   960.7000      8.3565      2.4759      0.0539     10.5506     72.0064     22.6052
