~Version Information
VERS.                      2.0: CWLS Log ASCII Standard - VERSION 2.0
WRAP.                       NO: One line per depth step
~Well Information Block
STRT.FT               425.0000: 
STOP.FT              2461.0000: 
STEP.FT                 0.1000: 
NULL.                -999.2500: 
COMP.          Evergreen Operating Corporation: COMPANY
WELL.              Nomad 32-10: WELL
FLD.           Purgatorie River: FIELD
LOC.           2281' FNL & 1585' FEL: LOCATION
PROV.                 Colorado: PROVINCE
CNTY.               Las Animas: COUNTRY
SRVC.                Patterson: SERVICE COMPANY
DATE.          Thu Aug 12 11:13:52 2004: LOG DATE
UWI.           05 071 08127 00: UNIQUE WELL ID
~Curve Information Block
DEPT.FT            0 000 00 00: Depth
DCAL.in                       : CDL Caliper
RHOB.g/cc                     : CDL Bulk Density
RHOC.g/cc                     : CDL Density Correction
DPOR.pu                       : CDL Density Porosity
NPOR.pu                       : Neutron Porosity
GR.GAPI                       : Gamma Ray
~Parameter Information Block
~A  Depth       DCAL        RHOB        RHOC        DPOR        NPOR         GR     
# ...
  1221.8000      8.1911      2.7116      0.0602     -3.7348     20.4113     85.0188
  1221.9000      8.1911      2.7312      0.0850     -4.9234     20.3545     84.3616
  1222.0000      8.1703      2.7503      0.1102     -6.0808     20.0460     88.5271
  1222.1000      8.1703      2.7591      0.0879     -6.6096     19.4419     93.3077
  1222.2000      8.1703      2.7571      0.0647     -6.4903     19.3679     92.6788
  1222.3000      8.1745      2.7423      0.1046     -5.5937     20.1876     90.1213
  1222.4000      8.1745      2.7078      0.0460     -3.5057     21.0068     90.8018
  1222.5000      8.2165      2.6726     -0.0200     -1.3722     21.0696     92.3593
  1222.6000      8.2165      2.6663     -0.0392     -0.9892     20.7741     91.0516
  1222.7000      8.2165      2.6774      0.0587     -1.6623     20.5934     86.5195
  1222.8000      8.2241      2.6723      0.0402     -1.3528     20.5567     81.4684
  1222.9000      8.2241      2.6483      0.0521      0.1050     20.9933     80.6877
  1223.0000      8.2161      2.6196      0.0488      1.8412     21.9055     87.0352
  1223.1000      8.2161      2.5917      0.0479      3.5355     22.5364     95.3118
  1223.2000      8.2161      2.5675      0.0339      4.9998     22.4705     98.0041
  1223.3000      8.1940      2.5578      0.0287      5.5898     22.0351     96.9142
  1223.4000      8.1940      2.5697      0.0267      4.8657     21.7366     98.0268
  1223.5000      8.1843      2.5874      0.0552      3.7946     21.8612    102.6761
  1223.6000      8.1843      2.5883      0.0686      3.7367     22.1514    105.7309
  1223.7000      8.1843      2.5754      0.0562      4.5186     22.0794    101.3498
  1223.8000      8.1672      2.5667      0.0340      5.0456     21.6916     91.4807
  1223.9000      8.1672      2.5645      0.0500      5.1803     21.5143     83.8326
  1224.0000      8.1598      2.5534      0.0595      5.8517     21.5868     83.9316
  1224.1000      8.1598      2.5306      0.0304      7.2361     21.6069     87.2882
  1224.2000      8.1598      2.5168      0.0024      8.0734     21.5314     85.8923
  1224.3000      8.1494      2.5292      0.0207      7.3232     21.4120     80.8027
  1224.4000      8.1494      2.5597      0.0435      5.4706     21.4884     80.1826
  1224.5000      8.1589      2.5896      0.0536      3.6582     21.8732     86.1099
  1224.6000      8.1589      2.6060      0.0690      2.6688     22.1720     90.7658
  1224.7000      8.1589      2.6104      0.0745      2.3993     22.2071     89.1263
  1224.8000      8.1669      2.6174      0.0385      1.9759     22.0913     83.5487
  1224.9000      8.1669      2.6334      0.0529      1.0053     21.8082     78.0868
  1225.0000      8.1726      2.6552      0.0324     -0.3141     21.6799     76.2838
  1225.1000      8.1726      2.6785      0.0592     -1.7261     22.0320     79.2926
  1225.2000      8.1726      2.6849      0.0782     -2.1126     22.2646     84.0141
  1225.3000      8.1600      2.6635      0.0247     -0.8210     21.7192     84.7351
  1225.4000      8.1600      2.6398     -0.0107      0.6165     20.8928     80.6981
  1225.5000      8.1509      2.6315      0.0244      1.1213     20.4474     76.1235
  1225.6000      8.1509      2.6205      0.0486      1.7869     20.2541     72.4993
  1225.7000      8.1509      2.6000      0.0132      3.0324     20.2999     69.8482
  1225.8000      8.1641      2.5839      0.0492      4.0087     20.7349     67.5806
  1225.9000      8.1641      2.5727      0.0446      4.6863     21.3675     64.8270
  1226.0000      8.1619      2.5650      0.0323      5.1498     21.7234     63.6684
  1226.1000      8.1619      2.5678      0.0371      4.9791     21.1608     65.2761
  1226.2000      8.1619      2.5725      0.0711      4.6994     19.7777     68.1806
  1226.3000      8.1621      2.5614      0.0646      5.3685     18.4217     70.5536
  1226.4000      8.1621      2.5425      0.0348      6.5146     17.8112     70.1668
  1226.5000      8.1390      2.5377      0.0138      6.8044     18.0746     68.2653
  1226.6000      8.1390      2.5465      0.0623      6.2700     18.5834     69.7022
  1226.7000      8.1390      2.5504      0.0436      6.0346     18.8138     73.6924
  1226.8000      8.1234      2.5394      0.0716      6.7033     18.9417     75.3936
  1226.9000      8.1234      2.5192      0.0191      7.9282     19.0187     74.0320
  1227.0000      8.1385      2.5026      0.0479      8.9334     18.8094     72.2374
  1227.1000      8.1385      2.4960      0.0321      9.3334     18.5467     71.8568
  1227.2000      8.1385      2.4987      0.0452      9.1719     18.5599     70.1267
  1227.3000      8.1354      2.5064      0.0210      8.7003     18.7994     65.9055
  1227.4000      8.1354      2.5081      0.1016      8.5976     18.7878     62.9010
  1227.5000      8.1357      2.5011      0.0349      9.0245     18.4367     61.0994
  1227.6000      8.1357      2.5009      0.0708      9.0377     18.4785     59.5659
  1227.7000      8.1357      2.5096      0.0428      8.5110     19.0464     60.7581
  1227.8000      8.1366      2.5191      0.0558      7.9338     19.3767     62.6006
  1227.9000      8.1366      2.5325      0.0510      7.1229     19.3269     61.9625
  1228.0000      8.1361      2.5497      0.0825      6.0810     19.2394     59.3953
  1228.1000      8.1361      2.5550      0.1026      5.7547     19.0922     55.3227
  1228.2000      8.1361      2.5434      0.0663      6.4630     18.9979     51.3434
  1228.3000      8.1374      2.5270      0.0931      7.4535     19.2720     50.0373
  1228.4000      8.1374      2.5117      0.0754      8.3795     19.5547     53.2421
  1228.5000      8.1349      2.4996      0.0432      9.1176     19.3643     59.4288
  1228.6000      8.1349      2.4908      0.0823      9.6464     18.6295     63.4898
  1228.7000      8.1349      2.4782      0.0716     10.4142     17.8710     63.0302
  1228.8000      8.1345      2.4647      0.0230     11.2295     17.8555     61.6489
  1228.9000      8.1345      2.4670      0.0331     11.0927     18.4241     62.7048
  1229.0000      8.1346      2.4904      0.0458      9.6727     18.6462     65.0237
  1229.1000      8.1346      2.5225      0.0934      7.7259     18.3570     65.6437
  1229.2000      8.1346      2.5438      0.0884      6.4339     17.9657     63.4826
  1229.3000      8.1353      2.5486      0.0703      6.1433     17.5884     61.4893
  1229.4000      8.1353      2.5479      0.0761      6.1856     17.3539     61.4357
  1229.5000      8.1338      2.5445      0.1187      6.3958     17.5039     62.8494
  1229.6000      8.1338      2.5354      0.0861      6.9484     17.9589     66.0721
  1229.7000      8.1338      2.5299      0.0553      7.2817     18.5024     67.7475
  1229.8000      8.1352      2.5315      0.0931      7.1817     19.2504     63.6142
  1229.9000      8.1352      2.5307      0.1086      7.2312     20.2719     59.3349
  1230.0000      8.1337      2.5267      0.0532      7.4706     20.9473     60.2845
  1230.1000      8.1337      2.5232      0.0675      7.6838     20.4798     60.9378
  1230.2000      8.1337      2.5185      0.0363      7.9702     19.2261     57.0287
  1230.3000      8.1317      2.5170      0.0468      8.0581     18.4434     52.1656
  1230.4000      8.1317      2.5208      0.0626      7.8280     18.4409     51.6273
  1230.5000      8.1170      2.5155      0.0826      8.1495     18.7467     56.4658
  1230.6000      8.1170      2.4945      0.0356      9.4260     19.2945     63.6233
  1230.7000      8.1170      2.4778      0.0776     10.4379     19.9873     71.5603
  1230.8000      8.1519      2.4864      0.0332      9.9158     20.2893     77.9997
  1230.9000      8.1519      2.5145      0.0871      8.2140     19.8906     79.1693
  1231.0000      8.1636      2.5336      0.0924      7.0569     19.0915     76.3487
  1231.1000      8.1636      2.5345      0.0652      6.9994     18.2842     73.0340
  1231.2000      8.1636      2.5351      0.0572      6.9628     17.5558     69.8993
  1231.3000      8.1677      2.5399      0.0968      6.6743     17.3601     67.4489
