~Version Information
VERS.                      2.0: CWLS Log ASCII Standard - VERSION 2.0
WRAP.                       NO: One line per depth step
~Well Information Block
STRT.FT               453.5000: 
STOP.FT              1386.0000: 
STEP.FT                 0.1000: 
NULL.                -999.2500: 
COMP.          Petrogulf Corporation: COMPANY
WELL.          Great Plains 22-22R: WELL
FLD.           Purgatoire River: FIELD
LOC.           2042' FNL & 1657' FWL--: LOCATION
PROV.                 Colorado: PROVINCE
CNTY.               Las Animas: COUNTRY
SRVC.                Patterson: SERVICE COMPANY
DATE.          Fri Sep 09 14:42:42 2005: LOG DATE
UWI.           05 071 08028 00: UNIQUE WELL ID
~Curve Information Block
DEPT.FT            0 000 00 00: Depth
DCAL.in                       : CDL Caliper
RHOB.g/cc                     : CDL Bulk Density
RHOC.g/cc                     : CDL Density Correction
DPOR.pu                       : CDL Density Porosity
NPOR.pu                       : Neutron Porosity
GR.GAPI                       : Gamma Ray
~Parameter Information Block
~A  Depth       DCAL        RHOB        RHOC        DPOR        NPOR         GR     
# ...
  1240.7000      7.9153      2.5529      0.0436      5.8869     28.0348    175.9792
  1240.8000      7.9244      2.5744      0.0687      4.5801     27.3109    169.4100
  1240.9000      7.9244      2.5939      0.0616      3.3975     26.8629    152.7650
  1241.0000      7.9332      2.6034      0.1085      2.8230     26.8294    142.7268
  1241.1000      7.9332      2.5927      0.1027      3.4698     27.2719    144.0904
  1241.2000      7.9332      2.5752      0.0366      4.5339     27.7465    149.9744
  1241.3000      7.9394      2.5688      0.0956      4.9240     27.2921    155.7346
  1241.4000      7.9394      2.5697      0.0218      4.8648     26.4135    163.2133
  1241.5000      7.9427      2.5746      0.0343      4.5722     26.5834    170.8264
  1241.6000      7.9427      2.5826      0.0298      4.0861     27.6151    169.2922
  1241.7000      7.9427      2.5910      0.0504      3.5768     28.5228    157.5247
  1241.8000      7.9398      2.5986      0.0625      3.1132     29.0552    145.0996
  1241.9000      7.9398      2.6023      0.0486      2.8889     29.3412    137.9345
  1242.0000      7.9344      2.5939      0.0542      3.4001     29.5694    138.3805
  1242.1000      7.9344      2.5697      0.0324      4.8677     29.8668    141.8553
  1242.2000      7.9344      2.5433     -0.0065      6.4648     29.8942    140.3457
  1242.3000      7.9305      2.5344     -0.0018      7.0047     29.3304    138.3867
  1242.4000      7.9305      2.5430      0.0223      6.4845     28.6123    141.1918
  1242.5000      7.9281      2.5487      0.0770      6.1405     28.0560    144.2353
  1242.6000      7.9281      2.5391      0.0254      6.7232     27.7926    146.5011
  1242.7000      7.9281      2.5288     -0.0174      7.3425     27.5814    149.4909
  1242.8000      7.9247      2.5320      0.0223      7.1506     27.0607    151.5657
  1242.9000      7.9247      2.5414      0.0160      6.5832     26.6065    153.1846
  1243.0000      7.9194      2.5485      0.0308      6.1491     26.4879    153.6093
  1243.1000      7.9194      2.5527      0.0642      5.8958     26.6093    150.4319
  1243.2000      7.9194      2.5538      0.0695      5.8319     26.9328    146.7356
  1243.3000      7.9150      2.5517      0.0543      5.9576     27.0955    143.4304
  1243.4000      7.9150      2.5477      0.0356      6.1994     27.0218    138.7739
  1243.5000      7.9103      2.5459      0.0303      6.3064     27.0581    135.6285
  1243.6000      7.9103      2.5462      0.0545      6.2893     27.2800    136.7948
  1243.7000      7.9103      2.5374      0.0561      6.8241     27.8046    140.6429
  1243.8000      7.9085      2.5144      0.0396      8.2205     28.6547    142.5354
  1243.9000      7.9085      2.4876      0.0067      9.8403     29.4700    141.7168
  1244.0000      7.9133      2.4676      0.0039     11.0530     29.9533    143.5062
  1244.1000      7.9133      2.4463      0.0207     12.3465     30.1294    147.5027
  1244.2000      7.9133      2.4096     -0.0245     14.5676     30.0766    148.7156
  1244.3000      7.9257      2.3629     -0.0279     17.3984     30.1009    147.7035
  1244.4000      7.9257      2.3258     -0.0336     19.6463     30.6941    145.1946
  1244.5000      7.9459      2.3132     -0.0328     20.4146     31.6541    144.4141
  1244.6000      7.9459      2.3157      0.0194     20.2592     32.0575    146.3646
  1244.7000      7.9459      2.3111      0.0184     20.5388     31.5961    142.8077
  1244.8000      7.9685      2.3001      0.0176     21.2086     30.9142    130.7864
  1244.9000      7.9685      2.3019      0.0526     21.0975     30.5402    119.8903
  1245.0000      7.9848      2.3217      0.1192     19.8948     30.4201    117.4131
  1245.1000      7.9848      2.3516      0.1569     18.0849     30.0313    120.1624
  1245.2000      7.9848      2.3830      0.1495     16.1795     29.2829    119.6757
  1245.3000      7.9872      2.4054      0.1284     14.8218     28.7722    113.9711
  1245.4000      7.9872      2.4162      0.0910     14.1714     28.4766    108.2572
  1245.5000      7.9688      2.4271      0.0714     13.5066     27.7298    108.5908
  1245.6000      7.9688      2.4435      0.0608     12.5180     26.1967    114.9380
  1245.7000      7.9688      2.4578      0.0099     11.6466     24.4746    119.1443
  1245.8000      7.9383      2.4673      0.0138     11.0726     23.6553    116.7652
  1245.9000      7.9383      2.4782     -0.0018     10.4138     23.5365    112.5986
  1246.0000      7.9182      2.5003     -0.0132      9.0697     23.0201    111.5627
  1246.1000      7.9182      2.5299      0.0366      7.2769     21.9712    111.2998
  1246.2000      7.9182      2.5516      0.0274      5.9614     21.0877    107.3212
  1246.3000      7.9131      2.5619      0.0339      5.3386     20.7507    102.3041
  1246.4000      7.9131      2.5677      0.0462      4.9869     20.6397    101.4715
  1246.5000      7.9134      2.5813      0.0305      4.1625     20.6198    103.6835
  1246.6000      7.9134      2.6110      0.0677      2.3661     20.7626    104.4950
  1246.7000      7.9134      2.6445      0.0759      0.3311     20.9108    101.4248
  1246.8000      7.9131      2.6665      0.0932     -0.9973     20.9013     98.8906
  1246.9000      7.9131      2.6730      0.0831     -1.3920     20.6969    100.8018
  1247.0000      7.9120      2.6634      0.0920     -0.8115     20.2056     99.9338
  1247.1000      7.9120      2.6404      0.0584      0.5838     19.4360     93.0144
  1247.2000      7.9120      2.6147      0.0185      2.1382     18.6429     88.1528
  1247.3000      7.9123      2.5975      0.0177      3.1824     18.2705     88.8108
  1247.4000      7.9123      2.5977     -0.0408      3.1690     18.3375     91.6576
  1247.5000      7.9139      2.6159      0.0481      2.0650     18.0678     94.3181
  1247.6000      7.9139      2.6313      0.0689      1.1345     17.3427     96.0633
  1247.7000      7.9139      2.6251      0.0659      1.5117     17.1771     97.3850
  1247.8000      7.9132      2.6051      0.0373      2.7237     17.7887    100.2459
  1247.9000      7.9132      2.5962     -0.0149      3.2608     18.1956    102.5447
  1248.0000      7.9093      2.6117      0.0150      2.3222     17.8461    100.9300
  1248.1000      7.9093      2.6357      0.0129      0.8672     17.3152     98.2010
  1248.2000      7.9093      2.6474      0.0319      0.1548     17.2486     98.2330
  1248.3000      7.9027      2.6468      0.0355      0.1950     17.6126     99.6945
  1248.4000      7.9027      2.6493      0.0238      0.0448     18.3199    100.2168
  1248.5000      7.8957      2.6580      0.0521     -0.4839     19.4856    101.3495
  1248.6000      7.8957      2.6562      0.0565     -0.3741     20.8540    103.9533
  1248.7000      7.8957      2.6383      0.0353      0.7067     21.5839    107.3763
  1248.8000      7.8956      2.6208     -0.0136      1.7683     21.4996    112.8798
  1248.9000      7.8956      2.6091      0.0299      2.4799     21.6620    119.3056
  1249.0000      7.9076      2.5892      0.0083      3.6858     22.6013    123.2776
  1249.1000      7.9076      2.5624     -0.0091      5.3116     23.8874    124.8009
  1249.2000      7.9076      2.5468     -0.0191      6.2528     24.9820    128.1819
  1249.3000      7.9269      2.5474     -0.0087      6.2160     25.6304    134.2210
  1249.4000      7.9269      2.5515      0.0426      5.9719     26.0664    137.0377
  1249.5000      7.9382      2.5474      0.0398      6.2189     26.4497    136.3741
  1249.6000      7.9382      2.5358      0.0053      6.9204     26.5155    137.5343
  1249.7000      7.9382      2.5247     -0.0081      7.5910     26.3174    140.1290
  1249.8000      7.9446      2.5210      0.0098      7.8211     26.3228    142.6977
  1249.9000      7.9446      2.5237      0.0282      7.6548     26.7983    147.4474
  1250.0000      7.9543      2.5280      0.0215      7.3911     27.9245    154.3424
  1250.1000      7.9543      2.5332      0.0177      7.0790     29.2258    160.0792
  1250.2000      7.9543      2.5396      0.0307      6.6894     29.5787    161.6298
