~Version Information
VERS.                      2.0: CWLS Log ASCII Standard - VERSION 2.0
WRAP.                       NO: One line per depth step
~Well Information Block
STRT.FT               575.0000: 
STOP.FT              2016.2000: 
STEP.FT                 0.1000: 
NULL.                -999.2500: 
COMP.          Pioneer Natural Resources: COMPANY
WELL.          Bucksnort 41-35: WELL
FLD.           Purgatoire River: FIELD
LOC.           117' FNL & 463' FEL--: LOCATION
PROV.                 Colorado: PROVINCE
CNTY.               Las Animas: COUNTRY
SRVC.                Patterson: SERVICE COMPANY
DATE.          Thu Jul 21 15:01:23 2005: LOG DATE
UWI.           05 071 08401 00: UNIQUE WELL ID
~Curve Information Block
DEPT.FT            0 000 00 00: Depth
DCAL.in                       : CDL Caliper
RHOB.g/cc                     : CDL Bulk Density
RHOC.g/cc                     : CDL Density Correction
DPOR.pu                       : CDL Density Porosity
NPOR.pu                       : Neutron Porosity
GR.GAPI                       : Gamma Ray
~Parameter Information Block
~A  Depth       DCAL        RHOB        RHOC        DPOR        NPOR         GR     
# ...
  1045.4000      7.9213      2.5617      0.0996      5.3513     24.1515    140.6538
  1045.5000      7.9214      2.5727      0.0805      4.6821     21.7960    156.7499
  1045.6000      7.9214      2.5761      0.0910      4.4786     19.9594    160.5250
  1045.7000      7.9214      2.5713      0.0768      4.7711     19.9551    155.9202
  1045.8000      7.9229      2.5647      0.0633      5.1672     21.7315    148.4056
  1045.9000      7.9229      2.5659      0.0482      5.0999     22.6513    138.7045
  1046.0000      7.9241      2.5710      0.0825      4.7898     21.0437    126.8786
  1046.1000      7.9241      2.5684      0.0868      4.9459     18.9445    119.9124
  1046.2000      7.9241      2.5605      0.0501      5.4259     18.4971    118.0981
  1046.3000      7.9227      2.5563      0.0607      5.6798     19.6210    113.8331
  1046.4000      7.9227      2.5538      0.0574      5.8282     21.2645    108.9289
  1046.5000      7.9212      2.5588      0.0222      5.5247     22.6510    107.9221
  1046.6000      7.9212      2.5807      0.0820      4.2029     23.2593    108.1652
  1046.7000      7.9212      2.6042      0.0663      2.7770     23.2390    108.6499
  1046.8000      7.9212      2.6136      0.0814      2.2082     23.2773    111.4911
  1046.9000      7.9212      2.6192      0.0387      1.8659     23.5564    115.8575
  1047.0000      7.9231      2.6331      0.0932      1.0234     23.7271    121.8301
  1047.1000      7.9231      2.6476      0.0855      0.1466     23.7788    128.1150
  1047.2000      7.9231      2.6557      0.0577     -0.3480     24.0921    127.5129
  1047.3000      7.9269      2.6592      0.0745     -0.5563     24.2965    115.9873
  1047.4000      7.9269      2.6557      0.0627     -0.3426     23.8894    102.7595
  1047.5000      7.9332      2.6437      0.0466      0.3799     23.3202     98.4051
  1047.6000      7.9332      2.6337      0.0322      0.9879     23.1036    101.8914
  1047.7000      7.9332      2.6293      0.0751      1.2517     23.0299    108.7380
  1047.8000      7.9385      2.6179      0.0268      1.9461     22.6694    112.8769
  1047.9000      7.9385      2.5937      0.0443      3.4124     22.2471    108.4645
  1048.0000      7.9429      2.5717     -0.0098      4.7472     21.7472    101.3635
  1048.1000      7.9429      2.5764      0.0065      4.4620     20.7855    101.1447
  1048.2000      7.9429      2.6042      0.0557      2.7751     20.1121    104.3222
  1048.3000      7.9467      2.6314      0.0325      1.1298     20.0635    102.6866
  1048.4000      7.9467      2.6536      0.0430     -0.2190     20.1907     97.7325
  1048.5000      7.9360      2.6681      0.0981     -1.0996     20.3580     91.7693
  1048.6000      7.9360      2.6645      0.0635     -0.8783     20.1179     86.4049
  1048.7000      7.9360      2.6552     -0.0001     -0.3122     19.2787     87.2596
  1048.8000      7.9096      2.6561      0.0360     -0.3725     18.3970     93.1374
  1048.9000      7.9096      2.6582      0.0089     -0.4997     18.0931     94.9878
  1049.0000      7.8907      2.6565      0.0246     -0.3934     18.6400     92.4763
  1049.1000      7.8907      2.6635      0.0600     -0.8152     19.4269     90.2073
  1049.2000      7.8907      2.6908      0.0513     -2.4733     19.7902     87.0878
  1049.3000      7.8844      2.7343      0.0886     -5.1095     19.9137     84.1245
  1049.4000      7.8844      2.7693      0.1143     -7.2320     19.9561     86.2405
  1049.5000      7.8816      2.7783      0.1155     -7.7782     19.6961     95.3544
  1049.6000      7.8816      2.7653      0.0556     -6.9892     19.4638    104.6179
  1049.7000      7.8816      2.7345      0.0523     -5.1242     20.0697    105.8171
  1049.8000      7.8821      2.6871      0.0250     -2.2467     21.4001    102.1516
  1049.9000      7.8821      2.6421     -0.0481      0.4774     22.6184    100.1772
  1050.0000      7.8868      2.6242     -0.0046      1.5648     23.1289    103.3313
  1050.1000      7.8868      2.6269      0.0248      1.4018     23.0780    110.7020
  1050.2000      7.8868      2.6219      0.0439      1.7017     23.2359    115.5373
  1050.3000      7.8940      2.5978      0.0165      3.1658     23.8579    115.3086
  1050.4000      7.8940      2.5705      0.0032      4.8187     24.4263    112.6708
  1050.5000      7.9023      2.5570      0.0022      5.6335     24.7803    110.5741
  1050.6000      7.9023      2.5547      0.0296      5.7761     25.3285    113.6329
  1050.7000      7.9023      2.5499      0.0199      6.0648     25.6802    119.8994
  1050.8000      7.9103      2.5428     -0.0015      6.4960     25.2388    122.9276
  1050.9000      7.9103      2.5471     -0.0066      6.2348     24.7272    122.7796
  1051.0000      7.9127      2.5626      0.0516      5.2988     25.0987    121.8645
  1051.1000      7.9127      2.5727      0.0140      4.6824     25.9431    116.9715
  1051.2000      7.9127      2.5670      0.0799      5.0273     26.0654    106.2353
  1051.3000      7.9126      2.5440      0.0492      6.4269     25.3136     96.6573
  1051.4000      7.9126      2.5107      0.0426      8.4424     24.2778     93.8539
  1051.5000      7.9153      2.4829      0.0081     10.1263     23.2759     94.0259
  1051.6000      7.9153      2.4733     -0.0136     10.7117     23.1114     91.4686
  1051.7000      7.9153      2.4757      0.0222     10.5631     24.6246     87.2887
  1051.8000      7.9197      2.4705      0.0264     10.8797     26.8165     85.2711
  1051.9000      7.9197      2.4410      0.0348     12.6660     27.7879     86.0479
  1052.0000      7.9238      2.3799      0.0181     16.3689     27.5539     93.3844
  1052.1000      7.9238      2.2958     -0.0200     21.4678     27.1396    107.6109
  1052.2000      7.9238      2.2112     -0.0419     26.5944     27.2524    120.4257
  1052.3000      7.9264      2.1473     -0.0558     30.4670     27.9336    124.9709
  1052.4000      7.9264      2.1084     -0.0350     32.8222     28.4602    120.4498
  1052.5000      7.9284      2.0886     -0.0524     34.0240     29.0881    114.6239
  1052.6000      7.9284      2.0907     -0.0305     33.8979     30.4965    115.9143
  1052.7000      7.9284      2.1170      0.0109     32.3037     32.1189    120.2235
  1052.8000      7.9334      2.1537      0.0673     30.0806     32.7850    117.9838
  1052.9000      7.9334      2.1885      0.0985     27.9695     32.3511    108.2996
  1053.0000      7.9391      2.2298      0.1119     25.4684     31.7147    100.7212
  1053.1000      7.9391      2.2844      0.2046     22.1580     31.3136    102.0014
  1053.2000      7.9391      2.3327      0.2220     19.2316     30.8595    107.2891
  1053.3000      7.9421      2.3467      0.1528     18.3826     30.4269    110.2327
  1053.4000      7.9421      2.3209      0.0927     19.9446     30.2024    111.4085
  1053.5000      7.9422      2.2731      0.0156     22.8433     29.7821    114.4184
  1053.6000      7.9422      2.2219      0.0326     25.9474     29.1585    120.3064
  1053.7000      7.9422      2.1712      0.0125     29.0168     29.1037    125.0794
  1053.8000      7.9412      2.1191      0.0247     32.1740     29.6076    126.2086
  1053.9000      7.9412      2.0741     -0.0097     34.9001     29.8347    129.1873
  1054.0000      7.9397      2.0507     -0.0055     36.3183     29.8428    135.7948
  1054.1000      7.9397      2.0491     -0.0106     36.4183     29.8555    142.0878
  1054.2000      7.9397      2.0572      0.0106     35.9256     29.4590    143.8191
  1054.3000      7.9345      2.0673      0.0194     35.3152     28.5461    141.3266
  1054.4000      7.9345      2.0808      0.0506     34.4968     27.8564    136.4848
  1054.5000      7.9244      2.0995      0.0934     33.3612     27.7763    126.9331
  1054.6000      7.9244      2.1264      0.1108     31.7335     27.5294    116.9896
  1054.7000      7.9244      2.1730      0.1067     28.9067     26.9567    114.0547
  1054.8000      7.9097      2.2456      0.1349     24.5066     26.2952    115.7184
  1054.9000      7.9097      2.3318      0.1541     19.2854     25.0756    113.4780
