~Version Information
VERS.                      2.0: CWLS Log ASCII Standard - VERSION 2.0
WRAP.                       NO: One line per depth step
~Well Information Block
STRT.FT              1882.7500: 
STOP.FT              2400.5000: 
STEP.FT                 0.2500: 
NULL.                -999.2500: 
COMP.          Pioneer Natural Resources: COMPANY
WELL.          Flying Horse 12-11: WELL
FLD.           Purgatoire River: FIELD
LOC.           2,428' FNL & 308' FWL------: LOCATION
PROV.                 Colorado: PROVINCE
CNTY.               Las Animas: COUNTRY
SRVC.                         : SERVICE COMPANY
DATE.          Fri Jun 10 06:52:30 2005: LOG DATE
UWI.                          : UNIQUE WELL ID
~Curve Information Block
DEPT.FT            0 000 00 00: Depth
CCL.                          : Casing Collar Locator
TT3.usec                      : CBL 3' Travel Time
AMP3.mV                       : CBL 3' Amplitude
AMP5.mV                       : CBL 5' Amplitude
GR.GAPI                       : Gamma Ray
~Parameter Information Block
~A  Depth       CCL         TT3         AMP3        AMP5         GR     
# ...
  2050.7500      0.0000    259.2793     57.2403     70.8077    130.8202
  2051.0000      0.0000    259.3777     56.0260     69.9372    129.3407
  2051.2500      0.0000    259.4878     54.8467     68.1092    125.9912
  2051.5000      0.0000    259.6034     53.7410     65.8460    121.6094
  2051.7500      0.0000    259.7173     52.7579     63.9310    118.2743
  2052.0000      0.0000    259.8179     51.9476     62.8865    118.0485
  2052.2500      0.0000    259.8920     51.3322     60.9714    121.3169
  2052.5000      0.0000    259.9327     50.8951     58.6212    126.4476
  2052.7500      0.0000    259.9467     50.5987     56.5321    131.2515
  2053.0000      0.0000    259.9509     50.4040     53.4854    134.5266
  2053.2500      0.0000    259.9624     50.2733     51.3963    136.3096
  2053.5000      0.0000    259.9870     50.1591     49.1331    137.4198
  2053.7500      0.0000    260.0185     50.0020     46.7828    138.9871
  2054.0000      0.0000    260.0477     49.7553     46.4347    141.6151
  2054.2500      0.0000    260.0712     49.4232     46.2606    144.6826
  2054.5000      0.0000    260.0904     49.0710     45.2160    146.9953
  2054.7500      0.0000    260.1056     48.7868     45.4771    148.0445
  2055.0000      0.0000    260.1171     48.6249     46.3476    148.1072
  2055.2500      0.0000    260.1249     48.5893     47.3922    147.5929
  2055.5000      0.0000    260.1252     48.6724     49.5683    146.8751
  2055.7500      0.0000    260.1079     48.8986     50.2647    146.3730
  2056.0000      0.0000    260.0644     49.3205     52.8761    146.4572
  2056.2500      0.0000    259.9934     49.9720     54.0947    147.5211
  2056.5000      0.0000    259.9015     50.8206     55.0523    149.8987
  2056.7500      0.0000    259.7996     51.7612     55.1393    153.1074
  2057.0000      0.0000    259.7007     52.6655     55.7486    155.4810
  2057.2500      0.0000    259.6148     53.4568     56.7061    155.2030
  2057.5000      0.0000    259.5435     54.1455     57.9248    151.6683
  2057.7500      0.0000    259.4820     54.7883     58.6212    145.8389
  2058.0000      0.0000    259.4259     55.4157     60.2751    139.7323
  2058.2500      0.0000    259.3761     56.0015     61.6678    135.6314
  2058.5000      0.0000    259.3375     56.4867     61.4067    135.0701
  2058.7500      0.0000    259.3151     56.8102     62.8865    137.7815
  2059.0000      0.0000    259.3126     56.9161     62.3642    141.4871
  2059.2500      0.0000    259.3301     56.7606     62.2771    143.3696
  2059.5000      0.0000    259.3658     56.3313     60.6232    142.3758
  2059.7500      0.0000    259.4211     55.6641     60.3621    140.0315
  2060.0000      0.0000    259.4998     54.8407     59.7528    138.7669
  2060.2500      0.0000    259.6011     53.9628     57.7507    139.6902
  2060.5000      0.0000    259.7165     53.1100     55.3134    142.1242
  2060.7500      0.0000    259.8440     52.2972     53.1372    144.6723
  2061.0000      0.0000    260.0349     51.4659     49.0461    146.2520
  2061.2500      0.0000    260.4836     50.5262     45.9994    146.4655
  2061.5000      0.0000    261.6530     49.4187     42.2564    145.4739
  2061.7500      0.0000    264.2951     48.1497     40.4284    143.5168
  2062.0000      0.0000    269.1038     46.7822     38.0782    140.4279
  2062.2500      0.0000    276.0095     45.4062     35.3797    135.8406
  2062.5000      0.0000    283.7788     44.1071     33.2036    129.9644
  2062.7500      0.0000    290.6044     42.9414     31.2015    123.8924
  2063.0000      0.0000    295.2755     41.9195     29.3735    119.1631
  2063.2500      0.0000    297.7537     41.0052     26.8492    117.2781
  2063.5000      0.0000    298.7562     40.1351     25.0212    119.3741
  2063.7500      0.0000    299.0431     39.2502     23.6285    125.8089
  2064.0000      0.0000    299.0731     38.3193     22.5839    135.7556
  2064.2500      0.0000    299.0362     37.3381     20.8430    147.0187
  2064.5000      0.0000    298.9921     36.3065     18.7539    156.5589
  2064.7500      0.0000    298.9612     35.2136     17.8834    162.0947
  2065.0000      0.0000    298.9588     34.0469     16.3166    163.5842
  2065.2500      0.0000    298.9941     32.8137     15.2720    162.7547
  2065.5000      0.0000    299.0682     31.5470     14.7497    161.2007
  2065.7500      0.0000    299.1785     30.2860     13.7922    159.3393
  2066.0000      0.0000    299.3289     29.0508     13.0958    157.0780
  2066.2500      0.0000    299.5351     27.8363     12.3995    154.8646
  2066.5000      0.0000    299.8216     26.6315     11.6160    153.6968
  2066.7500      0.0000    300.2465     25.4435     11.0067    154.1976
  2067.0000      0.0000    300.9919     24.3029     10.4844    156.0637
  2067.2500      0.0000    302.5168     23.2490      9.9622    158.4272
  2067.5000      0.0000    305.5939     22.3090      9.0917    160.1927
  2067.7500      0.0000    310.9338     21.4893      8.4824    159.8436
  2068.0000      0.0000    318.4268     20.7845      8.4824    155.7690
  2068.2500      0.0000    326.7616     20.1906      7.4378    147.5849
  2068.5000      0.0000    334.1557     19.7027      7.3508    136.8893
  2068.7500      0.0000    339.9258     19.3030      6.8285    126.3034
  2069.0000      0.0000    345.8619     18.9563      6.7414    117.8412
  2069.2500      0.0000    357.0118     18.6208      6.0451    112.2000
  2069.5000      0.0000    381.2801     18.2639      5.7839    109.2233
  2069.7500      0.0000    425.9156     17.8689      5.4357    108.6643
  2070.0000      0.0000    490.8521     17.4336      5.2616    110.4953
  2070.2500      0.0000    564.9004     16.9715      5.2616    114.6114
  2070.5000      0.0000    631.2298     16.5106      5.0005    120.2765
  2070.7500      0.0000    678.2443     16.0832      4.3041    125.8576
  2071.0000      0.0000    704.9008     15.7081      4.2171    129.4337
  2071.2500      0.0000    717.0623     15.3811      4.5653    130.1016
  2071.5000      0.0000    721.3659     15.0832      4.6523    128.6707
  2071.7500      0.0000    722.1662     14.7953      4.2171    126.7536
  2072.0000      0.0000    721.5420     14.5074      3.6948    125.1844
  2072.2500      0.0000    720.4505     14.2197      3.6948    123.6382
  2072.5000      0.0000    719.2717     13.9413      3.5207    121.8361
  2072.7500      0.0000    716.9230     13.6857      3.4337    120.7941
  2073.0000      0.0000    709.6710     13.4645      3.2596    122.3610
  2073.2500      0.0000    692.1329     13.2822      2.9984    127.2540
  2073.5000      0.0000    662.0585     13.1325      3.0855    133.7575
  2073.7500      0.0000    626.7332     12.9976      2.9984    138.7250
  2074.0000      0.0000    603.2479     12.8614      3.0855    140.0334
  2074.2500      0.0000    607.0096     12.7239      3.0855    137.9991
  2074.5000      0.0000    637.6449     12.5998      2.6503    134.5356
  2074.7500      0.0000    678.9888     12.4969      2.8243    131.5575
  2075.0000      0.0000    713.4589     12.4046      2.9114    130.5036
  2075.2500      0.0000    733.7833     12.3074      2.9114    132.3463
  2075.5000      0.0000    742.1179     12.2063      2.9114    136.8375
  2075.7500      0.0000    743.0231     12.1204      2.5632    142.1428
  2076.0000      0.0000    739.4031     12.0673      2.6503    146.2740
  2076.2500      0.0000    732.8824     12.0495      2.7373    148.6803
  2076.5000      0.0000    725.3330     12.0620      2.7373    149.9135
  2076.7500      0.0000    719.0930     12.1039      2.7373    150.4569
  2077.0000      0.0000    715.8774     12.1727      2.6503    150.5175
  2077.2500      0.0000    715.7794     12.2503      2.6503    150.1716
  2077.5000      0.0000    717.3833     12.3038      2.6503    149.0305
  2077.7500      0.0000    718.7969     12.3019      2.4762    146.3128
  2078.0000      0.0000    718.7339     12.2306      2.5632    141.7570
  2078.2500      0.0000    716.4078     12.0955      2.3891    136.2734
  2078.5000      0.0000    710.7227     11.9170      2.3891    131.4776
