~Version Information
VERS.                      2.0: CWLS Log ASCII Standard - VERSION 2.0
WRAP.                       NO: One line per depth step
~Well Information Block
STRT.FT                -7.7500: 
STOP.FT              1383.2500: 
STEP.FT                 0.2500: 
NULL.                -999.2500: 
COMP.          Petrogulf Corporation: COMPANY
WELL.          Great Plains 22-22R: WELL
FLD.           Purgatoire River: FIELD
LOC.           2042' FNL & 1657' FWL SENW 22 33S 67W ----: LOCATION
PROV.                 Colorado: PROVINCE
CNTY.               Las Animas: COUNTRY
SRVC.                         : SERVICE COMPANY
DATE.          Thu Sep 22 14:55:58 2005: LOG DATE
UWI.             07108028     : UNIQUE WELL ID
~Curve Information Block
DEPT.FT            0 000 00 00: Depth
CCL.                          : Casing Collar Locator
TT3.usec                      : CBL 3' Travel Time
AMP3.mV                       : CBL 3' Amplitude
GR.GAPI                       : Gamma Ray
~Parameter Information Block
~A  Depth       CCL         TT3         AMP3         GR     
# ...
   997.2500      0.0000    302.5031     24.6514     85.9175
   997.5000      0.0000    303.1022     24.0372     89.1389
   997.7500      0.0000    304.8448     23.2345     92.5802
   998.0000      0.0000    308.9785     22.1923     95.7196
   998.2500      0.0000    316.9247     20.9247     99.4317
   998.5000      0.0000    329.4636     19.5187    104.5939
   998.7500      0.0000    346.4309     18.1017    110.6565
   999.0000      0.0000    367.7318     16.7962    115.9134
   999.2500      0.0000    394.5490     15.6877    118.9980
   999.5000      0.0000    428.4339     14.8080    119.9149
   999.7500      0.0000    468.7299     14.1274    119.7346
  1000.0000      0.0000    511.7602     13.5691    119.4802
  1000.2500      0.0000    552.9938     13.0562    119.3984
  1000.5000      0.0000    588.9699     12.5595    119.1982
  1000.7500      0.0000    616.1948     12.0995    118.7419
  1001.0000      0.0000    630.2986     11.7105    118.2186
  1001.2500      0.0000    629.9114     11.4104    117.4616
  1001.5000      0.0000    621.5794     11.1970    115.2833
  1001.7500      0.0000    617.2953     11.0535    110.1441
  1002.0000      0.0000    624.9262     10.9535    102.0369
  1002.2500      0.0000    642.3354     10.8639     93.3361
  1002.5000      0.0000    661.0692     10.7534     87.0289
  1002.7500      0.0000    673.0445     10.6071     84.0493
  1003.0000      0.0000    673.5159     10.4449     82.6997
  1003.2500      0.0000    661.8267     10.3208     80.4800
  1003.5000      0.0000    641.7350     10.2902     76.0946
  1003.7500      0.0000    619.7938     10.3681     70.0279
  1004.0000      0.0000    602.2614     10.5263     64.0055
  1004.2500      0.0000    592.8005     10.7420     60.1749
  1004.5000      0.0000    591.1260     11.0464     60.2068
  1004.7500      0.0000    593.7815     11.5085     64.4712
  1005.0000      0.0000    598.1089     12.1708     71.8495
  1005.2500      0.0000    605.1703     13.0121     80.3528
  1005.5000      0.0000    617.6523     13.9700     88.0231
  1005.7500      0.0000    635.1770     14.9768     93.8502
  1006.0000      0.0000    652.3807     15.9649     98.5490
  1006.2500      0.0000    661.3449     16.8564    104.3453
  1006.5000      0.0000    655.5825     17.5775    113.1992
  1006.7500      0.0000    632.4339     18.1049    124.8339
  1007.0000      0.0000    593.6483     18.4939    136.7141
  1007.2500      0.0000    545.0845     18.8329    146.1784
  1007.5000      0.0000    496.8450     19.1515    152.4887
  1007.7500      0.0000    463.7408     19.3773    156.6775
  1008.0000      0.0000    461.4586     19.3898    159.7744
  1008.2500      0.0000    495.9232     19.1122    161.7209
  1008.5000      0.0000    555.4920     18.5609    161.8094
  1008.7500      0.0000    617.5821     17.8322    159.5495
  1009.0000      0.0000    664.0486     17.0584    155.2524
  1009.2500      0.0000    689.5118     16.3643    150.1639
  1009.5000      0.0000    698.1287     15.8324    145.7238
  1009.7500      0.0000    696.9962     15.4763    142.4819
  1010.0000      0.0000    692.6471     15.2348    139.8331
  1010.2500      0.0000    689.7082     15.0056    136.6043
  1010.5000      0.0000    689.9164     14.7079    131.8536
  1010.7500      0.0000    692.1063     14.3297    125.9201
  1011.0000      0.0000    694.1420     13.9153    121.0732
  1011.2500      0.0000    695.1636     13.5081    120.2763
  1011.5000      0.0000    695.9310     13.1055    124.5357
  1011.7500      0.0000    697.2288     12.6684    131.7583
  1012.0000      0.0000    698.3895     12.1702    138.4088
  1012.2500      0.0000    697.6515     11.6320    142.0723
  1012.5000      0.0000    694.1287     11.1124    142.5729
  1012.7500      0.0000    689.2048     10.6647    141.1044
  1013.0000      0.0000    685.4886     10.3041    138.7242
  1013.2500      0.0000    684.4247     10.0128    135.9737
  1013.5000      0.0000    685.2980      9.7675    133.7004
  1013.7500      0.0000    686.2722      9.5580    133.3136
  1014.0000      0.0000    685.8596      9.3765    135.5206
  1014.2500      0.0000    683.6902      9.1880    139.2294
  1014.5000      0.0000    680.4506      8.9164    142.5232
  1014.7500      0.0000    677.1060      8.4768    144.6272
  1015.0000      0.0000    674.1381      7.8315    146.2789
  1015.2500      0.0000    671.5787      7.0154    148.2065
  1015.5000      0.0000    669.6363      6.1087    149.7995
  1015.7500      0.0000    669.0795      5.1937    149.4306
  1016.0000      0.0000    670.9533      4.3422    145.7591
  1016.2500      0.0000    675.9785      3.6250    138.5741
  1016.5000      0.0000    684.2383      3.1006    128.5738
  1016.7500      0.0000    695.1015      2.7811    116.8460
  1017.0000      0.0000    706.5262      2.6216    104.9092
  1017.2500      0.0000    714.2678      2.5527     94.9849
  1017.5000      0.0000    713.4609      2.5229     89.6347
  1017.7500      0.0000    702.5864      2.5188     90.6901
  1018.0000      0.0000    685.1337      2.5619     98.1761
  1018.2500      0.0000    666.2840      2.6874    110.1548
  1018.5000      0.0000    649.0289      2.9140    123.7990
  1018.7500      0.0000    634.3553      3.2342    136.6336
  1019.0000      0.0000    622.9543      3.6480    146.8316
  1019.2500      0.0000    613.4361      4.2067    152.9077
  1019.5000      0.0000    598.6343      4.9927    153.9239
  1019.7500      0.0000    567.4943      6.0323    150.1824
  1020.0000      0.0000    514.9437      7.2336    143.3331
  1020.2500     -2.0000    449.8402      8.4206    135.6308
  1020.5000      2.0000    390.1024      9.4242    129.1956
  1020.7500      0.0000    349.4331     10.1692    125.6872
  1021.0000      0.0000    329.8582     10.7593    125.8435
  1021.2500      0.0000    324.9151     11.5364    128.8305
  1021.5000      0.0000    326.3206     12.9978    132.2616
  1021.7500      0.0000    327.7527     15.5057    133.4281
  1022.0000      0.0000    325.8581     18.9597    131.1376
  1022.2500      0.0000    320.3896     22.7356    126.8380
  1022.5000      0.0000    313.4407     26.0241    124.0264
  1022.7500      0.0000    307.5030     28.3494    126.0907
  1023.0000      0.0000    303.7326     29.8273    133.9600
  1023.2500      0.0000    301.8033     30.9400    145.2131
  1023.5000      0.0000    300.8740     32.0920    155.4263
  1023.7500      0.0000    300.3361     33.3804    161.1044
  1024.0000      0.0000    299.8944     34.6889    162.0441
  1024.2500      0.0000    299.3066     35.9081    160.8927
  1024.5000      0.0000    298.1274     37.0864    160.1849
  1024.7500      0.0000    295.6319     38.4287    160.1981
  1025.0000      0.0000    291.1498     40.1311    159.9968
  1025.2500      0.0000    284.7297     42.1649    159.8610
  1025.5000      0.0000    277.5132     44.2180    161.6857
  1025.7500      0.0000    271.1822     45.8862    166.9607
  1026.0000      0.0000    266.8672     46.9455    174.7574
  1026.2500      0.0000    264.6375     47.4418    181.6654
  1026.5000      0.0000    263.9489     47.5593    183.6844
  1026.7500      0.0000    264.3860     47.4526    178.5757
  1027.0000      0.0000    265.9309     47.1968    167.0461
  1027.2500      0.0000    268.6096     46.8489    152.2410
  1027.5000      0.0000    271.9232     46.5175    138.0377
  1027.7500      0.0000    274.7058     46.3647    127.1608
  1028.0000      0.0000    275.6931     46.5350    120.2987
  1028.2500      0.0000    274.3593     47.0553    116.4984
  1028.5000      0.0000    271.2945     47.7868    113.9512
  1028.7500      0.0000    267.8047     48.4938    110.8449
  1029.0000      0.0000    265.0520     48.9846    106.5321
  1029.2500      0.0000    263.4589     49.1983    102.1674
  1029.5000      0.0000    262.7901     49.1937     99.6714
  1029.7500      0.0000    262.5955     49.1167     99.9243
  1030.0000      0.0000    262.5220     49.1674    102.1527
  1030.2500      0.0000    262.3917     49.5036    104.8376
  1030.5000      0.0000    262.1768     50.1098    106.9036
