~Version Information
VERS.                      2.0: CWLS Log ASCII Standard - VERSION 2.0
WRAP.                       NO: One line per depth step
~Well Information Block
STRT.FT               -11.5000: 
STOP.FT              2395.2500: 
STEP.FT                 0.2500: 
NULL.                -999.2500: 
COMP.          Petrogulf Corporation: COMPANY
WELL.            Montoya 7-21V: WELL
FLD.           Purgatorie River: FIELD
LOC.           738' FSL & 2070' FWL--: LOCATION
CNTY.               Las Animas: COUNTY
SRVC.                         : SERVICE COMPANY
DATE.          Mon Aug 30 15:10:00 2004: LOG DATE
UWI.                          : UNIQUE WELL ID
STAT.                       CO: STATE
~Curve Information Block
DEPT.FT            0 000 00 00: Depth
CCL.                          : Casing Collar Locator
TT3.usec                      : CBL 3' Travel Time
AMP3.mV                       : CBL 3' Amplitude
GR.GAPI                       : Gamma Ray
~Parameter Information Block
~A  Depth       CCL         TT3         AMP3         GR     
# ...
   792.5000      0.0000    354.8961     10.6041     53.6622
   792.7500      0.0000    347.6767     11.0663     57.8141
   793.0000      0.0000    338.8237     11.6584     66.5018
   793.2500      0.0000    329.5261     12.3476     76.8365
   793.5000      0.0000    321.4097     13.0437     85.2988
   793.7500      0.0000    315.6362     13.6312     89.7303
   794.0000      0.0000    312.2992     14.0169     90.0146
   794.2500      0.0000    310.7358     14.1692     87.4397
   794.5000      0.0000    310.1870     14.1252     83.8927
   794.7500      0.0000    310.1236     13.9542     81.1336
   795.0000      0.0000    310.2377     13.7237     80.1574
   795.2500      0.0000    310.3568     13.5061     81.0165
   795.5000      0.0000    310.4354     13.3774     83.0701
   795.7500      0.0000    310.6332     13.3634     85.2869
   796.0000      0.0000    311.4078     13.3848     86.6121
   796.2500      0.0000    313.7236     13.2868     86.4942
   796.5000      0.0000    319.2886     12.9595     85.2066
   796.7500      0.0000    331.0781     12.4376     83.7137
   797.0000      0.0000    353.5090     11.8622     83.1707
   797.2500      0.0000    390.7597     11.3501     84.1368
   797.5000      0.0000    443.3030     10.9408     85.8741
   797.7500      0.0000    505.7605     10.6591     86.6324
   798.0000      0.0000    567.6418     10.5449     85.0209
   798.2500      0.0000    614.9009     10.5900     81.2894
   798.5000      0.0000    632.9404     10.7109     77.3975
   798.7500     -2.0000    613.5242     10.8180     75.8348
   799.0000      0.0000    561.6979     10.8748     78.0598
   799.2500      0.0000    495.4672     10.8914     83.6972
   799.5000      0.0000    437.6299     10.9044     91.0072
   799.7500      0.0000    404.6907     10.9700     97.9150
   800.0000      0.0000    398.4601     11.1357    102.7610
   800.2500      0.0000    405.4141     11.4022    104.8453
   800.5000      0.0000    406.3567     11.7365    104.7888
   800.7500      0.0000    391.0190     12.1088    103.9657
   801.0000      0.0000    364.3499     12.4838    103.1200
   801.2500      0.0000    338.6646     12.8024    101.9096
   801.5000      0.0000    321.9047     13.0185    100.0748
   801.7500      0.0000    314.2314     13.1342     98.2725
   802.0000      0.0000    312.5303     13.1740     97.1371
   802.2500      0.0000    315.5690     13.1400     96.1534
   802.5000      0.0000    326.2966     13.0125     94.1318
   802.7500      0.0000    350.7557     12.7813     90.6887
   803.0000      0.0000    392.5089     12.4581     87.0126
   803.2500      0.0000    444.9639     12.0728     85.1601
   803.5000      0.0000    491.9650     11.6717     86.4726
   803.7500      0.0000    522.2686     11.3096     90.4233
   804.0000      0.0000    543.0964     11.0260     94.8835
   804.2500      0.0000    572.5517     10.8306     97.5939
   804.5000      0.0000    618.3845     10.7013     97.5205
   804.7500      0.0000    670.5356     10.5886     94.9866
   805.0000      0.0000    713.8800     10.4333     91.0273
   805.2500      0.0000    741.3305     10.1922     86.9039
   805.5000      0.0000    754.3175      9.8566     83.7261
   805.7500      0.0000    757.2178      9.4748     81.9403
   806.0000      0.0000    754.4174      9.1584     81.3561
   806.2500      0.0000    749.8708      9.0237     81.8611
   806.5000      0.0000    746.5195      9.0999     83.6617
   806.7500      0.0000    745.6249      9.3026     86.3738
   807.0000      0.0000    746.8229      9.5089     88.1671
   807.2500      0.0000    748.7095      9.6510     86.7185
   807.5000      0.0000    749.7319      9.7366     81.4316
   807.7500      0.0000    749.2267      9.8033     74.2121
   808.0000      0.0000    747.8831      9.8742     67.6650
   808.2500      0.0000    747.1183      9.9498     63.0483
   808.5000      0.0000    748.0681     10.0177     60.3486
   808.7500      0.0000    750.9245     10.0646     59.7036
   809.0000      0.0000    754.5756     10.0940     61.9837
   809.2500      0.0000    756.8159     10.1411     68.0126
   809.5000      0.0000    755.6699     10.2564     77.5541
   809.7500      0.0000    750.6259     10.4592     88.9674
   810.0000      0.0000    741.6407     10.7129     99.7256
   810.2500      0.0000    725.9700     10.9630    107.5501
   810.5000      0.0000    696.7560     11.2001    111.5208
   810.7500      0.0000    647.8521     11.4622    112.3333
   811.0000      0.0000    584.0294     11.7593    111.5789
   811.2500      0.0000    526.4623     12.0111    110.9176
   811.5000      0.0000    502.2195     12.0934    111.7557
   811.7500      0.0000    522.3117     11.9519    114.8567
   812.0000      0.0000    569.3315     11.6614    119.5958
   812.2500      0.0000    608.9636     11.3733    123.9691
   812.5000      0.0000    615.8574     11.2105    125.9667
   812.7500      0.0000    591.2491     11.1990    125.0817
   813.0000      0.0000    557.3098     11.2858    122.4558
   813.2500      0.0000    533.0427     11.4187    119.7663
   813.5000      0.0000    515.7211     11.5991    118.1138
   813.7500      0.0000    488.9851     11.8494    117.5972
   814.0000      0.0000    446.9910     12.1404    117.3984
   814.2500      0.0000    403.8737     12.3824    116.3719
   814.5000      0.0000    379.2864     12.4992    114.1065
   814.7500      0.0000    379.5000     12.4943    111.4150
   815.0000      0.0000    392.5821     12.4356    109.4204
   815.2500      0.0000    399.1642     12.3871    108.3814
   815.5000      0.0000    388.9137     12.3666    107.8244
   815.7500      0.0000    368.5951     12.3575    107.3631
   816.0000      0.0000    355.8106     12.3293    106.7429
   816.2500      0.0000    367.3227     12.2363    105.4441
   816.5000      0.0000    411.1744     12.0329    102.9867
   816.7500      0.0000    481.7392     11.7263     99.7415
   817.0000      0.0000    557.4974     11.4035     97.0098
   817.2500      0.0000    608.3800     11.1841     96.0942
   817.5000      0.0000    613.5474     11.1481     97.3574
   817.7500      0.0000    577.9341     11.2951    100.1004
   818.0000      0.0000    532.5778     11.5382    103.2561
   818.2500      0.0000    514.3970     11.7407    106.1111
   818.5000      0.0000    538.4749     11.8016    108.2025
   818.7500      0.0000    587.2989     11.7189    108.6441
   819.0000      0.0000    628.4122     11.5650    106.2739
   819.2500      0.0000    641.7028     11.4145    100.9951
   819.5000      0.0000    627.1344     11.3144     94.5626
   819.7500      0.0000    590.9412     11.2964     89.2706
   820.0000      0.0000    536.0872     11.3826     85.8751
   820.2500      0.0000    469.0621     11.5727     83.2390
   820.5000      0.0000    405.5082     11.8407     79.7976
   820.7500      0.0000    361.9403     12.1380     74.9554
   821.0000      0.0000    345.0324     12.4015     69.5346
   821.2500      0.0000    350.5033     12.5801     65.4887
   821.5000      0.0000    368.6100     12.6601     64.6917
   821.7500      0.0000    389.8455     12.6579     67.2947
   822.0000      0.0000    407.7836     12.5995     71.5333
   822.2500      0.0000    418.0356     12.5080     75.5830
   822.5000      0.0000    417.5004     12.3938     79.4178
   822.7500      0.0000    409.7084     12.2498     84.4552
   823.0000      0.0000    409.6041     12.0585     91.3706
   823.2500      0.0000    435.8012     11.7998     98.6895
   823.5000      0.0000    494.3812     11.4622    103.8981
   823.7500      0.0000    571.6760     11.0729    105.6312
   824.0000      0.0000    644.2817     10.7126    104.3408
   824.2500      0.0000    695.6993     10.4676    101.2279
   824.5000      0.0000    723.7531     10.3666     97.2767
   824.7500      0.0000    735.6162     10.3738     93.3630
   825.0000      0.0000    739.4841     10.4199     90.5969
   825.2500      0.0000    740.5330     10.4193     89.8483
   825.5000      0.0000    741.2679     10.2888     90.9662
   825.7500      0.0000    742.9059      9.9883     93.1948
