~Version Information
 VERS.                                  2.0 : CWLS LAS VERSION
 WRAP.                                   NO : WRAPING MODE
 SWARE .                 MController 2.5.0J : SOFTWARE VERSION
~Well Information
 WELL.                      Victory 12-14Tr : WELL
 COMP.    Pioneer Natural Resources USA Inc : COMPANY
 FLD.                      Purgatoire River : FIELD
 LOC.                SW/NW Sec 14 T32S R66W : LOCATION
 DATE.                           7/16-17/05 : DATE(S) LOGGED
 SRVC.       BLANCO Geological Services LLC : SERVICE COMPANY
 STAT.                                   CO : STATE
 CNTY.                           Las Animas : COUNTY
 CTRY.                                  USA : COUNTRY
 API.                       05-071-08433-00 : API NUMBER
 STRT.FT                             797.00 : START DEPTH
 STOP.FT                            1900.00 : STOP DEPTH
 STEP.FT                               1.00 : DEPTH INCREMENT
 NULL.                                -9999 : NULL VALUE
~Curve information
 DEPTH.FT                                   :
 ROP.MIN/FT                                 :
 GAS.UNITS                                  :
~ASCII Log data
# ...
       997.0         0.13         42.9 
       998.0         0.10         40.5 
       999.0         0.13         40.5 
      1000.0         0.20         38.3 
      1001.0         0.23         34.4 
      1002.0         0.17         34.1 
      1003.0         0.10         34.1 
      1004.0         0.17         32.5 
      1005.0         0.13         30.9 
      1006.0         0.33         28.5 
      1007.0         0.42         27.7 
      1008.0         0.33         26.4 
      1009.0         0.33         29.2 
      1010.0         0.20         28.5 
      1011.0         0.23         28.5 
      1012.0         0.23         30.6 
      1013.0         0.27         36.8 
      1014.0         0.23         41.0 
      1015.0         0.07         41.0 
      1016.0         1.52        136.0 
      1017.0         0.30        121.7 
      1018.0         0.20        102.4 
      1019.0         0.20         84.9 
      1020.0         0.10         82.5 
      1021.0         0.13         69.1 
      1022.0         0.20         66.7 
      1023.0         0.10         55.5 
      1024.0         0.23         54.3 
      1025.0         0.20         41.2 
      1026.0         0.17         40.7 
      1027.0         0.32         35.6 
      1028.0         0.27         32.4 
      1029.0         0.27         31.5 
      1030.0         0.33         30.0 
      1031.0         0.23         27.8 
      1032.0         0.23         28.4 
      1033.0         0.20         28.3 
      1034.0         0.23         27.1 
      1035.0         0.25         27.1 
      1036.0         0.27         25.9 
      1037.0         0.20         24.9 
      1038.0         0.20         24.9 
      1039.0         0.20         24.8 
      1040.0         0.20         25.2 
      1041.0         0.20         22.7 
      1042.0         0.17         22.7 
      1043.0         0.13         22.1 
      1044.0         0.17         21.5 
      1045.0         0.17         21.2 
      1046.0         1.52         60.8 
      1047.0         0.47         51.1 
      1048.0         0.23         40.9 
      1049.0         0.13         36.1 
      1050.0         0.17         31.9 
      1051.0         0.37         29.2 
      1052.0         0.43         25.3 
      1053.0         0.47         22.3 
      1054.0         0.23         21.1 
      1055.0         0.23         22.4 
      1056.0         0.17         22.5 
      1057.0         0.13         22.4 
      1058.0         0.12         22.4 
      1059.0         0.20         21.3 
      1060.0         0.20         21.4 
      1061.0         0.23         21.2 
      1062.0         0.17         21.2 
      1063.0         0.17         20.4 
      1064.0         0.20         20.3 
      1065.0         0.23         20.6 
      1066.0         0.17         21.5 
      1067.0         0.17         22.4 
      1068.0         0.27         21.4 
      1069.0         0.27         20.8 
      1070.0         0.27         21.0 
      1071.0         0.27         21.4 
      1072.0         0.17         19.6 
      1073.0         0.10         19.1 
      1074.0         0.13         19.9 
      1075.0         0.08         19.9 
      1076.0         1.47         59.8 
      1077.0         0.70         50.5 
      1078.0         0.23         32.0 
      1079.0         0.30         27.1 
      1080.0         0.20         24.2 
      1081.0         0.23         24.6 
      1082.0         0.28         21.8 
      1083.0         0.17         20.0 
      1084.0         0.13         20.2 
      1085.0         0.23         19.2 
      1086.0         0.27         20.3 
      1087.0         0.30         19.1 
      1088.0         0.17         19.4 
      1089.0         0.20         18.0 
      1090.0         0.23         19.0 
      1091.0         0.20         17.6 
      1092.0         0.23         18.5 
      1093.0         0.30         18.9 
      1094.0         0.17         19.2 
      1095.0         0.13         19.4 
      1096.0         0.17         19.4 
      1097.0         0.17         18.3 
      1098.0         0.17         19.7 
      1099.0         0.15         19.3 
      1100.0         0.10         19.3 
      1101.0         0.13         17.9 
      1102.0         0.13         17.9 
      1103.0         0.17         18.0 
      1104.0         0.13         16.6 
      1105.0         0.10         16.6 
      1106.0         1.83         48.0 
      1107.0         0.37         37.8 
      1108.0         0.38         29.1 
      1109.0         0.33         24.7 
      1110.0         0.17         22.1 
      1111.0         0.17         20.5 
      1112.0         0.23         19.1 
      1113.0         0.27         19.0 
      1114.0         0.30         18.8 
      1115.0         0.23         18.3 
      1116.0         0.20         18.4 
      1117.0         0.20         18.8 
      1118.0         0.13         20.6 
      1119.0         0.17         20.6 
      1120.0         0.20         21.5 
      1121.0         0.23         21.7 
      1122.0         0.23         21.5 
      1123.0         0.25         20.2 
      1124.0         0.20         20.3 
      1125.0         0.17         20.2 
      1126.0         0.20         18.8 
      1127.0         0.23         18.8 
      1128.0         0.17         18.9 
      1129.0         0.23         17.9 
      1130.0         0.17         17.9 
      1131.0         0.17         17.2 
      1132.0         0.23         16.4 
      1133.0         0.20         16.4 
      1134.0         0.13         15.7 
      1135.0         0.53         20.1 
      1136.0         1.38         45.7 
      1137.0         0.40         35.2 
      1138.0         0.30         27.6 
      1139.0         0.33         22.8 
      1140.0         0.23         18.9 
      1141.0         0.27         19.7 
      1142.0         0.20         20.2 
      1143.0         0.10         19.7 
      1144.0         0.13         19.0 
      1145.0         0.17         19.1 
      1146.0         0.20         18.4 
      1147.0         0.22         17.1 
      1148.0         0.23         17.2 
      1149.0         0.23         16.8 
      1150.0         0.23         15.7 
      1151.0         0.17         15.3 
      1152.0         0.17         16.6 
      1153.0         0.10         15.7 
      1154.0         0.20         15.5 
      1155.0         0.17         15.0 
      1156.0         0.17         14.7 
      1157.0         0.13         14.7 
      1158.0         0.13         14.9 
      1159.0         0.13         14.9 
      1160.0         0.17         15.5 
      1161.0         0.20         14.9 
      1162.0         0.37         14.2 
      1163.0         0.13         14.1 
      1164.0         0.10         13.3 
      1165.0         0.52         19.4 
      1166.0         0.97         49.9 
      1167.0         0.17         50.4 
      1168.0         0.47         41.5 
      1169.0         0.27         32.2 
      1170.0         0.23         25.5 
      1171.0         0.30         22.2 
      1172.0         0.33         17.6 
      1173.0         0.27         16.6 
      1174.0         0.28         16.5 
      1175.0         0.27         16.0 
      1176.0         0.27         15.6 
      1177.0         0.23         15.9 
      1178.0         0.27         15.9 
      1179.0         0.27         15.8 
      1180.0         0.23         15.9 
      1181.0         0.27         15.3 
      1182.0         0.23         15.5 
      1183.0         0.23         15.1 
      1184.0         0.20         15.4 
      1185.0         0.20         17.3 
      1186.0         0.10         17.3 
      1187.0         0.13         17.3 
      1188.0         0.10         19.0 
      1189.0         0.10         19.0 
      1190.0         0.12         19.0 
      1191.0         0.17         17.6 
      1192.0         0.13         17.6 
      1193.0         0.20         16.3 
      1194.0         0.20         15.2 
      1195.0         0.17         14.7 
      1196.0         1.37         40.4 
