~Version Information
 VERS.                                  2.0 : CWLS LAS VERSION
 WRAP.                                   NO : WRAPING MODE
 SWARE .                 MController 2.5.0J : SOFTWARE VERSION
~Well Information
 WELL.                       Galloway 32-13 : WELL
 COMP.   Pioneer Natural Resources USA Inc. : COMPANY
 FLD.                         Spanish Peaks : FIELD
 LOC.                SW/NE Sec 13 T32S R66W : LOCATION
 DATE.                             7/6-7/05 : DATE(S) LOGGED
 SRVC.       BLANCO Geological Services LLC : SERVICE COMPANY
 STAT.                                   CO : STATE
 CNTY.                           Las Animas : COUNTY
 CTRY.                                  USA : COUNTRY
 API.                       05-071-08423-00 : API NUMBER
 STRT.FT                             596.00 : START DEPTH
 STOP.FT                            2075.00 : STOP DEPTH
 STEP.FT                               1.00 : DEPTH INCREMENT
 NULL.                                -9999 : NULL VALUE
~Curve information
 DEPTH.FT                                   :
 ROP.MIN/FT                                 :
 GAS.UNITS                                  :
~ASCII Log data
# ...
      1596.0         0.27        105.3 
      1597.0         0.20        111.7 
      1598.0         0.28        128.3 
      1599.0         0.17        139.2 
      1600.0         0.23        133.9 
      1601.0         0.17        154.9 
      1602.0         0.20        186.2 
      1603.0         0.20        147.5 
      1604.0         0.27        113.5 
      1605.0         0.17        114.5 
      1606.0         0.23        124.5 
      1607.0         0.17        132.4 
      1608.0         0.27        137.0 
      1609.0         0.17        136.2 
      1610.0         0.27        125.5 
      1611.0         0.23        115.6 
      1612.0         0.23        109.0 
      1613.0         0.20        108.2 
      1614.0         0.28        111.8 
      1615.0         0.20        115.6 
      1616.0         0.30        119.0 
      1617.0         0.17        117.1 
      1618.0         0.23        111.5 
      1619.0         0.20        105.9 
      1620.0         0.27        102.4 
      1621.0         0.27        103.8 
      1622.0         0.27        105.7 
      1623.0         0.20        106.4 
      1624.0         0.27        106.7 
      1625.0         0.20        108.5 
      1626.0         0.20        110.3 
      1627.0         0.27         99.8 
      1628.0         0.25         94.3 
      1629.0         0.23         96.0 
      1630.0         0.30        102.9 
      1631.0         0.17        106.5 
      1632.0         0.23        114.2 
      1633.0         0.20        129.3 
      1634.0         0.30        139.8 
      1635.0         0.27        125.8 
      1636.0         0.27        110.2 
      1637.0         0.20        104.3 
      1638.0         0.23        101.7 
      1639.0         0.23         97.6 
      1640.0         0.30         88.8 
      1641.0         0.30         84.6 
      1642.0         0.28         89.2 
      1643.0         0.27         95.4 
      1644.0         0.30         98.4 
      1645.0         0.23        102.3 
      1646.0         0.33        109.4 
      1647.0         0.20        111.2 
      1648.0         0.37        109.6 
      1649.0         0.20        109.2 
      1650.0         0.30        113.2 
      1651.0         0.30        106.2 
      1652.0         0.33        110.9 
      1653.0         0.20        112.1 
      1654.0         0.25        108.2 
      1655.0         0.30        107.4 
      1656.0         0.27        106.5 
      1657.0         0.30        105.8 
      1658.0         0.27        113.1 
      1659.0         0.27        119.6 
      1660.0         0.20        119.6 
      1661.0         0.33        109.8 
      1662.0         0.30        107.8 
      1663.0         0.20        109.8 
      1664.0         0.20        106.8 
      1665.0         0.17        104.3 
      1666.0         0.23        104.1 
      1667.0         0.28        105.3 
      1668.0         0.27        111.7 
      1669.0         0.27        112.7 
      1670.0         0.27        108.4 
      1671.0         0.27        108.1 
      1672.0         0.37        112.5 
      1673.0         0.27        122.8 
      1674.0         0.23        129.2 
      1675.0         0.27        130.9 
      1676.0         0.20        131.1 
      1677.0         0.23        134.5 
      1678.0         0.27        128.4 
      1679.0         0.20        126.2 
      1680.0         0.25        121.7 
      1681.0         0.27        109.2 
      1682.0         0.40        113.2 
      1683.0         0.23        120.9 
      1684.0         0.20        124.6 
      1685.0         0.27        130.0 
      1686.0         0.23        138.0 
      1687.0         0.23        148.4 
      1688.0         0.23        160.6 
      1689.0         0.23        130.4 
      1690.0         0.23        105.2 
      1691.0         0.17        104.9 
      1692.0         0.30        119.5 
      1693.0         0.25        124.6 
      1694.0         0.33        131.2 
      1695.0         0.27        135.4 
      1696.0         0.17        138.0 
      1697.0         0.27        142.3 
      1698.0         0.20        147.0 
      1699.0         0.27        141.1 
      1700.0         0.27        128.1 
      1701.0         0.33        130.8 
      1702.0         0.30        135.5 
      1703.0         0.23        139.2 
      1704.0         0.27        131.0 
      1705.0         0.20        119.1 
      1706.0         0.38        132.6 
      1707.0         0.43        143.5 
      1708.0         0.47        112.6 
      1709.0         0.47        120.8 
      1710.0         0.23        123.8 
      1711.0         0.30        125.0 
      1712.0         0.53        115.1 
      1713.0         0.50        126.1 
      1714.0         0.48        128.2 
      1715.0         0.40        119.2 
      1716.0         0.37        120.4 
      1717.0         0.43        138.2 
      1718.0         0.43        160.1 
      1719.0         0.43        242.7 
      1720.0         0.60         92.6 
      1721.0         0.43        154.6 
      1722.0         0.45        202.5 
      1723.0         0.37        208.9 
      1724.0         0.50        194.7 
      1725.0         0.47        188.9 
      1726.0         0.47        162.9 
      1727.0         0.50        167.9 
      1728.0         0.40        178.1 
      1729.0         0.35        178.9 
      1730.0         0.37        174.5 
      1731.0         0.67        141.8 
      1732.0         0.37        152.7 
      1733.0         0.40        149.2 
      1734.0         0.50        148.3 
      1735.0         0.53        135.6 
      1736.0         0.37        135.4 
      1737.0         0.42        134.5 
      1738.0         0.60        141.5 
      1739.0         0.70        126.9 
      1740.0         0.67        128.9 
      1741.0         0.33        137.0 
      1742.0         0.33        146.6 
      1743.0         0.23        143.1 
      1744.0         0.25        132.1 
      1745.0         0.30        131.4 
      1746.0         0.33        134.4 
      1747.0         0.40        132.5 
      1748.0         0.43        110.8 
      1749.0         0.40        125.7 
      1750.0         0.47        168.0 
      1751.0         0.37        189.3 
      1752.0         0.40        208.6 
      1753.0         0.38        204.0 
      1754.0         0.53        184.5 
      1755.0         0.47        183.8 
      1756.0         0.30        171.3 
      1757.0         0.40        163.7 
      1758.0         0.47        188.9 
      1759.0         0.37        195.7 
      1760.0         0.40        137.2 
      1761.0         0.35        158.1 
      1762.0         0.33        185.0 
      1763.0         0.27        198.0 
      1764.0         0.27        196.9 
      1765.0         0.40        164.4 
      1766.0         0.33        146.1 
      1767.0         0.40        171.1 
      1768.0         0.37        197.3 
      1769.0         0.33        198.5 
      1770.0         0.30        174.1 
      1771.0         0.35        154.8 
      1772.0         0.37        226.5 
      1773.0         0.37        157.7 
      1774.0         0.33        140.0 
      1775.0         0.30        179.0 
      1776.0         0.37        195.8 
      1777.0         0.43        195.1 
      1778.0         0.30        187.8 
      1779.0         0.37        176.8 
      1780.0         0.35        172.6 
      1781.0         0.40        187.6 
      1782.0         0.33        192.9 
      1783.0         0.30        138.2 
      1784.0         0.37        157.9 
      1785.0         0.30        195.4 
      1786.0         0.43        207.0 
      1787.0         0.33        197.9 
      1788.0         0.40        174.5 
      1789.0         0.33        151.9 
      1790.0         0.38        153.3 
      1791.0         0.40        168.0 
      1792.0         0.43        169.4 
      1793.0         0.30        148.0 
      1794.0         0.27        126.7 
      1795.0         0.37        129.9 
