~Version Information
VERS.                      2.0: CWLS Log ASCII Standard - VERSION 2.0
WRAP.                       NO: One line per depth step
~Well Information Block
STRT.FT               375.0000: 
STOP.FT              1727.7000: 
STEP.FT                 0.1000: 
NULL.                -999.2500: 
COMP.          Pioneer Natural Resources: COMPANY
WELL.          Warrior 33-1 Tr: WELL
FLD.           Purgatoire River: FIELD
LOC.           2648' FSL & 2341' FEL--: LOCATION
PROV.                 Colorado: PROVINCE
CNTY.               Las Animas: COUNTRY
SRVC.                Patterson: SERVICE COMPANY
DATE.          Sat Jun 18 07:53:12 2005: LOG DATE
UWI.           05 071 08412 00: UNIQUE WELL ID
~Curve Information Block
DEPT.FT            0 000 00 00: Depth
DCAL.in                       : CDL Caliper
RHOB.g/cc                     : CDL Bulk Density
RHOC.g/cc                     : CDL Density Correction
DPOR.pu                       : CDL Density Porosity
NPOR.pu                       : Neutron Porosity
GR.GAPI                       : Gamma Ray
~Parameter Information Block
~A  Depth       DCAL        RHOB        RHOC        DPOR        NPOR         GR     
# ...
  1431.0000      8.0521      2.5427      0.0833      6.5028     18.6826     74.6526
  1431.1000      8.0521      2.5185      0.0495      7.9676     18.7048     74.0845
  1431.2000      8.0521      2.5022      0.0718      8.9585     19.0041     75.8254
  1431.3000      8.0513      2.4988      0.0655      9.1646     19.4609     77.3969
  1431.4000      8.0513      2.5023      0.0146      8.9491     19.6192     79.4222
  1431.5000      8.0523      2.5105      0.0767      8.4563     19.5899     79.3602
  1431.6000      8.0523      2.5176      0.0630      8.0236     19.3659     74.3375
  1431.7000      8.0523      2.5227      0.0497      7.7132     18.9612     69.5688
  1431.8000      8.0529      2.5239      0.0889      7.6420     18.6274     68.5191
  1431.9000      8.0529      2.5158      0.0497      8.1328     18.3205     69.4754
  1432.0000      8.0525      2.5033      0.0588      8.8907     18.3690     72.2647
  1432.1000      8.0525      2.4952      0.0527      9.3829     19.0733     74.7205
  1432.2000      8.0525      2.4907      0.0601      9.6522     19.8498     73.5481
  1432.3000      8.0510      2.4871      0.0256      9.8736     19.9633     69.8463
  1432.4000      8.0510      2.4860      0.0597      9.9384     19.5718     66.8420
  1432.5000      8.0497      2.4901      0.0416      9.6931     19.3155     67.7829
  1432.6000      8.0497      2.5043      0.0518      8.8311     19.1647     71.3284
  1432.7000      8.0497      2.5274      0.0710      7.4301     18.7867     73.1063
  1432.8000      8.0513      2.5432      0.0996      6.4745     18.4212     72.7985
  1432.9000      8.0513      2.5372      0.0740      6.8385     18.6770     72.0460
  1433.0000      8.0519      2.5251      0.0214      7.5685     19.6847     71.3352
  1433.1000      8.0519      2.5319      0.0644      7.1603     20.6629     71.2766
  1433.2000      8.0519      2.5581      0.0826      5.5672     20.9041     70.7188
  1433.3000      8.0489      2.5877      0.0912      3.7776     20.5851     69.6341
  1433.4000      8.0489      2.6021      0.0988      2.9020     20.2362     69.1893
  1433.5000      8.0445      2.6015      0.0770      2.9407     20.1978     69.9128
  1433.6000      8.0445      2.6029      0.0787      2.8522     20.5822     75.6844
  1433.7000      8.0445      2.6082      0.0770      2.5333     21.3918     84.9266
  1433.8000      8.0380      2.6081      0.0868      2.5410     22.0384     87.5272
  1433.9000      8.0380      2.6081      0.0730      2.5415     22.0467     80.5360
  1434.0000      8.0306      2.6194      0.0812      1.8530     22.1317     74.0556
  1434.1000      8.0306      2.6406      0.0872      0.5691     22.9378     75.8693
  1434.2000      8.0306      2.6553      0.1511     -0.3202     24.0113     82.3100
  1434.3000      8.0340      2.6454      0.1352      0.2796     24.6486     87.5811
  1434.4000      8.0340      2.6160      0.0711      2.0597     24.7241     92.4374
  1434.5000      8.0497      2.5970      0.0517      3.2125     24.6788     99.8787
  1434.6000      8.0497      2.6052      0.0492      2.7158     24.6645    106.8809
  1434.7000      8.0497      2.6204      0.1151      1.7940     24.3288    109.9825
  1434.8000      8.0686      2.6118      0.1336      2.3144     23.9857    113.9153
  1434.9000      8.0686      2.5750      0.0412      4.5453     24.1758    124.6616
  1435.0000      8.0912      2.5284      0.0312      7.3708     24.7004    137.9948
  1435.1000      8.0912      2.4871      0.0477      9.8717     24.9880    147.8629
  1435.2000      8.0912      2.4582      0.0376     11.6235     24.8097    153.4632
  1435.3000      8.1111      2.4457      0.0243     12.3822     24.6704    153.6753
  1435.4000      8.1111      2.4490      0.0398     12.1809     24.9528    151.5036
  1435.5000      8.1286      2.4698      0.0115     10.9209     25.0734    154.4305
  1435.6000      8.1286      2.5044      0.0535      8.8244     25.0231    159.7733
  1435.7000      8.1286      2.5365      0.0768      6.8764     25.4804    160.1434
  1435.8000      8.1402      2.5573      0.0786      5.6209     26.0173    159.5354
  1435.9000      8.1402      2.5663      0.1072      5.0727     26.0150    163.9540
  1436.0000      8.1331      2.5629      0.0860      5.2807     25.6172    169.3044
  1436.1000      8.1331      2.5531      0.0751      5.8743     25.0750    171.3970
  1436.2000      8.1331      2.5431      0.1175      6.4811     24.4122    169.5399
  1436.3000      8.1067      2.5320      0.0877      7.1495     23.7978    163.4712
  1436.4000      8.1067      2.5255      0.0644      7.5448     23.6844    155.8391
  1436.5000      8.0861      2.5313      0.0610      7.1959     24.0324    150.2693
  1436.6000      8.0861      2.5491      0.0871      6.1177     24.1877    145.8790
  1436.7000      8.0861      2.5683      0.1125      4.9503     23.7837    143.6536
  1436.8000      8.0793      2.5741      0.0991      4.6029     22.9684    143.7804
  1436.9000      8.0793      2.5623      0.0757      5.3131     22.3400    142.7942
  1437.0000      8.0784      2.5452      0.0624      6.3501     22.3197    142.5184
  1437.1000      8.0784      2.5424     -0.0120      6.5221     22.3768    144.4807
  1437.2000      8.0784      2.5546      0.0701      5.7829     22.0031    145.2409
  1437.3000      8.0782      2.5594      0.0676      5.4914     21.2961    142.2437
  1437.4000      8.0782      2.5597      0.0232      5.4743     20.6295    137.7196
  1437.5000      8.0765      2.5774      0.0590      4.4017     20.3215    136.5578
  1437.6000      8.0765      2.5985      0.1187      3.1210     20.2268    142.1379
  1437.7000      8.0765      2.5960      0.0951      3.2715     19.9766    151.8856
  1437.8000      8.0756      2.5785      0.0534      4.3334     19.6950    157.3903
  1437.9000      8.0756      2.5722      0.0640      4.7178     19.8256    153.7077
  1438.0000      8.0758      2.5833      0.0817      4.0402     20.2870    140.5307
  1438.1000      8.0758      2.6023      0.0468      2.8891     20.6500    123.1086
  1438.2000      8.0758      2.6179      0.1035      1.9455     20.7815    111.0588
  1438.3000      8.0755      2.6244      0.0846      1.5517     20.6252    109.9644
  1438.4000      8.0755      2.6283      0.0900      1.3157     20.2320    115.2417
  1438.5000      8.0698      2.6297      0.1084      1.2286     19.9457    119.4719
  1438.6000      8.0698      2.6180      0.0714      1.9376     19.9717    122.6203
  1438.7000      8.0698      2.5932      0.0603      3.4424     20.4294    123.8465
  1438.8000      8.0595      2.5644      0.0690      5.1866     21.2287    118.6358
  1438.9000      8.0595      2.5412      0.0393      6.5925     21.5661    110.1619
  1439.0000      8.0540      2.5371      0.0289      6.8399     20.8642    105.3759
  1439.1000      8.0540      2.5515      0.0441      5.9705     19.8721    104.4733
  1439.2000      8.0540      2.5634      0.0768      5.2468     19.3003    102.7470
  1439.3000      8.0504      2.5667      0.0558      5.0456     18.8476     99.8954
  1439.4000      8.0504      2.5724      0.0655      4.7005     18.5254     99.0681
  1439.5000      8.0410      2.5675      0.1142      4.9984     18.7026     99.6246
  1439.6000      8.0410      2.5346      0.0255      6.9949     19.0497     96.8703
  1439.7000      8.0410      2.4937      0.0109      9.4726     19.1183     91.1450
  1439.8000      8.0289      2.4673      0.0310     11.0748     19.0772     90.4459
  1439.9000      8.0289      2.4611     -0.0022     11.4515     18.8593     97.3298
  1440.0000      8.0230      2.4742      0.0363     10.6565     18.0162    102.0673
  1440.1000      8.0230      2.4906      0.0523      9.6599     16.9822     96.3659
  1440.2000      8.0230      2.4991      0.0382      9.1460     16.6413     86.8359
  1440.3000      8.0219      2.5026      0.0832      8.9319     17.0748     84.0449
  1440.4000      8.0219      2.5007      0.0991      9.0469     17.5392     86.4896
  1440.5000      8.0221      2.4896      0.1162      9.7216     17.3835     86.6048
