~Version Information
 VERS.                                  2.0 : CWLS LAS VERSION
 WRAP.                                   NO : WRAPING MODE
 SWARE .                 MController 2.5.0J : SOFTWARE VERSION
~Well Information
 WELL.                          Silva 1-43R : WELL
 COMP.                Petrogulf Corporation : COMPANY
 FLD.                       Purgatory River : FIELD
 LOC.                  NE/SE sec1 T33S R68W : LOCATION
 DATE.                    6/16/06 - 6/17/06 : DATE(S) LOGGED
 SRVC.      Blanco Geological Services, LLC : SERVICE COMPANY
 STAT.                             Colorado : STATE
 CNTY.                           Las Animas : COUNTY
 CTRY.                                  USA : COUNTRY
 API.                       05-071-08372-00 : API NUMBER
 STRT.FT                              12.00 : START DEPTH
 STOP.FT                            2210.00 : STOP DEPTH
 STEP.FT                               1.00 : DEPTH INCREMENT
 NULL.                                -9999 : NULL VALUE
~Curve information
 DEPTH.FT                                   :
 ROP.MIN/FT                                 :
 GAS.UNITS                                  :
~ASCII Log data
# ...
      2012.0         0.47         55.5 
      2013.0         0.60         43.5 
      2014.0         0.53         39.0 
      2015.0         0.50         33.9 
      2016.0         0.52         30.6 
      2017.0         0.73         28.0 
      2018.0         0.60         27.3 
      2019.0         0.53         25.3 
      2020.0         0.60         25.2 
      2021.0         0.57         24.3 
      2022.0         0.62         24.7 
      2023.0         0.37         24.7 
      2024.0         0.33         24.6 
      2025.0         0.30         24.5 
      2026.0         0.83         24.8 
      2027.0         0.73         25.1 
      2028.0         0.68         30.2 
      2029.0         0.57         31.8 
      2030.0         0.43         31.6 
      2031.0         0.37         30.8 
      2032.0         0.43         30.0 
      2033.0         0.47         28.9 
      2034.0         0.40         29.2 
      2035.0         0.43         28.7 
      2036.0         4.63         80.1 
      2037.0         0.57         94.4 
      2038.0         0.87         83.5 
      2039.0         0.57         94.6 
      2040.0         0.78         83.8 
      2041.0         0.67         61.5 
      2042.0         0.73         51.8 
      2043.0         0.67         48.2 
      2044.0         0.68         43.6 
      2045.0         0.67         40.2 
      2046.0         0.63         36.2 
      2047.0         0.63         31.5 
      2048.0         0.67         28.2 
      2049.0         0.63         26.6 
      2050.0         0.65         25.8 
      2051.0         0.63         25.7 
      2052.0         0.70         25.4 
      2053.0         0.73         25.3 
      2054.0         0.72         25.0 
      2055.0         0.73         24.8 
      2056.0         0.70         24.7 
      2057.0         0.73         24.1 
      2058.0         0.63         24.6 
      2059.0         0.62         23.9 
      2060.0         0.80         24.1 
      2061.0         0.87         23.4 
      2062.0         0.47         23.5 
      2063.0         0.70         22.4 
      2064.0         0.92         22.2 
      2065.0         0.97         22.7 
      2066.0         8.65         57.3 
      2067.0         0.70         69.3 
      2068.0         0.77         57.3 
      2069.0         0.77         51.4 
      2070.0         0.47         44.1 
      2071.0         0.68         29.8 
      2072.0         0.37         27.3 
      2073.0         0.37         27.3 
      2074.0         0.63         28.5 
      2075.0         0.50         25.1 
      2076.0         1.07         23.8 
      2077.0         0.35         23.3 
      2078.0         0.27         21.9 
      2079.0         0.30         21.0 
      2080.0         0.40         19.7 
      2081.0         0.47         20.7 
      2082.0         0.50         26.5 
      2083.0         0.33         31.0 
      2084.0         0.33         32.0 
      2085.0         0.30         31.0 
      2086.0         0.37         30.2 
      2087.0         0.35         29.8 
      2088.0         0.30         28.3 
      2089.0         0.33         27.6 
      2090.0         0.53         26.5 
      2091.0         0.67         26.2 
      2092.0         0.53         26.0 
      2093.0         0.50         26.4 
      2094.0         0.52         27.0 
      2095.0         0.70         24.5 
      2096.0         6.50        146.0 
      2097.0         0.60         96.2 
      2098.0         0.60         82.6 
      2099.0         0.57         77.4 
      2100.0         0.47         66.6 
      2101.0         0.45         54.8 
      2102.0         0.50         45.5 
      2103.0         1.17         29.3 
      2104.0         0.67         21.5 
      2105.0         0.40         20.1 
      2106.0         0.40         18.5 
      2107.0         0.48         18.1 
      2108.0         0.57         18.8 
      2109.0         0.43         18.6 
      2110.0         0.37         19.3 
      2111.0         0.43         21.0 
      2112.0         0.50         20.2 
      2113.0         0.40         18.7 
      2114.0         0.42         18.1 
      2115.0         0.40         19.1 
      2116.0         0.40         19.2 
      2117.0         0.37         18.8 
      2118.0         0.40         19.0 
      2119.0         0.30         19.6 
      2120.0         0.33         20.7 
      2121.0         0.30         21.9 
      2122.0         0.33         23.2 
      2123.0         0.42         23.2 
      2124.0         0.37         22.1 
      2125.0         0.77         21.4 
      2126.0        16.38         59.6 
      2127.0         0.63         39.0 
      2128.0         0.63         31.4 
      2129.0         0.67         25.7 
      2130.0         0.65         27.6 
      2131.0         0.73         27.5 
      2132.0         0.67         23.0 
      2133.0         0.73         20.4 
      2134.0         0.67         19.8 
      2135.0         0.68         19.6 
      2136.0         0.63         18.6 
      2137.0         0.53         18.5 
      2138.0         0.50         18.7 
      2139.0         0.47         19.3 
      2140.0         0.57         19.1 
      2141.0         0.52         18.6 
      2142.0         0.57         17.8 
      2143.0         0.67         18.0 
      2144.0         0.57         18.2 
      2145.0         0.70         19.0 
      2146.0         0.72         19.0 
      2147.0         0.50         18.2 
      2148.0         0.77         18.1 
      2149.0         0.77         17.8 
      2150.0         0.80         17.8 
      2151.0         0.65         17.9 
      2152.0         0.70         18.0 
      2153.0         0.77         18.1 
      2154.0         0.70         18.1 
      2155.0         0.43         17.7 
      2156.0         9.68        931.0 
      2157.0         0.70        772.7 
      2158.0         0.82        746.3 
      2159.0         0.60        721.6 
      2160.0         0.60        695.5 
      2161.0         0.60        688.6 
      2162.0         0.67        674.0 
      2163.0         0.75        660.6 
      2164.0         0.73        653.0 
      2165.0         0.77        640.6 
      2166.0         0.80        640.0 
      2167.0         0.82        640.6 
      2168.0         0.77        637.8 
      2169.0         0.63        636.8 
      2170.0         0.57        634.6 
      2171.0         0.57        634.3 
      2172.0         0.75        632.1 
      2173.0         0.67        631.1 
      2174.0         0.63        630.2 
      2175.0         0.77        627.3 
      2176.0         0.77        630.2 
      2177.0         0.72        627.6 
      2178.0         0.73        628.6 
      2179.0         0.77        626.3 
      2180.0         0.73        621.9 
      2181.0         0.88        617.8 
      2182.0         0.87        618.7 
      2183.0         0.83        621.3 
      2184.0         0.80        621.9 
      2185.0         1.25        614.9 
      2186.0         6.87        607.3 
      2187.0         0.50        621.0 
      2188.0         1.23        705.4 
      2189.0         0.27        736.5 
      2190.0         0.60        814.9 
      2191.0         1.08        819.3 
      2192.0         0.60        730.1 
      2193.0         0.70        732.0 
      2194.0         1.15        696.5 
      2195.0         0.60        660.3 
      2196.0         0.50        649.5 
      2197.0         0.43        641.3 
      2198.0         0.37        633.0 
      2199.0         0.60        626.3 
      2200.0         0.47        614.3 
      2201.0         0.48        609.2 
      2202.0         0.37        601.3 
      2203.0         0.33        600.6 
      2204.0         0.37        601.0 
      2205.0         0.43        598.1 
      2206.0         0.50        597.5 
      2207.0         0.40        595.9 
      2208.0         0.50        599.1 
      2209.0         0.45        601.0 
      2210.0         0.47        600.3 
