~Version Information
VERS.                      2.0: CWLS Log ASCII Standard - VERSION 2.0
WRAP.                       NO: One line per depth step
~Well Information Block
STRT.FT                -5.7500: 
STOP.FT              1965.7500: 
STEP.FT                 0.2500: 
NULL.                -999.2500: 
COMP.          Pioneer Natural Resources: COMPANY
WELL.          Easton 12-30 Tr: WELL
FLD.           Purgatorie River: FIELD
LOC.           549' FWL & 2416' FNL--: LOCATION
PROV.                       CO: PROVINCE
CNTY.               Las Animas: COUNTRY
SRVC.          Patterson Wireline: SERVICE COMPANY
DATE.          Mon Jun 06 16:13:03 2005: LOG DATE
UWI.           05 071 08379 00: UNIQUE WELL ID
~Curve Information Block
DEPT.FT            0 000 00 00: Depth
CCL.                          : Casing Collar Locator
TT3.usec                      : CBL 3' Travel Time
AMP3.mV                       : CBL 3' Amplitude
GR.GAPI                       : Gamma Ray
~Parameter Information Block
~A  Depth       CCL         TT3         AMP3         GR     
# ...
  1535.2500      0.0000    657.4133     10.8422     63.8022
  1535.5000      0.0000    647.6033     10.3706     65.3685
  1535.7500      0.0000    659.0988      9.7550     66.4373
  1536.0000      0.0000    690.0447      9.0824     65.6708
  1536.2500      0.0000    728.1722      8.4327     62.4527
  1536.5000      0.0000    761.7658      7.8487     58.1614
  1536.7500      0.0000    786.2534      7.3534     55.3210
  1537.0000      0.0000    801.6346      6.9723     55.5793
  1537.2500      0.0000    808.8147      6.7128     58.8972
  1537.5000      0.0000    809.3877      6.5344     64.2915
  1537.7500      0.0000    805.2308      6.3685     70.6196
  1538.0000      0.0000    796.6073      6.1779     76.8528
  1538.2500      0.0000    782.7267      5.9879     82.5033
  1538.5000      0.0000    765.1183      5.8628     87.9913
  1538.7500      0.0000    748.4984      5.8538     94.1095
  1539.0000      0.0000    737.3627      5.9616    101.2092
  1539.2500      0.0000    733.2909      6.1397    109.1541
  1539.5000      0.0000    736.0197      6.3315    117.4810
  1539.7500      0.0000    744.9609      6.5093    124.8500
  1540.0000      0.0000    758.2889      6.6870    128.8646
  1540.2500      0.0000    772.0767      6.9041    127.7317
  1540.5000      0.0000    782.3747      7.1887    122.2190
  1540.7500      0.0000    787.9935      7.5155    115.0333
  1541.0000      0.0000    790.3484      7.7983    107.9909
  1541.2500      0.0000    791.1906      7.9343    100.4722
  1541.5000      0.0000    791.5670      7.8710     90.9357
  1541.7500      0.0000    792.1759      7.6475     79.4106
  1542.0000      0.0000    793.2298      7.3789     67.9747
  1542.2500      0.0000    794.2295      7.1905     58.9809
  1542.5000      0.0000    794.8460      7.1493     53.2163
  1542.7500      0.0000    795.7565      7.2437     49.6348
  1543.0000      0.0000    797.9896      7.4110     46.4787
  1543.2500      0.0000    801.9227      7.5785     42.7051
  1543.5000      0.0000    807.5244      7.6978     38.8189
  1543.7500      0.0000    814.9692      7.7651     36.5364
  1544.0000      0.0000    824.1663      7.8157     37.4623
  1544.2500      0.0000    833.8765      7.8949     41.9093
  1544.5000      0.0000    842.0854      8.0258     48.7976
  1544.7500      0.0000    847.4057      8.2061     56.3387
  1545.0000      0.0000    849.7844      8.4306     62.8230
  1545.2500      0.0000    849.8391      8.6953     67.3789
  1545.5000      0.0000    847.9068      8.9688     70.4521
  1545.7500      0.0000    843.9562      9.1898     73.4508
  1546.0000      0.0000    838.3950      9.3137     77.7381
  1546.2500      0.0000    832.6454      9.3517     84.0177
  1546.5000      0.0000    828.4257      9.3525     92.3516
  1546.7500      0.0000    826.2758      9.3523    102.1253
  1547.0000      0.0000    825.1498      9.3395    111.8363
  1547.2500      0.0000    823.6138      9.2616    119.5094
  1547.5000      0.0000    820.9360      9.0631    123.8378
  1547.7500      0.0000    816.6160      8.7229    125.0018
  1548.0000      0.0000    809.3082      8.2631    124.4363
  1548.2500      0.0000    797.0403      7.7328    123.9142
  1548.5000      0.0000    778.8158      7.1920    124.6207
  1548.7500      0.0000    755.5607      6.7013    126.6107
  1549.0000      0.0000    728.9967      6.3037    128.7625
  1549.2500      0.0000    700.0482      6.0040    129.3153
  1549.5000      0.0000    669.2977      5.7739    127.0211
  1549.7500      0.0000    638.7706      5.5873    122.1368
  1550.0000      0.0000    612.0657      5.4427    116.3524
  1550.2500      0.0000    592.2204      5.3508    111.8737
  1550.5000      0.0000    579.9412      5.3099    110.2253
  1550.7500      0.0000    574.0795      5.2979    111.1524
  1551.0000      0.0000    573.3902      5.2890    112.6317
  1551.2500      0.0000    577.2769      5.2755    112.8184
  1551.5000      0.0000    584.5178      5.2709    112.0880
  1551.7500      0.0000    591.5621      5.2863    112.4503
  1552.0000      0.0000    593.4785      5.3082    114.9790
  1552.2500      0.0000    587.7564      5.3144    118.6341
  1552.5000      0.0000    576.7597      5.3020    121.6070
  1552.7500      0.0000    566.0107      5.2847    123.0018
  1553.0000      0.0000    561.1004      5.2607    123.1416
  1553.2500      0.0000    566.2344      5.1962    123.0314
  1553.5000      0.0000    583.0693      5.0484    123.5897
  1553.7500      0.0000    608.5862      4.8105    124.7032
  1554.0000      0.0000    635.0988      4.5398    125.0605
  1554.2500      0.0000    655.1746      4.3359    123.4484
  1554.5000      0.0000    667.9136      4.2715    120.0819
  1554.7500      0.0000    679.7291      4.3454    116.2101
  1555.0000      0.0000    698.4041      4.5083    112.6007
  1555.2500      0.0000    726.2707      4.7168    108.9069
  1555.5000      0.0000    758.3052      4.9447    104.6616
  1555.7500      0.0000    785.8544      5.1703    100.7285
  1556.0000      2.0000    802.8215      5.3762     99.2780
  1556.2500      2.0000    809.7653      5.5447    101.9078
  1556.5000      0.0000    812.4680      5.6490    107.8804
  1556.7500      0.0000    815.7856      5.6776    114.5574
  1557.0000      0.0000    818.8735      5.6595    119.6009
  1557.2500      0.0000    817.1485      5.6308    122.5758
  1557.5000      0.0000    808.5597      5.5873    124.4840
  1557.7500      0.0000    796.5507      5.5137    126.0233
  1558.0000      0.0000    786.5540      5.4394    126.5349
  1558.2500      0.0000    780.7620      5.4136    124.8940
  1558.5000      0.0000    777.0555      5.4476    121.4514
  1558.7500      0.0000    772.0405      5.5202    118.4801
  1559.0000      0.0000    764.2640      5.6087    118.0526
  1559.2500      0.0000    755.1621      5.6858    119.6894
  1559.5000      0.0000    747.8691      5.7198    120.9289
  1559.7500      0.0000    745.2562      5.7008    120.3604
  1560.0000      0.0000    748.6857      5.6538    119.1359
  1560.2500      0.0000    757.8696      5.6122    119.1327
  1560.5000      0.0000    770.9789      5.5870    120.6875
  1560.7500      0.0000    784.7929      5.5656    122.8133
  1561.0000      0.0000    795.7137      5.5351    124.7314
  1561.2500      0.0000    801.4609      5.4942    126.3410
  1561.5000      0.0000    801.9648      5.4489    127.8354
  1561.7500      0.0000    798.8704      5.4017    129.6323
  1562.0000      0.0000    794.1880      5.3520    132.2248
  1562.2500      0.0000    788.8710      5.3015    135.2726
  1562.5000      0.0000    782.1326      5.2519    137.0854
  1562.7500      0.0000    772.1794      5.1988    135.8459
  1563.0000      0.0000    758.1522      5.1349    131.5540
  1563.2500      0.0000    741.7856      5.0562    126.3009
  1563.5000      0.0000    726.9715      4.9685    122.5508
  1563.7500      0.0000    717.1092      4.8862    121.4405
  1564.0000      0.0000    712.8630      4.8225    122.3927
  1564.2500      0.0000    713.0604      4.7850    123.8009
  1564.5000      0.0000    717.5812      4.7835    124.2638
  1564.7500      0.0000    728.0423      4.8272    123.6406
  1565.0000      0.0000    744.9279      4.9166    122.6876
  1565.2500      0.0000    764.9844      5.0459    121.4830
  1565.5000      0.0000    782.7031      5.2049    118.9206
  1565.7500      0.0000    794.4824      5.3709    114.3286
  1566.0000      0.0000    800.9765      5.5099    108.9190
  1566.2500      0.0000    805.5635      5.5974    104.7186
  1566.5000      0.0000    810.7527      5.6393    102.2931
  1566.7500      0.0000    815.8901      5.6707    100.3369
  1567.0000      0.0000    817.9022      5.7221     97.6330
  1567.2500      0.0000    814.3279      5.7868     94.7409
  1567.5000      0.0000    806.6375      5.8337     93.2794
  1567.7500      0.0000    800.8219      5.8501     93.9408
  1568.0000      0.0000    803.0146      5.8590     95.9312
  1568.2500      0.0000    813.4530      5.8893     98.2165
  1568.5000      0.0000    825.5294      5.9403    100.5326
