~Version Information
VERS.                      2.0: CWLS Log ASCII Standard - VERSION 2.0
WRAP.                       NO: One line per depth step
~Well Information Block
STRT.FT               845.0000: 
STOP.FT              2308.2000: 
STEP.FT                 0.1000: 
NULL.                -999.2500: 
COMP.          Pioneer Natural Resources: COMPANY
WELL.             Vector 33-23: WELL
FLD.           Purgatoire River: FIELD
LOC.           1560' FEL & 1988' FSL----: LOCATION
PROV.                 Colorado: PROVINCE
CNTY.               Las Animas: COUNTRY
SRVC.                Patterson: SERVICE COMPANY
DATE.          Mon Mar 28 08:17:25 2005: LOG DATE
UWI.           05 071 08336 00: UNIQUE WELL ID
~Curve Information Block
DEPT.FT            0 000 00 00: Depth
DCAL.in                       : CDL Caliper
RHOB.g/cc                     : CDL Bulk Density
RHOC.g/cc                     : CDL Density Correction
DPOR.pu                       : CDL Density Porosity
NPOR.pu                       : Neutron Porosity
GR.GAPI                       : Gamma Ray
~Parameter Information Block
~A  Depth       DCAL        RHOB        RHOC        DPOR        NPOR         GR     
# ...
  2275.4000      7.6634      2.6014      0.0431      2.9440     20.3709    157.9672
  2275.5000      7.6649      2.6155      0.0565      2.0907     20.3101    155.6663
  2275.6000      7.6649      2.6213      0.0663      1.7365     19.7999    146.8667
  2275.7000      7.6649      2.6080      0.0847      2.5447     18.5564    142.1815
  2275.8000      7.6649      2.5897      0.0393      3.6524     17.5245    139.0798
  2275.9000      7.6649      2.5816      0.0608      4.1440     17.0846    124.2984
  2276.0000      7.6650      2.5796      0.0637      4.2669     17.1136     88.9916
  2276.1000      7.6650      2.5796      0.0830      4.2688     17.4010     44.5771
  2276.2000      7.6650      2.5825      0.0351      4.0914     17.6136     13.9533
  2276.3000      7.6659      2.5927      0.0468      3.4709     18.0785      2.5305
  2276.4000      7.6659      2.6091      0.0703      2.4798     19.0418      0.2541
  2276.5000      7.6648      2.6190      0.0666      1.8802     20.1943      0.0134
  2276.6000      7.6648      2.6167      0.0516      2.0176     21.4646      0.0000
  2276.7000      7.6648      2.6089      0.0709      2.4902     22.7187   -999.2500
  2276.8000      7.6628      2.5975      0.0401      3.1815     23.6448   -999.2500
  2276.9000      7.6628      2.5792      0.0480      4.2889     24.3768   -999.2500
  2277.0000      7.6628      2.5574      0.0124      5.6113     25.2634   -999.2500
  2277.1000      7.6628      2.5410      0.0209      6.6046     26.3196   -999.2500
  2277.2000      7.6628      2.5278      0.0517      7.4062     27.0449   -999.2500
  2277.3000      7.6635      2.5177      0.0105      8.0184     27.0518   -999.2500
  2277.4000      7.6635      2.5242      0.0334      7.6214     26.3877   -999.2500
  2277.5000      7.6640      2.5419      0.1020      6.5534     25.4355   -999.2500
  2277.6000      7.6640      2.5451      0.0706      6.3572     24.4248   -999.2500
  2277.7000      7.6640      2.5328      0.0258      7.1030     23.3045   -999.2500
  2277.8000      7.6639      2.5321     -0.0046      7.1454     22.0762   -999.2500
  2277.9000      7.6639      2.5490      0.0916      6.1209     20.9268   -999.2500
  2278.0000      7.6632      2.5570      0.1056      5.6349     20.1802   -999.2500
  2278.1000      7.6632      2.5451      0.0741      6.3550     20.0168   -999.2500
  2278.2000      7.6632      2.5269      0.0756      7.4627     20.2257   -999.2500
  2278.3000      7.6616      2.5164      0.0412      8.0988     20.3091   -999.2500
  2278.4000      7.6616      2.5182      0.0749      7.9892     19.8202   -999.2500
  2278.5000      7.6607      2.5232      0.0519      7.6850     19.1353   -999.2500
  2278.6000      7.6607      2.5197      0.0469      7.8947     19.0423   -999.2500
  2278.7000      7.6607      2.5112      0.0218      8.4099     19.6774   -999.2500
  2278.8000      7.6616      2.5129      0.0351      8.3092     20.6121   -999.2500
  2278.9000      7.6616      2.5275      0.0505      7.4250     21.1810   -999.2500
  2279.0000      7.6618      2.5457      0.0502      6.3224     21.0980   -999.2500
  2279.1000      7.6618      2.5644      0.0534      5.1861     20.9900   -999.2500
  2279.2000      7.6618      2.5798      0.1223      4.2540     21.4160   -999.2500
  2279.3000      7.6571      2.5849      0.0703      3.9448     22.1384   -999.2500
  2279.4000      7.6571      2.5811      0.1061      4.1731     22.8172   -999.2500
  2279.5000      7.6490      2.5736      0.0578      4.6296     23.1753   -999.2500
  2279.6000      7.6490      2.5691      0.1122      4.9055     22.6081   -999.2500
  2279.7000      7.6490      2.5665      0.1135      5.0607     21.3610   -999.2500
  2279.8000      7.6494      2.5625      0.0745      5.3048     20.5757   -999.2500
  2279.9000      7.6494      2.5562      0.1006      5.6852     20.2263   -999.2500
  2280.0000      7.6569      2.5508      0.0488      6.0118     19.5863   -999.2500
  2280.1000      7.6569      2.5582      0.0770      5.5627     19.0083   -999.2500
  2280.2000      7.6569      2.5774      0.0879      4.3990     19.0117   -999.2500
  2280.3000      7.6616      2.5943      0.0711      3.3744     19.4898   -999.2500
  2280.4000      7.6616      2.6015      0.1114      2.9397     20.1819   -999.2500
  2280.5000      7.6639      2.5979      0.0740      3.1604     20.5329   -999.2500
  2280.6000      7.6639      2.5861      0.0916      3.8703     20.6804   -999.2500
  2280.7000      7.6639      2.5733      0.0478      4.6459     21.5198   -999.2500
  2280.8000      7.6641      2.5682      0.0709      4.9558     22.7462   -999.2500
  2280.9000      7.6641      2.5694      0.0718      4.8832     23.1150   -999.2500
  2281.0000      7.6630      2.5670      0.0768      5.0329     22.3849   -999.2500
  2281.1000      7.6630      2.5576      0.0524      5.6000     21.3547   -999.2500
  2281.2000      7.6630      2.5509      0.0598      6.0046     20.6418   -999.2500
  2281.3000      7.6617      2.5586      0.0556      5.5399     20.6696   -999.2500
  2281.4000      7.6617      2.5783      0.0866      4.3432     23.0312   -999.2500
  2281.5000      7.6608      2.5989      0.1080      3.0987     30.2190   -999.2500
  2281.6000      7.6608      2.6141      0.1104      2.1756     40.4467   -999.2500
  2281.7000      7.6608      2.6241      0.0951      1.5718     47.4797   -999.2500
  2281.8000      7.6619      2.6292      0.0852      1.2588     49.9833   -999.2500
  2281.9000      7.6619      2.6233      0.1176      1.6193     50.4708   -999.2500
  2282.0000      7.6640      2.6013      0.0598      2.9486     50.5222   -999.2500
  2282.1000      7.6640      2.5720      0.0409      4.7261     50.5250   -999.2500
  2282.2000      7.6640      2.5489      0.0460      6.1262   -999.2500   -999.2500
  2282.3000      7.6636      2.5427      0.0180      6.5029   -999.2500   -999.2500
  2282.4000      7.6636      2.5475      0.0625      6.2124   -999.2500   -999.2500
  2282.5000      7.6625      2.5417      0.0480      6.5644   -999.2500   -999.2500
  2282.6000      7.6625      2.5270     -0.0005      7.4573   -999.2500   -999.2500
  2282.7000      7.6625      2.5248      0.0108      7.5881   -999.2500   -999.2500
  2282.8000      7.6625      2.5350      0.0773      6.9668   -999.2500   -999.2500
  2282.9000      7.6625      2.5445      0.0436      6.3947   -999.2500   -999.2500
  2283.0000      7.6624      2.5513      0.0732      5.9807   -999.2500   -999.2500
  2283.1000      7.6624      2.5596      0.0497      5.4772   -999.2500   -999.2500
  2283.2000      7.6624      2.5668      0.0736      5.0396   -999.2500   -999.2500
  2283.3000      7.6626      2.5664      0.0669      5.0674   -999.2500   -999.2500
  2283.4000      7.6626      2.5655      0.0725      5.1239   -999.2500   -999.2500
  2283.5000      7.6626      2.5712      0.0875      4.7762   -999.2500   -999.2500
  2283.6000      7.6626      2.5725      0.1002      4.6962   -999.2500   -999.2500
  2283.7000      7.6626      2.5668      0.0553      5.0402   -999.2500   -999.2500
  2283.8000      7.6627      2.5652      0.1069      5.1390   -999.2500   -999.2500
  2283.9000      7.6627      2.5664      0.0947      5.0677   -999.2500   -999.2500
  2284.0000      7.6637      2.5686      0.0783      4.9350   -999.2500   -999.2500
  2284.1000      7.6637      2.5732      0.0735      4.6529   -999.2500   -999.2500
  2284.2000      7.6637      2.5742      0.0564      4.5928   -999.2500   -999.2500
  2284.3000      7.6647      2.5681      0.0399      4.9627   -999.2500   -999.2500
  2284.4000      7.6647      2.5604      0.0498      5.4302   -999.2500   -999.2500
  2284.5000      7.6637      2.5588      0.0302      5.5262   -999.2500   -999.2500
  2284.6000      7.6637      2.5624      0.0642      5.3074   -999.2500   -999.2500
  2284.7000      7.6637      2.5621      0.0838      5.3249   -999.2500   -999.2500
  2284.8000      7.6587      2.5557      0.0523      5.7153   -999.2500   -999.2500
  2284.9000      7.6587      2.5487      0.0290      6.1371   -999.2500   -999.2500
