~Version Information
VERS.                      2.0: CWLS Log ASCII Standard - VERSION 2.0
WRAP.                       NO: One line per depth step
~Well Information Block
STRT.FT               640.0000: 
STOP.FT               927.0000: 
STEP.FT                 0.1000: 
NULL.                -999.2500: 
COMP.          Pioneer Natural Resources: COMPANY
WELL.          Claim Jumper 41-22: WELL
FLD.           Purgatoire River: FIELD
LOC.           1120' FNL & 977' FEL: LOCATION
PROV.                 Colorado: PROVINCE
CNTY.               Las Animas: COUNTRY
SRVC.                Patterson: SERVICE COMPANY
DATE.          Thu Jun 23 08:35:14 2005: LOG DATE
UWI.           05-071-08405-00: UNIQUE WELL ID
~Curve Information Block
DEPT.FT            0 000 00 00: Depth
DCAL.in                       : CDL Caliper
RHOB.g/cc                     : CDL Bulk Density
RHOC.g/cc                     : CDL Density Correction
DPOR.pu                       : CDL Density Porosity
GR.GAPI                       : Gamma Ray
NPOR.pu                       : Neutron Porosity
~Parameter Information Block
~A  Depth       DCAL        RHOB        RHOC        DPOR         GR         NPOR    
# ...
   764.8000      8.0316      2.4784      0.0703     10.4029     70.2293     18.2690
   764.9000      8.0316      2.4910      0.0767      9.6383     63.7742     17.9413
   765.0000      8.0251      2.4904      0.0952      9.6698     66.3753     17.5675
   765.1000      8.0251      2.4852      0.0510      9.9897     73.7170     17.5135
   765.2000      8.0251      2.4926      0.0703      9.5378     74.7914     17.8690
   765.3000      8.0185      2.5085      0.0791      8.5784     70.6370     18.3694
   765.4000      8.0185      2.5085      0.0869      8.5776     68.1879     18.5958
   765.5000      8.0166      2.4905      0.0584      9.6646     65.8065     18.4082
   765.6000      8.0166      2.4830      0.0456     10.1206     61.4810     17.9577
   765.7000      8.0166      2.4980      0.0827      9.2105     60.2531     17.7505
   765.8000      8.0203      2.5096      0.1189      8.5089     65.0681     18.0295
   765.9000      8.0203      2.5013      0.0846      9.0105     71.6089     18.2915
   766.0000      8.0241      2.4940      0.0245      9.4573     73.6494     18.2900
   766.1000      8.0241      2.4990      0.0453      9.1526     71.4729     18.1899
   766.2000      8.0241      2.4987      0.0693      9.1714     71.1192     17.9733
   766.3000      8.0254      2.4867      0.0495      9.8995     73.3466     17.8381
   766.4000      8.0254      2.4800      0.0142     10.3023     74.1544     18.0891
   766.5000      8.0261      2.4855      0.0706      9.9668     72.9632     18.3749
   766.6000      8.0261      2.4899      0.0609      9.7027     72.9786     18.2701
   766.7000      8.0261      2.4824      0.0862     10.1550     78.7013     18.1179
   766.8000      8.0275      2.4710      0.0294     10.8508     88.2967     18.2339
   766.9000      8.0275      2.4755      0.0465     10.5775     93.7942     18.3815
   767.0000      8.0251      2.4945      0.0855      9.4216     93.4750     18.3381
   767.1000      8.0251      2.5069      0.1291      8.6735     92.9172     18.3034
   767.2000      8.0251      2.5093      0.0460      8.5266     92.1041     18.4584
   767.3000      8.0205      2.5107      0.0749      8.4403     87.6263     18.5527
   767.4000      8.0205      2.5107      0.0776      8.4399     85.1476     18.5692
   767.5000      8.0223      2.5085      0.0565      8.5734     86.9059     18.6509
   767.6000      8.0223      2.5094      0.1279      8.5193     86.3432     18.4876
   767.7000      8.0223      2.5194      0.0919      7.9153     82.1604     18.2649
   767.8000      8.0262      2.5372      0.1301      6.8385     77.1766     18.5201
   767.9000      8.0262      2.5538      0.0980      5.8300     74.0293     18.8461
   768.0000      8.0218      2.5685      0.0695      4.9420     76.1950     18.7371
   768.1000      8.0218      2.5730      0.1105      4.6691     79.5747     18.5174
   768.2000      8.0218      2.5496      0.0934      6.0872     78.6916     18.4092
   768.3000      8.0155      2.5132      0.0549      8.2934     78.4369     18.5327
   768.4000      8.0155      2.4962      0.0585      9.3189     82.1461     18.9598
   768.5000      8.0133      2.5035      0.0704      8.8806     87.2245     19.3369
   768.6000      8.0133      2.5152      0.1189      8.1710     91.1720     19.3314
   768.7000      8.0133      2.5104      0.0852      8.4607     89.3866     19.1008
   768.8000      8.0130      2.4859      0.0931      9.9454     80.2724     19.1297
   768.9000      8.0130      2.4575      0.0458     11.6680     70.0755     19.6062
   769.0000      8.0123      2.4451     -0.0019     12.4172     67.5114     19.9648
   769.1000      8.0123      2.4484      0.0349     12.2209     72.9200     19.8271
   769.2000      8.0123      2.4532      0.0629     11.9249     77.2138     19.6360
   769.3000      8.0146      2.4638      0.0345     11.2862     77.9370     19.6771
   769.4000      8.0146      2.4836      0.0686     10.0860     83.1863     19.8137
   769.5000      8.0198      2.4964      0.0845      9.3088     95.6960     20.1619
   769.6000      8.0198      2.4984      0.0545      9.1870    110.0208     20.8464
   769.7000      8.0198      2.4977      0.0964      9.2321    122.0956     21.2422
   769.8000      8.0215      2.4898      0.0525      9.7112    127.4467     20.6864
   769.9000      8.0215      2.4637      0.0816     11.2920    124.1078     19.4120
   770.0000      8.0229      2.4060      0.0397     14.7905    118.3468     17.8919
   770.1000      8.0229      2.3109     -0.0309     20.5535    113.7607     16.2184
   770.2000      8.0229      2.1884     -0.0180     27.9737    110.3831     14.7057
   770.3000      8.0377      2.0641     -0.1078     35.5093    111.2262     13.7302
   770.4000      8.0377      1.9555     -0.0599     42.0934    116.1186     13.1791
   770.5000      8.0806      1.8443     -0.0699     48.8312    120.2739     12.8135
   770.6000      8.0806      1.7118     -0.0669     56.8623    119.3265     12.5430
   770.7000      8.0806      1.5801     -0.1188     64.8424    114.5490     12.1706
   770.8000      8.1641      1.4871     -0.0719     70.4763    107.4498     11.6009
   770.9000      8.1641      1.4420      0.0717     73.2109     95.0859     11.1328
   771.0000      8.2761      1.4324      0.1344     73.7925     82.8947     11.2104
   771.1000      8.2761      1.4542      0.1612     72.4701     80.1608     11.9832
   771.2000      8.2761      1.5131      0.1452     68.9060     82.1382     13.1400
   771.3000      8.3460      1.6031      0.2552     63.4466     79.9689     14.4083
   771.4000      8.3460      1.7066      0.2489     57.1771     75.4318     15.9671
   771.5000      8.3372      1.8148      0.2888     50.6181     74.1565     17.8966
   771.6000      8.3372      1.9312      0.2914     43.5618     78.0193     19.7442
   771.7000      8.3372      2.0604      0.3350     35.7336     87.5956     21.2749
   771.8000      8.2906      2.1899      0.4144     27.8874     99.9268     22.6631
   771.9000      8.2906      2.2970      0.4099     21.3954    109.0283     23.8822
   772.0000      8.2237      2.3721      0.3778     16.8429    117.2208     24.7908
   772.1000      8.2237      2.4152      0.2564     14.2330    127.2321     25.6077
   772.2000      8.2237      2.4341      0.1960     13.0844    129.8539     26.4996
   772.3000      8.1350      2.4432      0.1241     12.5358    121.5604     27.1116
   772.4000      8.1350      2.4516      0.0489     12.0253    113.5370     27.3052
   772.5000      8.0461      2.4621      0.0865     11.3896    115.1242     27.4646
   772.6000      8.0461      2.4799      0.0231     10.3064    125.7245     27.8591
   772.7000      8.0461      2.5135      0.0508      8.2746    140.3016     28.0735
   772.8000      7.9873      2.5457      0.0946      6.3204    151.5600     27.7678
   772.9000      7.9873      2.5516      0.1054      5.9639    151.7464     27.3080
   773.0000      7.9590      2.5385      0.0769      6.7593    139.4337     26.8982
   773.1000      7.9590      2.5262      0.1093      7.5055    122.1158     26.4733
   773.2000      7.9590      2.5150      0.1454      8.1790    114.9275     26.3110
   773.3000      7.9505      2.5015      0.0744      9.0001    121.6881     26.4351
   773.4000      7.9505      2.4903      0.0725      9.6815    129.8474     26.4511
   773.5000      7.9502      2.4793      0.0472     10.3461    133.0690     26.2985
   773.6000      7.9502      2.4672      0.0289     11.0781    137.1133     26.1101
   773.7000      7.9502      2.4552      0.0635     11.8033    141.2285     25.7721
   773.8000      7.9464      2.4292      0.1047     13.3798    138.2547     25.2473
   773.9000      7.9464      2.3808      0.0625     16.3122    131.0666     24.7829
   774.0000      7.9304      2.3353     -0.0102     19.0712    126.2465     24.4589
   774.1000      7.9304      2.3219      0.0397     19.8837    126.5546     24.1456
   774.2000      7.9304      2.3422      0.0688     18.6559    127.6698     23.8439
   774.3000      7.9004      2.3729      0.1547     16.7927    121.9379     23.5417
