~Version Information
 VERS.                      2.0: CWLS Log ASCII Standard - VERSION 2.0
 WRAP.                       NO: One line per depth step
 ~Well Information Block
 STRT.FT               115.0000: 
 STOP.FT              1768.2500: 
 STEP.FT                 0.2500: 
 NULL.                -999.2500: 
 COMP.          Petrogulf Corporation: COMPANY
 WELL.           Parsons 23-15V: WELL
 FLD.           Purgatorie River: FIELD
 LOC.           2095' FSL & 1817' FWL--API 05 071 07556 00----: LOCATION
 CNTY.               Las Animas: COUNTY
 SRVC.                         : SERVICE COMPANY
 DATE.          Fri Apr 19 16:58:41 2002: LOG DATE
 UWI.                          : UNIQUE WELL ID
 STAT.                       CO: STATE
 PROV.                         :Province
 ~Curve Information Block
 DEPT.FT            0 000 00 00: Depth
 SP.mV                         : DIL Spontaneous Potential
 RILD.Ohm-m                    : DIL Deep Resistivity
 RILM.Ohm-m                    : DIL Medium Resistivity
 RLL3.Ohm-m                    : DIL Shallow Resistivity
 GR.GAPI                       : Gamma Ray
 ~Parameter Information Block
 ~A  Depth        SP         RILD        RILM        RLL3         GR     
# ...
   983.0000   -213.6592      8.9974      9.1066     10.1496    192.7351
   983.2500   -213.6334      8.9804      9.1167     10.1902    188.8966
   983.5000   -213.6491      8.9621      9.1289     10.2495    185.4396
   983.7500   -213.6995      8.9462      9.1393     10.3127    183.1458
   984.0000   -213.7667      8.9375      9.1444     10.3577    181.8162
   984.2500   -213.8315      8.9397      9.1427     10.3758    180.3122
   984.5000   -213.8846      8.9555      9.1353     10.3682    177.6036
   984.7500   -213.9292      8.9858      9.1266     10.3335    174.1090
   985.0000   -213.9712      9.0289      9.1246     10.2740    171.6731
   985.2500   -214.0124      9.0805      9.1391     10.2086    171.5053
   985.5000   -214.0503      9.1341      9.1806     10.1687    172.2168
   985.7500   -214.0827      9.1818      9.2560     10.1916    170.7134
   986.0000   -214.1083      9.2166      9.3660     10.3368    165.3168
   986.2500   -214.1264      9.2338      9.5018     10.6929    157.5321
   986.5000   -214.1355      9.2321      9.6448     11.3136    150.5989
   986.7500   -214.1323      9.2139      9.7686     12.0988    146.8142
   987.0000   -214.1124      9.1839      9.8472     12.7644    146.4302
   987.2500   -214.0742      9.1475      9.8636     13.0033    148.4979
   987.5000   -214.0224      9.1095      9.8175     12.7192    152.0580
   987.7500   -213.9653      9.0733      9.7237     12.0945    156.5719
   988.0000   -213.9088      9.0402      9.6045     11.4278    161.7152
   988.2500   -213.8492      9.0085      9.4803     10.9242    167.1286
   988.5000   -213.7746      8.9744      9.3629     10.6181    172.4033
   988.7500   -213.6724      8.9329      9.2548     10.4378    177.1894
   989.0000   -213.5349      8.8801      9.1528     10.3024    181.1358
   989.2500   -213.3600      8.8148      9.0522     10.1748    183.8460
   989.5000   -213.1469      8.7384      8.9501     10.0649    185.2216
   989.7500   -212.8969      8.6546      8.8456     10.0041    185.8319
   990.0000   -212.6133      8.5676      8.7382     10.0119    186.7158
   990.2500   -212.3021      8.4827      8.6278     10.0706    188.8569
   990.5000   -211.9726      8.4057      8.5157     10.1215    192.8385
   990.7500   -211.6396      8.3436      8.4055     10.0997    198.6648
   991.0000   -211.3241      8.3035      8.3033      9.9842    205.5845
   991.2500   -211.0529      8.2920      8.2167      9.8198    211.9482
   991.5000   -210.8572      8.3138      8.1533      9.6821    215.5880
   991.7500   -210.7650      8.3709      8.1200      9.6191    215.0740
   992.0000   -210.7887      8.4626      8.1220      9.6245    210.8486
   992.2500   -210.9164      8.5864      8.1640      9.6638    204.8345
   992.5000   -211.1170      8.7397      8.2509      9.7142    198.8143
   992.7500   -211.3530      8.9219      8.3897      9.7799    193.2291
   993.0000   -211.5930      9.1348      8.5900      9.8845    187.2859
   993.2500   -211.8171      9.3817      8.8642     10.0845    180.0608
   993.5000   -212.0170      9.6660      9.2251     10.5320    171.4997
   993.7500   -212.1931      9.9905      9.6832     11.5332    162.2332
   994.0000   -212.3499     10.3574     10.2424     13.4577    152.7140
   994.2500   -212.4901     10.7690     10.8968     16.4021    143.2514
   994.5000   -212.6101     11.2280     11.6307     19.8115    134.7911
   994.7500   -212.7023     11.7372     12.4226     22.5465    128.8504
   995.0000   -212.7625     12.2980     13.2563     23.6084    126.5098
   995.2500   -212.7949     12.9081     14.1312     22.9784    127.6083
   995.5000   -212.8109     13.5593     15.0651     21.7601    130.7419
   995.7500   -212.8252     14.2372     16.0832     21.4814    133.9398
   996.0000   -212.8534     14.9217     17.1958     23.1176    135.6761
   996.2500   -212.9053     15.5889     18.3759     26.4513    135.6118
   996.5000   -212.9762     16.2144     19.5491     30.1387    134.5218
   996.7500   -213.0461     16.7763     20.6081     32.5298    133.4137
   997.0000   -213.0896     17.2593     21.4510     32.7220    132.5657
   997.2500   -213.0897     17.6559     22.0247     30.9911    131.5910
   997.5000   -213.0424     17.9629     22.3424     28.3236    130.5590
   997.7500   -212.9522     18.1742     22.4646     25.6617    130.4345
   998.0000   -212.8276     18.2782     22.4632     23.5222    131.7475
   998.2500   -212.6808     18.2627     22.3899     22.0409    133.1382
   998.5000   -212.5287     18.1259     22.2606     21.1738    132.1372
   998.7500   -212.3900     17.8833     22.0546     20.8546    127.7323
   999.0000   -212.2773     17.5625     21.7293     20.9798    121.7691
   999.2500   -212.1940     17.1930     21.2462     21.2593    117.4579
   999.5000   -212.1378     16.7980     20.5962     21.2117    116.7285
   999.7500   -212.1079     16.3927     19.8100     20.4689    119.2531
  1000.0000   -212.1091     15.9868     18.9447     19.0956    123.6253
  1000.2500   -212.1500     15.5852     18.0617     17.5262    128.8681
  1000.5000   -212.2402     15.1878     17.2088     16.1761    134.8841
  1000.7500   -212.3845     14.7888     16.4151     15.1672    142.0596
  1001.0000   -212.5754     14.3791     15.6927     14.3928    150.6203
  1001.2500   -212.7894     13.9510     15.0398     13.7463    159.9829
  1001.5000   -212.9966     13.5049     14.4435     13.2437    168.5019
  1001.7500   -213.1733     13.0508     13.8840     12.9672    174.0676
  1002.0000   -213.3064     12.6053     13.3409     12.9297    175.3856
  1002.2500   -213.3895     12.1849     12.8012     12.9995    172.9863
  1002.5000   -213.4198     11.8018     12.2631     12.9612    169.1002
  1002.7500   -213.4001     11.4634     11.7359     12.6603    166.3143
  1003.0000   -213.3366     11.1726     11.2357     12.1016    165.9859
  1003.2500   -213.2363     10.9290     10.7806     11.4209    167.7965
  1003.5000   -213.1077     10.7288     10.3872     10.7792    170.6972
  1003.7500   -212.9626     10.5655     10.0682     10.2768    173.9239
  1004.0000   -212.8143     10.4308      9.8309      9.9403    176.9509
  1004.2500   -212.6742     10.3165      9.6761      9.7652    179.0725
  1004.5000   -212.5545     10.2162      9.5966      9.7557    179.6616
  1004.7500   -212.4701     10.1266      9.5773      9.9239    178.5869
  1005.0000   -212.4297     10.0467      9.5965     10.2494    176.0987
  1005.2500   -212.4244      9.9765      9.6305     10.6459    172.9341
  1005.5000   -212.4279      9.9167      9.6595     10.9811    170.7769
  1005.7500   -212.4114      9.8685      9.6712     11.1487    171.5851
  1006.0000   -212.3573      9.8341      9.6618     11.1319    175.6186
  1006.2500   -212.2612      9.8159      9.6330     10.9950    180.6029
  1006.5000   -212.1266      9.8161      9.5894     10.8191    183.6270
  1006.7500   -211.9582      9.8362      9.5364     10.6528    183.8709
  1007.0000   -211.7587      9.8764      9.4790     10.5081    183.3076
  1007.2500   -211.5321      9.9367      9.4227     10.3742    184.9402
  1007.5000   -211.2904     10.0163      9.3752     10.2271    190.2332
  1007.7500   -211.0547     10.1134      9.3478     10.0431    197.5075
  1008.0000   -210.8479     10.2245      9.3554      9.8241    202.6290
  1008.2500   -210.6833     10.3441      9.4134      9.6192    202.0845
  1008.5000   -210.5616     10.4673      9.5325      9.5176    195.8399
  1008.7500   -210.4789     10.5925      9.7144      9.6024    186.9816
  1009.0000   -210.4346     10.7241      9.9505      9.8812    178.8732
  1009.2500   -210.4294     10.8709     10.2257     10.2505    173.0910
  1009.5000   -210.4568     11.0433     10.5281     10.5526    169.4046
  1009.7500   -210.5026     11.2501     10.8585     10.6974    166.6287
  1010.0000   -210.5521     11.4960     11.2337     10.7445    163.3641
  1010.2500   -210.5968     11.7792     11.6819     10.8787    158.5829
  1010.5000   -210.6348     12.0888     12.2297     11.3226    152.0544
  1010.7500   -210.6660     12.4031     12.8858     12.2681    144.3443
