~Version Information
VERS.                      2.0: CWLS Log ASCII Standard - VERSION 2.0
WRAP.                       NO: One line per depth step
~Well Information Block
STRT.FT               480.0000: 
STOP.FT              1625.5000: 
STEP.FT                 0.1000: 
NULL.                -999.2500: 
COMP.          Pioneer Natural Resources: COMPANY
WELL.          Dude Canyon 22-32 Tr: WELL
FLD.           Purgatoire River: FIELD
LOC.           1741' FNL & 2331' FWL: LOCATION
PROV.                 Colorado: PROVINCE
CNTY.               Las Animas: COUNTRY
SRVC.                Patterson: SERVICE COMPANY
DATE.          Mon Jul 11 10:33:06 2005: LOG DATE
UWI.           05 071 08421 00: UNIQUE WELL ID
~Curve Information Block
DEPT.FT            0 000 00 00: Depth
DCAL.in                       : CDL Caliper
RHOB.g/cc                     : CDL Bulk Density
RHOC.g/cc                     : CDL Density Correction
DPOR.pu                       : CDL Density Porosity
GR.GAPI                       : Gamma Ray
NPOR.pu                       : Neutron Porosity
~Parameter Information Block
~A  Depth       DCAL        RHOB        RHOC        DPOR         GR         NPOR    
# ...
   710.4000      8.0593      2.6022      0.0962      2.8954    143.9209     25.1931
   710.5000      8.0644      2.6082      0.0959      2.5359    144.9461     24.9196
   710.6000      8.0644      2.6064      0.1115      2.6401    148.2858     24.5189
   710.7000      8.0644      2.5928      0.0826      3.4691    150.6028     24.5361
   710.8000      8.0579      2.5735     -0.0188      4.6352    149.7744     25.4867
   710.9000      8.0579      2.5752      0.0390      4.5324    144.7120     27.0059
   711.0000      8.0599      2.5980      0.0829      3.1530    137.2865     27.4764
   711.1000      8.0599      2.6195      0.0454      1.8472    130.1788     26.3450
   711.2000      8.0599      2.6336      0.0789      0.9926    124.0862     25.4014
   711.3000      8.0548      2.6486      0.0912      0.0861    122.6100     25.7362
   711.4000      8.0548      2.6707      0.1118     -1.2516    127.1286     26.1160
   711.5000      8.0520      2.6927      0.1093     -2.5883    132.5642     25.8029
   711.6000      8.0520      2.7073      0.0780     -3.4745    134.4883     25.4191
   711.7000      8.0520      2.7194      0.1102     -4.2091    131.7133     25.3734
   711.8000      8.0376      2.7292      0.0743     -4.8022    128.3598     25.5891
   711.9000      8.0376      2.7266      0.0371     -4.6406    128.1675     25.7609
   712.0000      8.0413      2.7000      0.0512     -3.0318    126.7117     25.7044
   712.1000      8.0413      2.6536      0.0055     -0.2210    123.6752     25.5825
   712.2000      8.0413      2.6115     -0.0635      2.3317    123.4918     25.3685
   712.3000      8.0495      2.5915     -0.0317      3.5475    124.7502     25.0746
   712.4000      8.0495      2.5905     -0.0106      3.6074    124.2659     25.1509
   712.5000      8.0512      2.5991      0.0219      3.0857    124.1108     25.8046
   712.6000      8.0512      2.6068      0.0517      2.6205    125.8287     26.8801
   712.7000      8.0512      2.5998      0.0629      3.0414    127.3384     28.0427
   712.8000      8.0526      2.5765      0.0344      4.4564    127.2375     28.6902
   712.9000      8.0526      2.5558      0.0256      5.7104    126.2044     28.3715
   713.0000      8.0531      2.5547      0.0233      5.7738    126.1125     27.4292
   713.1000      8.0531      2.5618      0.0674      5.3424    126.7030     26.6550
   713.2000      8.0531      2.5600      0.0317      5.4549    127.4945     26.3235
   713.3000      8.0560      2.5556      0.0110      5.7204    130.4454     26.1164
   713.4000      8.0560      2.5543      0.0594      5.8015    132.2214     26.1127
   713.5000      8.0639      2.5471      0.0615      6.2371    129.0743     26.3210
   713.6000      8.0639      2.5386      0.0114      6.7497    127.1684     26.0501
   713.7000      8.0639      2.5405      0.0639      6.6372    132.1870     25.5055
   713.8000      8.0636      2.5476      0.0054      6.2067    138.1038     25.6087
   713.9000      8.0636      2.5526      0.0505      5.9016    138.0300     26.2481
   714.0000      8.0433      2.5579      0.0292      5.5788    133.5419     26.7558
   714.1000      8.0433      2.5703      0.0459      4.8329    128.9771     27.0040
   714.2000      8.0433      2.5833      0.1136      4.0407    126.1927     26.7981
   714.3000      8.0366      2.5879      0.0874      3.7644    123.6471     26.0591
   714.4000      8.0366      2.5886      0.0617      3.7191    123.5711     25.8262
   714.5000      8.0254      2.5856      0.1110      3.9011    131.5598     26.7708
   714.6000      8.0254      2.5835      0.0687      4.0292    144.7871     27.9549
   714.7000      8.0254      2.6000      0.1224      3.0332    153.6201     27.9669
   714.8000      8.0036      2.6400      0.0829      0.6091    151.2816     27.0618
   714.9000      8.0036      2.6977      0.1191     -2.8929    139.1046     26.1919
   715.0000      7.9727      2.7594      0.1552     -6.6305    126.7059     25.0786
   715.1000      7.9727      2.7985      0.1706     -8.9993    121.1148     23.7772
   715.2000      7.9727      2.8005      0.1722     -9.1233    118.2920     23.3668
   715.3000      7.9331      2.7862      0.1001     -8.2575    111.0171     24.0625
   715.4000      7.9331      2.7732      0.1059     -7.4638    100.8104     24.2530
   715.5000      7.9120      2.7503      0.0005     -6.0794     96.6921     22.7003
   715.6000      7.9120      2.7189     -0.0261     -4.1752     99.8214     20.8772
   715.7000      7.9120      2.7004     -0.0404     -3.0519    103.9961     20.6696
   715.8000      7.9098      2.7001      0.0379     -3.0335    106.6090     21.5703
   715.9000      7.9098      2.7011      0.0276     -3.0990    107.0147     22.2069
   716.0000      7.9704      2.6915      0.0713     -2.5126    103.6515     22.4173
   716.1000      7.9704      2.6818      0.0194     -1.9261     98.2000     22.6521
   716.2000      7.9704      2.6909      0.0589     -2.4786     92.8580     22.5573
   716.3000      8.0565      2.7155      0.0111     -3.9701     86.8247     21.4644
   716.4000      8.0565      2.7366      0.0251     -5.2462     82.1131     19.8497
   716.5000      8.0589      2.7418      0.0554     -5.5660     83.8909     18.7105
   716.6000      8.0589      2.7355      0.0399     -5.1792     91.8849     18.5108
   716.7000      8.0589      2.7329     -0.0098     -5.0269     99.8822     18.9745
   716.8000      8.0434      2.7399      0.0268     -5.4475    101.7974     19.5219
   716.9000      8.0434      2.7455      0.0409     -5.7855     95.0402     20.0883
   717.0000      8.0099      2.7399      0.0167     -5.4459     85.6336     20.5864
   717.1000      8.0099      2.7320      0.0478     -4.9698     84.0947     20.5431
   717.2000      8.0099      2.7287      0.0907     -4.7702     93.6673     20.0121
   717.3000      7.9994      2.7185      0.0541     -4.1510    105.0749     19.5260
   717.4000      7.9994      2.7054      0.0378     -3.3579    107.2260     18.7910
   717.5000      7.9901      2.7059      0.0589     -3.3898    101.8494     18.1856
   717.6000      7.9901      2.7132      0.0976     -3.8280     97.3572     18.9072
   717.7000      7.9901      2.7130      0.0695     -3.8194     96.3500     20.8807
   717.8000      7.9810      2.7061      0.0903     -3.4013     96.8543     22.7533
   717.9000      7.9810      2.6927      0.0523     -2.5862     96.5034     23.3760
   718.0000      7.9850      2.6677      0.0891     -1.0713     93.2509     23.1945
   718.1000      7.9850      2.6329      0.0460      1.0364     90.0513     22.9859
   718.2000      7.9850      2.6003      0.0773      3.0140     92.3220     22.4609
   718.3000      8.0349      2.5731      0.0998      4.6605     99.6859     21.8988
   718.4000      8.0349      2.5487      0.0125      6.1414    107.0986     21.7624
   718.5000      8.0794      2.5319      0.0268      7.1570    109.8625     21.2998
   718.6000      8.0794      2.5275      0.0353      7.4213    108.5431     20.4174
   718.7000      8.0794      2.5413      0.0146      6.5849    106.9156     20.0362
   718.8000      8.0428      2.5711      0.0611      4.7835    107.1481     20.6099
   718.9000      8.0428      2.5888      0.1163      3.7081    108.5966     21.9730
   719.0000      8.0265      2.5761      0.0565      4.4814    108.9450     23.0955
   719.1000      8.0265      2.5613      0.0296      5.3755    109.4732     23.2918
   719.2000      8.0265      2.5694      0.0674      4.8836    113.0075     22.8878
   719.3000      8.0185      2.5842      0.0812      3.9892    116.2538     22.4358
   719.4000      8.0185      2.5921      0.0101      3.5100    113.9149     22.4707
   719.5000      8.0439      2.5931      0.0760      3.4484    106.0145     22.5083
   719.6000      8.0439      2.5804      0.0336      4.2153     98.6420     21.7068
   719.7000      8.0439      2.5624      0.0245      5.3065     97.3710     20.4089
   719.8000      8.0705      2.5554      0.0385      5.7334     98.7461     18.9047
   719.9000      8.0705      2.5551      0.0287      5.7514     97.7579     17.0870
