~Version Information
VERS.                      2.0: CWLS Log ASCII Standard - VERSION 2.0
WRAP.                       NO: One line per depth step
~Well Information Block
STRT.FT                 3.5000: 
STOP.FT              1971.5000: 
STEP.FT                 0.2500: 
NULL.                -999.2500: 
COMP.          Evergreen Operating Corporation: COMPANY
WELL.          McCullough 34-32 Tr: WELL
FLD.           Purgatorie River: FIELD
LOC.           394' FSL & 2077' FEL: LOCATION
PROV.                 Colorado: PROVINCE
CNTY.               Las Animas: COUNTRY
SRVC.                         : SERVICE COMPANY
DATE.          Fri Sep 24 11:00:22 2004: LOG DATE
UWI.           05 071 08157 00: UNIQUE WELL ID
~Curve Information Block
DEPT.FT            0 000 00 00: Depth
GR.GAPI                       : Gamma Ray
CCL.                          : Casing Collar Locator
TT3.usec                      : CBL 3' Travel Time
AMP3.mV                       : CBL 3' Amplitude
~Parameter Information Block
~A  Depth        GR         CCL         TT3         AMP3    
# ...
   405.5000    106.0084      0.0000    768.0000      9.4691
   405.7500    107.9745      0.0000    768.0000      9.5468
   406.0000    106.7272      0.0000    768.0000      9.6617
   406.2500    103.7854      0.0000    768.0000      9.8032
   406.5000    101.5174      0.0000    768.0000      9.9583
   406.7500    101.5345      0.0000    768.0000     10.1411
   407.0000    103.5256      0.0000    768.0000     10.3773
   407.2500    106.0077      0.0000    768.0000     10.6633
   407.5000    108.0056      0.0000    768.0000     10.9560
   407.7500    109.4104      0.0000    768.0000     11.2160
   408.0000    110.2155      0.0000    768.0000     11.4346
   408.2500    110.3468      0.0000    768.0000     11.6033
   408.5000    110.0222      0.0000    768.0000     11.6923
   408.7500    109.4130      0.0000    768.0000     11.6772
   409.0000    108.0588      0.0000    768.0000     11.5622
   409.2500    105.3256      0.0000    768.0000     11.3678
   409.5000    101.4876      0.0000    768.0000     11.1182
   409.7500     97.7507      0.0000    768.0000     10.8598
   410.0000     95.1505      0.0000    768.0000     10.6796
   410.2500     93.9118      0.0000    768.0000     10.6711
   410.5000     93.8210      0.0000    768.0000     10.8635
   410.7500     94.5523      0.0000    768.0000     11.1889
   411.0000     95.5311      0.0000    768.0000     11.5296
   411.2500     95.9450      0.0000    768.0000     11.7972
   411.5000     95.1719      0.0000    768.0000     11.9602
   411.7500     93.2190      0.0000    768.0000     12.0124
   412.0000     90.8427      0.0000    768.0000     11.9467
   412.2500     89.1580      0.0000    768.0000     11.7725
   412.5000     88.7427      0.0000    768.0000     11.5478
   412.7500     89.0461      0.0000    768.0000     11.3832
   413.0000     88.9536      0.0000    768.0000     11.3849
   413.2500     87.8481      0.0000    768.0000     11.5491
   413.5000     85.8716      0.0000    768.0000     11.7223
   413.7500     83.4173      0.0000    768.0000     11.7216
   414.0000     80.8747      0.0000    768.0000     11.5060
   414.2500     78.8161      0.0000    768.0000     11.2040
   414.5000     77.9247      0.0000    768.0000     10.9785
   414.7500     78.3771      0.0000    768.0000     10.8874
   415.0000     79.4118      0.0000    768.0000     10.8662
   415.2500     79.9277      0.0000    768.0000     10.8198
   415.5000     79.6934      0.0000    768.0000     10.7248
   415.7500     79.6363      0.0000    768.0000     10.6456
   416.0000     80.7415      0.0000    768.0000     10.6622
   416.2500     82.9427      0.0000    768.0000     10.7941
   416.5000     85.2213      0.0000    768.0000     11.0010
   416.7500     86.5895      0.0000    767.9984     11.2330
   417.0000     86.8559      0.0000    767.9877     11.4533
   417.2500     86.3627      0.0000    767.9332     11.6260
   417.5000     85.0434      0.0000    767.7181     11.7223
   417.7500     82.1655      0.0000    767.0529     11.7564
   418.0000     77.3849      0.0000    765.4498     11.8039
   418.2500     71.7367      0.0000    762.4109     11.9539
   418.5000     67.0971      0.0000    757.8322     12.2332
   418.7500     64.7431      0.0000    752.2033     12.5945
   419.0000     64.6789      0.0000    746.2820     12.9761
   419.2500     66.1211      0.0000    740.5563     13.3424
   419.5000     68.2795      0.0000    735.0652     13.6595
   419.7500     70.7212      0.0000    729.6063     13.8707
   420.0000     73.2375      0.0000    724.2585     13.9252
   420.2500     75.4855      0.0000    720.0340     13.8229
   420.5000     76.8172      0.0000    718.7010     13.6177
   420.7500     76.6361      0.0000    721.2994     13.3897
   421.0000     75.0960      0.0000    726.8878     13.2103
   421.2500     73.3255      0.0000    733.1025     13.1081
   421.5000     72.6346      0.0000    737.9013     13.0572
   421.7500     73.3806      0.0000    740.9909     13.0195
   422.0000     74.6764      0.0000    743.9054     13.0027
   422.2500     75.0445      0.0000    748.3646     13.0550
   422.5000     73.2587      0.0000    754.3675     13.2090
   422.7500     69.0011      0.0000    760.2502     13.4560
   423.0000     63.1954      0.0000    764.4610     13.7678
   423.2500     57.6431      0.0000    766.7124     14.1027
   423.5000     54.1003      0.0000    767.6289     14.3762
   423.7500     53.5010      0.0000    767.9151     14.4696
   424.0000     55.6804      0.0000    767.9847     14.3159
   424.2500     59.6334      0.0000    767.9984     13.9677
   424.5000     64.2268      0.0000    768.0000     13.5674
   424.7500     68.8144      0.0000    768.0000     13.2610
   425.0000     73.1840      0.0000    768.0000     13.1284
   425.2500     77.1668      0.0000    768.0000     13.1630
   425.5000     80.5315      0.0000    768.0000     13.2943
   425.7500     83.1426      0.0000    767.9953     13.4277
   426.0000     85.0608      0.0000    767.9692     13.4606
   426.2500     86.5796      0.0000    767.8417     13.2888
   426.5000     88.3449      0.0000    767.3699     12.8389
   426.7500     91.3240      0.0000    766.0379     12.1178
   427.0000     96.1320      0.0000    763.2095     11.2359
   427.2500    101.9249      0.0000    758.7925     10.3836
   427.5000    106.3044      0.0000    753.9849      9.7637
   427.7500    107.1842      0.0000    750.9637      9.4992
   428.0000    104.7299      0.0000    751.2849      9.5720
   428.2500    100.8051      0.0000    754.6075      9.8541
   428.5000     96.8390      0.0000    759.1508     10.2085
   428.7500     93.0624      0.0000    763.1560     10.5516
   429.0000     89.5252      0.0000    765.8045     10.8176
   429.2500     86.8846      0.0000    767.1583     10.9124
   429.5000     85.9434      0.0000    767.5995     10.7562
   429.7500     86.8872      0.0000    767.3087     10.3669
   430.0000     89.1649      0.0000    765.9725      9.8714
   430.2500     91.7833      0.0000    762.8822      9.4275
   430.5000     93.6119      0.0000    757.5154      9.1316
   430.7500     93.8365      0.0000    750.1848      8.9945
   431.0000     92.6116      0.0000    741.8452      8.9841
   431.2500     91.1693      0.0000    732.8960      9.0711
   431.5000     90.7909      0.0000    722.6502      9.2137
   431.7500     91.5436      0.0000    710.9064      9.3248
   432.0000     92.2606      0.0000    700.1104      9.3141
   432.2500     91.7222      0.0000    694.7000      9.1895
   432.5000     89.5326      0.0000    697.0097      9.0902
   432.7500     85.9187      0.0000    703.8787      9.1818
   433.0000     81.3530      0.0000    708.4849      9.5042
   433.2500     76.6563      0.0000    706.6948      9.9238
   433.5000     72.8418      3.0000    701.4814     10.2426
   433.7500     70.3909      3.0000    699.7877     10.3682
   434.0000     68.9654      0.0000    704.3029     10.4000
   434.2500     68.0335      0.0000    709.9008     10.5626
   434.5000     67.5177      0.0000    709.9521     11.0308
   434.7500     67.7210      0.0000    705.3568     11.7692
   435.0000     68.9387      0.0000    704.5970     12.5209
   435.2500     71.3592      0.0000    714.1489     12.9905
   435.5000     75.0504      0.0000    731.4122     13.0444
   435.7500     79.6520      0.0000    748.3173     12.7298
   436.0000     84.1270      0.0000    759.2452     12.1551
   436.2500     87.2416      0.0000    763.8100     11.4040
   436.5000     88.5058      0.0000    764.4197     10.5444
   436.7500     88.5475      0.0000    763.6271      9.6698
   437.0000     88.6159      0.0000    763.1732      8.9022
   437.2500     89.7900      0.0000    763.7581      8.3381
   437.5000     92.3070      0.0000    765.0846      7.9957
   437.7500     95.2828      0.0000    766.4395      7.8158
   438.0000     97.3209      0.0000    767.3495      7.7206
   438.2500     97.7977      0.0000    767.7888      7.6643
   438.5000     97.4501      0.0000    767.9466      7.6374
   438.7500     97.4333      0.0000    767.9895      7.6416
