~Version Information
VERS.                      2.0: CWLS Log ASCII Standard - VERSION 2.0
WRAP.                       NO: One line per depth step
~Well Information Block
STRT.FT               580.0000: 
STOP.FT              1756.7500: 
STEP.FT                 0.2500: 
NULL.                -999.2500: 
COMP.          Pioneer Natural Resources: COMPANY
WELL.          Lookout Point 31-23 Tr: WELL
FLD.           Purgatoire River: FIELD
LOC.           541' FNL & 1786' FEL: LOCATION
PROV.                 Colorado: PROVINCE
CNTY.               Las Animas: COUNTRY
SRVC.                Patterson: SERVICE COMPANY
DATE.          Sun Jan 23 04:14:25 2005: LOG DATE
UWI.           05 071 08260 00: UNIQUE WELL ID
~Curve Information Block
DEPT.FT            0 000 00 00: Depth
DIR.Ohm-m                     : IEL Induction Resistivity
GR.GAPI                       : Gamma Ray
SN.Ohm-m                      : IEL Short Normal
SP.mV                         : IEL Spontaneous Potential
~Parameter Information Block
~A  Depth       DIR          GR          SN          SP     
# ...
   881.5000     21.1639     92.6168     30.7257     13.2252
   881.7500     21.5803     84.5618     32.4233     12.8733
   882.0000     22.1822     73.0174     34.3285     12.4827
   882.2500     23.0236     66.8575     36.3957     12.0838
   882.5000     24.1459     60.4065     38.5522     11.7007
   882.7500     25.5756     57.4784     40.6976     11.3423
   883.0000     27.3280     54.0928     42.7193     11.0054
   883.2500     29.3864     52.2178     44.5130     10.6864
   883.5000     31.6334     50.0999     46.0073     10.3934
   883.7500     33.7721     49.2502     47.1862     10.1503
   884.0000     35.3733     48.4429     48.0907      9.9891
   884.2500     36.1329     47.7352     48.8011      9.9367
   884.5000     36.1193     45.8374     49.4132     10.0017
   884.7500     35.7042     44.0981     50.0153     10.1689
   885.0000     35.2812     41.5112     50.6651     10.4021
   885.2500     35.0901     40.2864     51.3723     10.6553
   885.5000     35.2154     39.6283     52.0977     10.8858
   885.7500     35.6423     39.8952     52.7793     11.0622
   886.0000     36.2875     40.8619     53.3756     11.1643
   886.2500     37.0106     41.6296     53.8945     11.1741
   886.5000     37.6443     42.9909     54.3822     11.0698
   886.7500     38.0643     44.3788     54.8853     10.8287
   887.0000     38.2611     47.9259     55.4230     10.4409
   887.2500     38.3336     51.3701     55.9847      9.9221
   887.5000     38.4063     57.3362     56.5414      9.3163
   887.7500     38.5410     61.0448     57.0574      8.6834
   888.0000     38.7216     65.1565     57.5072      8.0796
   888.2500     38.9027     66.7234     57.8924      7.5430
   888.5000     39.0604     67.3879     58.2427      7.0888
   888.7500     39.2043     66.8308     58.5944      6.7143
   889.0000     39.3618     64.9046     58.9635      6.4055
   889.2500     39.5522     63.3233     59.3323      6.1439
   889.5000     39.7613     61.3113     59.6594      5.9102
   889.7500     39.9203     60.5037     59.9008      5.6850
   890.0000     39.9137     60.2173     60.0188      5.4478
   890.2500     39.6380     60.5664     59.9738      5.1751
   890.5000     39.0878     61.5360     59.7205      4.8437
   890.7500     38.3907     62.1637     59.2270      4.4399
   891.0000     37.7488     62.6122     58.4917      3.9726
   891.2500     37.3167     62.4530     57.5303      3.4818
   891.5000     37.1001     61.5102     56.3514      3.0369
   891.7500     36.9357     60.5376     54.9471      2.7232
   892.0000     36.5803     59.0751     53.3055      2.6211
   892.2500     35.8645     58.4628     51.4318      2.7847
   892.5000     34.7913     58.5403     49.3672      3.2260
   892.7500     33.4902     59.4864     47.1852      3.9098
   893.0000     32.0950     62.9613     44.9585      4.7616
   893.2500     30.6724     67.1534     42.7261      5.6840
   893.5000     29.2356     76.4596     40.4883      6.5775
   893.7500     27.7992     84.0738     38.2267      7.3557
   894.0000     26.4114     95.6123     35.9291      7.9562
   894.2500     25.1427    102.1777     33.6167      8.3490
   894.5000     24.0485    109.0921     31.3596      8.5444
   894.7500     23.1391    111.6040     29.2533      8.5993
   895.0000     22.3796    112.6133     27.3614      8.6114
   895.2500     21.7111    111.8834     25.6833      8.6978
   895.5000     21.0741    109.7356     24.1803      8.9630
   895.7500     20.4187    108.1769     22.8197      9.4703
   896.0000     19.7088    105.8676     21.5931     10.2302
   896.2500     18.9282    104.0505     20.5145     11.2098
   896.5000     18.0886    100.7178     19.6101     12.3540
   896.7500     17.2269     98.5810     18.8880     13.6039
   897.0000     16.3883     96.8699     18.3038     14.9026
   897.2500     15.6095     97.2486     17.7684     16.1891
   897.5000     14.9117    100.0605     17.1980     17.3912
   897.7500     14.3016    102.9937     16.5567     18.4271
   898.0000     13.7774    107.8087     15.8641     19.2202
   898.2500     13.3348    110.4630     15.1813     19.7180
   898.5000     12.9718    112.3925     14.5905     19.9078
   898.7500     12.6908    112.1528     14.1681     19.8205
   899.0000     12.4960    110.4519     13.9601     19.5228
   899.2500     12.3901    109.2731     13.9717     19.1034
   899.5000     12.3706    108.3549     14.1663     18.6576
   899.7500     12.4278    108.3542     14.4650     18.2753
   900.0000     12.5452    108.9134     14.7650     18.0315
   900.2500     12.6994    109.4217     14.9814     17.9799
   900.5000     12.8622    109.9150     15.0805     18.1468
   900.7500     13.0045    109.6594     15.0767     18.5274
   901.0000     13.0995    107.7006     15.0062     19.0862
   901.2500     13.1263    105.3421     14.9033     19.7626
   901.5000     13.0725    101.3694     14.7865     20.4822
   901.7500     12.9386     99.3994     14.6635     21.1685
   902.0000     12.7425     98.3900     14.5545     21.7516
   902.2500     12.5173     98.8857     14.5005     22.1734
   902.5000     12.3026    100.6358     14.5317     22.3895
   902.7500     12.1348    102.0844     14.6308     22.3710
   903.0000     12.0396    104.2350     14.7447     22.1073
   903.2500     12.0334    105.4356     14.8316     21.6093
   903.5000     12.1253    106.4027     14.8844     20.9112
   903.7500     12.3194    106.1145     14.9089     20.0701
   904.0000     12.6112    103.6849     14.8890     19.1632
   904.2500     12.9832    100.6225     14.7862     18.2807
   904.5000     13.4028     94.2269     14.5801     17.5124
   904.7500     13.8275     89.2258     14.3178     16.9308
   905.0000     14.2155     81.7647     14.1197     16.5734
   905.2500     14.5336     77.6699     14.1241     16.4346
   905.5000     14.7565     74.2841     14.4013     16.4721
   905.7500     14.8625     74.3119     14.8928     16.6252
   906.0000     14.8328     77.3568     15.4225     16.8367
   906.2500     14.6589     80.5853     15.7855     17.0688
   906.5000     14.3520     85.8533     15.8555     17.3030
   906.7500     13.9470     89.2060     15.6362     17.5326
   907.0000     13.4956     93.5546     15.2276     17.7528
   907.2500     13.0539     95.6816     14.7463     17.9578
   907.5000     12.6711     97.4182     14.2673     18.1449
   907.7500     12.3814     97.8317     13.8211     18.3191
   908.0000     12.1992     98.0562     13.4236     18.4916
   908.2500     12.1190     98.1962     13.1012     18.6746
   908.5000     12.1190     98.3674     12.8925     18.8732
   908.7500     12.1706     98.2868     12.8314     19.0834
   909.0000     12.2491     97.7220     12.9229     19.2932
   909.2500     12.3407     97.3705     13.1313     19.4853
   909.5000     12.4414     98.1799     13.3941     19.6409
   909.7500     12.5508    100.1465     13.6566     19.7432
   910.0000     12.6702    104.4309     13.9051     19.7797
   910.2500     12.8044    106.8639     14.1655     19.7431
   910.5000     12.9629    107.9306     14.4621     19.6287
   910.7500     13.1555    106.6407     14.7825     19.4328
   911.0000     13.3858    102.3833     15.0949     19.1532
   911.2500     13.6481     98.5272     15.3821     18.7945
   911.5000     13.9300     91.9288     15.6392     18.3728
   911.7500     14.2152     87.4836     15.8532     17.9195
   912.0000     14.4834     81.9601     16.0107     17.4790
   912.2500     14.7121     79.7563     16.1286     17.0989
   912.5000     14.8833     79.4030     16.2565     16.8159
   912.7500     14.9941     81.1423     16.4347     16.6421
   913.0000     15.0605     86.0144     16.6546     16.5598
   913.2500     15.1084     90.0834     16.8648     16.5327
   913.5000     15.1574     96.2402     17.0081     16.5266
   913.7500     15.2068     99.9128     17.0493     16.5258
   914.0000     15.2303    104.3157     16.9812     16.5356
   914.2500     15.1872    106.3030     16.8223     16.5683
   914.5000     15.0494    107.5392     16.6055     16.6300
   914.7500     14.8295    107.1883     16.3632     16.7156
