~Version Information
VERS.                      2.0: CWLS Log ASCII Standard - VERSION 2.0
WRAP.                       NO: One line per depth step
~Well Information Block
STRT.FT               665.0000: 
STOP.FT              1972.0000: 
STEP.FT                 0.2500: 
NULL.                -999.2500: 
COMP.          Petrogulf Corporation: COMPANY
WELL.          Great Plains 22-21V: WELL
FLD.           Purgatorie River: FIELD
LOC.           63' FNL & 1895' FWL: LOCATION
PROV.                 Colorado: PROVINCE
CNTY.               Las Animas: COUNTRY
SRVC.                Patterson: SERVICE COMPANY
DATE.          Thu Sep 01 07:36:33 2005: LOG DATE
UWI.                          : UNIQUE WELL ID
~Curve Information Block
DEPT.FT            0 000 00 00: Depth
SP.mV                         : DIL Spontaneous Potential
RILD.Ohm-m                    : DIL Deep Resistivity
RILM.Ohm-m                    : DIL Medium Resistivity
RLL3.Ohm-m                    : DIL Shallow Resistivity
GR.GAPI                       : Gamma Ray
~Parameter Information Block
~A  Depth        SP         RILD        RILM        RLL3         GR     
# ...
  1533.0000    161.8845     15.7491     16.7897     19.5308     64.1516
  1533.2500    161.4660     15.5085     16.3716     19.2235     66.9146
  1533.5000    161.0361     15.2730     16.4759     18.3937     65.2572
  1533.7500    160.5672     15.1714     16.1499     17.8163     52.4810
  1534.0000    160.1043     15.1551     15.8184     17.5678     55.3318
  1534.2500    159.6330     15.0822     15.2894     17.8785     47.9718
  1534.5000    159.2631     14.6852     15.3741     18.5038     73.5790
  1534.7500    158.9429     14.8140     15.4037     18.5018     59.0269
  1535.0000    158.6878     15.0375     14.9324     18.1269     47.2688
  1535.2500    158.5108     14.9519     14.8945     17.8210     44.7151
  1535.5000    158.4092     14.7524     14.6550     17.7604     52.3471
  1535.7500    158.3425     15.3610     14.5407     17.5239     52.8301
  1536.0000    158.2250     15.5562     14.8039     17.1369     53.2402
  1536.2500    158.0876     15.4673     15.3949     17.2116     43.5402
  1536.5000    157.9794     16.1761     15.2969     17.7401     57.3933
  1536.7500    157.7713     16.5152     15.9239     19.0615     52.3714
  1537.0000    157.6297     16.6021     16.6538     20.8838     40.5002
  1537.2500    157.4114     16.8176     17.6494     23.2220     40.8112
  1537.5000    157.5093     17.1401     18.1630     25.1327     36.4391
  1537.7500    157.7154     17.3931     18.7893     26.0130     23.4193
  1538.0000    157.9781     17.3434     19.0825     26.5261     37.9498
  1538.2500    158.2586     17.4879     19.2686     27.9452     40.8960
  1538.5000    158.6060     17.5803     19.0274     29.1485     43.2021
  1538.7500    159.0813     18.7247     19.0502     28.2268     46.9624
  1539.0000    159.4834     18.4140     19.5984     26.1313     52.0935
  1539.2500    159.8937     18.2416     19.5859     23.1476     66.9784
  1539.5000    160.2135     18.6663     19.1526     21.0279     70.4617
  1539.7500    160.5090     19.1840     19.4909     20.3722     76.6876
  1540.0000    160.9366     19.1938     19.8303     20.7678     90.5002
  1540.2500    161.4808     19.2363     19.6210     20.9856     75.0736
  1540.5000    162.1739     19.5748     19.8393     21.5477     70.3144
  1540.7500    162.9227     19.3999     20.2535     23.3571     70.5308
  1541.0000    163.7573     19.1746     20.3992     25.0520     69.7101
  1541.2500    164.3840     18.8548     20.5915     25.2573     68.2385
  1541.5000    164.3326     18.3131     21.2174     25.6460     59.3257
  1541.7500    164.1829     18.2235     21.1292     26.3527     54.5263
  1542.0000    164.8433     17.9133     21.5557     26.0955     59.5727
  1542.2500    165.5174     18.8751     21.6192     25.6610     55.2634
  1542.5000    166.1519     18.2275     20.2751     25.5960     43.9261
  1542.7500    166.7735     18.1065     20.1526     24.5919     53.4821
  1543.0000    167.2183     17.8998     19.7365     23.4653     50.5734
  1543.2500    167.5777     18.0680     19.2163     22.7507     63.1539
  1543.5000    167.8147     17.6962     18.1116     22.4008     55.4917
  1543.7500    168.1989     17.3849     17.3547     21.8012     65.1964
  1544.0000    168.5722     17.3771     16.8041     19.9922     90.7520
  1544.2500    168.6929     17.4179     15.9778     17.3952     99.1064
  1544.5000    168.0307     17.5758     15.6707     16.1053    103.0755
  1544.7500    167.7453     17.2791     15.8327     15.9579    104.7565
  1545.0000    167.7351     17.4462     16.0352     16.7504    106.4777
  1545.2500    167.4955     17.0640     17.0508     17.7316    105.1826
  1545.5000    166.7377     17.8103     17.3293     19.0564     62.8412
  1545.7500    166.1894     17.6611     18.8134     20.8250     64.0727
  1546.0000    166.3047     18.3168     18.8791     23.4906     57.7010
  1546.2500    166.4798     18.0368     19.1729     26.7238     46.1549
  1546.5000    167.0138     17.8971     19.6710     29.0791     49.4737
  1546.7500    167.6611     18.5087     19.8600     29.4602     51.3704
  1547.0000    168.2859     18.4562     19.8921     29.1192     40.7969
  1547.2500    168.7583     18.7444     19.8361     28.0674     35.1947
  1547.5000    168.6992     19.3541     20.0270     25.7405     51.4276
  1547.7500    167.9878     19.2503     20.6356     23.7075     70.5376
  1548.0000    167.5840     20.0182     20.6183     22.3759     67.5155
  1548.2500    167.4488     20.3201     21.1310     23.0242     57.7115
  1548.5000    167.3152     20.3895     21.6938     25.0148     45.7659
  1548.7500    167.0600     20.5000     21.9636     25.5606     43.1960
  1549.0000    166.9246     20.9206     22.9792     24.9229     46.6525
  1549.2500    166.8168     20.5910     22.4233     26.3606     55.7728
  1549.5000    166.8158     20.3577     23.5222     29.3160     43.1906
  1549.7500    166.8711     19.7938     22.7062     30.4436     46.3323
  1550.0000    166.8732     20.0237     22.3807     29.7084     47.9513
  1550.2500    166.7579     19.7021     22.1723     27.9054     59.7830
  1550.5000    166.9880     20.0327     21.9482     24.7588     70.6424
  1550.7500    167.4621     20.1780     21.7999     22.6773     67.1870
  1551.0000    167.9838     20.0373     21.8027     21.4774     67.3820
  1551.2500    168.3069     19.8007     21.4901     22.3586     69.8814
  1551.5000    168.2465     19.5754     22.1065     25.3120     58.3107
  1551.7500    168.0554     18.8468     21.1852     27.2561     49.3142
  1552.0000    168.3817     18.5228     20.4497     26.9499     49.8704
  1552.2500    168.7144     18.4948     19.9221     25.5748     63.8567
  1552.5000    169.0062     18.4286     19.1644     23.8808     88.1057
  1552.7500    169.3190     18.9221     18.0651     21.3267     92.8064
  1553.0000    169.4609     19.1502     17.8312     18.0143    100.6416
  1553.2500    169.2402     19.5049     17.9130     15.6322    112.8755
  1553.5000    169.2501     19.3376     18.2244     16.6468     82.9502
  1553.7500    169.3058     19.4658     18.8172     20.5401     63.6574
  1554.0000    169.4645     19.6293     19.7841     22.5767     71.3312
  1554.2500    169.7411     19.2335     20.4592     22.8518     64.8898
  1554.5000    170.1513     18.9684     20.9352     24.1700     52.7973
  1554.7500    170.6983     18.7118     21.5785     27.0852     54.5103
  1555.0000    171.3300     18.4664     21.7916     30.4529     48.4882
  1555.2500    172.0992     17.6176     21.4944     31.6281     57.3341
  1555.5000    172.9505     17.6121     20.8650     31.8027     55.8252
  1555.7500    173.7507     17.5434     19.4713     32.3153     59.7969
  1556.0000    174.6660     17.8178     18.3523     29.6437     66.3184
  1556.2500    175.3955     17.4512     17.7930     22.4835     80.2414
  1556.5000    175.7881     17.4692     16.7738     16.4563    103.2706
  1556.7500    175.8633     17.6239     16.2444     14.9650    116.3368
  1557.0000    175.7809     17.4306     15.9480     15.7224    105.7878
  1557.2500    175.6192     17.0303     16.2309     15.5791    111.3325
  1557.5000    175.3403     16.6945     16.2297     16.2396    111.9821
  1557.7500    175.0788     16.1781     16.2977     18.0278     93.6580
  1558.0000    174.8125     15.8681     16.2313     18.9425     78.4811
  1558.2500    174.5171     15.1179     16.0119     19.4951     62.5386
  1558.5000    174.2647     14.9773     15.4756     19.6539     66.2507
  1558.7500    174.0899     14.6841     15.2504     19.1608     66.0049
  1559.0000    173.9763     14.6669     14.9106     17.9579     74.1229
  1559.2500    173.9811     14.7047     14.3438     16.9478     79.1163
  1559.5000    174.1038     14.8011     14.3349     16.4393     72.6324
  1559.7500    174.3362     14.8745     14.2288     16.1774     73.1236
  1560.0000    174.5898     15.0626     14.1878     15.9056     81.2959
  1560.2500    174.7883     15.3697     14.2073     15.4340     70.3391
  1560.5000    174.6177     15.5262     14.1935     15.4140     64.9234
  1560.7500    174.2215     15.3304     14.6638     15.8225     61.8885
