~Version Information
VERS.                      2.0: CWLS Log ASCII Standard - VERSION 2.0
WRAP.                       NO: One line per depth step
~Well Information Block
STRT.FT                -8.7500: 
STOP.FT              1126.7500: 
STEP.FT                 0.2500: 
NULL.                -999.2500: 
COMP.          Evergreen Operating Corp.: COMPANY
WELL.             Bernice 21-3: WELL
FLD.           Purgatorie River: FIELD
LOC.           201' FNL & 2575' FWL--: LOCATION
PROV.                       CO: PROVINCE
CNTY.               Las Animas: COUNTRY
SRVC.          Patterson Wireline: SERVICE COMPANY
DATE.          Mon Feb 02 12:04:59 2004: LOG DATE
UWI.              05 071 07912: UNIQUE WELL ID
~Curve Information Block
DEPT.FT            0 000 00 00: Depth
CCL.                          : Casing Collar Locator
TT3.usec                      : CBL 3' Travel Time
AMP3.mV                       : CBL 3' Amplitude
GR.GAPI                       : Gamma Ray
~Parameter Information Block
~A  Depth       CCL         TT3         AMP3         GR     
# ...
   125.2500      0.0000    911.8456      9.1079     43.2119
   125.5000      0.0000    915.8666      9.2764     45.3738
   125.7500      0.0000    920.8426      9.3936     47.9008
   126.0000      0.0000    924.4250      9.4595     50.5194
   126.2500      0.0000    923.5414      9.4828     52.7616
   126.5000      0.0000    916.6786      9.4729     54.0687
   126.7500      0.0000    905.5131      9.4450     54.2257
   127.0000      0.0000    894.1880      9.4256     53.5885
   127.2500      0.0000    886.7285      9.4347     52.8060
   127.5000      0.0000    884.8235      9.4552     52.3008
   127.7500      0.0000    887.5735      9.4337     51.9258
   128.0000      0.0000    892.6475      9.3256     51.0827
   128.2500      0.0000    897.3739      9.1427     49.2920
   128.5000      0.0000    899.5655      8.9539     46.7929
   128.7500      0.0000    898.5001      8.8399     44.6718
   129.0000      0.0000    895.1896      8.8476     44.2646
   129.2500      0.0000    891.1553      8.9712     46.1728
   129.5000      0.0000    887.1156      9.1617     49.8057
   129.7500      0.0000    883.4358      9.3540     54.0336
   130.0000      0.0000    881.7399      9.4994     58.2244
   130.2500      0.0000    885.0492      9.5825     62.3905
   130.5000      0.0000    895.2655      9.6129     66.4425
   130.7500      0.0000    910.5353      9.6040     69.7008
   131.0000      0.0000    926.0245      9.5598     71.2150
   131.2500      0.0000    937.5285      9.4786     70.4480
   131.5000      0.0000    943.8456      9.3660     67.8066
   131.7500      0.0000    945.8612      9.2416     64.6424
   132.0000      0.0000    944.1545      9.1303     62.5484
   132.2500      0.0000    937.5598      9.0448     62.4072
   132.5000      0.0000    923.7458      8.9806     63.8344
   132.7500      0.0000    901.7802      8.9296     65.3673
   133.0000      0.0000    875.0026      8.8902     65.3994
   133.2500      0.0000    850.9595      8.8567     63.3212
   133.5000      0.0000    837.1180      8.8088     59.8571
   133.7500      0.0000    835.9194      8.7249     56.2597
   134.0000      0.0000    843.8825      8.6067     53.1881
   134.2500      0.0000    854.9591      8.4909     50.3231
   134.5000      0.0000    864.4210      8.4355     46.9181
   134.7500      0.0000    870.4504      8.4832     42.7545
   135.0000      0.0000    873.5711      8.6276     38.7623
   135.2500      0.0000    875.4352      8.8192     36.5893
   135.5000      0.0000    878.0921      9.0119     37.2095
   135.7500      0.0000    883.5228      9.1992     39.9260
   136.0000      0.0000    892.6727      9.3974     42.9262
   136.2500      0.0000    904.1793      9.5967     44.6619
   136.5000      0.0000    914.2015      9.7363     44.6365
   136.7500      0.0000    917.7014      9.7293     43.4523
   137.0000      0.0000    910.0979      9.5155     42.4913
   137.2500      0.0000    889.7786      9.1010     43.1042
   137.5000      0.0000    862.4659      8.5596     45.7112
   137.7500      0.0000    842.5533      7.9921     49.7374
   138.0000      0.0000    845.4351      7.4809     54.1520
   138.2500      0.0000    875.5830      7.0818     57.7634
   138.5000      0.0000    923.4943      6.8452     59.5029
   138.7500      0.0000    973.8925      6.8081     59.0989
   139.0000      0.0000   1014.0474      6.9553     57.4456
   139.2500      0.0000   1035.1943      7.2055     55.9622
   139.5000      4.0000   1032.3257      7.4539     55.4960
   139.7500      4.0000   1007.3455      7.6446     55.8410
   140.0000      0.0000    970.5029      7.8210     56.3371
   140.2500      0.0000    934.4297      8.0972     56.9511
   140.5000      0.0000    906.2928      8.5420     58.6382
   140.7500      0.0000    886.6786      9.0789     62.4695
   141.0000      0.0000    874.0751      9.5218     68.4548
   141.2500      0.0000    867.8170      9.7163     75.2528
   141.5000      0.0000    867.3716      9.6378     81.0128
   141.7500      0.0000    871.2376      9.3814     84.6666
   142.0000      0.0000    877.4992      9.0954     86.6236
   142.2500      0.0000    884.3795      8.9036     88.1567
   142.5000      0.0000    890.1019      8.8474     90.0043
   142.7500      0.0000    893.1434      8.8843     91.5294
   143.0000      0.0000    893.4483      8.9413     91.3002
   143.2500      0.0000    892.8888      8.9712     88.6956
   143.5000      0.0000    893.7563      8.9710     85.0387
   143.7500      0.0000    896.7442      8.9643     82.7793
   144.0000      0.0000    900.6881      8.9701     83.1950
   144.2500      0.0000    904.0517      8.9858     85.0624
   144.5000      0.0000    906.1993      8.9973     85.8582
   144.7500      0.0000    907.3680      8.9971     84.1205
   145.0000      0.0000    908.0094      8.9817     80.5104
   145.2500      0.0000    908.3978      8.9338     76.8830
   145.5000      0.0000    908.6205      8.8308     74.8394
   145.7500      0.0000    908.6375      8.6807     75.1443
   146.0000      0.0000    908.2811      8.5384     77.7412
   146.2500      0.0000    907.2434      8.4674     81.4908
   146.5000      0.0000    905.0765      8.4857     84.1720
   146.7500      0.0000    901.2437      8.5511     83.8211
   147.0000      0.0000    895.1855      8.5964     80.4837
   147.2500      0.0000    886.5315      8.5785     76.0687
   147.5000      0.0000    875.8144      8.5017     72.3634
   147.7500      0.0000    865.3467      8.4011     69.7492
   148.0000      0.0000    858.5939      8.3051     67.7756
   148.2500      0.0000    857.5410      8.2192     66.2533
   148.5000      0.0000    860.8656      8.1460     65.5971
   148.7500      0.0000    865.3428      8.1079     66.5076
   149.0000      0.0000    868.6128      8.1325     69.3608
   149.2500      0.0000    870.2006      8.2193     73.5380
   149.5000      0.0000    870.5839      8.3359     77.3365
   149.7500      0.0000    870.0414      8.4477     78.9321
   150.0000      0.0000    868.2110      8.5349     77.6765
   150.2500      0.0000    864.4471      8.5784     74.4398
   150.5000      0.0000    858.8976      8.5471     70.7704
   150.7500      0.0000    853.4713      8.4204     67.8168
   151.0000      0.0000    851.0775      8.2285     65.9891
   151.2500      0.0000    853.1583      8.0587     65.3406
   151.5000      0.0000    858.2494      8.0035     65.8593
   151.7500      0.0000    863.4621      8.0954     67.2054
   152.0000      0.0000    866.9487      8.2948     68.5992
   152.2500      0.0000    868.6212      8.5328     69.4375
   152.5000      0.0000    869.2080      8.7521     69.9361
   152.7500      0.0000    869.3098      8.9098     70.9375
   153.0000      0.0000    869.1861      8.9674     73.1353
   153.2500      0.0000    868.9440      8.9072     76.5557
   153.5000      0.0000    868.6893      8.7666     80.6497
   153.7500      0.0000    868.5319      8.6336     84.7718
   154.0000      0.0000    868.5123      8.5853     88.5475
   154.2500      0.0000    868.5844      8.6267     91.7696
   154.5000      0.0000    868.6685      8.6945     93.9370
   154.7500      0.0000    868.7213      8.7159     94.1162
   155.0000      0.0000    868.7512      8.6622     91.7192
   155.2500      0.0000    868.7741      8.5659     87.4979
   155.5000      0.0000    868.7739      8.4919     83.3100
   155.7500      0.0000    868.7179      8.4847     80.7589
   156.0000      0.0000    868.6093      8.5332     80.3805
   156.2500      0.0000    868.5397      8.5871     82.0156
   156.5000      0.0000    868.7148      8.6044     85.2421
   156.7500      0.0000    869.4387      8.5862     89.1565
   157.0000      0.0000    870.9564      8.5739     92.2609
   157.2500      0.0000    873.0817      8.6121     93.2507
   157.5000      0.0000    874.9109      8.7086     92.0190
   157.7500      0.0000    875.2237      8.8280     89.5032
   158.0000      0.0000    873.5076      8.9234     86.4806
   158.2500      0.0000    870.4944      8.9726     83.1581
   158.5000      0.0000    867.4462      8.9868     80.1380
