~Version Information
VERS.                      2.0: CWLS Log ASCII Standard - VERSION 2.0
WRAP.                       NO: One line per depth step
~Well Information Block
STRT.FT               450.0000: 
STOP.FT              1642.0000: 
STEP.FT                 0.1000: 
NULL.                -999.2500: 
COMP.          Pioneer Natural Resources: COMPANY
WELL.           Buckhorn 12-21: WELL
FLD.           Purgatoire River: FIELD
LOC.           2450' FNL & 608' FWL: LOCATION
PROV.                 Colorado: PROVINCE
CNTY.               Las Animas: COUNTRY
SRVC.                Patterson: SERVICE COMPANY
DATE.          Wed Dec 01 15:08:21 2004: LOG DATE
UWI.           05 071 08129 00: UNIQUE WELL ID
~Curve Information Block
DEPT.FT            0 000 00 00: Depth
NPOR.pu                       : Neutron Porosity
CCL.                          : Casing Collar Locator
GR.GAPI                       : Gamma Ray
~Parameter Information Block
~A  Depth       NPOR        CCL          GR     
# ...
  1151.4000     37.7461      0.0000     48.0388
  1151.5000     37.5398      0.0000     51.4095
  1151.6000     37.5398      0.0000     51.4095
  1151.7000     37.5398      0.0000     51.4095
  1151.8000     37.3847      0.0000     55.3957
  1151.9000     37.3847      0.0000     55.3957
  1152.0000     37.2630      0.0000     59.5995
  1152.1000     37.2630      0.0000     59.5995
  1152.2000     37.2630      0.0000     59.5995
  1152.3000     37.1737      0.0000     63.8522
  1152.4000     37.1737      0.0000     63.8522
  1152.5000     37.1234      0.0000     67.9939
  1152.6000     37.1234      0.0000     67.9939
  1152.7000     37.1234      0.0000     67.9939
  1152.8000     37.1127      0.0000     71.9103
  1152.9000     37.1127      0.0000     71.9103
  1153.0000     37.1306      0.0000     75.3097
  1153.1000     37.1306      0.0000     75.3097
  1153.2000     37.1306      0.0000     75.3097
  1153.3000     37.1513      0.0000     77.6972
  1153.4000     37.1513      0.0000     77.6972
  1153.5000     37.1371      0.0000     79.0999
  1153.6000     37.1371      0.0000     79.0999
  1153.7000     37.1371      0.0000     79.0999
  1153.8000     37.0468      0.0000     80.7299
  1153.9000     37.0468      0.0000     80.7299
  1154.0000     36.8484      2.0000     84.4910
  1154.1000     36.8484     -2.0000     84.4910
  1154.2000     36.8484      0.0000     84.4910
  1154.3000     36.5405      0.0000     91.6455
  1154.4000     36.5405      0.0000     91.6455
  1154.5000     36.1738      0.0000    101.9474
  1154.6000     36.1738      0.0000    101.9474
  1154.7000     36.1738      0.0000    101.9474
  1154.8000     35.8379      0.0000    113.9253
  1154.9000     35.8379      0.0000    113.9253
  1155.0000     35.6006      0.0000    125.7033
  1155.1000     35.6006      0.0000    125.7033
  1155.2000     35.6006      0.0000    125.7033
  1155.3000     35.4630      0.0000    135.4215
  1155.4000     35.4630      0.0000    135.4215
  1155.5000     35.3941      0.0000    141.4024
  1155.6000     35.3941      0.0000    141.4024
  1155.7000     35.3941      0.0000    141.4024
  1155.8000     35.3988      0.0000    142.6252
  1155.9000     35.3988      0.0000    142.6252
  1156.0000     35.5175      0.0000    139.0068
  1156.1000     35.5175      0.0000    139.0068
  1156.2000     35.5175      0.0000    139.0068
  1156.3000     35.7674      0.0000    131.0061
  1156.4000     35.7674      0.0000    131.0061
  1156.5000     36.1168      0.0000    119.5610
  1156.6000     36.1168      0.0000    119.5610
  1156.7000     36.1168      0.0000    119.5610
  1156.8000     36.5016      0.0000    106.7612
  1156.9000     36.5016      0.0000    106.7612
  1157.0000     36.8404      0.0000     95.6484
  1157.1000     36.8404      0.0000     95.6484
  1157.2000     36.8404      0.0000     95.6484
  1157.3000     37.0480      0.0000     88.5138
  1157.4000     37.0480      0.0000     88.5138
  1157.5000     37.0338      0.0000     85.6707
  1157.6000     37.0338      0.0000     85.6707
  1157.7000     37.0338      0.0000     85.6707
  1157.8000     36.6769      0.0000     86.2202
  1157.9000     36.6769      0.0000     86.2202
  1158.0000     35.8460      0.0000     89.4890
  1158.1000     35.8460      0.0000     89.4890
  1158.2000     35.8460      0.0000     89.4890
  1158.3000     34.5063      0.0000     95.1962
  1158.4000     34.5063      0.0000     95.1962
  1158.5000     32.8282      0.0000    102.6994
  1158.6000     32.8282      0.0000    102.6994
  1158.7000     32.8282      0.0000    102.6994
  1158.8000     31.1839      0.0000    111.0031
  1158.9000     31.1839      0.0000    111.0031
  1159.0000     30.0180      0.0000    119.6258
  1159.1000     30.0180      0.0000    119.6258
  1159.2000     30.0180      0.0000    119.6258
  1159.3000     29.6610      0.0000    128.6616
  1159.4000     29.6610      0.0000    128.6616
  1159.5000     30.1736      0.0000    137.6227
  1159.6000     30.1736      0.0000    137.6227
  1159.7000     30.1736      0.0000    137.6227
  1159.8000     31.2903      0.0000    144.8237
  1159.9000     31.2903      0.0000    144.8237
  1160.0000     32.5104      0.0000    148.3637
  1160.1000     32.5104      0.0000    148.3637
  1160.2000     32.5104      0.0000    148.3637
  1160.3000     33.3404      0.0000    147.4048
  1160.4000     33.3404      0.0000    147.4048
  1160.5000     33.5588      0.0000    142.3876
  1160.6000     33.5588      0.0000    142.3876
  1160.7000     33.5588      0.0000    142.3876
  1160.8000     33.2990      0.0000    134.6501
  1160.9000     33.2990      0.0000    134.6501
  1161.0000     32.8837      0.0000    126.1962
  1161.1000     32.8837      0.0000    126.1962
  1161.2000     32.8837      0.0000    126.1962
  1161.3000     32.5713      0.0000    119.4581
  1161.4000     32.5713      0.0000    119.4581
  1161.5000     32.4215      0.0000    116.7753
  1161.6000     32.4215      0.0000    116.7753
  1161.7000     32.4215      0.0000    116.7753
  1161.8000     32.3212      0.0000    119.4634
  1161.9000     32.3212      0.0000    119.4634
  1162.0000     32.0956      0.0000    126.6182
  1162.1000     32.0956      0.0000    126.6182
  1162.2000     32.0956      0.0000    126.6182
  1162.3000     31.6479      0.0000    134.9334
  1162.4000     31.6479      0.0000    134.9334
  1162.5000     31.0592      0.0000    140.7101
  1162.6000     31.0592      0.0000    140.7101
  1162.7000     31.0592      0.0000    140.7101
  1162.8000     30.5328      0.0000    142.6721
  1162.9000     30.5328      0.0000    142.6721
  1163.0000     30.2098      0.0000    142.5969
  1163.1000     30.2098      0.0000    142.5969
  1163.2000     30.2098      0.0000    142.5969
  1163.3000     30.0758      0.0000    143.0500
  1163.4000     30.0758      0.0000    143.0500
  1163.5000     30.0640      0.0000    144.8480
  1163.6000     30.0640      0.0000    144.8480
  1163.7000     30.0640      0.0000    144.8480
  1163.8000     30.1844      0.0000    146.8161
  1163.9000     30.1844      0.0000    146.8161
  1164.0000     30.4925      0.0000    147.5195
  1164.1000     30.4925      0.0000    147.5195
  1164.2000     30.4925      0.0000    147.5195
  1164.3000     30.9644      0.0000    146.8110
  1164.4000     30.9644      0.0000    146.8110
  1164.5000     31.4653      0.0000    145.7477
  1164.6000     31.4653      0.0000    145.7477
  1164.7000     31.4653      0.0000    145.7477
  1164.8000     31.8464      0.0000    145.2822
  1164.9000     31.8464      0.0000    145.2822
  1165.0000     32.0369      0.0000    145.2964
  1165.1000     32.0369      0.0000    145.2964
  1165.2000     32.0369      0.0000    145.2964
  1165.3000     32.0417      0.0000    145.0728
  1165.4000     32.0417      0.0000    145.0728
  1165.5000     31.8925      0.0000    144.4435
  1165.6000     31.8925      0.0000    144.4435
  1165.7000     31.8925      0.0000    144.4435
  1165.8000     31.6210      0.0000    143.9826
  1165.9000     31.6210      0.0000    143.9826
  1166.0000     31.2512      0.0000    144.1018
  1166.1000     31.2512      0.0000    144.1018
  1166.2000     31.2512      0.0000    144.1018
  1166.3000     30.7886      0.0000    144.4876
  1166.4000     30.7886      0.0000    144.4876
  1166.5000     30.2210      0.0000    144.5970
  1166.6000     30.2210      0.0000    144.5970
  1166.7000     30.2210      0.0000    144.5970
  1166.8000     29.5522      0.0000    144.3310
  1166.9000     29.5522      0.0000    144.3310
  1167.0000     28.8667      0.0000    143.9486
  1167.1000     28.8667      0.0000    143.9486
  1167.2000     28.8667      0.0000    143.9486
  1167.3000     28.3602      0.0000    143.6336
  1167.4000     28.3602      0.0000    143.6336
  1167.5000     28.2660      0.0000    143.5410
  1167.6000     28.2660      0.0000    143.5410
  1167.7000     28.2660      0.0000    143.5410
  1167.8000     28.7038      0.0000    144.0474
  1167.9000     28.7038      0.0000    144.0474
  1168.0000     29.5847      0.0000    145.4232
