~Version Information
VERS.                      2.0: CWLS Log ASCII Standard - VERSION 2.0
WRAP.                       NO: One line per depth step
~Well Information Block
STRT.FT                -3.7500: 
STOP.FT               930.7500: 
STEP.FT                 0.2500: 
NULL.                -999.2500: 
COMP.          Pioneer Natural Resources: COMPANY
WELL.                Pug 33-19: WELL
FLD.           Purgatorie River: FIELD
LOC.           1381' FSL & 2140' FEL--: LOCATION
PROV.                       CO: PROVINCE
CNTY.               Las Animas: COUNTRY
SRVC.                         : SERVICE COMPANY
DATE.          Mon Dec 20 15:44:45 2004: LOG DATE
UWI.                          : UNIQUE WELL ID
~Curve Information Block
DEPT.FT            0 000 00 00: Depth
GR.GAPI                       : Gamma Ray
CCL.                          : Casing Collar Locator
TT3.usec                      : CBL 3' Travel Time
AMP3.mV                       : CBL 3' Amplitude
~Parameter Information Block
~A  Depth        GR         CCL         TT3         AMP3    
    -3.7500   -999.2500   -999.2500   -999.2500   -999.2500
    -3.5000   -999.2500   -999.2500   -999.2500   -999.2500
    -3.2500   -999.2500   -999.2500   -999.2500   -999.2500
    -3.0000   -999.2500   -999.2500   -999.2500   -999.2500
    -2.7500   -999.2500   -999.2500   -999.2500   -999.2500
    -2.5000   -999.2500   -999.2500   -999.2500   -999.2500
    -2.2500   -999.2500   -999.2500    921.0000      1.8445
    -2.0000   -999.2500   -999.2500    921.0000      1.8219
    -1.7500   -999.2500   -999.2500    921.0000      1.8036
    -1.5000   -999.2500   -999.2500    921.0000      1.7963
    -1.2500   -999.2500   -999.2500    921.0000      1.8021
    -1.0000   -999.2500   -999.2500    921.0000      1.8176
    -0.7500   -999.2500   -999.2500    921.0000      1.8396
    -0.5000   -999.2500   -999.2500    921.0000      1.8660
    -0.2500   -999.2500   -999.2500    921.0000      1.8891
     0.0000   -999.2500   -999.2500    921.0000      1.8907
     0.2500   -999.2500   -999.2500    921.0000      1.8778
     0.5000   -999.2500   -999.2500    921.0000      1.8716
     0.7500   -999.2500   -999.2500    921.0000      1.8738
     1.0000   -999.2500   -999.2500    921.0000      1.8864
     1.2500   -999.2500   -999.2500    921.0000      1.8992
     1.5000   -999.2500   -999.2500    921.0000      1.9173
     1.7500   -999.2500   -999.2500    921.0000      1.9304
     2.0000   -999.2500   -999.2500    920.9579      1.9293
     2.2500   -999.2500   -999.2500    920.6840      1.9208
     2.5000   -999.2500   -999.2500    919.2928      1.9566
     2.7500   -999.2500      0.0000    913.7936      2.1977
     3.0000   -999.2500      0.0000    896.8672      3.0129
     3.2500   -999.2500      0.0000    856.3194      4.9712
     3.5000   -999.2500      0.0000    780.7740      8.5067
     3.7500   -999.2500      0.0000    671.4645     13.3428
     4.0000   -999.2500      0.0000    548.9832     18.3121
     4.2500   -999.2500      0.0000    443.2971     22.0661
     4.5000   -999.2500      0.0000    373.7411     24.0935
     4.7500   -999.2500      0.0000    339.1261     24.9410
     5.0000   -999.2500      0.0000    325.6593     25.4689
     5.2500   -999.2500      0.0000    320.8480     26.0199
     5.5000   -999.2500      0.0000    320.7556     26.2576
     5.7500   -999.2500      0.0000    328.6664     25.6419
     6.0000   -999.2500      0.0000    349.5013     23.9744
     6.2500   -999.2500      0.0000    383.7437     21.5406
     6.5000   -999.2500      0.0000    423.7302     18.8643
     6.7500   -999.2500      0.0000    455.3969     16.4071
     7.0000   -999.2500      0.0000    466.3952     14.4352
     7.2500   -999.2500      0.0000    455.5215     13.0268
     7.5000   -999.2500      0.0000    433.8733     12.1312
     7.7500   -999.2500      0.0000    415.2188     11.6245
     8.0000     98.6321      0.0000    405.6806     11.3623
     8.2500     93.4703      0.0000    402.7664     11.2265
     8.5000     87.4576      0.0000    401.5367     11.1466
     8.7500     82.3252      0.0000    399.7917     11.0872
     9.0000     79.1880      0.0000    399.0127     11.0304
     9.2500     78.2613      0.0000    403.1406     10.9748
     9.5000     79.1463      0.0000    417.3907     10.9388
     9.7500     81.2392      0.0000    446.5933     10.9496
    10.0000     84.0371      0.0000    491.9551     11.0263
    10.2500     87.2710      0.0000    547.5774     11.1710
    10.5000     90.5671      0.0000    601.1294     11.3756
    10.7500     92.8835      0.0000    640.6751     11.6317
    11.0000     92.7262      0.0000    662.8524     11.9306
    11.2500     89.2575      0.0000    674.5838     12.2556
    11.5000     83.0170      0.0000    686.5097     12.5812
    11.7500     75.4968      0.0000    704.5350     12.8826
    12.0000     68.2371      0.0000    726.7805     13.1471
    12.2500     62.2492      0.0000    747.2227     13.3733
    12.5000     57.8711      0.0000    761.3607     13.5592
    12.7500     54.9046      0.0000    768.7598     13.6895
    13.0000     52.8725      0.0000    771.6403     13.7381
    13.2500     51.2508      0.0000    772.4183     13.6847
    13.5000     49.7637      0.0000    772.5295     13.5334
    13.7500     48.7575      0.0000    772.5554     13.3184
    14.0000     49.0161      0.0000    772.6669     13.0913
    14.2500     50.6673      0.0000    772.8625     12.8929
    14.5000     52.5591      0.0000    772.9886     12.7343
    14.7500     53.4340      0.0000    772.4551     12.6015
    15.0000     53.5730      0.0000    769.4788     12.4743
    15.2500     54.5840      0.0000    760.0790     12.3441
    15.5000     57.4846      0.0000    738.5738     12.2192
    15.7500     61.3877      0.0000    702.3467     12.1162
    16.0000     64.1144      0.0000    659.3563     12.0468
    16.2500     63.9550      0.0000    628.8990     12.0099
    16.5000     60.9453      0.0000    628.6387     11.9919
    16.7500     56.6776      0.0000    658.6472     11.9722
    17.0000     52.9792      0.0000    701.3536     11.9345
    17.2500     50.7199      0.0000    737.4660     11.8780
    17.5000     49.6750      0.0000    758.9978     11.8154
    17.7500     49.1779      0.0000    768.5497     11.7578
    18.0000     48.7420      0.0000    771.7741     11.7019
    18.2500     48.2934      0.0000    772.5787     11.6317
    18.5000     48.1707      0.0000    772.6559     11.5325
    18.7500     48.8889      0.0000    772.5343     11.4030
    19.0000     50.5875      0.0000    772.3566     11.2548
    19.2500     52.6632      0.0000    772.1591     11.0987
    19.5000     54.2681      0.0000    771.9390     10.9344
    19.7500     55.2282      0.0000    771.7075     10.7555
    20.0000     56.0396      0.0000    771.4977     10.5607
    20.2500     56.8615      0.0000    771.3412     10.3575
    20.5000     56.9780      0.0000    771.2363     10.1571
    20.7500     55.6044      0.0000    771.1417      9.9683
    21.0000     53.0473      0.0000    771.0037      9.7923
    21.2500     50.8087      0.0000    770.7964      9.6221
    21.5000     50.5173      0.0000    770.5220      9.4528
    21.7500     52.7810      0.0000    770.1588      9.2948
    22.0000     56.8618      0.0000    769.3505      9.1741
    22.2500     61.1114      0.0000    766.8428      9.1126
    22.5000     63.8086      0.0000    759.9413      9.1093
    22.7500     64.2651      0.0000    745.4780      9.1384
    23.0000     63.6567      0.0000    723.3403      9.1646
    23.2500     64.6425      0.0000    699.4244      9.1626
    23.5000     69.7116      0.0000    681.2201      9.1322
    23.7500     79.4871      0.0000    667.0877      9.0933
    24.0000     92.2022      0.0000    643.3262      9.0614
    24.2500    104.6351      0.0000    597.3855      9.0352
    24.5000    113.9069      0.0000    532.8292      9.0090
    24.7500    118.7338      0.0000    467.0818      8.9903
    25.0000    119.1453      0.0000    415.8101      8.9960
    25.2500    115.5948      0.0000    383.1507      9.0384
    25.5000    108.9332      0.0000    365.1207      9.1213
    25.7500    100.9712      0.0000    357.0620      9.2512
    26.0000     94.1824      0.0000    356.3776      9.4437
    26.2500     90.2444      0.0000    361.1058      9.7170
    26.5000     88.9629      0.0000    368.3965     10.0753
    26.7500     89.0041      0.0000    374.8299     10.4905
    27.0000     89.4330      0.0000    377.7443     10.8949
    27.2500     90.0111      0.0000    376.3753     11.2047
    27.5000     90.3399      0.0000    372.5238     11.3664
    27.7500     89.7471      0.0000    370.9572     11.3822
    28.0000     88.1901      0.0000    379.2660     11.2949
    28.2500     86.6081      0.0000    405.9789     11.1635
    28.5000     86.1198      0.0000    455.7590     11.0514
    28.7500     87.1314      0.0000    522.9786     11.0127
    29.0000     89.2735      0.0000    590.2651     11.0645
    29.2500     91.9020      0.0000    637.9016     11.1660
    29.5000     94.5653      0.0000    657.1205     11.2375
