~Version Information
 VERS.                                  2.0 : CWLS LAS VERSION
 WRAP.                                   NO : WRAPING MODE
 SWARE .                 MController 2.5.0N : SOFTWARE VERSION
~Well Information
 WELL.                     Commander 43-25Tr : WELL
 COMP.    Pioneer Natural Resources USA Inc : COMPANY
 FLD.                      Purgatoire River : FIELD
 LOC.                NE/SE Sec 26 T32S R67W : LOCATION
 DATE.                              4/14/05 : DATE(S) LOGGED
 SRVC.       Blanco Geological Services LLC : SERVICE COMPANY
 STAT.                                   CO : STATE
 CNTY.                           Las Animas : COUNTY
 CTRY.                                  USA : COUNTRY
 API.                       05-071-08341-00 : API NUMBER
 STRT.FT                             275.00 : START DEPTH
 STOP.FT                            1979.00 : STOP DEPTH
 STEP.FT                               1.00 : DEPTH INCREMENT
 NULL.                                -9999 : NULL VALUE
~Curve information
 DEPTH.FT                                   :
 ROP.MIN/FT                                 :
 GAS.UNITS                                  :
~ASCII Log data
# ...
      1675.0         0.30        124.6 
      1676.0         1.52        118.9 
      1677.0         0.30        116.5 
      1678.0         0.30        167.6 
      1679.0         0.47        292.0 
      1680.0         0.40        413.4 
      1681.0         0.37        965.2 
      1682.0         0.20       1010.1 
      1683.0         0.23       1012.4 
      1684.0         0.32        963.3 
      1685.0         0.30        857.9 
      1686.0         0.20        725.8 
      1687.0         0.33        646.3 
      1688.0         0.33        548.8 
      1689.0         0.27        492.2 
      1690.0         0.23        486.0 
      1691.0         0.27        481.7 
      1692.0         0.27        469.6 
      1693.0         0.23        453.6 
      1694.0         0.27        440.0 
      1695.0         0.23        146.5 
      1696.0         0.23        141.4 
      1697.0         0.28        138.2 
      1698.0         0.27        135.4 
      1699.0         0.27        133.6 
      1700.0         0.23        132.3 
      1701.0         0.50        133.4 
      1702.0         0.37        135.9 
      1703.0         0.17        139.3 
      1704.0         0.13        138.9 
      1705.0         0.13        136.4 
      1706.0         2.25        130.1 
      1707.0         0.30        116.0 
      1708.0         0.57        232.3 
      1709.0         0.47        368.4 
      1710.0         0.40        473.9 
      1711.0         0.38       1009.4 
      1712.0         0.20       1010.1 
      1713.0         0.37        971.1 
      1714.0         0.23        840.6 
      1715.0         0.30        742.1 
      1716.0         0.23        637.8 
      1717.0         0.27        568.4 
      1718.0         0.27        511.2 
      1719.0         0.27        469.0 
      1720.0         0.30        496.8 
      1721.0         0.27        477.1 
      1722.0         0.33        440.0 
      1723.0         0.35        444.4 
      1724.0         0.37        447.7 
      1725.0         0.23        440.0 
      1726.0         0.27        137.5 
      1727.0         0.23        135.7 
      1728.0         0.30        133.7 
      1729.0         0.57        129.0 
      1730.0         0.27        115.6 
      1731.0         0.20        111.7 
      1732.0         0.27        117.6 
      1733.0         0.23        118.3 
      1734.0         0.25        115.3 
      1735.0         0.27        109.8 
      1736.0         2.73        298.5 
      1737.0         0.32        388.4 
      1738.0         0.27        463.2 
      1739.0         0.27       1040.2 
      1740.0         0.30       1078.8 
      1741.0         0.27       1073.2 
      1742.0         0.20        990.8 
      1743.0         0.20        906.0 
      1744.0         0.20        817.0 
      1745.0         0.13        726.8 
      1746.0         0.13        674.7 
      1747.0         0.17        636.1 
      1748.0         0.17        597.2 
      1749.0         0.27        551.1 
      1750.0         0.27        561.5 
      1751.0         0.30        496.8 
      1752.0         0.32        498.4 
      1753.0         0.37        490.6 
      1754.0         0.23        494.2 
      1755.0         0.20        497.1 
      1756.0         0.20        500.0 
      1757.0         0.13        497.4 
      1758.0         0.23        491.9 
      1759.0         0.23        488.9 
      1760.0         0.30        492.2 
      1761.0         0.30        494.5 
      1762.0         0.30        463.7 
      1763.0         0.27        496.1 
      1764.0         0.27        487.3 
      1765.0         0.15        464.1 
      1766.0         2.50        458.5 
      1767.0         0.33        338.8 
      1768.0         0.45        441.8 
      1769.0         0.37        471.8 
      1770.0         0.40        469.5 
      1771.0         0.27        412.5 
      1772.0         0.37        359.2 
      1773.0         0.30        293.2 
      1774.0         0.30        252.8 
      1775.0         0.30        223.3 
      1776.0         0.33        208.7 
      1777.0         0.33        195.8 
      1778.0         0.32        183.2 
      1779.0         0.23        175.6 
      1780.0         0.27        166.5 
      1781.0         0.27        156.0 
      1782.0         0.30        146.7 
      1783.0         0.33        139.2 
      1784.0         0.23        133.9 
      1785.0         0.33        129.9 
      1786.0         0.23        127.9 
      1787.0         0.23        125.9 
      1788.0         0.27        121.4 
      1789.0         0.27        117.0 
      1790.0         0.28        115.2 
      1791.0         0.23        119.8 
      1792.0         0.30        134.5 
      1793.0         0.23        137.6 
      1794.0         0.27        136.7 
      1795.0         0.17        132.1 
      1796.0         2.78        311.3 
      1797.0         0.37        404.1 
      1798.0         0.37        454.7 
      1799.0         0.37        455.9 
      1800.0         0.33        425.6 
      1801.0         0.37        363.8 
      1802.0         0.37        306.7 
      1803.0         0.33        261.1 
      1804.0         0.32        229.4 
      1805.0         0.30        213.2 
      1806.0         0.33        201.1 
      1807.0         0.30        192.6 
      1808.0         0.30        185.4 
      1809.0         0.30        177.6 
      1810.0         0.23        170.5 
      1811.0         0.23        167.8 
      1812.0         0.20        163.4 
      1813.0         0.23        159.3 
      1814.0         0.20        153.5 
      1815.0         0.17        148.9 
      1816.0         0.23        144.0 
      1817.0         0.25        136.4 
      1818.0         0.17        130.9 
      1819.0         0.13        127.0 
      1820.0         0.23        123.9 
      1821.0         0.27        119.2 
      1822.0         0.23        124.2 
      1823.0         0.30        124.7 
      1824.0         0.33        121.2 
      1825.0         0.57        112.2 
      1826.0         1.85        174.8 
      1827.0         0.47        304.5 
      1828.0         0.40        411.1 
      1829.0         0.37        977.7 
      1830.0         0.33        989.8 
      1831.0         0.27        954.8 
      1832.0         0.27        878.2 
      1833.0         0.33        779.4 
      1834.0         0.28        681.6 
      1835.0         0.27        610.0 
      1836.0         0.30        563.5 
      1837.0         0.33        532.4 
      1838.0         0.33        523.6 
      1839.0         0.30        576.3 
      1840.0         0.30        505.9 
      1841.0         0.30        493.5 
      1842.0         0.30        481.1 
      1843.0         0.33        470.9 
      1844.0         0.38        460.8 
      1845.0         0.33        504.3 
      1846.0         0.33        488.6 
      1847.0         0.30        476.5 
      1848.0         0.30        440.0 
      1849.0         0.17        456.5 
      1850.0         0.30        452.9 
      1851.0         0.27        450.6 
      1852.0         0.30        460.5 
      1853.0         0.30        450.6 
      1854.0         0.23        443.8 
      1855.0         0.27        440.0 
      1856.0         3.05        459.4 
      1857.0         0.30       1130.1 
      1858.0         0.28       1220.4 
      1859.0         0.20       1233.8 
      1860.0         0.20       1222.4 
      1861.0         0.23       1141.6 
      1862.0         0.30        994.0 
      1863.0         0.37        794.8 
      1864.0         0.30        645.3 
      1865.0         0.30        576.9 
      1866.0         0.30        519.7 
      1867.0         0.27        495.5 
      1868.0         0.30        523.6 
      1869.0         0.30        460.5 
      1870.0         0.28        499.1 
      1871.0         0.27        493.8 
      1872.0         0.23        493.8 
      1873.0         0.23        494.2 
      1874.0         0.27        494.2 
