~Version Information
VERS.                      2.0: CWLS Log ASCII Standard - VERSION 2.0
WRAP.                       NO: One line per depth step
~Well Information Block
STRT.FT               456.0000: 
STOP.FT              1700.7000: 
STEP.FT                 0.1000: 
NULL.                -999.2500: 
COMP.          Pioneer Natural Resources: COMPANY
WELL.                Mead 11-9: WELL
FLD.           Purgatoire River: FIELD
LOC.           1127' FNL & 668' FWL: LOCATION
PROV.                 Colorado: PROVINCE
CNTY.               Las Animas: COUNTRY
SRVC.                Patterson: SERVICE COMPANY
DATE.          Sat Feb 19 09:18:18 2005: LOG DATE
UWI.           05 071 08160 00: UNIQUE WELL ID
~Curve Information Block
DEPT.FT            0 000 00 00: Depth
DCAL.in                       : CDL Caliper
RHOB.g/cc                     : CDL Bulk Density
RHOC.g/cc                     : CDL Density Correction
DPOR.pu                       : CDL Density Porosity
GR.GAPI                       : Gamma Ray
NPOR.pu                       : Neutron Porosity
~Parameter Information Block
~A  Depth       DCAL        RHOB        RHOC        DPOR         GR         NPOR    
# ...
   945.6000      8.0555      2.3903     -0.0246     15.7393     79.6903     20.4457
   945.7000      8.0555      2.3922      0.0103     15.6225     77.9724     20.3159
   945.8000      8.0552      2.4044      0.0493     14.8839     73.6702     19.7920
   945.9000      8.0552      2.4009      0.0389     15.0969     71.6246     19.0600
   946.0000      8.0547      2.3888     -0.0013     15.8279     73.0235     18.4130
   946.1000      8.0547      2.3886     -0.0092     15.8432     75.1399     18.5393
   946.2000      8.0547      2.4018      0.0173     15.0443     73.7729     19.4052
   946.3000      8.0541      2.4128      0.0408     14.3769     68.2835     19.7685
   946.4000      8.0541      2.4092      0.0243     14.5952     61.1100     19.0911
   946.5000      8.0540      2.3921      0.0244     15.6317     57.0660     18.1578
   946.6000      8.0540      2.3714      0.0140     16.8861     59.1365     17.6968
   946.7000      8.0540      2.3643     -0.0358     17.3121     63.0090     17.7936
   946.8000      8.0541      2.3788      0.0062     16.4367     63.3440     18.1987
   946.9000      8.0541      2.3949      0.0317     15.4585     61.0170     18.6873
   947.0000      8.0543      2.3949      0.0247     15.4588     60.9604     19.0151
   947.1000      8.0543      2.3875     -0.0318     15.9106     66.1597     18.9009
   947.2000      8.0543      2.3852      0.0046     16.0481     73.0343     18.5444
   947.3000      8.0542      2.3897     -0.0309     15.7733     74.2666     18.3263
   947.4000      8.0542      2.4033      0.0038     14.9542     69.2702     18.0942
   947.5000      8.0541      2.4234      0.0150     13.7314     65.5426     17.8383
   947.6000      8.0541      2.4443      0.0085     12.4639     65.5245     18.1366
   947.7000      8.0541      2.4614      0.0564     11.4315     64.6928     18.8478
   947.8000      8.0543      2.4656      0.0663     11.1768     61.5296     19.0427
   947.9000      8.0543      2.4547      0.0393     11.8386     59.0212     18.7564
   948.0000      8.0570      2.4438      0.0094     12.4963     59.0588     18.7900
   948.1000      8.0570      2.4490      0.0400     12.1833     61.1769     19.1607
   948.2000      8.0570      2.4644      0.0370     11.2456     64.1210     19.0997
   948.3000      8.0638      2.4721      0.0620     10.7820     67.2190     18.4006
   948.4000      8.0638      2.4670      0.0613     11.0934     69.9429     17.8183
   948.5000      8.0695      2.4550      0.0474     11.8178     71.4490     17.9768
   948.6000      8.0695      2.4355      0.0482     13.0002     70.4328     18.5861
   948.7000      8.0695      2.4067      0.0205     14.7463     67.6385     18.9187
   948.8000      8.0720      2.3813     -0.0187     16.2835     65.2036     18.7067
   948.9000      8.0720      2.3763      0.0045     16.5898     63.2269     18.3370
   949.0000      8.0755      2.3927     -0.0095     15.5917     63.3616     18.1999
   949.1000      8.0755      2.4179      0.0420     14.0658     66.5927     18.2455
   949.2000      8.0755      2.4372      0.0317     12.8968     69.6243     18.3767
   949.3000      8.0817      2.4464      0.0730     12.3366     71.3355     18.3302
   949.4000      8.0817      2.4437      0.0402     12.5000     73.7811     17.8321
   949.5000      8.0862      2.4260      0.0186     13.5775     75.5607     17.3779
   949.6000      8.0862      2.4033      0.0034     14.9538     74.5596     17.4106
   949.7000      8.0862      2.3967     -0.0132     15.3487     73.7837     17.3722
   949.8000      8.0880      2.4092      0.0291     14.5929     74.0407     16.9945
   949.9000      8.0880      2.4174      0.0492     14.0972     71.9071     16.7704
   950.0000      8.0918      2.4125      0.0220     14.3922     69.3796     16.9393
   950.1000      8.0918      2.4145      0.0103     14.2701     69.9318     17.4705
   950.2000      8.0918      2.4313      0.0531     13.2574     71.1078     18.0552
   950.3000      8.0984      2.4453      0.0224     12.4085     71.1339     18.4101
   950.4000      8.0984      2.4451      0.0480     12.4154     70.9348     18.6512
   950.5000      8.1035      2.4409      0.0076     12.6740     71.0448     18.8091
   950.6000      8.1035      2.4489      0.0297     12.1855     70.5500     19.0496
   950.7000      8.1035      2.4599      0.0953     11.5214     68.5675     19.7392
   950.8000      8.1065      2.4548      0.0335     11.8287     67.8644     20.2558
   950.9000      8.1065      2.4459      0.0139     12.3704     69.6943     19.6926
   951.0000      8.1080      2.4527      0.0106     11.9597     70.1311     18.5766
   951.1000      8.1080      2.4657      0.0377     11.1692     67.6229     17.8898
   951.2000      8.1080      2.4693      0.0575     10.9515     65.7187     17.9009
   951.3000      8.1092      2.4678      0.0579     11.0452     66.8852     18.4981
   951.4000      8.1092      2.4742      0.0334     10.6520     69.9265     18.9856
   951.5000      8.1109      2.4939      0.0552      9.4595     71.5571     18.6756
   951.6000      8.1109      2.5122      0.0661      8.3512     70.1615     18.0868
   951.7000      8.1109      2.5072      0.0545      8.6534     66.3593     17.7464
   951.8000      8.1128      2.4812      0.0245     10.2281     63.4686     17.5036
   951.9000      8.1128      2.4629      0.0064     11.3403     64.6577     17.5301
   952.0000      8.1152      2.4692      0.0102     10.9546     68.2579     17.9712
   952.1000      8.1152      2.4828      0.0328     10.1310     72.0677     18.4358
   952.2000      8.1152      2.4805      0.0333     10.2710     75.5791     18.8696
   952.3000      8.1177      2.4626      0.0083     11.3602     76.9077     19.3243
   952.4000      8.1177      2.4399      0.0029     12.7358     75.0147     19.3955
   952.5000      8.1192      2.4258     -0.0239     13.5909     71.2546     19.0672
   952.6000      8.1192      2.4226      0.0582     13.7825     68.0225     18.9345
   952.7000      8.1192      2.3977      0.0723     15.2905     67.9852     19.3986
   952.8000      8.1169      2.3145     -0.0015     20.3341     71.3605     20.5043
   952.9000      8.1169      2.1843     -0.0378     28.2245     74.1844     21.9835
   953.0000      8.0873      2.0609     -0.0950     35.7040     73.7953     23.2396
   953.1000      8.0873      1.9852     -0.0880     40.2931     72.6136     24.1053
   953.2000      8.0873      1.9551     -0.1050     42.1153     74.7004     25.0956
   953.3000      8.0273      1.9575     -0.1265     41.9722     79.6226     26.1345
   953.4000      8.0273      1.9916     -0.0511     39.9056     83.3873     26.6455
   953.5000      7.9897      2.0518      0.0370     36.2558     85.1702     26.7604
   953.6000      7.9897      2.1246      0.1014     31.8436     87.4847     27.0189
   953.7000      7.9897      2.1990      0.1771     27.3342     92.7988     27.4856
   953.8000      7.9793      2.2629      0.2237     23.4606     99.6841     27.8011
   953.9000      7.9793      2.3094      0.1551     20.6394    103.8433     27.9597
   954.0000      7.9598      2.3504      0.0700     18.1596    105.6249     27.9603
   954.1000      7.9598      2.3938      0.0804     15.5261    109.4566     27.9101
   954.2000      7.9598      2.4309      0.0318     13.2761    116.5036     27.9182
   954.3000      7.9183      2.4587      0.0204     11.5968    125.0941     27.5804
   954.4000      7.9183      2.4790      0.0768     10.3615    131.7711     26.8904
   954.5000      7.8834      2.4982      0.0126      9.1999    132.1120     26.3468
   954.6000      7.8834      2.5253      0.0759      7.5557    128.2502     26.0717
   954.7000      7.8834      2.5496      0.1064      6.0853    128.0643     25.6114
   954.8000      7.8754      2.5557      0.1208      5.7177    131.0107     24.8157
   954.9000      7.8754      2.5457      0.0924      6.3213    131.7721     24.2066
   955.0000      7.8782      2.5279      0.0931      7.3978    130.7543     24.2674
   955.1000      7.8782      2.5075      0.0158      8.6361    128.7321     24.7549
