~Version Information
VERS.                      2.0: CWLS Log ASCII Standard - VERSION 2.0
WRAP.                       NO: One line per depth step
~Well Information Block
STRT.FT                -8.0000: 
STOP.FT              1357.5000: 
STEP.FT                 0.2500: 
NULL.                -999.2500: 
COMP.          Pioneer Natural Resources: COMPANY
WELL.          Lorencito 6-3-34-66: WELL
FLD.           Purgatorie River: FIELD
LOC.           2545' FNL & 1914' FWL: LOCATION
STAT.                       CO: State
CNTY.               Las Animas: COUNTY
CTRY. USA : Country
SECT. 3 : Section
TOWN. 34S : Township
RANG. 66W : Range
SRVC.          Patterson Wireline: SERVICE COMPANY
DATE.          Tue Sep 27 11:36:13 2005: LOG DATE
API.           05 071 08369 00: UNIQUE WELL ID
~Curve Information Block
DEPT.FT            0 000 00 00: Depth
CCL.                          : Casing Collar Locator
TT3.usec                      : CBL 3' Travel Time
AMP3.mV                       : CBL 3' Amplitude
GR.GAPI                       : Gamma Ray
~Parameter Information Block
~A  Depth       CCL         TT3         AMP3         GR     
# ...
   427.5000      0.0000    737.6495     11.3366     53.1216
   427.7500      0.0000    724.8514     11.4179     51.0176
   428.0000      0.0000    717.0381     11.5055     48.0258
   428.2500      0.0000    719.7549     11.5922     45.4866
   428.5000      0.0000    733.8032     11.6764     44.9613
   428.7500      0.0000    754.9938     11.7564     47.3062
   429.0000      0.0000    776.5626     11.8250     52.5315
   429.2500      0.0000    793.2386     11.8724     60.1698
   429.5000      0.0000    804.0308     11.8948     69.1208
   429.7500      0.0000    811.2222     11.8966     77.3788
   430.0000      0.0000    816.9127     11.8849     82.8254
   430.2500      0.0000    821.0491     11.8655     84.5796
   430.5000      0.0000    822.6147     11.8413     83.2870
   430.7500      0.0000    821.6387     11.8154     80.2520
   431.0000      0.0000    819.2195     11.7939     76.7067
   431.2500      0.0000    816.1692     11.7837     73.7801
   431.5000      0.0000    812.6771     11.7856     72.6135
   431.7500      0.0000    809.0731     11.7902     74.1041
   432.0000      0.0000    806.0500     11.7824     78.6186
   432.2500      0.0000    804.0783     11.7539     85.9466
   432.5000      0.0000    803.0823     11.7103     95.0868
   432.7500      0.0000    802.6911     11.6678    103.9440
   433.0000      0.0000    802.5637     11.6389    109.9537
   433.2500      0.0000    802.5001     11.6214    111.5607
   433.5000      0.0000    802.4184     11.6028    109.0228
   433.7500      0.0000    802.3108     11.5768    103.9225
   434.0000      0.0000    802.2043     11.5527     98.3498
   434.2500      0.0000    802.1340     11.5472     94.2868
   434.5000      0.0000    802.1155     11.5683     92.9501
   434.7500      0.0000    802.1354     11.6099     94.3088
   435.0000      0.0000    802.1680     11.6617     97.3190
   435.2500      0.0000    802.2065     11.7181    100.6461
   435.5000      0.0000    802.2719     11.7758    103.1461
   435.7500      0.0000    802.3864     11.8265    103.9845
   436.0000      0.0000    802.5485     11.8591    102.8295
   436.2500      0.0000    802.7460     11.8713    100.0772
   436.5000      0.0000    803.0186     11.8738     96.6491
   436.7500      0.0000    803.2407     11.8836     93.3650
   437.0000      0.0000    802.1019     11.9134     90.5196
   437.2500      0.0000    795.0016     11.9676     87.9338
   437.5000      0.0000    772.7422     12.0425     85.2275
   437.7500      0.0000    725.2196     12.1288     82.0375
   438.0000      0.0000    650.8299     12.2142     78.1212
   438.2500      0.0000    562.9219     12.2851     73.4304
   438.5000      0.0000    483.3953     12.3281     68.2499
   438.7500      0.0000    427.9207     12.3345     63.2917
   439.0000      0.0000    398.0107     12.3064     59.5249
   439.2500      0.0000    385.7608     12.2551     57.6777
   439.5000      0.0000    382.9780     12.1923     57.7295
   439.7500      0.0000    386.3397     12.1230     58.8756
   440.0000      0.0000    398.0009     12.0477     60.0530
   440.2500      0.0000    423.6335     11.9686     60.6823
   440.5000      0.0000    468.2494     11.8889     61.0505
   440.7500      0.0000    530.9808     11.8074     61.8833
   441.0000      0.0000    602.9425     11.7217     63.4669
   441.2500      0.0000    670.8027     11.6371     65.3341
   441.5000      0.0000    723.4457     11.5669     66.8755
   441.7500      0.0000    756.7855     11.5190     67.9846
   442.0000      0.0000    774.3000     11.4903     69.0234
   442.2500      0.0000    783.4279     11.4726     70.4097
   442.5000      0.0000    789.8083     11.4599     72.3145
   442.7500      0.0000    793.5660     11.4496     74.7125
   443.0000      0.0000    790.4063     11.4431     77.8343
   443.2500      0.0000    776.1215     11.4477     82.5213
   443.5000      0.0000    751.0386     11.4735     89.7256
   443.7500      0.0000    720.8749     11.5257     99.2597
   444.0000      0.0000    691.4667     11.5987    109.0703
   444.2500      0.0000    662.2824     11.6765    116.1458
   444.5000      0.0000    628.7923     11.7391    118.4259
   444.7500      0.0000    590.9861     11.7727    115.8804
   445.0000      0.0000    553.2426     11.7782    109.9538
   445.2500      0.0000    516.3979     11.7706    102.3448
   445.5000      0.0000    477.9676     11.7695     94.3583
   445.7500      0.0000    439.9033     11.7855     87.0678
   446.0000      0.0000    409.0223     11.8155     81.7980
   446.2500      0.0000    389.6967     11.8448     80.1418
   446.5000      0.0000    380.4047     11.8574     82.9224
   446.7500      0.0000    376.8493     11.8475     88.8611
   447.0000      0.0000    375.4912     11.8252     94.6933
   447.2500      0.0000    374.3488     11.8094     97.1024
   447.5000      0.0000    372.3765     11.8126     94.8668
   447.7500      0.0000    369.0866     11.8321     89.5386
   448.0000      0.0000    364.6370     11.8547     84.2396
   448.2500      0.0000    359.9660     11.8713     81.3900
   448.5000      0.0000    356.5480     11.8868     81.0834
   448.7500      0.0000    355.9970     11.9166     81.5065
   449.0000      0.0000    359.6186     11.9756     80.7878
   449.2500      0.0000    368.2387     12.0668     78.4314
   449.5000      0.0000    382.6593     12.1782     75.4268
   449.7500      0.0000    403.9912     12.2905     73.4157
   450.0000      0.0000    432.7754     12.3899     73.4492
   450.2500      0.0000    468.3468     12.4730     75.1403
   450.5000      0.0000    510.4372     12.5419     77.0225
   450.7500      0.0000    560.4939     12.5997     77.8089
   451.0000      0.0000    618.6199     12.6491     77.1857
   451.2500      0.0000    678.9161     12.6939     75.6076
   451.5000      0.0000    730.6072     12.7369     73.9195
   451.7500      0.0000    765.0305     12.7772     73.1934
   452.0000      0.0000    780.6113     12.8090     74.1699
   452.2500      0.0000    781.8698     12.8196     76.4883
   452.5000      0.0000    776.0895     12.7937     78.8223
   452.7500      0.0000    770.7606     12.7246     79.9894
   453.0000      0.0000    770.9871     12.6259     79.6973
   453.2500      0.0000    777.2354     12.5262     78.2379
   453.5000      0.0000    786.0248     12.4524     75.9100
   453.7500      0.0000    793.4451     12.4162     73.0783
   454.0000      0.0000    797.8617     12.4146     70.4489
   454.2500      0.0000    799.8024     12.4388     68.7349
   454.5000      0.0000    800.4399     12.4817     68.0079
   454.7500      0.0000    800.5745     12.5415     67.7564
   455.0000      0.0000    800.4730     12.6224     67.5516
   455.2500      0.0000    799.7752     12.7344     67.3251
   455.5000      0.0000    797.0408     12.8903     67.0740
   455.7500      0.0000    789.0699     13.1011     66.7528
   456.0000      0.0000    771.3943     13.3717     66.5511
   456.2500      0.0000    741.4532     13.7021     66.8632
   456.5000      0.0000    702.3242     14.0887     67.8852
   456.7500      0.0000    662.1659     14.5058     69.5774
   457.0000      0.0000    629.9604     14.8655     71.9627
   457.2500      0.0000    614.2133     14.9997     75.1661
   457.5000      0.0000    624.4088     14.7314     79.2065
   457.7500      0.0000    667.0764     14.0141     83.8042
   458.0000      0.0000    736.9354     13.0070     88.1514
   458.2500      0.0000    813.5952     11.9871     90.9470
   458.5000      0.0000    869.8322     11.1748     91.1405
   458.7500      0.0000    887.3177     10.6300     88.8452
   459.0000     -2.0000    868.3571     10.2842     85.3097
   459.2500      2.0000    832.3857     10.0407     81.8478
   459.5000      0.0000    799.7549      9.8624     78.8870
   459.7500      0.0000    778.3651      9.8077     76.2245
   460.0000      0.0000    763.8354     10.0019     74.2321
   460.2500      0.0000    748.4479     10.5353     74.2739
   460.5000      0.0000    729.1341     11.3484     77.3572
   460.7500      0.0000    709.9944     12.2223     82.6241
