~Version Information
VERS.                      2.0: CWLS Log ASCII Standard - VERSION 2.0
WRAP.                       NO: One line per depth step
~Well Information Block
STRT.FT               -11.2500: 
STOP.FT              1597.0000: 
STEP.FT                 0.2500: 
NULL.                -999.2500: 
COMP.          Petrogulf Corporation: COMPANY
WELL.          Great Plains 22-21R: WELL
FLD.           Purgatorie River: FIELD
LOC.           73' FNL & 1992' FWL--: LOCATION
PROV.                       CO: PROVINCE
CNTY.               Las Animas: COUNTRY
SRVC.          Patterson Wireline: SERVICE COMPANY
DATE.          Fri Sep 09 09:02:35 2005: LOG DATE
UWI.           05 071 08343 00: UNIQUE WELL ID
~Curve Information Block
DEPT.FT            0 000 00 00: Depth
CCL.                          : Casing Collar Locator
TT3.usec                      : CBL 3' Travel Time
AMP3.mV                       : CBL 3' Amplitude
GR.GAPI                       : Gamma Ray
~Parameter Information Block
~A  Depth       CCL         TT3         AMP3         GR     
# ...
   926.7500      0.0000    786.5165      9.7936    130.1283
   927.0000      0.0000    784.2486      9.8892    131.2087
   927.2500      0.0000    784.8719      9.9547    130.3781
   927.5000      0.0000    787.2165      9.9766    128.2043
   927.7500      0.0000    789.7223      9.9581    125.6031
   928.0000      0.0000    790.3643      9.9202    123.7654
   928.2500      0.0000    787.5349      9.8990    123.9228
   928.5000      0.0000    781.3201      9.9351    126.4352
   928.7500      0.0000    774.0475     10.0605    130.1825
   929.0000      0.0000    768.6271     10.2799    133.4433
   929.2500      0.0000    765.3773     10.5595    135.3320
   929.5000      0.0000    761.2553     10.8389    135.9757
   929.7500      0.0000    753.2021     11.0678    135.6690
   930.0000      0.0000    741.2417     11.2436    134.5948
   930.2500      0.0000    727.4784     11.4167    133.0793
   930.5000      0.0000    713.7794     11.6544    131.1834
   930.7500      0.0000    701.8978     11.9849    127.9868
   931.0000      0.0000    694.4072     12.3679    122.0650
   931.2500      0.0000    693.4274     12.7061    112.9535
   931.5000      0.0000    698.4036     12.8810    101.8496
   931.7500      0.0000    706.3375     12.7926     91.0278
   932.0000      0.0000    714.9441     12.4029     82.9206
   932.2500      0.0000    725.6451     11.7666     79.3456
   932.5000      0.0000    743.3519     11.0103     80.9111
   932.7500      0.0000    773.2439     10.2583     86.8455
   933.0000      0.0000    816.3910      9.5755     95.0867
   933.2500      0.0000    866.4509      8.9797    102.4677
   933.5000      0.0000    910.7373      8.4872    105.7989
   933.7500      0.0000    936.8616      8.1292    104.1072
   934.0000      0.0000    940.1738      7.9337    100.0214
   934.2500      0.0000    925.2801      7.9049     98.2182
   934.5000      0.0000    900.6301      8.0076    101.9294
   934.7500      0.0000    871.6498      8.1620    110.6686
   935.0000      0.0000    839.1318      8.2620    120.9671
   935.2500      0.0000    804.1238      8.2220    128.9622
   935.5000      0.0000    772.7404      8.0221    132.4213
   935.7500      0.0000    754.9973      7.7197    131.1127
   936.0000      0.0000    759.8812      7.4176    126.3045
   936.2500      0.0000    791.4412      7.2037    120.1783
   936.5000      0.0000    846.4210      7.1004    114.8310
   936.7500      0.0000    912.8183      7.0571    110.9238
   937.0000      0.0000    971.5060      6.9909    107.4548
   937.2500      0.0000   1002.9738      6.8360    103.2765
   937.5000      0.0000    997.4483      6.5804     98.4689
   937.7500      0.0000    961.8468      6.2819     93.9879
   938.0000      0.0000    915.9963      6.0507     90.7085
   938.2500      0.0000    879.2532      5.9916     89.3699
   938.5000      0.0000    860.3264      6.1385     90.8053
   938.7500      0.0000    858.9366      6.4371     95.2752
   939.0000      0.0000    871.6609      6.7883    101.6656
   939.2500      0.0000    891.6988      7.1149    108.0481
   939.5000      0.0000    906.2428      7.4045    112.9357
   939.7500      0.0000    900.6470      7.7130    115.6393
   940.0000      0.0000    867.9869      8.1418    116.0777
   940.2500      0.0000    814.3863      8.8009    114.9885
   940.5000      0.0000    753.9492      9.7584    113.7824
   940.7500      0.0000    698.2977     10.9928    113.2277
   941.0000      0.0000    650.9557     12.3875    112.3522
   941.2500      0.0000    609.3734     13.7840    109.1710
   941.5000      0.0000    568.8057     15.0582    102.3557
   941.7500      0.0000    524.9807     16.1625     91.9587
   942.0000      0.0000    477.6044     17.1044     79.1135
   942.2500      0.0000    432.7414     17.8909     65.6597
   942.5000      0.0000    399.8740     18.4867     53.6424
   942.7500      0.0000    387.0526     18.8058     44.4397
   943.0000      0.0000    399.9201     18.7352     38.2829
   943.2500      0.0000    442.2730     18.1985     34.8742
   943.5000      0.0000    513.4648     17.2328     34.3839
   943.7500      0.0000    605.4193     16.0043     37.5567
   944.0000      0.0000    704.5134     14.7289     44.7707
   944.2500      0.0000    796.5651     13.5760     55.2220
   944.5000      0.0000    870.0737     12.6313     67.2825
   944.7500      0.0000    917.7578     11.9121     79.5728
   945.0000      0.0000    937.0588     11.3961     91.4141
   945.2500      0.0000    929.0367     11.0519    102.2704
   945.5000      0.0000    898.3802     10.8634    111.1280
   945.7500      0.0000    855.5740     10.8306    116.7181
   946.0000      0.0000    815.1137     10.9489    118.4684
   946.2500      0.0000    787.4726     11.1944    117.1230
   946.5000      0.0000    773.2882     11.5236    114.1547
   946.7500      0.0000    766.0654     11.8768    110.6350
   947.0000      0.0000    759.1694     12.1856    106.8693
   947.2500      0.0000    750.5417     12.3960    102.9236
   947.5000      0.0000    743.0591     12.4924     99.2375
   947.7500      0.0000    741.1686     12.4985     96.7236
   948.0000      0.0000    746.4231     12.4526     96.0156
   948.2500      0.0000    756.1668     12.3842     96.4234
   948.5000      0.0000    766.4521     12.3049     96.1066
   948.7500      0.0000    775.1583     12.2110     93.8200
   949.0000      0.0000    782.0491     12.0896     90.4364
   949.2500      0.0000    787.1376     11.9287     88.6270
   949.5000      0.0000    790.0005     11.7224     91.0437
   949.7500      0.0000    790.2651     11.4666     98.3208
   950.0000      0.0000    788.1829     11.1454    108.2165
   950.2500      0.0000    784.6232     10.7236    116.8214
   950.5000      0.0000    780.4905     10.1667    121.2070
   950.7500      0.0000    776.1860      9.4802    121.1632
   951.0000      0.0000    772.5186      8.7276    118.3972
   951.2500      0.0000    772.7535      7.9985    114.3537
   951.5000      0.0000    783.1770      7.3580    109.1158
   951.7500      0.0000    810.1803      6.8253    102.0668
   952.0000      0.0000    855.1006      6.3942     92.9804
   952.2500      0.0000    910.3570      6.0628     82.6019
   952.5000      0.0000    960.8729      5.8390     72.8057
   952.7500      0.0000    991.6249      5.7288     66.1284
   953.0000      0.0000    995.4276      5.7264     64.6752
   953.2500      0.0000    974.0265      5.8179     69.2699
   953.5000      0.0000    934.1808      5.9934     79.2678
   953.7500      0.0000    885.3169      6.2521     92.5137
   954.0000      0.0000    838.7952      6.5946    105.5793
   954.2500      0.0000    804.6293      7.0069    114.9792
   954.5000      0.0000    786.8618      7.4568    118.9063
   954.7500      0.0000    782.3833      7.9106    117.9691
   955.0000      0.0000    784.1462      8.3515    114.3677
   955.2500      0.0000    785.6403      8.7730    110.4027
   955.5000      0.0000    783.6895      9.1570    107.4918
   955.7500      0.0000    778.4894      9.4664    106.1693
   956.0000      0.0000    771.4540      9.6665    106.5962
   956.2500      0.0000    763.0544      9.7507    108.7821
   956.5000      0.0000    753.2120      9.7452    112.3674
   956.7500      0.0000    743.4991      9.6916    116.4336
   957.0000      0.0000    737.0858      9.6260    119.5991
   957.2500      0.0000    735.4767      9.5656    120.3436
   957.5000      0.0000    736.3985      9.5056    117.6327
   957.7500      0.0000    735.8060      9.4274    111.8934
   958.0000      0.0000    731.4516      9.3158    105.5208
   958.2500      0.0000    724.4512      9.1724    101.7883
   958.5000      0.0000    718.2000      9.0146    102.5734
   958.7500      0.0000    715.9365      8.8631    106.8515
   959.0000      0.0000    718.6146      8.7348    111.4240
   959.2500      0.0000    724.6285      8.6422    113.4234
   959.5000      0.0000    731.2883      8.5891    112.4940
   959.7500      0.0000    736.1104      8.5657    110.6122
   960.0000      0.0000    736.7267      8.5549    109.7363
