~Version Information
VERS.                      2.0: CWLS Log ASCII Standard - VERSION 2.0
WRAP.                       NO: One line per depth step
~Well Information Block
STRT.FT               430.0000: 
STOP.FT              2417.0000: 
STEP.FT                 0.1000: 
NULL.                -999.2500: 
COMP.          Evergreen Operating Corporation: COMPANY
WELL.          McCullough 34-32: WELL
FLD.           Purgatorie River: FIELD
LOC.           261' FSL & 2098' FEL: LOCATION
PROV.                 Colorado: PROVINCE
CNTY.               Las Animas: COUNTRY
SRVC.                Patterson: SERVICE COMPANY
DATE.          Mon May 17 11:25:23 2004: LOG DATE
UWI.           05 071 07953 00: UNIQUE WELL ID
~Curve Information Block
DEPT.FT            0 000 00 00: Depth
DCAL.in                       : CDL Caliper
RHOB.g/cc                     : CDL Bulk Density
RHOC.g/cc                     : CDL Density Correction
DPOR.pu                       : CDL Density Porosity
NPOR.pu                       : Neutron Porosity
GR.GAPI                       : Gamma Ray
~Parameter Information Block
~A  Depth       DCAL        RHOB        RHOC        DPOR        NPOR         GR     
# ...
  1601.2000      8.3023      2.5841      0.2113      3.9960     29.3538    150.0494
  1601.3000      8.3055      2.5344      0.1426      7.0091     29.5709    151.9769
  1601.4000      8.3055      2.4923      0.1773      9.5570     29.9400    163.4188
  1601.5000      8.3058      2.4642      0.1034     11.2583     29.8401    169.7548
  1601.6000      8.3058      2.4378      0.0838     12.8590     29.3531    167.2174
  1601.7000      8.3058      2.3901      0.0861     15.7545     28.9485    162.0535
  1601.8000      8.2996      2.3139      0.0186     20.3726     28.6894    157.8605
  1601.9000      8.2996      2.2410     -0.0327     24.7860     28.3316    156.7549
  1602.0000      8.3008      2.2166     -0.0106     26.2638     27.4862    161.6129
  1602.1000      8.3008      2.2630      0.0310     23.4560     25.9972    167.6736
  1602.2000      8.3008      2.3699      0.1547     16.9740     24.4970    168.2537
  1602.3000      8.2929      2.5026      0.3087      8.9322     23.6706    165.0155
  1602.4000      8.2929      2.6155      0.3881      2.0892     23.1953    159.3147
  1602.5000      8.2864      2.6749      0.4547     -1.5114     22.4669    150.0656
  1602.6000      8.2864      2.6827      0.3892     -1.9810     21.3913    140.3500
  1602.7000      8.2864      2.6761      0.3016     -1.5836     20.2159    129.7704
  1602.8000      8.1920      2.6784      0.2704     -1.7189     19.3784    116.9140
  1602.9000      8.1920      2.6713      0.1965     -1.2910     19.3062    106.2417
  1603.0000      8.1767      2.6420      0.0638      0.4853     19.9049    100.0251
  1603.1000      8.1767      2.6157     -0.0042      2.0765     20.2636     97.0500
  1603.2000      8.1767      2.6190      0.0228      1.8817     19.7046     95.4659
  1603.3000      8.1773      2.6375      0.0547      0.7561     18.9656     92.7176
  1603.4000      8.1773      2.6382      0.0706      0.7179     18.7110     87.9648
  1603.5000      8.1785      2.6254      0.0188      1.4896     18.7675     85.8600
  1603.6000      8.1785      2.6287     -0.0205      1.2927     19.0957     91.0432
  1603.7000      8.1785      2.6416      0.0328      0.5113     19.8010     99.3383
  1603.8000      8.1801      2.6398      0.0451      0.6156     20.6459    104.5789
  1603.9000      8.1801      2.6223      0.0508      1.6761     21.2573    106.2558
  1604.0000      8.1778      2.5966      0.0082      3.2380     21.5917    105.1832
  1604.1000      8.1778      2.5737      0.0165      4.6267     22.0189    103.0021
  1604.2000      8.1778      2.5670     -0.0066      5.0310     22.6512    101.5616
  1604.3000      8.1716      2.5706      0.0604      4.8104     22.9675    100.8485
  1604.4000      8.1716      2.5682      0.0173      4.9562     22.7401    101.7130
  1604.5000      8.1706      2.5596      0.0749      5.4798     22.4369    103.2662
  1604.6000      8.1706      2.5543      0.0513      5.8018     22.6644    104.5078
  1604.7000      8.1706      2.5604      0.0529      5.4277     23.3903    108.6021
  1604.8000      8.1720      2.5747      0.0568      4.5650     24.0578    114.1892
  1604.9000      8.1720      2.5862      0.0761      3.8655     24.1331    116.5749
  1605.0000      8.1951      2.5918      0.0946      3.5297     23.5986    116.0319
  1605.1000      8.1951      2.5936      0.0893      3.4186     23.1523    118.1853
  1605.2000      8.1951      2.5924      0.1056      3.4918     23.1546    127.7107
  1605.3000      8.2003      2.5871      0.1039      3.8111     23.0584    141.8389
  1605.4000      8.2003      2.5726      0.1323      4.6882     22.8023    152.9862
  1605.5000      8.2027      2.5438      0.0651      6.4349     23.0124    156.8052
  1605.6000      8.2027      2.5148      0.0282      8.1921     23.7022    152.8728
  1605.7000      8.2027      2.5090      0.0567      8.5448     24.1810    142.4969
  1605.8000      8.2008      2.5262      0.0724      7.5035     23.9641    133.2122
  1605.9000      8.2008      2.5444      0.1300      6.3973     23.3741    133.7853
  1606.0000      8.2027      2.5500      0.1178      6.0576     23.2976    142.1045
  1606.1000      8.2027      2.5527      0.1004      5.8987     23.9178    149.4265
  1606.2000      8.2027      2.5643      0.1107      5.1948     24.6116    152.7865
  1606.3000      8.2086      2.5811      0.1081      4.1778     25.0211    152.0724
  1606.4000      8.2086      2.5923      0.1318      3.4949     25.0958    146.1651
  1606.5000      8.2209      2.5888      0.1147      3.7097     25.0031    138.8771
  1606.6000      8.2209      2.5647      0.1203      5.1722     25.2290    138.0005
  1606.7000      8.2209      2.5258      0.0744      7.5299     26.0159    142.3937
  1606.8000      8.2322      2.4930      0.0482      9.5125     27.0897    147.5279
  1606.9000      8.2322      2.4829      0.0103     10.1250     27.8413    154.9452
  1607.0000      8.2308      2.4832      0.1004     10.1095     28.0003    160.7558
  1607.1000      8.2308      2.4746      0.0463     10.6309     27.8250    157.1152
  1607.2000      8.2308      2.4667      0.0289     11.1067     27.5930    148.9436
  1607.3000      8.2287      2.4689      0.1117     10.9778     27.6359    147.7413
  1607.4000      8.2287      2.4644      0.1152     11.2480     28.2177    155.8309
  1607.5000      8.2286      2.4507      0.0437     12.0807     29.0883    164.6353
  1607.6000      8.2286      2.4502      0.0746     12.1102     29.6412    168.9619
  1607.7000      8.2286      2.4674      0.1524     11.0642     29.3922    172.8999
  1607.8000      8.2296      2.4816      0.1518     10.2065     28.7099    175.3686
  1607.9000      8.2296      2.4792      0.1327     10.3528     28.2777    170.8182
  1608.0000      8.2304      2.4675      0.1099     11.0632     27.8809    163.9656
  1608.1000      8.2304      2.4529      0.1470     11.9444     27.2831    163.7863
  1608.2000      8.2304      2.4306      0.1077     13.2955     27.0357    172.1004
  1608.3000      8.2327      2.4113      0.0343     14.4640     27.1054    183.4457
  1608.4000      8.2327      2.4233      0.0624     13.7400     26.8578    187.9780
  1608.5000      8.2516      2.4790      0.0724     10.3640     26.5013    182.2550
  1608.6000      8.2516      2.5643      0.1550      5.1965     26.5776    174.4711
  1608.7000      8.2516      2.6513      0.1806     -0.0776     26.8853    172.9559
  1608.8000      8.2421      2.7160      0.2210     -3.9997     26.9693    174.3724
  1608.9000      8.2421      2.7432      0.2435     -5.6475     26.9314    171.0106
  1609.0000      8.3206      2.7307      0.2254     -4.8934     26.8812    164.9324
  1609.1000      8.3206      2.6919      0.1646     -2.5414     26.5849    163.1313
  1609.2000      8.3206      2.6514     -0.0053     -0.0822     26.1718    167.7327
  1609.3000      8.3124      2.6338     -0.0243      0.9837     26.0805    175.7057
  1609.4000      8.3124      2.6414     -0.0387      0.5226     26.4060    179.8061
  1609.5000      8.3413      2.6612     -0.0906     -0.6808     26.5638    177.7934
  1609.6000      8.3413      2.6881     -0.0533     -2.3099     26.0162    173.6767
  1609.7000      8.3413      2.7123      0.0528     -3.7770     25.0307    167.2473
  1609.8000      8.3896      2.7164      0.0967     -4.0267     24.4347    156.5569
  1609.9000      8.3896      2.6965      0.1146     -2.8182     24.7901    144.1307
  1610.0000      8.3872      2.6620      0.1041     -0.7277     25.3571    137.3877
  1610.1000      8.3872      2.6272      0.0817      1.3820     25.0620    140.7990
  1610.2000      8.3872      2.6148      0.0194      2.1327     24.4494    148.1510
  1610.3000      8.3977      2.6387      0.0561      0.6872     24.4742    151.7607
  1610.4000      8.3977      2.6718      0.0955     -1.3222     25.1074    154.3792
  1610.5000      8.3995      2.6754      0.0429     -1.5407     25.9134    159.6634
  1610.6000      8.3995      2.6459      0.0142      0.2489     26.1559    164.5651
  1610.7000      8.3995      2.6056      0.0137      2.6906     25.6494    167.8816
