~Version Information
VERS.                      2.0: CWLS Log ASCII Standard - VERSION 2.0
WRAP.                       NO: One line per depth step
~Well Information Block
STRT.FT               440.0000: 
STOP.FT              2735.2000: 
STEP.FT                 0.1000: 
NULL.                -999.2500: 
COMP.          Pioneer Natural Resources: COMPANY
WELL.              Cluck 21-25: WELL
FLD.           Purgatoire River: FIELD
LOC.           91' FNL & 1834' FWL--: LOCATION
PROV.                 Colorado: PROVINCE
CNTY.               Las Animas: COUNTRY
SRVC.                Patterson: SERVICE COMPANY
DATE.          Tue Jun 07 07:26:19 2005: LOG DATE
UWI.           05 071 08397 00: UNIQUE WELL ID
~Curve Information Block
DEPT.FT            0 000 00 00: Depth
DCAL.in                       : CDL Caliper
RHOB.g/cc                     : CDL Bulk Density
RHOC.g/cc                     : CDL Density Correction
DPOR.pu                       : CDL Density Porosity
NPOR.pu                       : Neutron Porosity
GR.GAPI                       : Gamma Ray
~Parameter Information Block
SNDERRM.mmho-m          0.0000: Medium Sonde Error Correction
~A  Depth       DCAL        RHOB        RHOC        DPOR        NPOR         GR     
# ...
  1198.4000      7.8505      2.5580      0.0876      5.5747     27.6663    139.4719
  1198.5000      7.8692      2.5666      0.0829      5.0561     27.9212    142.1322
  1198.6000      7.8692      2.5760      0.0632      4.4846     28.8287    139.7626
  1198.7000      7.8692      2.5915      0.0682      3.5441     29.4660    133.1088
  1198.8000      7.8963      2.6065      0.1342      2.6369     29.2936    126.1510
  1198.9000      7.8963      2.6102      0.1148      2.4122     28.4446    122.0832
  1199.0000      7.9301      2.6027      0.1112      2.8639     27.3907    118.7642
  1199.1000      7.9301      2.5874      0.0823      3.7951     26.6478    115.6577
  1199.2000      7.9301      2.5712      0.0803      4.7773     26.0841    112.8808
  1199.3000      7.9494      2.5648      0.0829      5.1659     25.6847    110.7775
  1199.4000      7.9494      2.5734      0.0771      4.6421     25.9882    113.1974
  1199.5000      7.9507      2.5900      0.1055      3.6335     26.9678    118.1333
  1199.6000      7.9507      2.5946      0.1193      3.3574     27.7500    117.9522
  1199.7000      7.9507      2.5780      0.0489      4.3650     27.7297    112.7071
  1199.8000      7.9536      2.5572      0.0343      5.6240     27.2405    108.9314
  1199.9000      7.9536      2.5418      0.0806      6.5562     26.8561    110.8503
  1200.0000      7.9489      2.5274      0.0448      7.4276     26.9604    120.2174
  1200.1000      7.9489      2.5207      0.0082      7.8339     27.6514    133.2979
  1200.2000      7.9489      2.5188      0.0474      7.9528     28.4293    139.3555
  1200.3000      7.9354      2.5054      0.0560      8.7665     28.6898    134.7237
  1200.4000      7.9354      2.4891      0.0718      9.7495     28.4487    128.1692
  1200.5000      7.9248      2.4986      0.0759      9.1756     28.1122    127.4002
  1200.6000      7.9248      2.5469      0.1021      6.2514     27.9750    129.4382
  1200.7000      7.9248      2.6265      0.1273      1.4246     28.2246    127.6752
  1200.8000      7.9204      2.7293      0.1402     -4.8044     28.5938    123.6182
  1200.9000      7.9204      2.8385      0.2279    -11.4264     28.5122    122.1469
  1201.0000      7.9252      2.9115      0.2595    -15.8501     28.0311    124.4642
  1201.1000      7.9252      2.9106      0.2610    -15.7955     27.5145    129.3228
  1201.2000      7.9252      2.8488      0.1467    -12.0477     27.1133    133.5735
  1201.3000      7.9339      2.7710      0.1126     -7.3356     26.7822    134.1133
  1201.4000      7.9339      2.6961      0.0693     -2.7923     26.3975    130.2129
  1201.5000      7.9346      2.6213     -0.0353      1.7395     26.1050    124.2781
  1201.6000      7.9346      2.5640     -0.1723      5.2130     26.2822    122.1471
  1201.7000      7.9346      2.5471     -0.1988      6.2357     26.8302    127.4455
  1201.8000      7.9253      2.5554     -0.1682      5.7323     27.0195    134.1281
  1201.9000      7.9253      2.5513     -0.1101      5.9837     26.6267    135.3228
  1202.0000      7.9265      2.5334     -0.1548      7.0683     26.0298    133.8172
  1202.1000      7.9265      2.5322     -0.0743      7.1418     25.6703    132.2884
  1202.2000      7.9265      2.5495      0.0466      6.0882     25.8116    125.4853
  1202.3000      7.9352      2.5627      0.0735      5.2924     26.2484    112.4336
  1202.4000      7.9352      2.5679      0.0503      4.9740     26.1322    102.7317
  1202.5000      7.9341      2.5773      0.0585      4.4078     25.0840    102.3759
  1202.6000      7.9341      2.5898      0.0825      3.6466     23.8620    105.6505
  1202.7000      7.9341      2.5955      0.0776      3.3042     23.2016    103.3961
  1202.8000      7.9263      2.5962      0.0604      3.2610     23.1477     98.0042
  1202.9000      7.9263      2.5998      0.0571      3.0409     23.3807     96.8131
  1203.0000      7.9169      2.6062      0.0582      2.6576     23.4768     99.3255
  1203.1000      7.9169      2.6134      0.0501      2.2190     22.9809    103.3843
  1203.2000      7.9169      2.6201      0.0893      1.8099     21.9785    106.2481
  1203.3000      7.9070      2.6233      0.0780      1.6182     21.0507    104.9416
  1203.4000      7.9070      2.6238      0.0831      1.5851     20.5147    101.1939
  1203.5000      7.9027      2.6230      0.0457      1.6338     20.4479     98.5616
  1203.6000      7.9027      2.6195      0.0411      1.8485     20.6950     97.2660
  1203.7000      7.9027      2.6135      0.0286      2.2136     20.8969     94.3730
  1203.8000      7.8999      2.6080      0.0639      2.5453     21.0919     89.9727
  1203.9000      7.8999      2.6050      0.0312      2.7287     21.5358     90.7629
  1204.0000      7.8923      2.6050      0.0271      2.7294     22.2207     98.5396
  1204.1000      7.8923      2.6092      0.0045      2.4698     22.9439    103.4596
  1204.2000      7.8923      2.6167      0.0478      2.0203     23.1479     98.3999
  1204.3000      7.8832      2.6230      0.0626      1.6366     22.4746     86.8917
  1204.4000      7.8832      2.6316      0.0176      1.1142     21.7066     75.6452
  1204.5000      7.8772      2.6416      0.0775      0.5074     21.6696     71.6498
  1204.6000      7.8772      2.6437      0.0590      0.3818     22.0521     76.2442
  1204.7000      7.8772      2.6438      0.0598      0.3772     22.1327     81.7389
  1204.8000      7.8733      2.6467      0.0751      0.1989     21.7178     82.0193
  1204.9000      7.8733      2.6419      0.0640      0.4891     21.3248     81.5272
  1205.0000      7.8711      2.6294      0.0703      1.2507     21.3686     86.5165
  1205.1000      7.8711      2.6254      0.0534      1.4887     21.5950     92.6943
  1205.2000      7.8711      2.6429      0.0775      0.4300     21.5547     93.2054
  1205.3000      7.8709      2.6707      0.0565     -1.2517     21.0545     91.4612
  1205.4000      7.8709      2.6813      0.0823     -1.8999     20.3791     93.1430
  1205.5000      7.8718      2.6658      0.0204     -0.9560     19.8605     95.5625
  1205.6000      7.8718      2.6498      0.0062      0.0114     19.3653     93.8577
  1205.7000      7.8718      2.6574      0.0201     -0.4458     18.9757     90.6242
  1205.8000      7.8716      2.6769      0.0602     -1.6298     18.9731     90.1305
  1205.9000      7.8716      2.6810      0.0872     -1.8810     19.2521     89.8318
  1206.0000      7.8718      2.6648      0.0600     -0.8941     19.7190     87.4134
  1206.1000      7.8718      2.6467      0.0278      0.2019     20.3102     86.8839
  1206.2000      7.8718      2.6447      0.0106      0.3208     20.4632     87.7804
  1206.3000      7.8744      2.6533      0.0874     -0.1996     19.7757     86.6168
  1206.4000      7.8744      2.6560      0.0184     -0.3624     18.8834     83.6873
  1206.5000      7.8787      2.6559      0.0477     -0.3561     18.6967     80.6416
  1206.6000      7.8787      2.6542      0.0944     -0.2544     18.8869     80.4983
  1206.7000      7.8787      2.6445      0.0061      0.3321     18.4512     85.0751
  1206.8000      7.8809      2.6349      0.0498      0.9135     17.9212     91.6363
  1206.9000      7.8809      2.6313      0.0599      1.1360     18.4185     94.0812
  1207.0000      7.8795      2.6301      0.0463      1.2050     19.3780     89.3038
  1207.1000      7.8795      2.6320      0.0341      1.0935     19.7121     82.5109
  1207.2000      7.8795      2.6347      0.0840      0.9268     19.9196     80.2285
  1207.3000      7.8776      2.6276      0.0708      1.3567     20.8231     84.6198
  1207.4000      7.8776      2.6089      0.0348      2.4889     22.1085     93.4745
  1207.5000      7.8776      2.5913      0.0403      3.5601     23.1773    101.2522
  1207.6000      7.8776      2.5873     -0.0063      3.8028     24.0197    102.5481
  1207.7000      7.8776      2.5992      0.0337      3.0807     24.7226     99.5848
  1207.8000      7.8788      2.6159      0.0705      2.0640     25.3005    102.3599
  1207.9000      7.8788      2.6188      0.0786      1.8896     25.8896    113.8827
