~Version Information
VERS.                      2.0: CWLS Log ASCII Standard - VERSION 2.0
WRAP.                       NO: One line per depth step
~Well Information Block
STRT.FT               -16.5000: 
STOP.FT              1244.7500: 
STEP.FT                 0.2500: 
NULL.                -999.2500: 
COMP.          Pioneer Natural Resources: COMPANY
WELL.          Bouncer41-27 Tr: WELL
FLD.           Purgatorie River: FIELD
LOC.           292' FNL & 222' FEL--------: LOCATION
PROV.                       CO: PROVINCE
CNTY.               Las Animas: COUNTRY
SRVC.                         : SERVICE COMPANY
DATE.          Fri Feb 11 15:34:51 2005: LOG DATE
UWI.                071-08291 : UNIQUE WELL ID
~Curve Information Block
DEPT.FT            0 000 00 00: Depth
CCL.                          : Casing Collar Locator
TT3.usec                      : CBL 3' Travel Time
AMP3.mV                       : CBL 3' Amplitude
GR.GAPI                       : Gamma Ray
~Parameter Information Block
~A  Depth       CCL         TT3         AMP3         GR     
   -16.5000   -999.2500   -999.2500   -999.2500   -999.2500
   -16.2500   -999.2500   -999.2500   -999.2500    102.9730
   -16.0000   -999.2500   -999.2500   -999.2500    101.8020
   -15.7500   -999.2500   -999.2500   -999.2500    101.0738
   -15.5000   -999.2500   -999.2500   -999.2500    101.0628
   -15.2500   -999.2500   -999.2500   -999.2500    102.0229
   -15.0000   -999.2500   -999.2500   -999.2500    103.7494
   -14.7500   -999.2500   -999.2500   -999.2500    105.3289
   -14.5000   -999.2500   -999.2500   -999.2500    105.8785
   -14.2500   -999.2500   -999.2500   -999.2500    105.3956
   -14.0000   -999.2500   -999.2500   -999.2500    104.5452
   -13.7500   -999.2500   -999.2500   -999.2500    103.8968
   -13.5000   -999.2500   -999.2500   -999.2500    103.6775
   -13.2500   -999.2500   -999.2500   -999.2500    103.8996
   -13.0000   -999.2500   -999.2500   -999.2500    104.1675
   -12.7500   -999.2500   -999.2500   -999.2500    103.5927
   -12.5000   -999.2500   -999.2500   -999.2500    101.6292
   -12.2500   -999.2500   -999.2500   -999.2500     99.0313
   -12.0000   -999.2500   -999.2500   -999.2500     97.3000
   -11.7500   -999.2500   -999.2500   -999.2500     97.0693
   -11.5000   -999.2500   -999.2500   -999.2500     97.7524
   -11.2500   -999.2500   -999.2500   -999.2500     98.8507
   -11.0000   -999.2500    798.0000      1.0033    100.6686
   -10.7500   -999.2500    798.0000      1.0122    103.4224
   -10.5000   -999.2500    798.0000      1.0125    106.5186
   -10.2500   -999.2500    798.0000      1.0045    109.0634
   -10.0000   -999.2500    798.0000      0.9935    110.5221
    -9.7500   -999.2500    798.0000      0.9858    110.8032
    -9.5000   -999.2500    798.0000      0.9847    110.2265
    -9.2500   -999.2500    798.0000      0.9896    109.3374
    -9.0000   -999.2500    798.0000      0.9983    108.3488
    -8.7500   -999.2500    798.0000      1.0089    106.9556
    -8.5000   -999.2500    798.0000      1.0205    105.0488
    -8.2500   -999.2500    798.0000      1.0333    103.3720
    -8.0000   -999.2500    798.0000      1.0462    103.0936
    -7.7500   -999.2500    798.0000      1.0530    104.8203
    -7.5000   -999.2500    798.0000      1.0474    108.0187
    -7.2500   -999.2500    798.0000      1.0306    111.2113
    -7.0000   -999.2500    798.0000      1.0130    112.8966
    -6.7500   -999.2500    798.0000      1.0057    112.6099
    -6.5000   -999.2500    798.0000      1.0117    111.1220
    -6.2500   -999.2500    798.0000      1.0236    109.6648
    -6.0000   -999.2500    798.0000      1.0292    109.0345
    -5.7500   -999.2500    798.0000      1.0200    109.1435
    -5.5000      0.0000    798.0000      0.9972    109.1012
    -5.2500      0.0000    798.0000      0.9689    108.0343
    -5.0000      0.0000    798.0000      0.9437    106.2146
    -4.7500      0.0000    798.0000      0.9263    105.0325
    -4.5000      0.0000    798.0000      0.9182    105.5160
    -4.2500      0.0000    798.0000      0.9201    107.2895
    -4.0000      0.0000    798.0000      0.9317    109.2613
    -3.7500      0.0000    798.0000      0.9505    110.7146
    -3.5000      0.0000    798.0000      0.9717    111.2134
    -3.2500      0.0000    798.0000      0.9921    110.0620
    -3.0000      0.0000    798.0000      1.0103    106.6270
    -2.7500      0.0000    798.0000      1.0256    101.2411
    -2.5000      0.0000    798.0000      1.0365     95.4991
    -2.2500      0.0000    798.0000      1.0415     91.5263
    -2.0000      0.0000    798.0000      1.0418     90.7039
    -1.7500      0.0000    798.0000      1.0471     92.7664
    -1.5000      0.0000    798.0000      1.0585     96.0159
    -1.2500      0.0000    798.0000      1.0687     98.4954
    -1.0000      0.0000    798.0000      1.0673     99.0616
    -0.7500      0.0000    798.0000      1.0498     97.4288
    -0.5000      2.0000    798.0000      1.0240     93.3516
    -0.2500      0.0000    798.0000      1.0042     86.2261
     0.0000      2.0000    798.0000      0.9976     75.9771
     0.2500     -2.0000    798.0000      0.9985     64.2145
     0.5000      2.0000    798.0000      0.9977     53.9326
     0.7500      2.0000    798.0000      0.9952     47.7871
     1.0000      0.0000    798.0000      0.9990     46.5520
     1.2500      2.0000    798.0000      1.0128     48.8236
     1.5000      2.0000    798.0000      1.0285     51.8623
     1.7500      0.0000    798.0000      1.0335     53.0826
     2.0000      0.0000    798.0000      1.0248     51.6402
     2.2500     -2.0000    798.0000      1.0106     49.1197
     2.5000      0.0000    798.0000      1.0012     48.5096
     2.7500      0.0000    798.0000      0.9989     51.9509
     3.0000      0.0000    797.9644      1.0055     58.9908
     3.2500      0.0000    797.7324      1.0409     66.7736
     3.5000      0.0000    796.5542      1.2047     72.0230
     3.7500      0.0000    791.8945      1.8184     73.3208
     4.0000      0.0000    777.5428      3.6474     71.9348
     4.2500      0.0000    743.1180      7.9519     70.5240
     4.5000      0.0000    678.8123     15.9064     71.0761
     4.7500      0.0000    585.2648     27.4167     73.8910
     5.0000      0.0000    479.2890     40.4648     77.7489
     5.2500      0.0000    385.8013     52.1071     80.7527
     5.5000      0.0000    321.5869     60.3814     81.7246
     5.7500      0.0000    287.2523     65.1845     81.1139
     6.0000      0.0000    272.9719     67.5693     80.1542
     6.2500      0.0000    268.3622     68.6593     79.3145
     6.5000      0.0000    267.2148     69.1823     78.1866
     6.7500      0.0000    266.9990     69.5229     76.6758
     7.0000      0.0000    266.9724     69.8585     75.5321
     7.2500      0.0000    266.9822     70.2232     75.5541
     7.5000      0.0000    266.9936     70.5450     76.7866
     7.7500      0.0000    266.9979     70.6588     78.8155
     8.0000      0.0000    266.9883     70.2527     81.5629
     8.2500      0.0000    266.9876     68.7852     85.4078
     8.5000      0.0000    267.1010     65.5905     90.6372
     8.7500      0.0000    267.6077     60.2950     96.9630
     9.0000      0.0000    269.0836     53.2414    103.3264
     9.2500      0.0000    272.4085     45.4303    108.0040
     9.5000      0.0000    278.4051     37.9652    109.4374
     9.7500      0.0000    287.1927     31.5276    107.5660
    10.0000      0.0000    298.0071     26.2730    104.2005
    10.2500      0.0000    310.0477     22.0355    101.5342
    10.5000      0.0000    323.4341     18.5592    100.0956
    10.7500      0.0000    338.7324     15.6404     98.4625
    11.0000      0.0000    355.3654     13.1740     95.2067
    11.2500      0.0000    371.0853     11.1186     90.7516
    11.5000      0.0000    383.7404      9.4394     86.8744
    11.7500      0.0000    393.9593      8.0979     84.6872
    12.0000      0.0000    406.7538      7.0721     83.8047
    12.2500      0.0000    430.7243      6.3493     83.4761
    12.5000      0.0000    473.7389      5.8958     83.7803
    12.7500      0.0000    536.0171      5.6459     85.3972
    13.0000      0.0000    606.5721      5.5228     88.7168
    13.2500      0.0000    668.9163      5.4642     93.5346
    13.5000      0.0000    712.0222      5.4355     99.2228
    13.7500      0.0000    735.7240      5.4250    104.8000
    14.0000      0.0000    746.7917      5.4281    108.9607
    14.2500      0.0000    752.0743      5.4376    110.3635
    14.5000      0.0000    755.1389      5.4487    108.1894
    14.7500      0.0000    756.8842      5.4644    102.7558
    15.0000      0.0000    757.3327      5.4905     95.6864
    15.2500      0.0000    756.5805      5.5266     89.1832
    15.5000      0.0000    754.9491      5.5620     84.8199
    15.7500      0.0000    752.9587      5.5789     82.8518
    16.0000      0.0000    751.1663      5.5607     82.4910
    16.2500      0.0000    749.8507      5.5066     82.7765
    16.5000      0.0000    748.9707      5.4418     83.3007
    16.7500      0.0000    748.4130      5.4071     84.1475
