~Version Information
VERS.                      2.0: CWLS Log ASCII Standard - VERSION 2.0
WRAP.                       NO: One line per depth step
~Well Information Block
STRT.FT               -14.5000: 
STOP.FT              2676.5000: 
STEP.FT                 0.1000: 
NULL.                -999.2500: 
COMP.          Petrogulf Corporation: COMPANY
WELL.          Latiluppe 8-13V: WELL
FLD.           Purgatorie River: FIELD
LOC.           1069' FWL & 1647' FSL: LOCATION
CNTY.               Las Animas: COUNTY
SRVC.                         : SERVICE COMPANY
DATE.          Tue Nov 18 16:12:50 2003: LOG DATE
UWI.                          : UNIQUE WELL ID
STAT.                 Colorado: STATE
~Curve Information Block
DEPT.FT            0 000 00 00: Depth
CCL.                          : Casing Collar Locator
TT3.usec                      : CBL 3' Travel Time
AMP3.mV                       : CBL 3' Amplitude
GR.GAPI                       : Gamma Ray
~Parameter Information Block
~A  Depth       CCL         TT3         AMP3         GR     
# ...
  1941.9000      0.0000    739.3870      5.5788     99.4051
  1942.0000      0.0000    737.5827      5.6230    100.4452
  1942.1000      0.0000    737.5827      5.6230    100.4452
  1942.2000      0.0000    737.5827      5.6230    100.4452
  1942.3000      0.0000    735.5609      5.5325    101.6966
  1942.4000      0.0000    735.5609      5.5325    101.6966
  1942.5000      0.0000    736.0363      5.2751    102.9149
  1942.6000      0.0000    736.0363      5.2751    102.9149
  1942.7000      0.0000    736.0363      5.2751    102.9149
  1942.8000      0.0000    739.5306      4.8422    103.6472
  1942.9000      0.0000    739.5306      4.8422    103.6472
  1943.0000      0.0000    744.4005      4.2955    103.1100
  1943.1000      0.0000    744.4005      4.2955    103.1100
  1943.2000      0.0000    744.4005      4.2955    103.1100
  1943.3000      0.0000    748.6368      3.7685    100.8706
  1943.4000      0.0000    748.6368      3.7685    100.8706
  1943.5000      0.0000    751.3511      3.3951     97.6320
  1943.6000      0.0000    751.3511      3.3951     97.6320
  1943.7000      0.0000    751.3511      3.3951     97.6320
  1943.8000      0.0000    752.7811      3.2364     94.8073
  1943.9000      0.0000    752.7811      3.2364     94.8073
  1944.0000      0.0000    753.5125      3.2785     93.0596
  1944.1000      0.0000    753.5125      3.2785     93.0596
  1944.2000      0.0000    753.5125      3.2785     93.0596
  1944.3000      0.0000    753.9407      3.4689     91.5050
  1944.4000      0.0000    753.9407      3.4689     91.5050
  1944.5000      0.0000    754.2277      3.7382     88.5382
  1944.6000      0.0000    754.2277      3.7382     88.5382
  1944.7000      0.0000    754.2277      3.7382     88.5382
  1944.8000      0.0000    754.5262      4.0263     83.3571
  1944.9000      0.0000    754.5262      4.0263     83.3571
  1945.0000      0.0000    755.2422      4.3169     76.5792
  1945.1000      0.0000    755.2422      4.3169     76.5792
  1945.2000      0.0000    755.2422      4.3169     76.5792
  1945.3000      0.0000    757.0976      4.6144     69.5816
  1945.4000      0.0000    757.0976      4.6144     69.5816
  1945.5000      0.0000    760.7625      4.8744     63.6841
  1945.6000      0.0000    760.7625      4.8744     63.6841
  1945.7000      0.0000    760.7625      4.8744     63.6841
  1945.8000      0.0000    766.1622      5.0017     59.9477
  1945.9000      0.0000    766.1622      5.0017     59.9477
  1946.0000      0.0000    772.1220      4.9352     58.9693
  1946.1000      0.0000    772.1220      4.9352     58.9693
  1946.2000      0.0000    772.1220      4.9352     58.9693
  1946.3000      0.0000    776.9020      4.7049     60.3506
  1946.4000      0.0000    776.9020      4.7049     60.3506
  1946.5000      0.0000    779.1251      4.3968     62.6379
  1946.6000      0.0000    779.1251      4.3968     62.6379
  1946.7000      0.0000    779.1251      4.3968     62.6379
  1946.8000      0.0000    778.0001      4.0927     64.2034
  1946.9000      0.0000    778.0001      4.0927     64.2034
  1947.0000      0.0000    772.8493      3.8425     64.3158
  1947.1000      0.0000    772.8493      3.8425     64.3158
  1947.2000      0.0000    772.8493      3.8425     64.3158
  1947.3000      0.0000    763.2488      3.6586     63.3517
  1947.4000      0.0000    763.2488      3.6586     63.3517
  1947.5000      0.0000    750.3655      3.5161     61.9892
  1947.6000      0.0000    750.3655      3.5161     61.9892
  1947.7000      0.0000    750.3655      3.5161     61.9892
  1947.8000      0.0000    737.9028      3.3771     60.4223
  1947.9000      0.0000    737.9028      3.3771     60.4223
  1948.0000      0.0000    730.4963      3.2320     58.5064
  1948.1000      0.0000    730.4963      3.2320     58.5064
  1948.2000      0.0000    730.4963      3.2320     58.5064
  1948.3000      0.0000    730.3651      3.1104     56.3506
  1948.4000      0.0000    730.3651      3.1104     56.3506
  1948.5000      0.0000    735.8179      3.0409     54.3408
  1948.6000      0.0000    735.8179      3.0409     54.3408
  1948.7000      0.0000    735.8179      3.0409     54.3408
  1948.8000      0.0000    743.2124      3.0113     52.6714
  1948.9000      0.0000    743.2124      3.0113     52.6714
  1949.0000      0.0000    749.5226      2.9804     51.1767
  1949.1000      0.0000    749.5226      2.9804     51.1767
  1949.2000      0.0000    749.5226      2.9804     51.1767
  1949.3000      0.0000    752.7374      2.9221     49.5732
  1949.4000      0.0000    752.7374      2.9221     49.5732
  1949.5000      0.0000    751.4387      2.8346     47.7003
  1949.6000      0.0000    751.4387      2.8346     47.7003
  1949.7000      0.0000    751.4387      2.8346     47.7003
  1949.8000      0.0000    745.6833      2.7116     45.5818
  1949.9000      0.0000    745.6833      2.7116     45.5818
  1950.0000      0.0000    737.9855      2.5381     43.3209
  1950.1000      0.0000    737.9855      2.5381     43.3209
  1950.2000      0.0000    737.9855      2.5381     43.3209
  1950.3000      0.0000    732.4625      2.3310     40.9934
  1950.4000      0.0000    732.4625      2.3310     40.9934
  1950.5000      0.0000    732.6676      2.1542     38.8422
  1950.6000      0.0000    732.6676      2.1542     38.8422
  1950.7000      0.0000    732.6676      2.1542     38.8422
  1950.8000      0.0000    739.5964      2.0591     37.5448
  1950.9000      0.0000    739.5964      2.0591     37.5448
  1951.0000      0.0000    750.4830      2.0247     37.8543
  1951.1000      0.0000    750.4830      2.0247     37.8543
  1951.2000      0.0000    750.4830      2.0247     37.8543
  1951.3000      0.0000    759.2717      1.9859     39.7639
  1951.4000      0.0000    759.2717      1.9859     39.7639
  1951.5000      0.0000    759.7272      1.9162     42.3554
  1951.6000      0.0000    759.7272      1.9162     42.3554
  1951.7000      0.0000    759.7272      1.9162     42.3554
  1951.8000      0.0000    749.6554      1.8494     44.6610
  1951.9000      0.0000    749.6554      1.8494     44.6610
  1952.0000      0.0000    732.5449      1.8191     46.3592
  1952.1000      0.0000    732.5449      1.8191     46.3592
  1952.2000      0.0000    732.5449      1.8191     46.3592
  1952.3000      0.0000    715.1882      1.8143     47.5724
  1952.4000      0.0000    715.1882      1.8143     47.5724
  1952.5000      0.0000    703.6690      1.8104     48.3814
  1952.6000      0.0000    703.6690      1.8104     48.3814
  1952.7000      0.0000    703.6690      1.8104     48.3814
  1952.8000      0.0000    701.0596      1.8125     48.7930
  1952.9000      0.0000    701.0596      1.8125     48.7930
  1953.0000      0.0000    707.6357      1.8411     48.9376
  1953.1000      0.0000    707.6357      1.8411     48.9376
  1953.2000      0.0000    707.6357      1.8411     48.9376
  1953.3000      0.0000    721.8074      1.9017     49.0285
  1953.4000      0.0000    721.8074      1.9017     49.0285
  1953.5000      0.0000    740.2721      1.9993     49.0553
  1953.6000      0.0000    740.2721      1.9993     49.0553
  1953.7000      0.0000    740.2721      1.9993     49.0553
  1953.8000      0.0000    758.2853      2.1577     48.5530
  1953.9000      0.0000    758.2853      2.1577     48.5530
  1954.0000      0.0000    771.4633      2.3823     46.8530
  1954.1000      0.0000    771.4633      2.3823     46.8530
  1954.2000      0.0000    771.4633      2.3823     46.8530
  1954.3000      0.0000    778.1246      2.6134     43.6949
  1954.4000      0.0000    778.1246      2.6134     43.6949
  1954.5000      0.0000    779.6782      2.7551     39.5251
  1954.6000      0.0000    779.6782      2.7551     39.5251
  1954.7000      0.0000    779.6782      2.7551     39.5251
  1954.8000     -2.0000    778.6061      2.7496     35.1328
  1954.9000      2.0000    778.6061      2.7496     35.1328
  1955.0000      0.0000    776.1653      2.6097     31.1391
  1955.1000      0.0000    776.1653      2.6097     31.1391
  1955.2000      0.0000    776.1653      2.6097     31.1391
