~Version Information
VERS.                      2.0: CWLS Log ASCII Standard - VERSION 2.0
WRAP.                       NO: One line per depth step
~Well Information Block
STRT.FT               845.0000: 
STOP.FT              2308.2500: 
STEP.FT                 0.2500: 
NULL.                -999.2500: 
COMP.          Pioneer Natural Resources: COMPANY
WELL.             Vector 33-23: WELL
FLD.           Purgatoire River: FIELD
LOC.           1560' FEL & 1988' FSL----: LOCATION
PROV.                 Colorado: PROVINCE
CNTY.               Las Animas: COUNTRY
SRVC.                Patterson: SERVICE COMPANY
DATE.          Sat Mar 26 12:39:07 2005: LOG DATE
UWI.           05 071 08336 00: UNIQUE WELL ID
~Curve Information Block
DEPT.FT            0 000 00 00: Depth
SN.Ohm-m                      : IEL Short Normal
SP.mV                         : IEL Spontaneous Potential
DIR.Ohm-m                     : IEL Induction Resistivity
GR.GAPI                       : Gamma Ray
~Parameter Information Block
~A  Depth        SN          SP         DIR          GR     
# ...
  1314.0000     17.4479    -78.9391 100000.0000    122.0829
  1314.2500     16.6747    -77.9786 100000.0000    124.0492
  1314.5000     15.8126    -77.3997 100000.0000    126.5460
  1314.7500     14.8685    -77.1213 100000.0000    127.8536
  1315.0000     13.8823    -77.0358 100000.0000    129.3793
  1315.2500     12.9109    -77.0348     21.7818    130.4578
  1315.5000     12.0026    -77.0303     11.5453    132.7398
  1315.7500     11.1799    -76.9679      8.9265    134.6507
  1316.0000     10.4448    -76.8294      8.0000    137.5941
  1316.2500      9.7930    -76.6278      7.7177    139.4588
  1316.5000      9.2214    -76.3973      7.7430    142.1928
  1316.7500      8.7236    -76.1809      7.9250    144.0124
  1317.0000      8.2908    -76.0196      8.1680    146.6559
  1317.2500      7.9198    -75.9427      8.3941    148.2024
  1317.5000      7.6213    -75.9640      8.5468    149.5125
  1317.7500      7.4168    -76.0804      8.6038    149.1386
  1318.0000      7.3227    -76.2735      8.5776    146.3728
  1318.2500      7.3345    -76.5114      8.4979    143.7352
  1318.5000      7.4231    -76.7514      8.3934    140.6225
  1318.7500      7.5442    -76.9438      8.2832    139.7197
  1319.0000      7.6544    -77.0378      8.1766    139.0118
  1319.2500      7.7237    -76.9885      8.0760    137.8371
  1319.5000      7.7437    -76.7679      7.9804    134.7304
  1319.7500      7.7296    -76.3732      7.8886    132.7865
  1320.0000      7.7136    -75.8328      7.8015    131.8337
  1320.2500      7.7297    -75.2051      7.7240    132.6533
  1320.5000      7.8000    -74.5694      7.6641    135.1464
  1320.7500      7.9285    -74.0119      7.6317    136.9966
  1321.0000      8.1050    -73.6101      7.6376    139.0883
  1321.2500      8.3143    -73.4200      7.6921    139.6537
  1321.5000      8.5437    -73.4700      7.8044    139.2980
  1321.7500      8.7854    -73.7616      7.9816    138.6962
  1322.0000      9.0325    -74.2765      8.2275    138.0778
  1322.2500      9.2772    -74.9850      8.5425    137.9330
  1322.5000      9.5210    -75.8549      8.9252    137.4057
  1322.7500      9.7963    -76.8559      9.3761    136.4327
  1323.0000     10.1859    -77.9610      9.9023    134.3078
  1323.2500     10.8142    -79.1454     10.5205    133.0530
  1323.5000     11.8104    -80.3848     11.2538    131.9427
  1323.7500     13.2605    -81.6551     12.1257    131.1558
  1324.0000     15.1685    -82.9334     13.1504    127.8189
  1324.2500     17.4377    -84.2010     14.3264    123.2493
  1324.5000     19.8820    -85.4449     15.6313    113.5484
  1324.7500     22.2790    -86.6597     17.0219    106.7391
  1325.0000     24.4415    -87.8465     18.4389     98.7058
  1325.2500     26.2645    -89.0109     19.8179     95.4847
  1325.5000     27.7234    -90.1610     21.1036     93.5038
  1325.7500     28.8442    -91.3047     22.2624     93.5326
  1326.0000     29.6753    -92.4483     23.2886     94.6779
  1326.2500     30.2720    -93.5964     24.1999     95.6526
  1326.5000     30.6857    -94.7514     25.0215     96.5960
  1326.7500     30.9550    -95.9134     25.7657     96.6321
  1327.0000     31.1071    -97.0798     26.4241     95.9695
  1327.2500     31.1673    -98.2450     26.9781     95.2889
  1327.5000     31.1634    -99.3991     27.4203     94.0261
  1327.7500     31.1224   -100.5279     27.7683     92.9123
  1328.0000     31.0656   -101.6131     28.0567     90.6199
  1328.2500     31.0058   -102.6342     28.3174     88.5803
  1328.5000     30.9430   -103.5718     28.5609     84.6048
  1328.7500     30.8640   -104.4108     28.7731     81.3627
  1329.0000     30.7513   -105.1447     28.9260     75.9812
  1329.2500     30.5941   -105.7779     28.9953     72.3932
  1329.5000     30.3926   -106.3270     28.9725     67.6249
  1329.7500     30.1581   -106.8199     28.8647     65.1557
  1330.0000     29.9151   -107.2932     28.6889     62.7596
  1330.2500     29.6975   -107.7892     28.4674     61.9272
  1330.5000     29.5325   -108.3509     28.2264     61.2980
  1330.7500     29.4251   -109.0172     27.9945     60.9735
  1331.0000     29.3559   -109.8178     27.7948     60.3111
  1331.2500     29.2932   -110.7680     27.6370     59.6320
  1331.5000     29.2113   -111.8662     27.5138     57.9146
  1331.7500     29.1069   -113.0929     27.4074     56.0558
  1332.0000     29.0016   -114.4138     27.2992     52.1126
  1332.2500     28.9241   -115.7842     27.1796     49.0746
  1332.5000     28.8857   -117.1566     27.0514     45.1324
  1332.7500     28.8743   -118.4870     26.9267     43.5936
  1333.0000     28.8670   -119.7412     26.8184     43.2022
  1333.2500     28.8443   -120.8985     26.7330     43.8184
  1333.5000     28.7903   -121.9527     26.6666     45.1575
  1333.7500     28.6901   -122.9110     26.6055     46.1409
  1334.0000     28.5364   -123.7890     26.5310     48.2740
  1334.2500     28.3424   -124.6058     26.4266     50.7155
  1334.5000     28.1397   -125.3769     26.2838     56.6643
  1334.7500     27.9606   -126.1100     26.1040     62.1161
  1335.0000     27.8181   -126.8018     25.8953     71.4186
  1335.2500     27.7045   -127.4392     25.6711     77.3813
  1335.5000     27.6054   -128.0033     25.4521     84.7563
  1335.7500     27.5158   -128.4764     25.2668     88.7085
  1336.0000     27.4449   -128.8499     25.1425     94.3563
  1336.2500     27.4070   -129.1301     25.0889     98.4035
  1336.5000     27.4071   -129.3408     25.0891    104.3163
  1336.7500     27.4384   -129.5214     25.1082    107.3724
  1337.0000     27.4913   -129.7195     25.1162    109.9475
  1337.2500     27.5650   -129.9818     25.1060    110.6013
  1337.5000     27.6713   -130.3441     25.0932    111.0708
  1337.7500     27.8285   -130.8261     25.1020    111.5798
  1338.0000     28.0513   -131.4291     25.1529    112.7487
  1338.2500     28.3426   -132.1395     25.2603    113.3055
  1338.5000     28.6962   -132.9342     25.4351    112.7794
  1338.7500     29.1052   -133.7871     25.6839    111.4564
  1339.0000     29.5672   -134.6733     26.0048    108.9919
  1339.2500     30.0835   -135.5715     26.3852    107.5293
  1339.5000     30.6532   -136.4632     26.8067    105.2111
  1339.7500     31.2642   -137.3314     27.2552    103.0241
  1340.0000     31.8937   -138.1562     27.7270     98.9000
  1340.2500     32.5264   -138.9085     28.2285     96.3264
  1340.5000     33.1765   -139.5431     28.7725     93.5386
  1340.7500     33.8865   -139.9924     29.3775     92.1185
  1341.0000     34.6968   -140.1643     30.0623     89.7956
  1341.2500     35.6036   -139.9487     30.8318     87.9054
  1341.5000     36.5281   -139.2324     31.6551     84.2285
  1341.7500     37.3202   -137.9207     32.4494     80.6796
  1342.0000     37.8110   -135.9612     33.0847     72.8972
  1342.2500     37.9013   -133.3604     33.4140     66.4380
  1342.5000     37.6311   -130.1894     33.3281     57.2305
  1342.7500     37.1689   -126.5759     32.8123     53.2140
  1343.0000     36.7115   -122.6851     31.9680     52.7835
  1343.2500     36.3637   -118.6955     30.9744     56.7593
  1343.5000     36.0930   -114.7767     30.0092     67.8450
  1343.7500     35.7923   -111.0724     29.1799     76.4938
  1344.0000     35.3890   -107.6927     28.5026     86.4785
  1344.2500     34.9083   -104.7128     27.9270     89.0981
  1344.5000     34.4586   -102.1758     27.3912     86.9529
  1344.7500     34.1748   -100.0978     26.8773     83.1627
  1345.0000     34.1594    -98.4737     26.4323     77.0760
  1345.2500     34.4429    -97.2816     26.1454     73.6905
  1345.5000     34.9822    -96.4884     26.1014     69.8782
  1345.7500     35.7021    -96.0543     26.3463     68.0271
  1346.0000     36.5491    -95.9379     26.8781     65.8153
  1346.2500     37.5101    -96.1004     27.6559     64.3733
  1346.5000     38.5920    -96.5079     28.6114     61.9695
  1346.7500     39.7897    -97.1324     29.6566     60.3883
  1347.0000     41.0740    -97.9489     30.6907     58.7825
  1347.2500     42.4011    -98.9312     31.6186     58.6020
