~Version Information
VERS.                      2.0: CWLS Log ASCII Standard - VERSION 2.0
WRAP.                       NO: One line per depth step
~Well Information Block
STRT.FT               758.7500: 
STOP.FT              2420.7500: 
STEP.FT                 0.2500: 
NULL.                -999.2500: 
COMP.          Petrogulf Corporation: COMPANY
WELL.            Montoya 7-21V: WELL
FLD.           Purgatorie River: FIELD
LOC.           738' FSL & 2070' FWL: LOCATION
CNTY.               Las Animas: COUNTY
SRVC.                         : SERVICE COMPANY
DATE.          Fri Aug 20 07:13:07 2004: LOG DATE
UWI.           05 071 08018 00: UNIQUE WELL ID
STAT.                 Colorado: STATE
~Curve Information Block
DEPT.FT            0 000 00 00: Depth
SP.mV                         : DIL Spontaneous Potential
RILD.Ohm-m                    : DIL Deep Resistivity
RILM.Ohm-m                    : DIL Medium Resistivity
RLL3.Ohm-m                    : DIL Shallow Resistivity
GR.GAPI                       : Gamma Ray
~Parameter Information Block
~A  Depth        SP         RILD        RILM        RLL3         GR     
# ...
   786.7500    -45.7899    201.0420    125.6045      9.0901     70.7218
   787.0000    -45.5978    201.5746    130.8317     12.2873     60.8422
   787.2500    -45.2963    193.4840    136.3896     15.8473     55.1679
   787.5000    -44.8526    178.5212    141.2170     19.4810     50.1350
   787.7500    -44.2447    161.3097    144.0366     22.8038     49.7164
   788.0000    -43.4811    146.2642    143.8593     25.3193     53.2715
   788.2500    -42.6122    135.8828    140.5506     26.5186     57.7839
   788.5000    -41.7342    130.8986    134.9135     26.0876     66.6509
   788.7500    -40.9750    130.9781    128.2876     24.0712     73.5294
   789.0000    -40.4666    135.1212    121.9645     20.8489     84.2365
   789.2500    -40.3136    141.8272    116.8664     16.9663     90.5132
   789.5000    -40.5674    149.5370    113.5125     12.9694     96.7731
   789.7500    -41.2141    157.3320    112.1303      9.3177     98.5628
   790.0000    -42.1844    165.3932    112.7501      6.3364     98.4530
   790.2500    -43.3721    174.5844    115.2746      4.1724     97.0869
   790.5000    -44.6604    185.7383    119.4869      2.7830     93.9284
   790.7500    -45.9448    199.1132    125.0547      1.9920     91.5447
   791.0000    -47.1432    214.4144    131.5640      1.5846     87.6843
   791.2500    -48.1944    230.7148    138.6151      1.3850     84.3606
   791.5000    -49.0542    246.0282    145.9426      1.2842     77.2693
   791.7500    -49.6854    256.4616    153.5142      1.2305     71.4094
   792.0000    -50.0554    256.9043    161.4553      1.2037     62.9433
   792.2500    -50.1436    244.6328    169.7955      1.1944     58.8938
   792.5000    -49.9485    222.8498    178.1518      1.1940     56.6267
   792.7500    -49.5001    198.6324    185.3853      1.1940     57.6594
   793.0000    -48.8613    177.7675    189.6721      1.1895     61.8428
   793.2500    -48.1181    162.4447    189.1721      1.1804     65.3512
   793.5000    -47.3582    152.1087    183.1727      1.1697     70.3227
   793.7500    -46.6518    144.7488    172.7513      1.1616     73.3048
   794.0000    -46.0408    138.0591    160.1835      1.1605     77.8834
   794.2500    -45.5400    130.5854    147.7609      1.1705     81.1394
   794.5000    -45.1499    122.4244    137.0088      1.1947     85.3372
   794.7500    -44.8719    114.8451    128.6357      1.2327     86.7622
   795.0000    -44.7151    109.3005    122.7747      1.2789     86.0995
   795.2500    -44.6930    106.9025    119.2665      1.3234     84.1267
   795.5000    -44.8176    108.5693    117.8475      1.3548     80.0286
   795.7500    -45.0848    115.5072    118.2065      1.3626     77.0367
   796.0000    -45.4638    129.8216    120.0204      1.3376     72.6400
   796.2500    -45.8912    155.2114    122.9428      1.2763     70.2001
   796.5000    -46.2748    197.6390    126.6077      1.1867     68.6388
   796.7500    -46.5059    263.8148    130.6677      1.0895     69.8012
   797.0000    -46.4881    349.9724    134.8209      1.0073     74.9436
   797.2500    -46.1667    416.8184    138.8637      0.9512     79.6159
   797.5000    -45.5565    410.2911    142.6691      0.9214     85.9434
   797.7500    -44.7427    345.9579    146.1104      0.9252     88.7959
   798.0000    -43.8631    276.1924    148.9697      0.9949     91.0935
   798.2500    -43.0672    223.0562    150.9165      1.1993     91.6878
   798.5000    -42.4778    186.5396    151.5839      1.6597     91.5315
   798.7500    -42.1571    162.0577    150.7540      2.5690     90.9956
   799.0000    -42.1015    145.8421    148.5509      4.1836     90.3717
   799.2500    -42.2425    135.4503    145.4384      6.7192     90.3919
   799.5000    -42.4736    129.2317    142.0724     10.1383     90.9086
   799.7500    -42.6780    125.8098    139.0757     13.9580     91.3914
   800.0000    -42.7612    123.7077    136.8572     17.3147     92.3540
   800.2500    -42.6777    121.3977    135.5435     19.3996     93.2288
   800.5000    -42.4408    117.7889    134.9960     20.0328     94.7117
   800.7500    -42.1095    112.7424    134.8484     19.9012     95.5404
   801.0000    -41.7523    106.9731    134.6460     20.1601     96.0592
   801.2500    -41.4126    101.3294    133.9740     21.6464     95.8030
   801.5000    -41.0946     96.1546    132.6308     24.3102     94.7071
   801.7500    -40.7744     91.1959    130.7082     27.2836     93.6877
   802.0000    -40.4359     85.9550    128.5816     29.4719     91.7640
   802.2500    -40.1023     80.1637    126.7535     30.1955     90.1742
   802.5000    -39.8479     74.0242    125.6824     29.4820     87.7448
   802.7500    -39.7821     68.0157    125.6317     27.9561     86.5972
   803.0000    -40.0201     62.5649    126.5869     26.4870     86.0635
   803.2500    -40.6528     57.8672    128.2389     25.7753     86.2798
   803.5000    -41.7290     53.9472    130.0514     26.0356     86.6056
   803.7500    -43.2430     50.8450    131.4174     26.9436     86.3833
   804.0000    -45.1291     48.8070    131.9360     27.9318     85.1573
   804.2500    -47.2532     48.4349    131.5822     28.6436     84.0426
   804.5000    -49.4154     50.9305    130.7376     29.1730     82.9502
   804.7500    -51.3751     58.9852    129.9970     29.8764     83.0427
   805.0000    -52.9041     80.7892    129.9077     30.9433     84.1115
   805.2500    -53.8492    161.1436    130.7939     32.1400     84.7130
   805.5000    -54.1836 100000.0000    132.6553     32.9579     84.1836
   805.7500    -54.0031 100000.0000    135.1701     32.9888     82.6477
   806.0000    -53.4749 100000.0000    137.7246     32.1597     79.2278
   806.2500    -52.7475 100000.0000    139.5648     30.6576     76.8935
   806.5000    -51.8764 100000.0000    140.0169     28.6987     74.3312
   806.7500    -50.7986 100000.0000    138.7463     26.3955     73.4608
   807.0000    -49.3846 100000.0000    135.8888     23.8015     72.6777
   807.2500    -47.5394 100000.0000    131.9673     21.0193     71.5473
   807.5000    -45.3139 100000.0000    127.6797     18.2425     67.6320
   807.7500    -42.9674 100000.0000    123.6902     15.7318     63.5934
   808.0000    -40.9515 100000.0000    120.4685     13.7781     56.6317
   808.2500    -39.8141 100000.0000    118.2655     12.6750     52.2306
   808.5000    -40.0576 100000.0000    117.1074     12.6613     47.1852
   808.7500    -42.0105 100000.0000    116.8238     13.7926     45.4904
   809.0000    -45.7588 100000.0000    116.9501     15.8084     46.4651
   809.2500    -51.1552 100000.0000    117.0331     18.1163     49.8934
   809.5000    -57.8903 100000.0000    116.4173     19.9955     59.1725
   809.7500    -65.5813 100000.0000    114.2741     20.9394     67.3329
   810.0000    -73.8412 100000.0000    109.6241     20.9155     79.9841
   810.2500    -82.3045 100000.0000    101.5241     20.3421     87.0657
   810.5000    -90.6324 100000.0000     89.6165     19.8071     93.7981
   810.7500    -98.5076 100000.0000     74.8280     19.7366     95.5614
   811.0000   -105.6519 100000.0000     59.3440     20.2345     95.7947
   811.2500   -111.8476 100000.0000     45.4397     21.1209     95.9972
   811.5000   -116.9600 100000.0000     34.3615     22.0718     98.4470
   811.7500   -120.9437 100000.0000     26.2154     22.7573    101.5940
   812.0000   -123.8270     48.4357     20.5081     22.9556    107.4349
   812.2500   -125.6921     12.3027     16.6278     22.6360    111.3510
   812.5000   -126.6572      7.3867     14.0603     21.9793    116.3341
   812.7500   -126.8605      5.8423     12.4365     21.3008    118.5996
   813.0000   -126.4517      5.4571     11.5133     20.9033    119.8144
   813.2500   -125.5842      5.7648     11.1422     20.9402    119.1078
   813.5000   -124.4093      6.7432     11.2420     21.3628    116.4006
   813.7500   -123.0786      8.6815     11.7800     21.9730    114.1802
   814.0000   -121.7372     12.4495     12.7596     22.5530    111.2398
   814.2500   -120.5195     20.7220     14.2145     22.9930    109.7331
   814.5000   -119.5303     44.8368     16.2041     23.3361    108.1483
