~Version Information
 VERS.                2.0:  CWLS LOG ASCII STANDARD -VERSION 2.0
 WRAP.                 NO:  ONE LINE PER DEPTH STEP
~WELL INFORMATION BLOCK
#MNEM.UNIT       DATA		            DESCRIPTION OF MNEMONIC
#---------    -------------            ------------------------
 STRT.FT  0.500                          :START DEPTH
 STOP.FT  1808.700                       :STOP DEPTH
 STEP.FT  0.100                          :STEP    UP_HOLE  
 NULL.    -999.25                        :NULL VALUE
 COMP.              EL PASO PRODUCTIONS  :COMPANY
 WELL.                     COREHOLE #38  :WELL
 FLD .                 PURGATOIRE RIVER  :FIELD
 LOC .      15   35S   65W               :LOCATION
 CNTY.                           COLFAX  :COUNTY
 STAT.                     NM            :STATE
 CTRY.                                   :
 SRVC.     O'DRISCOLL                    :SERVICE COMPANY
 DATE.   04/28/05                        :LOG DATE
 API .                                   :API NUMBER
 LIC .                                   :LICENSE NUMBER
~Curve Information Block
#MNEM.UNIT      API CODE     Curve Description
#---------    -------------  ------------------------
 DEPT     .FT        00 001 00 00          :  1  DEPTH   
 GAMMA    .API-GR    00 310 00 00          :  2                GAMMA
 VOLTAGE  .MV        00 000 00 00          :  3              VOLTAGE
 CALIPER  .INCH      00 280 00 00          :  4              CALIPER
 DEN(LS)  .G/CC      00 350 00 00          :  5              DEN(LS)
 DEN(SS)  .G/CC      00 350 00 00          :  6              DEN(SS)
 CURRENT  .UA        00 000 00 00          :  7              CURRENT
 RES(SG)  .OHM-M     00 220 00 00          :  8              RES(SG)
 POR(DEN) .PERCENT   00 890 00 00          :  9             POR(DEN)
 DEN(LS)  .CPS       00 350 00 00          : 10              DEN(LS)
 DEN(SS)  .CPS       00 350 00 00          : 11              DEN(SS)
 COMP     .G/CC      00 356 00 00          : 12                 COMP
 DEN(CDL) .G/CC      00 350 00 00          : 13             DEN(CDL)
 TEMP     .DEG F     00 660 00 00          : 14                 TEMP
 DEL_TEMP .DEG F     00 000 00 00          : 15             DEL_TEMP
 TIME     .MINUTES   00 000 00 00          : 16                 TIME
~Parameter Information Block
#MNEM.UNIT   Information     Description
#---------- ---------------  ------------------------
 FILE.      ORIGINAL           :File Type
 FIID.      9139A              :File Type Identifier
 VERS.      3.58G              :System Version
 SER .      1                  :System Serial Number
 TRUK.      .498775            :Truck Calibration Number
 TOOL.        1245             :Tool Serial Number
 TIME.      1507               :Time    HrHrMinMin
 LAT .       36 59'            :Latitude
 LON .       104 39'           :Longitude
 LMF .            GL           :Log Measured From
 DMF .            GL           :Driller Measured From
 PD  .            GL           :Permanent Data
 PDEV.                         :Elevation Permanent Data
 EKB .M                        :Elevation Kelly Bushing
 ELEV.DF                       :Elevation DF
 EGL .M        7777            :Elevation Ground Level
 DRDP.          1825           :Driller's Depth
 CASD.       10.               :Casing Diameter
 CASB.           300           :Casing Bottom
 CASX.         STEEL           :Casing Type
 CAST.                         :Casing Thickness
 TNOC.                         :Time Circulation Stopped
 LOGU.        108              :Logging Unit
 RECB.           R.SIPES       :Recorded By
 OSR1.          9057           :Other Services
 OSR2.                         :Other Services
 OSR3.                         :Other Services
 BS  .MM         3.5           :Bit Size
 MST .                         :Mean Surface Temperature
 TGRD.                         :Temperature Gradiant
 MAGN.            12           :Magnetic Declination
 MDEN.       2.7               :Density Matrix
 MATR.      SANDSTONE          :Neutron Matrix
 DTMT.            54           :Delta T Matrix
 DTFL.                         :Delta T Fluid
 MUDS.                         :Mud Sample Source
 MRS .                         :Mud Resistivity
 MTP .                         :Mud Temperature
 MFRS.                         :Resistivity Mud Filtrate
 MFTP.                         :Temperature Mud Filtrate
 MCRS.                         :Resistivity Mud Cake
 MCTP.                         :Temperature Mud Cake
 FTYP.                         :Fluid Type
 FD  .K/M3                     :Fluid Density
 DFV .S                        :Fluid Viscosity
 FPH .                         :Fuild PH
 ELCO.       50000             :Electron Cutoff
~Other Information
#MNEM.UNIT  Information      Description
#---------- ---------------  ------------------------
# -------------------------- 
~A DEPTH  GAMMA    VOLTAGE  CALIPER DEN(LS) DEN(SS) CURRENT  RES(SG)  POR(DEN) DEN(LS) DEN(SS) COMP  DEN(CDL) TEMP  DEL_TEMP TIME    
# ...
 845.000    109.6      1.1   3.0  2.77 3.05   113.5      0.7  31.3  405.49 3348.33 -0.601 2.07 33.3  0.00 0.20000 
 845.100    110.6      0.9   3.0  2.84 3.04   133.3      0.5  15.1  350.38 3389.18 -0.394 2.10 33.3  0.00 0.20000 
 845.200    109.6      1.2   3.0  2.71 3.05   124.7      0.7  41.9  455.66 3373.81 -0.727 2.12 33.3  0.00 0.20000 
 845.300    117.2      1.1   3.0  2.61 2.93    70.3      1.1  45.8  555.94 3726.22 -0.693 2.07 33.3  0.00 0.20000 
 845.400    117.2      0.6   2.9  2.70 3.00    75.3      0.6  37.4  470.66 3516.78 -0.636 1.98 33.3  0.00 0.20000 
 845.500    120.0      1.0   3.0  2.69 3.04    32.7      2.1  45.6  475.68 3389.27 -0.770 2.00 33.3  0.00 0.20000 
 845.600    115.3      0.7   3.0  2.77 3.11    59.0      0.9  39.7  405.49 3195.41 -0.744 2.11 33.3  0.00 0.20000 
 845.700    112.4      0.9   3.0  2.74 3.06   113.7      0.5  37.4  425.56 3333.00 -0.680 2.10 33.3  0.00 0.20000 
 845.800    102.1      0.7   3.0  2.84 3.03   114.6      0.4  12.3  345.36 3424.91 -0.352 2.05 33.3  0.00 0.20000 
 845.900    103.9      1.4   3.0  2.77 3.12   112.3      0.9  41.4  400.48 3144.39 -0.779 2.01 33.3  0.00 0.20000 
 846.000    102.1      1.4   3.0  2.66 3.08   111.8      0.9  60.8  510.78 3277.06 -0.992 2.01 33.3  0.00 0.10000 
 846.100     99.2      1.3   2.9  2.68 3.05   112.7      0.8  50.0  485.73 3353.46 -0.835 2.00 33.3  0.00 0.20000 
 846.200    103.9      1.7   2.9  2.69 2.99   113.4      1.0  37.0  475.68 3547.35 -0.623 2.01 33.3  0.00 0.20000 
 846.300    111.5      1.1   3.0  2.74 2.91   113.0      0.7  16.8  430.56 3797.82 -0.325 2.08 33.3  0.00 0.20000 
 846.400    107.7      1.5   3.0  2.68 2.98   124.4      0.9  39.3  490.72 3567.91 -0.647 2.15 33.3  0.00 0.20000 
 846.500    107.7      1.2   3.0  2.71 3.03   133.0      0.6  40.7  460.64 3414.77 -0.702 2.12 33.3  0.00 0.20000 
 846.600    109.6      1.0   3.0  2.70 2.94   142.9      0.5  29.1  470.67 3690.42 -0.494 1.99 33.3  0.00 0.20000 
 846.700    102.1      1.2   3.0  2.60 2.91   133.8      0.6  43.6  565.96 3818.27 -0.646 2.04 33.3  0.00 0.20000 
 846.800     93.6      1.2   3.0  2.62 3.01   127.6      0.7  57.0  545.93 3475.87 -0.894 2.12 33.3  0.00 0.20000 
 846.900     89.8      1.3   3.0  2.72 2.94   132.3      0.7  24.6  450.61 3700.64 -0.438 2.14 33.3  0.00 0.20000 
 847.000     95.4      1.3   2.9  2.71 2.87   150.6      0.6  15.7  455.62 3951.34 -0.281 2.20 33.3  0.00 0.20000 
 847.100    100.2      1.7   2.9  2.70 2.91   169.6      0.7  24.6  470.66 3797.80 -0.417 2.26 33.3  0.00 0.20000 
 847.200    113.4      1.0   2.9  2.68 2.90   178.6      0.4  25.7  485.72 3844.06 -0.421 2.33 33.3  0.00 0.20000 
 847.300    119.1      1.1   2.9  2.64 2.92   202.9      0.4  37.9  530.85 3777.32 -0.584 2.29 33.3  0.00 0.20000 
 847.400    116.2      0.8   3.0  2.76 2.84   216.1      0.3   4.8  415.52 4058.91 -0.137 2.20 33.3  0.00 0.20000 
 847.500    120.0      1.4   3.0  2.69 2.92   110.2      0.9  26.4  475.68 3777.32 -0.444 2.12 33.3  0.00 0.20000 
 847.600    120.9      1.0   2.9  2.49 2.79    97.8      0.7  51.3  721.56 4212.57 -0.659 2.14 33.3  0.00 0.10000 
 847.700    111.5      0.9   2.9  2.55 2.87   131.0      0.5  49.5  641.23 3951.42 -0.690 2.06 33.3  0.00 0.20000 
 847.800    112.4      1.8   3.0  2.66 2.90   189.6      0.7  31.6  510.78 3823.36 -0.497 2.05 33.3  0.00 0.20000 
 847.900    119.1      0.9   3.0  2.67 2.90   189.3      0.3  28.3  495.77 3828.47 -0.456 2.17 33.3  0.00 0.20000 
 848.000    107.7      1.4   3.0  2.64 2.87   192.0      0.5  31.1  530.85 3931.02 -0.468 2.30 33.3  0.00 0.20000 
 848.100    113.4      1.2   3.0  2.66 2.80   136.2      0.6  16.6  505.77 4186.94 -0.247 2.32 33.3  0.00 0.20000 
 848.200    110.6      1.3   3.0  2.65 2.72   137.1      0.7  10.4  520.81 4469.13 -0.126 2.34 33.3  0.00 0.20000 
 848.300    107.7      1.1   3.0  2.65 2.84    99.9      0.8  24.2  515.80 4028.20 -0.365 2.35 33.3  0.00 0.20000 
 848.400    109.6      2.1   3.0  2.63 2.81   141.2      1.1  24.4  540.89 4151.08 -0.344 2.32 33.3  0.00 0.20000 
 848.500    113.4      0.1   3.0  2.61 2.81   127.6      0.0  27.5  560.95 4171.59 -0.377 2.31 33.3  0.00 0.20000 
 848.600     99.2      1.2   3.0  2.62 2.79   114.8      0.7  24.1  550.91 4212.60 -0.328 2.32 33.3  0.00 0.20000 
 848.700    104.9      1.9   3.0  2.69 2.81   116.1      1.2  13.2  480.71 4156.26 -0.213 2.31 33.3  0.00 0.20000 
 848.800     98.3      2.2   3.0  2.67 2.87   113.1      1.4  23.7  495.74 3941.34 -0.377 2.35 33.3  0.00 0.20000 
 848.900    103.0      0.7   3.0  2.63 2.82   112.3      0.4  25.9  540.88 4110.06 -0.370 2.39 33.3  0.00 0.10000 
 849.000    103.0      0.3   3.0  2.64 2.75   118.0      0.2  15.1  530.85 4366.69 -0.196 2.37 33.3  0.00 0.20000 
 849.100    111.5      0.3   3.0  2.65 2.75   121.3      0.2  12.5  515.80 4366.46 -0.167 2.38 33.3  0.00 0.20000 
 849.200    111.5     -0.5   3.0  2.61 2.75   116.5     -0.3  20.7  560.96 4361.34 -0.261 2.41 33.3  0.00 0.20000 
 849.300    120.0      1.3   3.0  2.58 2.72   125.7      0.7  20.7  591.06 4494.98 -0.237 2.39 33.3  0.00 0.20000 
 849.400    120.9      1.0   3.0  2.59 2.69   129.2      0.5  16.4  586.05 4618.12 -0.168 2.36 33.3  0.00 0.20000 
 849.500    118.1      0.4   3.0  2.54 2.66   131.7      0.2  21.5  646.25 4705.67 -0.210 2.33 33.3  0.00 0.20000 
 849.600    114.3     -0.4   3.0  2.53 2.63   135.0     -0.2  20.4  666.33 4844.46 -0.175 2.37 33.3  0.00 0.20000 
 849.700    118.1     -2.6   3.0  2.49 2.65   125.0     -1.5  30.4  716.55 4741.51 -0.307 2.34 33.3  0.00 0.20000 
 849.800    123.8      0.5   3.0  2.54 2.53   131.2      0.3   8.9  656.32 5266.93 0.012 2.34 33.3  0.00 0.20000 
 849.900    124.7      0.2   3.0  2.46 2.58   134.9      0.1  25.7  756.75 5050.38 -0.201 2.39 33.3  0.00 0.19900 
 850.000    136.1      0.1   3.0  2.44 2.50   131.6      0.1  21.2  791.88 5370.16 -0.103 2.42 33.3  0.00 0.20100 
 850.100    135.1     -0.5   3.0  2.56 2.51   135.3     -0.3   4.8  631.20 5334.01 0.061 2.35 33.3  0.00 0.20000 
 850.200    129.4      0.3   3.0  2.49 2.58   137.1      0.1  21.3  716.54 5050.38 -0.152 2.36 33.3  0.00 0.20000 
 850.300    122.8     -1.2   3.0  2.51 2.68   134.1     -0.6  30.8  691.44 4628.42 -0.331 2.31 33.3  0.00 0.19900 
 850.400    126.6     -2.9   3.0  2.53 2.66   128.4     -1.6  23.0  661.31 4731.30 -0.223 2.19 33.3  0.00 0.20000 
 850.500    116.2     -2.2   3.0  2.53 2.74   123.4     -1.3  34.5  666.34 4407.90 -0.414 2.21 33.3  0.00 0.20100 
 850.600    125.7     -2.6   3.0  2.52 2.77   124.2     -1.5  41.1  681.39 4304.91 -0.514 2.20 33.3  0.00 0.20000 
 850.700    125.7     -1.0   3.0  2.65 2.77   136.9     -0.5  16.0  520.81 4284.39 -0.222 2.14 33.3  0.00 0.09900 
 850.800    128.5     -2.2   3.0  2.55 2.76   136.9     -1.1  33.2  641.25 4330.57 -0.414 2.25 33.3  0.00 0.20000 
 850.900    126.6     -4.7   3.0  2.56 2.82   121.7     -2.7  39.9  631.22 4130.56 -0.534 2.28 33.3  0.00 0.20100 
 851.000    127.6     -3.1   3.0  2.73 2.76   120.3     -1.9   1.5  440.60 4320.42 -0.056 2.22 33.3  0.00 0.19900 
 851.100    120.9     -6.0   3.0  2.56 2.78   115.7     -3.7  33.6  621.16 4248.49 -0.434 2.18 33.3  0.00 0.20000 
 851.200    115.3     -6.8   3.0  2.59 2.82   123.5     -3.9  33.0  586.03 4135.72 -0.450 2.19 33.3  0.00 0.20000 
 851.300    107.7     -7.2   3.0  2.57 2.86   128.0     -4.0  44.0  616.14 3982.01 -0.616 2.15 33.3  0.00 0.20000 
 851.400    103.9     -5.3   3.0  2.55 2.81   130.4     -2.9  39.1  636.24 4166.44 -0.518 2.17 33.3  0.00 0.20100 
 851.500    117.2     -6.7   3.0  2.61 2.68   119.8     -4.0  12.5  560.94 4633.55 -0.122 2.16 33.3  0.00 0.19900 
 851.600    118.1     -6.4   3.0  2.58 2.77   121.0     -3.8  27.7  596.07 4310.02 -0.352 2.19 33.3  0.00 0.20000 
 851.700    127.6     -4.8   3.0  2.55 2.79   123.4     -2.8  36.8  636.26 4222.83 -0.478 2.23 33.3  0.00 0.20000 
 851.800    130.4     -2.7   3.0  2.58 2.82   134.9     -1.4  34.3  591.05 4120.31 -0.469 2.19 33.3  0.00 0.20000 
 851.900    123.8     -2.0   3.0  2.65 2.86   137.1     -1.0  26.8  520.82 3987.13 -0.404 2.22 33.3  0.00 0.20000 
