~Version Information
VERS.                      2.0: CWLS Log ASCII Standard - VERSION 2.0
WRAP.                       NO: One line per depth step
~Well Information Block
STRT.FT               588.6000: 
STOP.FT              2281.0000: 
STEP.FT                 0.1000: 
NULL.                -999.2500: 
COMP.          Petrogulf Corporation: COMPANY
WELL.             State 16-41V: WELL
FLD.           Purgatorie River: FIELD
LOC.           335' FNL & 823' FEL: LOCATION
CNTY.               Las Animas: COUNTY
SRVC.                         : SERVICE COMPANY
DATE.          Tue Aug 02 07:31:25 2005: LOG DATE
UWI.                          : UNIQUE WELL ID
STAT.                 Colorado: STATE
~Curve Information Block
DEPT.FT            0 000 00 00: Depth
DCAL.in                       : CDL Caliper
RHOB.g/cc                     : CDL Bulk Density
RHOC.g/cc                     : CDL Density Correction
DPOR.pu                       : CDL Density Porosity
GR.GAPI                       : Gamma Ray
NPOR.pu                       : Neutron Porosity
~Parameter Information Block
~A  Depth       DCAL        RHOB        RHOC        DPOR         GR         NPOR    
# ...
  1913.4000      8.0681      2.5345     -0.0042      7.0002     69.6414     20.0058
  1913.5000      8.0865      2.5444      0.0135      6.4001     70.9290     19.9718
  1913.6000      8.0865      2.5575      0.0614      5.6083     70.3723     19.9426
  1913.7000      8.0865      2.5710      0.0161      4.7890     68.7525     19.9159
  1913.8000      8.0768      2.5848      0.0814      3.9541     67.4647     19.8893
  1913.9000      8.0768      2.5845      0.0915      3.9700     66.8793     19.8598
  1914.0000      8.0566      2.5700      0.0321      4.8493     67.7511     19.8244
  1914.1000      8.0566      2.5617      0.0441      5.3503     70.3987     19.7798
  1914.2000      8.0566      2.5684      0.0502      4.9429     72.8980     19.7230
  1914.3000      8.0746      2.5797      0.0759      4.2594     73.1173     19.6511
  1914.4000      8.0746      2.5829      0.0895      4.0681     71.7253     19.5612
  1914.5000      8.0495      2.5752      0.0672      4.5348     70.8491     19.4509
  1914.6000      8.0495      2.5629      0.0576      5.2764     71.7595     19.3180
  1914.7000      8.0495      2.5558      0.0369      5.7083     73.4381     19.1606
  1914.8000      8.0528      2.5598      0.0334      5.4685     73.6459     18.9777
  1914.9000      8.0528      2.5670      0.0497      5.0323     71.3704     18.7688
  1915.0000      8.0834      2.5654      0.0506      5.1287     67.4199     18.5353
  1915.1000      8.0834      2.5470      0.0700      6.2401     64.8778     18.2806
  1915.2000      8.0834      2.4908      0.0769      9.6479     65.8682     18.0107
  1915.3000      8.0602      2.3756      0.0197     16.6312     69.1685     17.7351
  1915.4000      8.0602      2.2242     -0.0518     25.8037     72.7505     17.4664
  1915.5000      8.0663      2.0911     -0.0837     33.8720     76.4451     17.2206
  1915.6000      8.0663      2.0112     -0.0882     38.7178     80.6027     17.0151
  1915.7000      8.0663      1.9914     -0.1267     39.9168     83.6478     16.8681
  1915.8000      8.0811      2.0234     -0.0664     37.9786     84.5548     16.7963
  1915.9000      8.0811      2.0841      0.0601     34.2988     85.4014     16.8132
  1916.0000      8.0603      2.1494      0.2043     30.3366     89.1927     16.9272
  1916.1000      8.0603      2.2132      0.2742     26.4737     93.9542     17.1408
  1916.2000      8.0603      2.2775      0.2710     22.5785     95.1024     17.4495
  1916.3000      8.0015      2.3289      0.3327     19.4616     93.8135     17.8426
  1916.4000      8.0015      2.3539      0.2952     17.9462     94.3174     18.3036
  1916.5000      8.0347      2.3718      0.1948     16.8589     97.2647     18.8124
  1916.6000      8.0347      2.4152      0.1473     14.2333    100.8611     19.3467
  1916.7000      8.0347      2.4850      0.1758      9.9999    103.5014     19.8847
  1916.8000      8.0281      2.5466      0.2192      6.2663    104.4899     20.4067
  1916.9000      8.0281      2.5699      0.1929      4.8518    104.7404     20.8962
  1917.0000      8.0876      2.5611      0.1787      5.3899    105.6076     21.3408
  1917.1000      8.0876      2.5433      0.1483      6.4668    105.9467     21.7321
  1917.2000      8.0876      2.5315      0.1109      7.1833    104.0019     22.0653
  1917.3000      8.0987      2.5259      0.1212      7.5191    101.5781     22.3390
  1917.4000      8.0987      2.5253      0.0799      7.5596    100.0753     22.5549
  1917.5000      8.0803      2.5326      0.1081      7.1150     98.5872     22.7168
  1917.6000      8.0803      2.5390      0.1136      6.7273     96.6204     22.8303
  1917.7000      8.0803      2.5359      0.0844      6.9126     93.9294     22.9024
  1917.8000      8.0717      2.5323      0.0955      7.1351     89.7540     22.9409
  1917.9000      8.0717      2.5358      0.0515      6.9216     85.6606     22.9533
  1918.0000      8.0634      2.5418      0.0538      6.5569     84.4887     22.9474
  1918.1000      8.0634      2.5449      0.0562      6.3671     84.6794     22.9298
  1918.2000      8.0634      2.5481      0.0721      6.1744     83.8390     22.9061
  1918.3000      8.0529      2.5509      0.0943      6.0043     84.2378     22.8811
  1918.4000      8.0529      2.5480      0.0620      6.1827     87.7057     22.8578
  1918.5000      8.0374      2.5435      0.0466      6.4571     90.7421     22.8382
  1918.6000      8.0374      2.5402      0.0822      6.6560     88.9991     22.8223
  1918.7000      8.0374      2.5335      0.0861      7.0619     83.2662     22.8087
  1918.8000      8.0265      2.5303      0.0259      7.2518     79.1000     22.7947
  1918.9000      8.0265      2.5392      0.0641      6.7148     79.4999     22.7765
  1919.0000      8.0231      2.5513      0.0963      5.9823     81.0699     22.7504
  1919.1000      8.0231      2.5579      0.0792      5.5791     80.1035     22.7127
  1919.2000      8.0231      2.5606      0.1054      5.4163     78.6671     22.6611
  1919.3000      8.0061      2.5594      0.1139      5.4896     79.3679     22.5949
  1919.4000      8.0061      2.5536      0.0903      5.8454     80.6839     22.5147
  1919.5000      7.9944      2.5436      0.0987      6.4485     82.6544     22.4227
  1919.6000      7.9944      2.5270      0.0888      7.4534     86.0276     22.3217
  1919.7000      7.9944      2.5080      0.0371      8.6069     87.4616     22.2152
  1919.8000      7.9909      2.5044      0.0014      8.8253     85.9195     22.1062
  1919.9000      7.9909      2.5232      0.0641      7.6864     85.0820     21.9972
  1920.0000      7.9880      2.5451      0.0650      6.3590     86.9440     21.8903
  1920.1000      7.9880      2.5568      0.0658      5.6466     89.2829     21.7861
  1920.2000      7.9880      2.5622      0.1146      5.3209     89.0040     21.6853
  1920.3000      7.9484      2.5612      0.1070      5.3810     87.8561     21.5875
  1920.4000      7.9484      2.5503      0.1287      6.0434     89.5332     21.4922
  1920.5000      7.9322      2.5291      0.0989      7.3275     92.3215     21.3984
  1920.6000      7.9322      2.4989      0.0874      9.1561     93.0350     21.3052
  1920.7000      7.9322      2.4622      0.0686     11.3824     93.1160     21.2117
  1920.8000      7.9611      2.4280      0.0326     13.4532     94.5292     21.1174
  1920.9000      7.9611      2.4096      0.0009     14.5723     96.7351     21.0227
  1921.0000      8.0143      2.4102      0.0412     14.5326    100.2459     20.9288
  1921.1000      8.0143      2.4222      0.0356     13.8091    104.5532     20.8383
  1921.2000      8.0143      2.4413      0.0543     12.6492    106.1242     20.7547
  1921.3000      8.0686      2.4638      0.0959     11.2828    102.7587     20.6823
  1921.4000      8.0686      2.4790      0.1163     10.3637     98.2418     20.6255
  1921.5000      8.0695      2.4760      0.1741     10.5441     98.1960     20.5885
  1921.6000      8.0695      2.4602      0.1487     11.5013    102.1721     20.5741
  1921.7000      8.0695      2.4549      0.1140     11.8241    105.0895     20.5839
  1921.8000      8.0276      2.4609      0.1591     11.4631    104.6386     20.6178
  1921.9000      8.0276      2.4547      0.1086     11.8355    104.1548     20.6748
  1922.0000      8.0235      2.4369      0.1095     12.9155    105.6623     20.7532
  1922.1000      8.0235      2.4288      0.1028     13.4039    107.6156     20.8515
  1922.2000      8.0235      2.4443      0.0788     12.4649    108.5381     20.9690
  1922.3000      8.0378      2.4767      0.1332     10.5041    107.2785     21.1058
  1922.4000      8.0378      2.5027      0.1524      8.9279    104.2716     21.2629
  1922.5000      8.0567      2.5038      0.1619      8.8601    102.4332     21.4419
  1922.6000      8.0567      2.4848      0.1499     10.0150    102.6966     21.6437
  1922.7000      8.0567      2.4729      0.0696     10.7325    104.2491     21.8680
  1922.8000      8.0474      2.4861      0.0773      9.9340    107.5207     22.1126
  1922.9000      8.0474      2.5090      0.1042      8.5484    109.8480     22.3729
