~Version Information
 VERS.                                  2.0 : CWLS LAS VERSION
 WRAP.                                   NO : WRAPING MODE
 SWARE .                 MController 2.5.0J : SOFTWARE VERSION
~Well Information
 WELL.                          DYLAN 42-25 : WELL
 COMP.    PIONEER NATURAL RESOURCES USA INC : COMPANY
 FLD.                      PURGATOIRE RIVER : FIELD
 LOC.                SE/NE Sec 25 T34S R65W : LOCATION
 DATE.                              4/23/05 : DATE(S) LOGGED
 SRVC.       BLANCO GEOLOGICAL SERVICES LLC : SERVICE COMPANY
 STAT.                                   CO : STATE
 CNTY.                           LAS ANIMAS : COUNTY
 CTRY.                                  USA : COUNTRY
 API.                       05 071 08229 00 : API NUMBER
 STRT.FT                             474.00 : START DEPTH
 STOP.FT                            1000.00 : STOP DEPTH
 STEP.FT                               1.00 : DEPTH INCREMENT
 NULL.                                -9999 : NULL VALUE
~Curve information
 DEPTH.FT                                   :
 ROP.MIN/FT                                 :
 GAS.UNITS                                  :
~ASCII Log data
       474.0     -9999.00          2.8 
       475.0        25.05        118.0 
       476.0         0.47          0.9 
       477.0         0.30          1.4 
       478.0         0.23          0.4 
       479.0         0.23          0.6 
       480.0         0.23          0.8 
       481.0         0.27          0.9 
       482.0         0.27          1.0 
       483.0         0.23          0.7 
       484.0         0.25          0.6 
       485.0         0.23          0.6 
       486.0         0.23          0.2 
       487.0         0.27          0.6 
       488.0         0.23          1.0 
       489.0         0.23          1.3 
       490.0         0.20          1.1 
       491.0         0.23          0.6 
       492.0         0.23          0.3 
       493.0         0.23          0.9 
       494.0         0.27          0.7 
       495.0         0.27          0.5 
       496.0         0.27          0.4 
       497.0         0.27          0.1 
       498.0         0.28          0.1 
       499.0         0.23          0.2 
       500.0         0.27          0.3 
       501.0         0.23          0.3 
       502.0         0.20          0.6 
       503.0         0.23          0.6 
       504.0         0.40          0.3 
       505.0         0.40          0.4 
       506.0         1.17          0.8 
       507.0         0.35          0.1 
       508.0         0.27          1.3 
       509.0         0.33          1.2 
       510.0         0.27          0.8 
       511.0         0.27          0.6 
       512.0         0.23          0.6 
       513.0         0.27          0.8 
       514.0         0.23          0.8 
       515.0         0.23          0.8 
       516.0         0.27          0.3 
       517.0         0.23          0.6 
       518.0         0.27          0.7 
       519.0         0.22          1.0 
       520.0         0.27          0.7 
       521.0         0.23          0.5 
       522.0         0.17          1.1 
       523.0         0.23          1.0 
       524.0         0.17          0.7 
       525.0         0.10          0.7 
       526.0         0.27          1.0 
       527.0         0.27          1.0 
       528.0         0.40          1.2 
       529.0         0.27          1.2 
       530.0         0.23          0.9 
       531.0         0.23          0.5 
       532.0         0.17          0.7 
       533.0         0.20          1.0 
       534.0         0.35          0.2 
       535.0         0.40          4.9 
       536.0         1.37         11.8 
       537.0         0.33         59.5 
       538.0         0.30        109.5 
       539.0         0.27         94.2 
       540.0         0.30         45.2 
       541.0         0.35         17.2 
       542.0         0.23          7.2 
       543.0         0.23          5.9 
       544.0         0.17          5.3 
       545.0         0.20          5.3 
       546.0         0.20          5.2 
       547.0         0.23          5.5 
       548.0         0.23          4.6 
       549.0         0.20          4.9 
       550.0         0.20          5.3 
       551.0         0.27          5.9 
       552.0         0.27          5.5 
       553.0         0.30          5.0 
       554.0         0.23          7.1 
       555.0         0.22         11.0 
       556.0         0.20         11.3 
       557.0         0.17         10.8 
       558.0         0.13          9.0 
       559.0         0.10          7.7 
       560.0         0.17          7.0 
       561.0         0.23          6.1 
       562.0         0.33          5.6 
       563.0         0.27          5.6 
       564.0         0.27          5.2 
       565.0         0.27          5.6 
       566.0         1.45         17.6 
       567.0         0.20          9.1 
       568.0         0.30          7.7 
       569.0         0.27          6.2 
       570.0         0.27          5.3 
       571.0         0.23          5.5 
       572.0         0.20          6.7 
       573.0         0.37          6.3 
       574.0         0.30          6.2 
       575.0         0.20          6.0 
       576.0         0.13          4.6 
       577.0         0.20          4.8 
       578.0         0.20          5.3 
       579.0         0.25          6.1 
       580.0         0.23          6.7 
       581.0         0.17          6.2 
       582.0         0.23          5.7 
       583.0         0.37          9.0 
       584.0         0.27         12.1 
       585.0         0.17         12.6 
       586.0         0.17         12.9 
       587.0         0.20         12.1 
       588.0         0.17         11.1 
       589.0         0.20         10.3 
       590.0         0.20          8.9 
       591.0         0.20          8.2 
       592.0         0.17          8.1 
       593.0         0.23          6.5 
       594.0         0.35          6.6 
       595.0         0.40          8.7 
       596.0         0.67         25.9 
       597.0         0.40         26.0 
       598.0         0.40         17.4 
       599.0         0.33         10.3 
       600.0         0.30          9.2 
       601.0         0.30          7.6 
       602.0         0.23          7.4 
       603.0         0.28          7.5 
       604.0         0.23          7.4 
       605.0         0.27          7.9 
       606.0         0.27          7.7 
       607.0         0.27          9.1 
       608.0         0.23         14.7 
       609.0         0.23         16.0 
       610.0         0.30         15.5 
       611.0         0.23         14.8 
       612.0         0.20         12.8 
       613.0         0.23         13.2 
       614.0         0.20         12.7 
       615.0         0.23         12.1 
       616.0         0.23         12.2 
       617.0         0.22         11.3 
       618.0         0.20         11.4 
       619.0         0.23         11.7 
       620.0         0.23         11.8 
       621.0         0.23         11.3 
       622.0         0.20         11.3 
       623.0         0.17         10.3 
       624.0         0.20          9.0 
       625.0         0.23          9.5 
       626.0         1.03         65.5 
       627.0         0.30         64.9 
       628.0         0.42         43.1 
       629.0         0.30         24.3 
       630.0         0.27         18.9 
       631.0         0.23         16.1 
       632.0         0.27         14.1 
       633.0         0.20         12.3 
       634.0         0.23         11.3 
       635.0         0.20         11.2 
       636.0         0.20         10.8 
       637.0         0.20          9.5 
       638.0         0.17          8.9 
       639.0         0.17          8.4 
       640.0         0.20          8.8 
       641.0         0.20          8.1 
       642.0         0.17          8.2 
       643.0         0.15          7.3 
       644.0         0.17          7.0 
       645.0         0.20          6.7 
       646.0         0.17          5.7 
       647.0         0.13          5.6 
       648.0         0.20          5.6 
       649.0         0.23          5.7 
       650.0         0.23          5.0 
       651.0         0.23          4.9 
       652.0         0.20          4.7 
       653.0         0.17          4.8 
       654.0         0.17          3.9 
       655.0         0.17          4.0 
       656.0         1.15         28.9 
       657.0         0.53         31.2 
       658.0         0.33         23.5 
       659.0         0.30         15.5 
       660.0         0.27         11.1 
       661.0         0.23          9.2 
       662.0         0.17          8.4 
       663.0         0.17          7.6 
       664.0         0.13          6.3 
       665.0         0.20          6.2 
       666.0         0.20          5.7 
       667.0         0.23          4.9 
       668.0         0.23          4.7 
       669.0         0.25          4.4 
       670.0         0.20          4.0 
       671.0         0.23          3.9 
       672.0         0.23          4.5 
       673.0         0.23          4.1 
