~Version Information
VERS.                      2.0: CWLS Log ASCII Standard - VERSION 2.0
WRAP.                       NO: One line per depth step
~Well Information Block
STRT.FT               765.6000: 
STOP.FT              2431.0000: 
STEP.FT                 0.1000: 
NULL.                -999.2500: 
COMP.          Petrogulf Corporation: COMPANY
WELL.             Norton 9-14V: WELL
FLD.           Purgatorie River: FIELD
LOC.           230' FSL & 225' FWL: LOCATION
CNTY.               Las Animas: COUNTY
SRVC.                         : SERVICE COMPANY
DATE.          Thu Oct 28 06:20:25 2004: LOG DATE
UWI.           05 071 07891 00: UNIQUE WELL ID
STAT.                 Colorado: STATE
~Curve Information Block
DEPT.FT            0 000 00 00: Depth
DCAL.in                       : CDL Caliper
RHOB.g/cc                     : CDL Bulk Density
RHOC.g/cc                     : CDL Density Correction
DPOR.pu                       : CDL Density Porosity
GR.GAPI                       : Gamma Ray
NPOR.pu                       : Neutron Porosity
~Parameter Information Block
~A  Depth       DCAL        RHOB        RHOC        DPOR         GR         NPOR    
# ...
  1111.2000      7.9573      2.5574      0.1908      5.6119    159.1411     27.3965
  1111.3000      8.0181      2.5616      0.1975      5.3599    153.3646     27.6873
  1111.4000      8.0181      2.5651      0.1361      5.1485    155.6451     28.4105
  1111.5000      7.9931      2.5634      0.0781      5.2501    163.1819     29.5207
  1111.6000      7.9931      2.5663      0.0500      5.0723    160.2949     30.3929
  1111.7000      7.9931      2.5852      0.0452      3.9268    144.6429     30.6157
  1111.8000      8.0483      2.6124      0.0725      2.2768    130.3966     30.6043
  1111.9000      8.0483      2.6291      0.0537      1.2637    123.0164     30.8190
  1112.0000      8.0525      2.6324      0.0615      1.0672    117.0932     31.2117
  1112.1000      8.0525      2.6356      0.0168      0.8716    112.5150     31.3876
  1112.2000      8.0525      2.6420      0.0742      0.4822    112.4221     30.8180
  1112.3000      7.9743      2.6411      0.0331      0.5382    113.2178     29.5255
  1112.4000      7.9743      2.6352      0.0572      0.8961    109.9159     28.1394
  1112.5000      7.9297      2.6346      0.0189      0.9342    105.0438     27.3416
  1112.6000      7.9297      2.6438      0.0237      0.3786    103.2376     27.3789
  1112.7000      7.9297      2.6620     -0.0027     -0.7288    104.8548     27.9848
  1112.8000      7.9255      2.6873      0.0165     -2.2585    107.2809     28.4808
  1112.9000      7.9255      2.7095      0.0723     -3.6036    107.8138     28.4053
  1113.0000      7.9301      2.7145      0.0742     -3.9079    105.2749     28.0519
  1113.1000      7.9301      2.7063      0.0445     -3.4111    101.7805     27.7691
  1113.2000      7.9301      2.7036      0.0546     -3.2477    100.5866     27.6852
  1113.3000      7.9118      2.7124      0.0778     -3.7842     98.2836     28.0183
  1113.4000      7.9118      2.7219      0.0907     -4.3594     90.9880     28.4496
  1113.5000      7.9016      2.7265      0.0492     -4.6356     84.4761     28.4158
  1113.6000      7.9016      2.7298      0.0553     -4.8375     82.4934     27.6547
  1113.7000      7.9016      2.7309      0.0594     -4.9007     82.5903     26.3451
  1113.8000      7.9020      2.7233      0.0706     -4.4434     80.5399     25.0285
  1113.9000      7.9020      2.7086      0.0272     -3.5529     75.2867     24.2014
  1114.0000      7.9190      2.6966      0.0458     -2.8266     73.6464     23.9537
  1114.1000      7.9190      2.6878      0.0339     -2.2919     78.3868     23.8326
  1114.2000      7.9190      2.6781      0.0215     -1.7007     84.0556     23.4067
  1114.3000      7.9404      2.6695      0.0265     -1.1795     89.1725     22.8772
  1114.4000      7.9404      2.6552      0.0602     -0.3178     94.6128     22.6637
  1114.5000      7.9451      2.6301      0.0225      1.2059    100.0617     22.6869
  1114.6000      7.9451      2.6073      0.0255      2.5896    106.5612     22.8251
  1114.7000      7.9451      2.6040     -0.0397      2.7887    111.8032     23.0812
  1114.8000      7.9480      2.6200      0.0754      1.8210    113.3767     23.3409
  1114.9000      7.9480      2.6310      0.0734      1.1486    113.2908     23.4586
  1115.0000      7.9590      2.6173      0.0609      1.9841    113.9561     23.4712
  1115.1000      7.9590      2.5855      0.0129      3.9072    115.3006     23.2394
  1115.2000      7.9590      2.5563      0.0161      5.6797    117.5286     22.6805
  1115.3000      7.9735      2.5410      0.0198      6.6052    120.4036     22.1096
  1115.4000      7.9735      2.5383      0.0283      6.7723    122.4161     21.9755
  1115.5000      7.9835      2.5365      0.0542      6.8816    125.2295     22.4508
  1115.6000      7.9835      2.5254     -0.0115      7.5542    128.8799     23.1301
  1115.7000      7.9835      2.5110      0.0090      8.4244    128.1523     23.5235
  1115.8000      7.9764      2.4993      0.0151      9.1354    127.2714     23.7066
  1115.9000      7.9764      2.4864     -0.0158      9.9154    133.7404     23.9570
  1116.0000      7.9808      2.4734      0.0110     10.7021    142.2187     24.4985
  1116.1000      7.9808      2.4719     -0.0114     10.7931    146.6418     25.4880
  1116.2000      7.9808      2.4818      0.0720     10.1920    147.8681     26.6400
  1116.3000      7.9843      2.4827      0.0390     10.1380    146.2628     27.3767
  1116.4000      7.9843      2.4715      0.0199     10.8183    142.3570     27.7432
  1116.5000      7.9881      2.4631      0.0123     11.3295    139.4527     28.2599
  1116.6000      7.9881      2.4603      0.0628     11.4964    140.4178     28.8069
  1116.7000      7.9881      2.4676      0.0292     11.0570    144.3518     29.2170
  1116.8000      7.9915      2.4942      0.0233      9.4424    144.8220     29.8261
  1116.9000      7.9915      2.5311      0.0941      7.2075    137.8908     30.5564
  1117.0000      7.9788      2.5680      0.0491      4.9671    127.9781     30.8698
  1117.1000      7.9788      2.6068      0.0626      2.6191    117.8387     30.5756
  1117.2000      7.9788      2.6417      0.0599      0.5013    107.9616     29.8233
  1117.3000      7.9778      2.6741      0.0563     -1.4617    102.1113     28.8196
  1117.4000      7.9778      2.7088      0.0648     -3.5643     99.7334     27.7407
  1117.5000      7.9755      2.7293      0.0858     -4.8038     96.7184     26.6199
  1117.6000      7.9755      2.7181      0.1036     -4.1299     92.9037     25.6671
  1117.7000      7.9755      2.6788      0.0555     -1.7465     88.4643     24.8144
  1117.8000      7.9640      2.6306     -0.0262      1.1765     81.5321     23.4540
  1117.9000      7.9640      2.5950     -0.0547      3.3348     74.2017     21.7143
  1118.0000      7.9288      2.5839     -0.0201      4.0057     71.1651     20.2155
  1118.1000      7.9288      2.5999     -0.0073      3.0365     68.9138     19.0156
  1118.2000      7.9288      2.6235      0.0796      1.6040     63.8877     18.0741
  1118.3000      7.9217      2.6214      0.0412      1.7310     61.5500     17.5577
  1118.4000      7.9217      2.5980      0.0149      3.1485     62.8945     16.9615
  1118.5000      7.9170      2.5877      0.0062      3.7769     63.4969     15.8138
  1118.6000      7.9170      2.5977      0.0240      3.1684     61.7630     14.4960
  1118.7000      7.9170      2.6122      0.0393      2.2890     58.3679     13.3421
  1118.8000      7.9170      2.6214      0.0987      1.7357     55.9171     12.5523
  1118.9000      7.9170      2.6143      0.0632      2.1608     55.1304     12.1920
  1119.0000      7.9248      2.5889      0.0722      3.7021     53.2290     12.2282
  1119.1000      7.9248      2.5632      0.0094      5.2600     50.2681     12.6494
  1119.2000      7.9248      2.5554      0.0284      5.7324     48.5197     13.0020
  1119.3000      7.9234      2.5571      0.0834      5.6291     48.0899     12.8051
  1119.4000      7.9234      2.5450      0.0425      6.3616     49.1009     12.2131
  1119.5000      7.9226      2.5215      0.0239      7.7874     53.1717     11.8215
  1119.6000      7.9226      2.5131      0.0475      8.2996     59.5059     11.9780
  1119.7000      7.9226      2.5276      0.0802      7.4161     63.3205     12.5576
  1119.8000      7.9219      2.5447      0.0928      6.3821     62.6004     13.3752
  1119.9000      7.9219      2.5470      0.0693      6.2438     61.1789     14.2396
  1120.0000      7.9163      2.5301      0.1335      7.2674     60.0693     14.7085
  1120.1000      7.9163      2.5047      0.0064      8.8047     57.7181     14.5696
  1120.2000      7.9163      2.4935      0.0419      9.4847     56.2058     14.4244
  1120.3000      7.9109      2.5006      0.0057      9.0555     57.0516     14.9077
  1120.4000      7.9109      2.5207      0.0200      7.8379     57.7835     15.7576
  1120.5000      7.9210      2.5458      0.0885      6.3166     56.6124     16.4722
  1120.6000      7.9210      2.5615      0.0539      5.3663     54.6644     16.8614
  1120.7000      7.9210      2.5724      0.0111      4.7009     52.2215     16.5831
