~Version Information
VERS.                      2.0: CWLS Log ASCII Standard - VERSION 2.0
WRAP.                       NO: One line per depth step
~Well Information Block
STRT.FT                -8.2500: 
STOP.FT              2239.2500: 
STEP.FT                 0.2500: 
NULL.                -999.2500: 
COMP.          Pioneer Natural Resources: COMPANY
WELL.            Moo Moo 31-36: WELL
FLD.           Purgatorie River: FIELD
LOC.           612' FNL & 2326' FEL--: LOCATION
PROV.                       CO: PROVINCE
CNTY.               Las Animas: COUNTRY
SRVC.          Patterson Wireline: SERVICE COMPANY
DATE.          Thu Jun 23 10:04:07 2005: LOG DATE
UWI.           05 071 08395 00: UNIQUE WELL ID
~Curve Information Block
DEPT.FT            0 000 00 00: Depth
CCL.                          : Casing Collar Locator
TT3.usec                      : CBL 3' Travel Time
AMP3.mV                       : CBL 3' Amplitude
GR.GAPI                       : Gamma Ray
~Parameter Information Block
~A  Depth       CCL         TT3         AMP3         GR     
# ...
  1164.2500      0.0000    810.3589      6.3206    155.9374
  1164.5000      0.0000    809.9497      6.3274    158.8645
  1164.7500      0.0000    809.5347      6.3408    160.0900
  1165.0000      0.0000    809.1741      6.3737    156.9927
  1165.2500      0.0000    808.8067      6.3965    149.9428
  1165.5000      0.0000    808.1577      6.3505    142.4514
  1165.7500      0.0000    806.5765      6.1819    138.1601
  1166.0000      0.0000    803.0226      5.8768    137.9743
  1166.2500      0.0000    796.7215      5.4811    140.1097
  1166.5000      0.0000    788.4929      5.0933    142.1345
  1166.7500      0.0000    781.1833      4.8271    142.4169
  1167.0000      0.0000    777.7761      4.7489    140.0748
  1167.2500      0.0000    778.9535      4.8376    134.6590
  1167.5000      0.0000    783.4131      5.0158    126.6842
  1167.7500      0.0000    790.0858      5.2184    118.3602
  1168.0000      0.0000    798.3337      5.4169    113.0635
  1168.2500      0.0000    806.3906      5.5979    113.3810
  1168.5000      2.0000    811.9239      5.7508    119.2568
  1168.7500      2.0000    814.6610      5.8747    127.9515
  1169.0000      0.0000    816.7529      5.9896    135.9756
  1169.2500      0.0000    819.6087      6.1417    141.2396
  1169.5000      0.0000    821.3175      6.3813    143.4366
  1169.7500      0.0000    818.1197      6.7077    142.9299
  1170.0000      0.0000    808.0235      7.0423    140.0971
  1170.2500      0.0000    792.6885      7.2823    135.6679
  1170.5000      0.0000    776.5997      7.3731    130.9489
  1170.7500      0.0000    764.8938      7.3176    127.2968
  1171.0000      0.0000    760.9439      7.1468    125.1952
  1171.2500      0.0000    764.5673      6.9033    123.7421
  1171.5000      0.0000    771.9160      6.6314    121.2909
  1171.7500      0.0000    777.2022      6.3682    117.0620
  1172.0000      0.0000    775.5013      6.1477    112.1676
  1172.2500      0.0000    765.5436      6.0078    108.8361
  1172.5000      0.0000    750.7257      5.9694    108.6001
  1172.7500      0.0000    736.8354      6.0035    111.0332
  1173.0000      0.0000    727.9141      6.0410    113.8177
  1173.2500      0.0000    724.1052      6.0328    114.2262
  1173.5000      0.0000    723.1147      5.9999    111.2223
  1173.7500      0.0000    722.9144      6.0124    106.3550
  1174.0000      0.0000    722.9154      6.1184    102.3792
  1174.2500      0.0000    723.5629      6.2997    100.9978
  1174.5000      0.0000    725.6329      6.4932    102.0377
  1174.7500      0.0000    729.8138      6.6413    104.4715
  1175.0000      0.0000    736.3583      6.7220    107.7253
  1175.2500      0.0000    744.7215      6.7478    111.9130
  1175.5000      0.0000    753.3987      6.7475    117.1536
  1175.7500      0.0000    760.2251      6.7438    122.8577
  1176.0000      0.0000    763.1631      6.7389    127.5837
  1176.2500      0.0000    761.0558      6.7215    129.8149
  1176.5000      0.0000    753.9943      6.6837    129.1985
  1176.7500      0.0000    743.7558      6.6211    126.8742
  1177.0000      0.0000    734.0731      6.5124    124.4837
  1177.2500      0.0000    729.0648      6.3235    123.1082
  1177.5000      0.0000    729.9658      6.0538    123.1748
  1177.7500      0.0000    733.7696      5.7716    124.7443
  1178.0000      0.0000    736.1311      5.5754    127.4129
  1178.2500      0.0000    735.5712      5.5142    130.2544
  1178.5000      0.0000    734.4004      5.5587    132.2183
  1178.7500      0.0000    735.9909      5.6489    132.6158
  1179.0000      0.0000    741.6632      5.7583    131.5500
  1179.2500      0.0000    749.8743      5.9077    130.0704
  1179.5000      0.0000    757.7830      6.1261    129.4720
  1179.7500      0.0000    763.3770      6.4098    130.2171
  1180.0000      0.0000    766.2861      6.7206    131.7240
  1180.2500      0.0000    767.0264      7.0050    132.9830
  1180.5000      0.0000    766.0314      7.2081    133.0965
  1180.7500      0.0000    763.5984      7.2853    131.7162
  1181.0000      0.0000    760.3494      7.2229    129.4153
  1181.2500      0.0000    757.0988      7.0582    127.3364
  1181.5000      0.0000    754.0805      6.8696    126.1421
  1181.7500      0.0000    750.7094      6.7292    125.4264
  1182.0000      0.0000    746.3754      6.6472    124.2938
  1182.2500      0.0000    741.3280      6.5658    122.4619
  1182.5000      0.0000    736.8735      6.4182    120.6235
  1182.7500      0.0000    734.8508      6.2030    119.5961
  1183.0000      0.0000    736.4819      5.9991    119.2626
  1183.2500      0.0000    741.0742      5.9011    118.6554
  1183.5000      0.0000    745.9809      5.9378    117.2114
  1183.7500      0.0000    748.5903      6.0545    115.6679
  1184.0000      0.0000    748.4686      6.1639    115.3838
  1184.2500      0.0000    746.4290      6.1981    116.7989
  1184.5000      0.0000    741.3452      6.1355    118.8547
  1184.7500      0.0000    730.6132      6.0096    119.9859
  1185.0000      0.0000    715.9027      5.8893    119.3970
  1185.2500      0.0000    705.8191      5.8228    117.2985
  1185.5000      0.0000    708.4858      5.7887    114.2628
  1185.7500      0.0000    722.1934      5.7084    110.6745
  1186.0000      0.0000    737.4946      5.5214    106.7306
  1186.2500      0.0000    748.6686      5.2541    102.7589
  1186.5000      0.0000    759.1990      5.0016     99.3474
  1186.7500      0.0000    775.0840      4.8400     96.8423
  1187.0000      0.0000    796.4714      4.7771     94.6032
  1187.2500      0.0000    817.8069      4.7861     91.3963
  1187.5000      0.0000    833.6918      4.8557     87.0747
  1187.7500      0.0000    842.3787      4.9893     83.4394
  1188.0000      0.0000    844.9011      5.1765     82.9831
  1188.2500      0.0000    843.1379      5.3848     86.8987
  1188.5000      0.0000    839.1353      5.5711     94.2590
  1188.7500      0.0000    835.0316      5.6990    102.6848
  1189.0000      0.0000    832.3108      5.7601    109.8827
  1189.2500      0.0000    830.9369      5.7917    115.0243
  1189.5000      0.0000    829.6710      5.8557    118.7231
  1189.7500      0.0000    827.5443      5.9904    121.7878
  1190.0000      0.0000    824.9907      6.1925    124.5734
  1190.2500      0.0000    823.6149      6.4379    127.4276
  1190.5000      0.0000    824.7896      6.6908    130.8098
  1190.7500      0.0000    828.2926      6.8967    134.5381
  1191.0000      0.0000    832.2683      6.9973    137.4262
  1191.2500      0.0000    834.6308      6.9674    138.0714
  1191.5000      0.0000    834.5746      6.8402    136.0040
  1191.7500      0.0000    832.8398      6.6993    132.1929
  1192.0000      0.0000    830.7969      6.6295    128.5608
  1192.2500      0.0000    829.3876      6.6570    126.7380
  1192.5000      0.0000    828.7015      6.7419    127.0169
  1192.7500      0.0000    828.2654      6.8301    128.5427
  1193.0000      0.0000    827.4429      6.8861    130.4253
  1193.2500      0.0000    825.5608      6.8777    132.3095
  1193.5000      0.0000    822.0817      6.7741    134.0347
  1193.7500      0.0000    816.7319      6.5814    135.3956
  1194.0000      0.0000    809.2551      6.3500    136.4247
  1194.2500      0.0000    799.4384      6.1399    137.5996
  1194.5000      0.0000    787.6956      5.9995    139.4605
  1194.7500      0.0000    774.5435      5.9695    141.7101
  1195.0000      0.0000    757.7133      6.0634    142.6171
  1195.2500      0.0000    730.3875      6.2318    139.8111
  1195.5000      0.0000    686.1259      6.3799    132.2274
  1195.7500      0.0000    629.3115      6.4411    121.1517
  1196.0000      0.0000    579.7119      6.4159    109.0236
  1196.2500      0.0000    561.2431      6.3315     97.3601
  1196.5000      0.0000    582.2505      6.1996     86.0745
  1196.7500      0.0000    627.6024      6.0437     74.5687
  1197.0000      0.0000    671.7405      5.9339     63.1325
  1197.2500      0.0000    698.1619      5.9385     53.1726
  1197.5000      0.0000    705.6622      6.0366     46.1333
