~Version Information
VERS.                      2.0: CWLS Log ASCII Standard - VERSION 2.0
WRAP.                       NO: One line per depth step
~Well Information Block
STRT.FT               -12.3000: 
STOP.FT              1768.7000: 
STEP.FT                 0.1000: 
NULL.                -999.2500: 
COMP.          Petrogulf Corporation: COMPANY
WELL.          Alexander 9-43R: WELL
FLD.           Purgatorie River: FIELD
LOC.           1652' FSL & 1049' FEL--: LOCATION
CNTY.               Las Animas: COUNTY
SRVC.                         : SERVICE COMPANY
DATE.          Tue Sep 28 14:27:54 2004: LOG DATE
UWI.                          : UNIQUE WELL ID
STAT.                       CO: STATE
~Curve Information Block
DEPT.FT            0 000 00 00: Depth
GR.GAPI                       : Gamma Ray
CCL.                          : Casing Collar Locator
TT3.usec                      : CBL 3' Travel Time
AMP3.mV                       : CBL 3' Amplitude
~Parameter Information Block
~A  Depth        GR         CCL         TT3         AMP3    
# ...
  1622.5000    120.7374      0.0000    642.2455      3.6791
  1622.6000    120.7374      0.0000    642.2455      3.6791
  1622.7000    120.7374      0.0000    642.2455      3.6791
  1622.8000    117.7522      0.0000    631.2651      3.7535
  1622.9000    117.7522      0.0000    631.2651      3.7535
  1623.0000    114.1584      0.0000    626.7619      3.8674
  1623.1000    114.1584      0.0000    626.7619      3.8674
  1623.2000    114.1584      0.0000    626.7619      3.8674
  1623.3000    109.4772      0.0000    625.9221      4.0049
  1623.4000    109.4772      0.0000    625.9221      4.0049
  1623.5000    103.4160      0.0000    627.5408      4.1424
  1623.6000    103.4160      0.0000    627.5408      4.1424
  1623.7000    103.4160      0.0000    627.5408      4.1424
  1623.8000     96.8589      0.0000    632.4432      4.2387
  1623.9000     96.8589      0.0000    632.4432      4.2387
  1624.0000     92.3311      0.0000    643.0417      4.2546
  1624.1000     92.3311      0.0000    643.0417      4.2546
  1624.2000     92.3311      0.0000    643.0417      4.2546
  1624.3000     92.8489      0.0000    661.6853      4.1773
  1624.4000     92.8489      0.0000    661.6853      4.1773
  1624.5000     99.6272      0.0000    688.1099      4.0229
  1624.6000     99.6272      0.0000    688.1099      4.0229
  1624.7000     99.6272      0.0000    688.1099      4.0229
  1624.8000    111.0437      0.0000    718.6885      3.8211
  1624.9000    111.0437      0.0000    718.6885      3.8211
  1625.0000    124.1414      0.0000    749.2089      3.6037
  1625.1000    124.1414      0.0000    749.2089      3.6037
  1625.2000    124.1414      0.0000    749.2089      3.6037
  1625.3000    136.6843      0.0000    777.3708      3.4010
  1625.4000    136.6843      0.0000    777.3708      3.4010
  1625.5000    147.2546      0.0000    800.7256      3.2380
  1625.6000    147.2546      0.0000    800.7256      3.2380
  1625.7000    147.2546      0.0000    800.7256      3.2380
  1625.8000    154.1439      0.0000    813.8016      3.1251
  1625.9000    154.1439      0.0000    813.8016      3.1251
  1626.0000    155.7562      0.0000    811.1893      3.0560
  1626.1000    155.7562      0.0000    811.1893      3.0560
  1626.2000    155.7562      0.0000    811.1893      3.0560
  1626.3000    152.4089      0.0000    794.3342      3.0186
  1626.4000    152.4089      0.0000    794.3342      3.0186
  1626.5000    146.3676      0.0000    772.9186      3.0092
  1626.6000    146.3676      0.0000    772.9186      3.0092
  1626.7000    146.3676      0.0000    772.9186      3.0092
  1626.8000    139.4101      0.0000    757.8771      3.0347
  1626.9000    139.4101      0.0000    757.8771      3.0347
  1627.0000    131.2334      0.0000    753.3535      3.1035
  1627.1000    131.2334      0.0000    753.3535      3.1035
  1627.2000    131.2334      0.0000    753.3535      3.1035
  1627.3000    120.6729      0.0000    755.8621      3.2190
  1627.4000    120.6729      0.0000    755.8621      3.2190
  1627.5000    107.7213      0.0000    760.0422      3.3792
  1627.6000    107.7213      0.0000    760.0422      3.3792
  1627.7000    107.7213      0.0000    760.0422      3.3792
  1627.8000     93.9682      0.0000    763.1349      3.5786
  1627.9000     93.9682      0.0000    763.1349      3.5786
  1628.0000     81.4601      0.0000    763.8190      3.8155
  1628.1000     81.4601      0.0000    763.8190      3.8155
  1628.2000     81.4601      0.0000    763.8190      3.8155
  1628.3000     71.4768      0.0000    759.7748      4.0983
  1628.4000     71.4768      0.0000    759.7748      4.0983
  1628.5000     64.3337      0.0000    749.6654      4.4339
  1628.6000     64.3337      0.0000    749.6654      4.4339
  1628.7000     64.3337      0.0000    749.6654      4.4339
  1628.8000     59.9487      0.0000    737.0935      4.7930
  1628.9000     59.9487      0.0000    737.0935      4.7930
  1629.0000     58.3603      0.0000    729.8470      5.1000
  1629.1000     58.3603      0.0000    729.8470      5.1000
  1629.2000     58.3603      0.0000    729.8470      5.1000
  1629.3000     59.9198      0.0000    734.1317      5.2906
  1629.4000     59.9198      0.0000    734.1317      5.2906
  1629.5000     65.3072      0.0000    750.2859      5.3774
  1629.6000     65.3072      0.0000    750.2859      5.3774
  1629.7000     65.3072      0.0000    750.2859      5.3774
  1629.8000     75.1833      0.0000    773.9639      5.4276
  1629.9000     75.1833      0.0000    773.9639      5.4276
  1630.0000     89.3132      0.0000    800.3882      5.4874
  1630.1000     89.3132      0.0000    800.3882      5.4874
  1630.2000     89.3132      0.0000    800.3882      5.4874
  1630.3000    105.7975      0.0000    826.9369      5.5659
  1630.4000    105.7975      0.0000    826.9369      5.5659
  1630.5000    121.5537      0.0000    851.9277      5.6683
  1630.6000    121.5537      0.0000    851.9277      5.6683
  1630.7000    121.5537      0.0000    851.9277      5.6683
  1630.8000    134.3125      0.0000    872.2845      5.7873
  1630.9000    134.3125      0.0000    872.2845      5.7873
  1631.0000    144.3916      0.0000    884.0540      5.8716
  1631.1000    144.3916      0.0000    884.0540      5.8716
  1631.2000    144.3916      2.0000    884.0540      5.8716
  1631.3000    154.0117     -2.0000    885.5543      5.8472
  1631.4000    154.0117      0.0000    885.5543      5.8472
  1631.5000    164.3633      0.0000    878.9366      5.6744
  1631.6000    164.3633      0.0000    878.9366      5.6744
  1631.7000    164.3633      0.0000    878.9366      5.6744
  1631.8000    173.4790      0.0000    868.3015      5.3857
  1631.9000    173.4790      0.0000    868.3015      5.3857
  1632.0000    177.3680      0.0000    856.9214      5.0856
  1632.1000    177.3680      0.0000    856.9214      5.0856
  1632.2000    177.3680      0.0000    856.9214      5.0856
  1632.3000    173.5088      0.0000    846.1943      4.9011
  1632.4000    173.5088      0.0000    846.1943      4.9011
  1632.5000    163.4074      0.0000    836.4177      4.8975
  1632.6000    163.4074      0.0000    836.4177      4.8975
  1632.7000    163.4074      0.0000    836.4177      4.8975
  1632.8000    151.6923      0.0000    828.1484      5.0362
  1632.9000    151.6923      0.0000    828.1484      5.0362
  1633.0000    142.6112      0.0000    822.3207      5.2246
  1633.1000    142.6112      0.0000    822.3207      5.2246
  1633.2000    142.6112      0.0000    822.3207      5.2246
  1633.3000    137.4340      0.0000    817.9199      5.3937
  1633.4000    137.4340      0.0000    817.9199      5.3937
  1633.5000    134.7536      0.0000    810.4189      5.5253
  1633.6000    134.7536      0.0000    810.4189      5.5253
  1633.7000    134.7536      0.0000    810.4189      5.5253
  1633.8000    132.4576      0.0000    795.9716      5.6353
  1633.9000    132.4576      0.0000    795.9716      5.6353
  1634.0000    129.2206      0.0000    777.5630      5.7495
  1634.1000    129.2206      0.0000    777.5630      5.7495
  1634.2000    129.2206      0.0000    777.5630      5.7495
  1634.3000    124.6257      0.0000    763.1001      5.8802
  1634.4000    124.6257      0.0000    763.1001      5.8802
  1634.5000    118.4383      0.0000    756.3898      6.0106
  1634.6000    118.4383      0.0000    756.3898      6.0106
  1634.7000    118.4383      0.0000    756.3898      6.0106
  1634.8000    110.3029      0.0000    753.3436      6.1059
  1634.9000    110.3029      0.0000    753.3436      6.1059
  1635.0000    100.4058      0.0000    747.4515      6.1399
  1635.1000    100.4058      0.0000    747.4515      6.1399
  1635.2000    100.4058      0.0000    747.4515      6.1399
  1635.3000     89.9593      0.0000    736.1679      6.1105
  1635.4000     89.9593      0.0000    736.1679      6.1105
  1635.5000     80.2395      0.0000    721.7161      6.0322
  1635.6000     80.2395      0.0000    721.7161      6.0322
  1635.7000     80.2395      0.0000    721.7161      6.0322
  1635.8000     71.3996      0.0000    708.0381      5.9253
