~Version Information
VERS.                      2.0: CWLS Log ASCII Standard - VERSION 2.0
WRAP.                       NO: One line per depth step
~Well Information Block
STRT.FT               250.0000: 
STOP.FT               894.7000: 
STEP.FT                 0.1000: 
NULL.                -999.2500: 
COMP.          Pioneer Natural Resources: COMPANY
WELL.          Santisteven 13-22: WELL
FLD.           Purgatoire River: FIELD
LOC.           1861' FSL & 992' FWL----: LOCATION
PROV.                 Colorado: PROVINCE
CNTY.               Las Animas: COUNTRY
SRVC.                Patterson: SERVICE COMPANY
DATE.          Mon Apr 04 11:05:36 2005: LOG DATE
UWI.           05 071 08337 00: UNIQUE WELL ID
~Curve Information Block
DEPT.FT            0 000 00 00: Depth
DCAL.in                       : CDL Caliper
RHOB.g/cc                     : CDL Bulk Density
RHOC.g/cc                     : CDL Density Correction
DPOR.pu                       : CDL Density Porosity
NPOR.pu                       : Neutron Porosity
GR.GAPI                       : Gamma Ray
~Parameter Information Block
~A  Depth       DCAL        RHOB        RHOC        DPOR        NPOR         GR     
# ...
   576.4000      8.1094      2.6535      0.1289     -0.2129     23.7622    135.1348
   576.5000      8.1095      2.6431      0.1327      0.4200     23.8920    128.2814
   576.6000      8.1095      2.6238      0.0592      1.5856     24.1616    127.1610
   576.7000      8.1095      2.6127      0.0482      2.2598     24.7266    128.8912
   576.8000      8.1083      2.6170      0.0599      2.0004     25.3893    127.2259
   576.9000      8.1083      2.6259      0.0718      1.4616     25.9838    121.7448
   577.0000      8.1083      2.6264      0.0401      1.4273     26.3426    116.9280
   577.1000      8.1083      2.6242      0.0594      1.5634     26.3248    116.5892
   577.2000      8.1083      2.6310      0.0300      1.1514     25.9764    122.7439
   577.3000      8.1076      2.6414      0.0612      0.5214     25.3432    129.2059
   577.4000      8.1076      2.6400      0.0295      0.6039     24.7096    127.0859
   577.5000      8.1060      2.6288      0.0004      1.2835     24.5487    119.9439
   577.6000      8.1060      2.6165      0.0292      2.0322     24.8099    116.0734
   577.7000      8.1060      2.6009      0.0137      2.9761     24.9347    118.8272
   577.8000      8.1061      2.5839     -0.0090      4.0034     24.5998    124.9644
   577.9000      8.1061      2.5757     -0.0081      4.5024     24.1768    131.2568
   578.0000      8.1081      2.5806      0.0066      4.2070     24.0967    137.1669
   578.1000      8.1081      2.5941      0.0185      3.3907     24.1666    136.7535
   578.2000      8.1081      2.6102      0.0308      2.4115     24.1228    129.8812
   578.3000      8.1099      2.6214      0.0676      1.7341     23.9386    128.2841
   578.4000      8.1099      2.6193      0.0489      1.8619     23.2676    132.7763
   578.5000      8.1098      2.6056      0.0138      2.6880     22.1016    134.3118
   578.6000      8.1098      2.5884      0.0572      3.7342     21.2817    129.6219
   578.7000      8.1098      2.5727      0.0304      4.6839     21.3028    124.1940
   578.8000      8.1090      2.5670      0.0117      5.0310     21.6623    124.5677
   578.9000      8.1090      2.5747      0.0450      4.5661     21.7148    127.5329
   579.0000      8.1091      2.5839      0.0429      4.0035     21.6222    128.2757
   579.1000      8.1091      2.5865      0.0365      3.8483     21.6872    128.3616
   579.2000      8.1091      2.5910      0.0252      3.5767     21.7346    128.7966
   579.3000      8.1085      2.6081      0.0387      2.5381     21.5715    125.5241
   579.4000      8.1085      2.6316      0.0735      1.1168     21.3433    117.2782
   579.5000      8.1073      2.6448      0.0692      0.3151     21.4927    111.5150
   579.6000      8.1073      2.6409      0.0706      0.5510     21.9657    112.1109
   579.7000      8.1073      2.6206      0.0745      1.7810     22.0862    111.5773
   579.8000      8.1083      2.5811      0.0799      4.1769     21.6588    105.4030
   579.9000      8.1083      2.5346     -0.0136      6.9963     21.3772     98.6671
   580.0000      8.1094      2.5110      0.0023      8.4248     21.7216     96.6649
   580.1000      8.1094      2.5143      0.0221      8.2261     22.5456     98.2544
   580.2000      8.1094      2.5256      0.0067      7.5397     23.6023     99.2170
   580.3000      8.1089      2.5397      0.0100      6.6870     24.5400     98.0717
   580.4000      8.1089      2.5597      0.0502      5.4745     24.7720     96.8405
   580.5000      8.1085      2.5846      0.0617      3.9638     24.1794     96.8774
   580.6000      8.1085      2.6104      0.0774      2.3988     23.4149     96.6770
   580.7000      8.1085      2.6268      0.1296      1.4031     23.1208     95.4862
   580.8000      8.1081      2.6288      0.0716      1.2870     23.0461     92.0401
   580.9000      8.1081      2.6276      0.1131      1.3578     22.7272     86.4301
   581.0000      8.1082      2.6361      0.0880      0.8408     22.5693     82.8623
   581.1000      8.1082      2.6580      0.1020     -0.4861     22.7737     85.8340
   581.2000      8.1082      2.6791      0.1145     -1.7609     22.7187     92.1282
   581.3000      8.1092      2.6771      0.0845     -1.6450     22.2323     95.1773
   581.4000      8.1092      2.6534      0.0576     -0.2080     22.1141     96.5974
   581.5000      8.1096      2.6352      0.0215      0.8940     22.6649     98.1902
   581.6000      8.1096      2.6421      0.0479      0.4771     23.1650     98.2616
   581.7000      8.1096      2.6617      0.0728     -0.7080     23.2786     97.0956
   581.8000      8.1100      2.6665      0.1138     -0.9992     23.4436     97.0569
   581.9000      8.1100      2.6470      0.0396      0.1792     23.7507    101.2591
   582.0000      8.1112      2.6185      0.0242      1.9079     23.8411    106.7073
   582.1000      8.1112      2.5955      0.0127      3.3019     23.6481    107.7161
   582.2000      8.1112      2.5788      0.0359      4.3151     23.3475    104.7188
   582.3000      8.1133      2.5649      0.0353      5.1553     23.1788    100.4591
   582.4000      8.1133      2.5579      0.0410      5.5841     23.1316     96.9904
   582.5000      8.1137      2.5651      0.0298      5.1432     22.9693     96.0524
   582.6000      8.1137      2.5844      0.0803      3.9768     22.6588     95.7821
   582.7000      8.1137      2.6072      0.0389      2.5909     22.1016     95.5208
   582.8000      8.1108      2.6311      0.0714      1.1426     21.5082     99.1456
   582.9000      8.1108      2.6510      0.1125     -0.0591     21.3664    105.0117
   583.0000      8.1089      2.6566      0.0620     -0.4027     21.6505    107.1915
   583.1000      8.1089      2.6462      0.0659      0.2293     22.1726    105.4415
   583.2000      8.1089      2.6324      0.0463      1.0697     22.5680    102.2353
   583.3000      8.1099      2.6310      0.0436      1.1533     22.3296     98.9118
   583.4000      8.1099      2.6356      0.0806      0.8699     21.7580     98.5650
   583.5000      8.1114      2.6301      0.0825      1.2033     21.3736    102.3441
   583.6000      8.1114      2.6182      0.0380      1.9264     21.2494    106.1938
   583.7000      8.1114      2.6110      0.0510      2.3608     21.3994    107.0512
   583.8000      8.1103      2.6087      0.0523      2.5008     21.6002    109.9037
   583.9000      8.1103      2.6136      0.0332      2.2033     21.5683    118.1030
   584.0000      8.1068      2.6278      0.0483      1.3449     21.5741    122.3995
   584.1000      8.1068      2.6318      0.0848      1.1009     22.0742    116.2862
   584.2000      8.1068      2.6062      0.0388      2.6567     22.6576    109.1960
   584.3000      8.1060      2.5654      0.0035      5.1272     22.9141    109.4102
   584.4000      8.1060      2.5377      0.0001      6.8080     23.2590    114.9712
   584.5000      8.1088      2.5298      0.0122      7.2844     23.4939    118.7091
   584.6000      8.1088      2.5271      0.0497      7.4502     23.2470    116.6864
   584.7000      8.1088      2.5180      0.0427      8.0010     22.9593    112.6381
   584.8000      8.1111      2.5118      0.0500      8.3768     22.8530    107.7065
   584.9000      8.1111      2.5210      0.0392      7.8171     22.7254    100.7988
   585.0000      8.1118      2.5488      0.0584      6.1337     22.5293     95.6765
   585.1000      8.1118      2.5843      0.1257      3.9820     22.1055     96.2440
   585.2000      8.1118      2.6029      0.1305      2.8542     21.5801    101.9095
   585.3000      8.1116      2.5943      0.0796      3.3733     21.3766    107.4735
   585.4000      8.1116      2.5799      0.0522      4.2478     21.4381    106.6145
   585.5000      8.1093      2.5829      0.0754      4.0669     21.5627    100.4446
   585.6000      8.1093      2.6009      0.1038      2.9736     21.8606     98.4972
   585.7000      8.1093      2.6185      0.1096      1.9077     22.2804    105.1221
   585.8000      8.1061      2.6214      0.0941      1.7343     22.7284    111.9604
   585.9000      8.1061      2.6055      0.0639      2.6990     23.0723    111.1295
