~Version Information
 VERS.                                  2.0 : CWLS LAS VERSION
 WRAP.                                   NO : WRAPING MODE
 SWARE .                 MController 2.5.0N : SOFTWARE VERSION
~Well Information
 WELL.                   Casablanca 11-28TR : WELL
 COMP.    Pioneer Natural Resources USA Inc : COMPANY
 FLD.                      Purgatoire River : FIELD
 LOC.                NW/NW Sec 28 T32S R67W : LOCATION
 DATE.                         3/05-06/2005 : DATE(S) LOGGED
 SRVC.       Blanco Geological Services LLC : SERVICE COMPANY
 STAT.                                   CO : STATE
 CNTY.                           Las Animas : COUNTY
 CTRY.                                  USA : COUNTRY
 API.                       05-071-08314-00 : API NUMBER
 STRT.FT                             818.00 : START DEPTH
 STOP.FT                            2250.00 : STOP DEPTH
 STEP.FT                               1.00 : DEPTH INCREMENT
 NULL.                                -9999 : NULL VALUE
~Curve information
 DEPTH.FT                                   :
 ROP.MIN/FT                                 :
 GAS.UNITS                                  :
~ASCII Log data
# ...
      1388.0         0.83         38.0 
      1389.0         0.55         33.9 
      1390.0         0.47         32.9 
      1391.0         0.47         31.1 
      1392.0         0.45         32.0 
      1393.0         0.43         32.8 
      1394.0         0.45         33.5 
      1395.0         0.47         31.6 
      1396.0         0.47         30.6 
      1397.0         0.42         30.5 
      1398.0         0.38         33.6 
      1399.0         0.42         30.5 
      1400.0         0.38         28.9 
      1401.0         0.42         26.4 
      1402.0         0.38         32.1 
      1403.0         0.42         33.8 
      1404.0         0.37         33.5 
      1405.0         0.38         34.6 
      1406.0         0.38         35.4 
      1407.0         0.42         34.4 
      1408.0         0.43         35.1 
      1409.0         0.40         33.1 
      1410.0         2.22         31.7 
      1411.0         1.47         26.9 
      1412.0         1.05         26.1 
      1413.0         0.42         25.7 
      1414.0         0.47         24.8 
      1415.0         0.47         24.5 
      1416.0         0.42         25.5 
      1417.0         0.47         26.8 
      1418.0         0.43         26.7 
      1419.0         0.45         22.7 
      1420.0         1.77         27.4 
      1421.0         1.53         24.1 
      1422.0         0.55         24.4 
      1423.0         0.52         25.3 
      1424.0         0.45         34.8 
      1425.0         0.47         32.7 
      1426.0         0.43         26.8 
      1427.0         0.43         24.6 
      1428.0         0.52         24.7 
      1429.0         0.78         26.3 
      1430.0         0.97         28.8 
      1431.0         0.73         23.4 
      1432.0         1.58         28.1 
      1433.0         0.70         53.8 
      1434.0         0.80         24.3 
      1435.0         2.52         25.1 
      1436.0         1.57         24.7 
      1437.0         1.22         26.1 
      1438.0         0.77         24.3 
      1439.0         0.72         26.9 
      1440.0         0.67         27.2 
      1441.0         0.67         27.4 
      1442.0         0.60         29.6 
      1443.0         0.58         25.6 
      1444.0         0.52         24.0 
      1445.0         0.58         24.4 
      1446.0         0.53         24.0 
      1447.0         0.57         23.7 
      1448.0         0.53         23.8 
      1449.0         0.55         23.5 
      1450.0         0.55         23.8 
      1451.0         0.55         23.1 
      1452.0         0.53         25.2 
      1453.0         0.57         24.7 
      1454.0         0.43         22.5 
      1455.0         0.57         23.9 
      1456.0         0.67         24.0 
      1457.0         0.52         23.5 
      1458.0         0.47         24.6 
      1459.0         0.42         25.0 
      1460.0         0.45         37.8 
      1461.0         0.47         37.8 
      1462.0         0.43         30.4 
      1463.0         0.45         37.3 
      1464.0         0.42         37.0 
      1465.0         0.75         33.9 
      1466.0         0.80         31.9 
      1467.0         0.67         30.6 
      1468.0         0.63         31.5 
      1469.0         0.50         30.7 
      1470.0         0.45         31.8 
      1471.0         0.43         34.8 
      1472.0         0.47         37.9 
      1473.0         0.43         35.1 
      1474.0         0.45         28.6 
      1475.0         0.42         27.5 
      1476.0         0.42         31.5 
      1477.0         0.27         39.9 
      1478.0         0.47         41.6 
      1479.0         0.38         39.3 
      1480.0         0.35         29.6 
      1481.0         0.37         29.8 
      1482.0         0.38         30.2 
      1483.0         0.37         39.8 
      1484.0         0.33         39.5 
      1485.0         0.47         32.1 
      1486.0         1.97         39.6 
      1487.0         0.87         39.0 
      1488.0         0.97         38.7 
      1489.0         0.67         39.5 
      1490.0         0.67         41.6 
      1491.0         0.70         41.3 
      1492.0         0.70         38.9 
      1493.0         0.58         40.0 
      1494.0         0.43         40.4 
      1495.0         0.37         40.9 
      1496.0         0.33         40.1 
      1497.0         0.30         32.3 
      1498.0         0.33         27.8 
      1499.0         0.33         28.0 
      1500.0         0.35         29.0 
      1501.0         0.33         29.0 
      1502.0         0.33         29.3 
      1503.0         0.33         28.6 
      1504.0         0.33         27.7 
      1505.0         0.30         28.0 
      1506.0         0.33         29.4 
      1507.0         0.33         35.8 
      1508.0         0.33         31.3 
      1509.0         0.30         28.7 
      1510.0         0.35         28.7 
      1511.0         0.33         27.6 
      1512.0         0.33         26.8 
      1513.0         0.33         25.9 
      1514.0         0.63         25.5 
      1515.0         1.27         32.4 
      1516.0         0.67         30.5 
      1517.0         0.62         42.4 
      1518.0         0.57         40.8 
      1519.0         0.53         34.8 
      1520.0         0.40         36.3 
      1521.0         0.37         33.9 
      1522.0         1.38         33.4 
      1523.0         1.13         27.2 
      1524.0         1.15         34.6 
      1525.0         0.90         47.6 
      1526.0         0.55         32.3 
      1527.0         0.63         25.4 
      1528.0         0.57         25.5 
      1529.0         1.65         25.5 
      1530.0         1.25         26.5 
      1531.0         0.98         26.4 
      1532.0         0.87         26.8 
      1533.0         0.63         26.7 
      1534.0         0.60         27.9 
      1535.0         0.63         26.6 
      1536.0         0.67         27.2 
      1537.0         0.47         26.6 
      1538.0         0.47         28.2 
      1539.0         0.47         28.9 
      1540.0         0.48         28.7 
      1541.0         0.47         28.0 
      1542.0         0.55         29.9 
      1543.0         0.42         29.1 
      1544.0         0.45         24.6 
      1545.0         0.47         27.1 
      1546.0         1.53         30.9 
      1547.0         0.53         32.0 
      1548.0         0.30         30.6 
      1549.0         0.30         32.7 
      1550.0         0.28         32.7 
      1551.0         0.30         31.4 
      1552.0         0.30         28.8 
      1553.0         0.27         26.9 
      1554.0         0.30         27.1 
      1555.0         0.30         28.6 
      1556.0         0.88         28.9 
      1557.0         0.38         27.4 
      1558.0         0.42         28.2 
      1559.0         0.38         29.0 
      1560.0         0.38         50.8 
      1561.0         0.40         37.1 
      1562.0         0.40         27.1 
      1563.0         0.37         26.8 
      1564.0         0.52         27.3 
      1565.0         2.08         35.1 
      1566.0         1.13         33.7 
      1567.0         2.15         27.5 
      1568.0         2.42         27.2 
      1569.0         1.57         46.6 
      1570.0         1.12         31.5 
      1571.0         0.75         29.0 
      1572.0         0.47         26.6 
      1573.0         0.37         25.7 
      1574.0         0.37         26.2 
      1575.0         0.30         26.3 
      1576.0         1.13         25.6 
      1577.0         0.53         25.7 
      1578.0         0.50         27.1 
      1579.0         0.52         26.4 
      1580.0         0.47         25.8 
      1581.0         0.40         28.1 
      1582.0         0.43         28.8 
      1583.0         0.37         27.2 
      1584.0         0.33         27.7 
      1585.0         0.37         28.3 
      1586.0         0.37         28.4 
      1587.0         0.33         26.6 
