~Version Information
VERS.                      2.0: CWLS Log ASCII Standard - VERSION 2.0
WRAP.                       NO: One line per depth step
~Well Information Block
STRT.FT                -3.0000: 
STOP.FT              1679.2500: 
STEP.FT                 0.2500: 
NULL.                -999.2500: 
COMP.          Evergreen Operating Corp.: COMPANY
WELL.            Rimrock 14-29: WELL
FLD.           Purgatorie River: FIELD
LOC.           945' FSL & 604' FWL--: LOCATION
PROV.                       CO: PROVINCE
CNTY.               Las Animas: COUNTRY
SRVC.                         : SERVICE COMPANY
DATE.          Mon Oct 04 13:02:21 2004: LOG DATE
UWI.           05 071 08136 00: UNIQUE WELL ID
~Curve Information Block
DEPT.FT            0 000 00 00: Depth
GR.GAPI                       : Gamma Ray
CCL.                          : Casing Collar Locator
TT3.usec                      : CBL 3' Travel Time
AMP3.mV                       : CBL 3' Amplitude
~Parameter Information Block
~A  Depth        GR         CCL         TT3         AMP3    
# ...
  1203.0000     74.4129      0.0000    508.8676      5.2780
  1203.2500     70.9692      0.0000    518.6894      5.2592
  1203.5000     70.3800      0.0000    525.4222      5.2199
  1203.7500     71.6665      0.0000    520.8630      5.1953
  1204.0000     73.7580      0.0000    503.0267      5.2248
  1204.2500     75.8109      0.0000    479.2986      5.3117
  1204.5000     77.3298      0.0000    461.2309      5.4190
  1204.7500     78.0660      0.0000    456.5164      5.5009
  1205.0000     77.8299      0.0000    464.6111      5.5391
  1205.2500     76.4825      0.0000    477.2717      5.5495
  1205.5000     74.2414      0.0000    483.8152      5.5565
  1205.7500     71.9678      0.0000    479.0445      5.5635
  1206.0000     70.8962      0.0000    466.6699      5.5485
  1206.2500     71.8990      0.0000    454.0918      5.4891
  1206.5000     74.9722      0.0000    445.2287      5.3913
  1206.7500     79.2692      0.0000    439.4862      5.2934
  1207.0000     83.2796      0.0000    435.2610      5.2414
  1207.2500     85.0588      0.0000    432.1109      5.2591
  1207.5000     83.1011      0.0000    430.2176      5.3328
  1207.7500     77.6933      0.0000    429.3903      5.4173
  1208.0000     71.2088      0.0000    428.9018      5.4586
  1208.2500     66.4489      0.0000    427.8728      5.4231
  1208.5000     64.4914      0.0000    425.9088      5.3161
  1208.7500     64.2692      0.0000    423.5269      5.1782
  1209.0000     64.1242      0.0000    421.7751      5.0653
  1209.2500     63.4479      0.0000    421.0411      5.0213
  1209.5000     62.7446      0.0000    420.3812      5.0570
  1209.7500     62.5461      0.0000    418.4882      5.1448
  1210.0000     62.8097      0.0000    415.4362      5.2328
  1210.2500     63.3082      0.0000    413.1110      5.2710
  1210.5000     64.1469      0.0000    413.5950      5.2352
  1210.7500     65.7541      0.0000    417.2001      5.1337
  1211.0000     68.4507      0.0000    422.3181      4.9984
  1211.2500     71.9384      0.0000    426.8593      4.8699
  1211.5000     75.1435      0.0000    429.2097      4.7847
  1211.7500     76.8418      0.0000    428.1087      4.7670
  1212.0000     76.5743      0.0000    422.8826      4.8221
  1212.2500     74.8431      0.0000    414.5005      4.9311
  1212.5000     72.5509      0.0000    405.7539      5.0501
  1212.7500     70.5768      0.0000    399.7311      5.1232
  1213.0000     69.7341      0.0000    398.1737      5.1135
  1213.2500     70.5938      0.0000    401.0569      5.0301
  1213.5000     73.2020      0.0000    406.8524      4.9273
  1213.7500     77.0398      0.0000    413.0351      4.8699
  1214.0000     81.0093      0.0000    417.3140      4.8880
  1214.2500     83.4966      0.0000    419.1564      4.9571
  1214.5000     83.2088      0.0000    420.0950      5.0211
  1214.7500     80.3665      0.0000    422.7690      5.0424
  1215.0000     76.7452      0.0000    430.7534      5.0301
  1215.2500     74.4689      0.0000    449.3291      5.0233
  1215.5000     75.0022      0.0000    483.7979      5.0514
  1215.7500     78.9866      0.0000    534.0057      5.1109
  1216.0000     86.3957      0.0000    590.7864      5.1737
  1216.2500     96.7050      0.0000    640.5126      5.2116
  1216.5000    108.9712      0.0000    674.2344      5.2164
  1216.7500    121.7299      0.0000    691.9296      5.2041
  1217.0000    133.1165      0.0000    699.1013      5.2011
  1217.2500    141.5986      0.0000    701.3770      5.2219
  1217.5000    146.7634      0.0000    702.0479      5.2563
  1217.7500    149.3717      0.0000    702.4136      5.2758
  1218.0000    150.7528      0.0000    702.8044      5.2575
  1218.2500    152.1126      0.0000    703.2308      5.2065
  1218.5000    154.0956      0.0000    703.6938      5.1544
  1218.7500    156.7186      0.0000    704.3757      5.1326
  1219.0000    159.6268      0.0000    705.6568      5.1533
  1219.2500    162.4788      0.0000    707.6855      5.2144
  1219.5000    165.1519      0.0000    709.7992      5.3067
  1219.7500    167.5524      0.0000    710.7025      5.4097
  1220.0000    169.3000      0.0000    709.5632      5.4866
  1220.2500    169.8530      0.0000    706.7842      5.4919
  1220.5000    169.0321      0.0000    703.3779      5.3919
  1220.7500    167.3089      0.0000    699.8380      5.1868
  1221.0000    165.5079      0.0000    695.6800      4.9239
  1221.2500    164.1806      0.0000    689.4151      4.6842
  1221.5000    163.2533      0.0000    678.3526      4.5386
  1221.7500    162.2993      0.0000    658.9608      4.5011
  1222.0000    161.0955      0.0000    629.1816      4.5336
  1222.2500    159.5749      0.0000    591.7495      4.6104
  1222.5000    157.0911      0.0000    554.4678      4.7630
  1222.7500    152.4832      0.0000    525.6263      5.0334
  1223.0000    145.5811      0.0000    508.9121      5.3920
  1223.2500    138.1543      2.0000    502.7483      5.7221
  1223.5000    132.5922      2.0000    502.4210      5.8876
  1223.7500    129.8804     -2.0000    502.7808      5.8180
  1224.0000    129.3001      0.0000    502.3977      5.5432
  1224.2500    129.7972      0.0000    504.7589      5.1600
  1224.5000    131.0370      0.0000    511.3402      4.7638
  1224.7500    132.9554      0.0000    515.0981      4.4227
  1225.0000    134.7722      0.0000    506.1106      4.2071
  1225.2500    135.2767      0.0000    483.2895      4.1947
  1225.5000    134.2946      0.0000    456.1279      4.4046
  1225.7500    133.1377      0.0000    434.9539      4.7478
  1226.0000    133.0548      0.0000    422.7603      5.0773
  1226.2500    133.6468      0.0000    416.0888      5.2942
  1226.5000    133.3105      0.0000    410.3430      5.3977
  1226.7500    130.9080      0.0000    403.3093      5.4440
  1227.0000    126.7926      0.0000    395.5696      5.4742
  1227.2500    122.8474      0.0000    389.2890      5.4880
  1227.5000    121.7263      0.0000    386.5706      5.4740
  1227.7500    125.2092      0.0000    388.2021      5.4473
  1228.0000    132.5496      0.0000    393.1111      5.4432
  1228.2500    140.4102      0.0000    398.6352      5.4782
  1228.5000    144.8115      0.0000    401.7861      5.5279
  1228.7500    143.8787      0.0000    401.0158      5.5520
  1229.0000    139.3069      0.0000    397.0681      5.5367
  1229.2500    134.9937      0.0000    392.0922      5.5068
  1229.5000    133.7813      0.0000    387.9464      5.4962
  1229.7500    135.2960      0.0000    385.2651      5.5083
  1230.0000    136.6428      0.0000    383.7505      5.5129
  1230.2500    135.0554      0.0000    382.9925      5.4842
  1230.5000    130.3122      0.0000    383.0672      5.4356
  1230.7500    124.6835      0.0000    384.6048      5.4120
  1231.0000    120.1522      0.0000    388.2940      5.4461
  1231.2500    115.9797      0.0000    394.1059      5.5271
  1231.5000    109.7166      0.0000    400.9345      5.6120
  1231.7500    100.3537      0.0000    407.1723      5.6660
  1232.0000     89.6995      0.0000    411.7257      5.6869
  1232.2500     80.7525      0.0000    414.4767      5.6905
  1232.5000     75.2900      0.0000    415.9527      5.6807
  1232.7500     72.9919      0.0000    416.7943      5.6440
  1233.0000     72.2492      0.0000    417.4763      5.5773
  1233.2500     71.5575      0.0000    418.2542      5.5084
  1233.5000     70.5472      0.0000    419.1920      5.4783
  1233.7500     69.9734      0.0000    420.2239      5.5013
  1234.0000     70.6356      0.0000    421.2455      5.5499
  1234.2500     72.3707      0.0000    422.1912      5.5804
  1234.5000     74.2643      0.0000    423.0518      5.5722
  1234.7500     75.6095      0.0000    423.8350      5.5442
  1235.0000     76.3586      0.0000    424.5345      5.5357
  1235.2500     76.8360      0.0000    425.1489      5.5673
  1235.5000     77.3540      0.0000    425.7160      5.6193
  1235.7500     77.9412      0.0000    426.3328      5.6474
  1236.0000     78.1841      0.0000    427.1918      5.6235
  1236.2500     77.5449      0.0000    428.6981      5.5627
