~Version Information
VERS.                      2.0: CWLS Log ASCII Standard - VERSION 2.0
WRAP.                       NO: One line per depth step
~Well Information Block
STRT.FT               965.2500: 
STOP.FT              2602.5000: 
STEP.FT                 0.2500: 
NULL.                -999.2500: 
COMP.          Petrogulf Corporation: COMPANY
WELL.             Valejo 8-12V: WELL
FLD.           Purgatorie River: FIELD
LOC.           1510' FNL & 1460' FWL: LOCATION
CNTY.               Las Animas: COUNTY
SRVC.                         : SERVICE COMPANY
DATE.          Fri Nov 14 05:32:33 2003: LOG DATE
UWI.                          : UNIQUE WELL ID
STAT.                 Colorado: STATE
~Curve Information Block
DEPT.FT            0 000 00 00: Depth
RILD.Ohm-m                    : DIL Deep Resistivity
RILM.Ohm-m                    : DIL Medium Resistivity
RLL3.Ohm-m                    : DIL Shallow Resistivity
SP.mV                         : DIL Spontaneous Potential
GR.GAPI                       : Gamma Ray
~Parameter Information Block
~A  Depth       RILD        RILM        RLL3         SP          GR     
# ...
  2141.2500      9.5757     10.1620     14.6424    -12.2793    129.0447
  2141.5000      9.4460     10.0822     14.7195    -12.2446    128.4314
  2141.7500      9.3127     10.0159     14.8269    -12.2448    128.2188
  2142.0000      9.1916      9.9637     14.9616    -12.2706    128.0522
  2142.2500      9.0932      9.9289     15.1065    -12.2976    128.1020
  2142.5000      9.0219      9.9140     15.2330    -12.3082    129.2298
  2142.7500      8.9773      9.9190     15.3318    -12.3040    131.1366
  2143.0000      8.9568      9.9405     15.4176    -12.3031    135.1502
  2143.2500      8.9572      9.9724     15.4764    -12.3239    137.5658
  2143.5000      8.9748     10.0075     15.4315    -12.3695    139.5246
  2143.7500      9.0051     10.0399     15.2202    -12.4205    139.8338
  2144.0000      9.0424     10.0664     14.9175    -12.4420    139.6111
  2144.2500      9.0812     10.0872     14.7231    -12.3993    138.9796
  2144.5000      9.1179     10.1055     14.7852    -12.2717    136.2653
  2144.7500      9.1509     10.1254     15.0802    -12.0599    133.0298
  2145.0000      9.1796     10.1485     15.4921    -11.7843    127.3501
  2145.2500      9.2046     10.1709     15.9369    -11.4770    124.0980
  2145.5000      9.2279     10.1826     16.3483    -11.1699    120.6299
  2145.7500      9.2549     10.1724     16.6028    -10.8825    119.0082
  2146.0000      9.2923     10.1356     16.5604    -10.6143    117.8569
  2146.2500      9.3424     10.0802     16.2104    -10.3461    118.8364
  2146.5000      9.3961     10.0268     15.7324    -10.0511    124.3875
  2146.7500      9.4320     10.0013     15.3874     -9.7084    130.4964
  2147.0000      9.4258     10.0209     15.3530     -9.3160    140.3377
  2147.2500      9.3658     10.0828     15.6547     -8.8977    145.3484
  2147.5000      9.2627     10.1608     16.2015     -8.4994    149.1335
  2147.7500      9.1440     10.2154     16.8297     -8.1737    149.7430
  2148.0000      9.0391     10.2134     17.3158     -7.9579    149.4387
  2148.2500      8.9671     10.1451     17.4196     -7.8534    148.9413
  2148.5000      8.9324     10.0277     17.0013     -7.8208    147.9878
  2148.7500      8.9286      9.8970     16.1276     -7.7996    147.4130
  2149.0000      8.9438      9.7931     15.0577     -7.7398    147.1742
  2149.2500      8.9657      9.7474     14.1132     -7.6228    147.4687
  2149.5000      8.9839      9.7744     13.5352     -7.4593    147.6850
  2149.7500      8.9913      9.8675     13.4176     -7.2725    146.9089
  2150.0000      8.9847     10.0024     13.7242     -7.0809    143.9586
  2150.2500      8.9637     10.1480     14.3323     -6.8911    141.4162
  2150.5000      8.9311     10.2772     15.0621     -6.7018    138.0998
  2150.7500      8.8928     10.3735     15.7212     -6.5121    136.3345
  2151.0000      8.8575     10.4275     16.1776     -6.3254    133.5381
  2151.2500      8.8356     10.4341     16.3910     -6.1500    131.4210
  2151.5000      8.8356     10.3948     16.3698     -5.9963    129.0170
  2151.7500      8.8602     10.3224     16.1351     -5.8722    128.8837
  2152.0000      8.9044     10.2402     15.7541     -5.7756    131.4286
  2152.2500      8.9566     10.1721     15.3637     -5.6913    134.2888
  2152.5000      9.0031     10.1329     15.1100     -5.5924    138.1759
  2152.7500      9.0338     10.1249     15.0678     -5.4487    139.5529
  2153.0000      9.0469     10.1388     15.2286     -5.2366    139.9008
  2153.2500      9.0483     10.1578     15.5341     -4.9490    139.6990
  2153.5000      9.0488     10.1622     15.8931     -4.5988    139.4558
  2153.7500      9.0589     10.1364     16.1861     -4.2120    139.2651
  2154.0000      9.0853     10.0763     16.2885     -3.8177    138.8541
  2154.2500      9.1305      9.9938     16.1245     -3.4386    138.5396
  2154.5000      9.1956      9.9136     15.7262     -3.0877    137.8285
  2154.7500      9.2849      9.8655     15.2354     -2.7683    137.2432
  2155.0000      9.4098      9.8772     14.8194     -2.4761    137.2244
  2155.2500      9.5870      9.9722     14.5735     -2.2036    138.4737
  2155.5000      9.8291     10.1716     14.5215     -1.9472    142.0088
  2155.7500     10.1318     10.4965     14.7355     -1.7131    144.4928
  2156.0000     10.4685     10.9674     15.5388     -1.5214    147.0787
  2156.2500     10.7974     11.6004     17.6931     -1.4036    148.3106
  2156.5000     11.0816     12.3962     22.3268     -1.3963    150.8498
  2156.7500     11.3049     13.3211     30.2493     -1.5300    152.9346
  2157.0000     11.4741     14.2845     40.7021     -1.8170    153.6449
  2157.2500     11.6073     15.1361     50.6283     -2.2399    150.2601
  2157.5000     11.7212     15.7101     55.9027     -2.7516    138.5159
  2157.7500     11.8250     15.9089     54.2047     -3.2890    128.1087
  2158.0000     11.9212     15.7570     46.8669     -3.7976    113.0253
  2158.2500     12.0084     15.3731     37.6748     -4.2493    104.7497
  2158.5000     12.0810     14.8950     29.9648     -4.6447     95.2915
  2158.7500     12.1251     14.4232     24.9445     -4.9970     90.9639
  2159.0000     12.1178     14.0034     22.1628     -5.3126     88.0054
  2159.2500     12.0345     13.6364     20.7694     -5.5832     88.4842
  2159.5000     11.8633     13.2991     20.1986     -5.7927     91.7424
  2159.7500     11.6150     12.9668     20.1501     -5.9320     94.4937
  2160.0000     11.3206     12.6306     20.3830     -6.0087     98.1411
  2160.2500     11.0178     12.3011     20.6550     -6.0482    100.1468
  2160.5000     10.7384     11.9995     20.7892     -6.0847    103.0048
  2160.7500     10.5021     11.7441     20.7290     -6.1473    105.0626
  2161.0000     10.3169     11.5420     20.5285     -6.2468    108.4701
  2161.2500     10.1813     11.3893     20.2972     -6.3703    110.8075
  2161.5000     10.0867     11.2778     20.1240     -6.4875    113.9543
  2161.7500     10.0210     11.1999     20.0252     -6.5663    115.6991
  2162.0000      9.9751     11.1521     19.9621     -6.5896    118.2696
  2162.2500      9.9505     11.1346     19.9040     -6.5654    120.3403
  2162.5000      9.9611     11.1509     19.8682     -6.5229    123.9567
  2162.7500     10.0270     11.2062     19.9050     -6.4975    126.2416
  2163.0000     10.1621     11.3043     20.0543     -6.5166    128.6218
  2163.2500     10.3672     11.4436     20.3123     -6.5912    129.2949
  2163.5000     10.6318     11.6147     20.6289     -6.7156    129.1979
  2163.7500     10.9413     11.8046     20.9439     -6.8744    128.9153
  2164.0000     11.2805     12.0059     21.2388     -7.0509    129.3676
  2164.2500     11.6319     12.2250     21.5519     -7.2349    130.5947
  2164.5000     11.9770     12.4821     21.9273     -7.4263    132.9844
  2164.7500     12.3038     12.8034     22.3369     -7.6373    134.0147
  2165.0000     12.6150     13.2130     22.6610     -7.8886    134.0373
  2165.2500     12.9249     13.7319     22.7881     -8.2008    133.4347
  2165.5000     13.2525     14.3829     22.8565     -8.5832    132.2528
  2165.7500     13.6175     15.1967     23.6520     -9.0283    130.9585
  2166.0000     14.0411     16.2158     27.1410     -9.5140    126.9934
  2166.2500     14.5376     17.4926     36.7945    -10.0095    122.5546
  2166.5000     15.0930     19.0731     56.7847    -10.4840    113.3266
  2166.7500     15.6494     20.9525     89.1042    -10.9127    105.8944
  2167.0000     16.1161     22.9901    129.4673    -11.2818     94.1568
  2167.2500     16.4151     24.8273    165.8533    -11.5856     87.0496
  2167.5000     16.5243     25.9477    183.5509    -11.8240     79.3022
  2167.7500     16.4769     25.9769    174.6367    -12.0007     76.6907
  2168.0000     16.3228     24.9788    143.6556    -12.1268     76.7421
  2168.2500     16.0916     23.3755    103.9529    -12.2248     79.2396
  2168.5000     15.7830     21.6196     68.5741    -12.3260     86.1637
  2168.7500     15.3833     19.9906     44.0055    -12.4619     92.3384
  2169.0000     14.8868     18.5892     30.1514    -12.6508    102.3150
