~Version Information
VERS.                      2.0: CWLS Log ASCII Standard - VERSION 2.0
WRAP.                       NO: One line per depth step
~Well Information Block
STRT.FT                30.0000: 
STOP.FT              2789.0000: 
STEP.FT                 0.1000: 
NULL.                -999.2500: 
COMP.          Pioneer Natural Resources: COMPANY
WELL.          Rabbit Bush Federal 44-19: WELL
FLD.           Purgatorie River: FIELD
LOC.           826' FSL & 1127' FEL: LOCATION
CNTY.               Las Animas: COUNTY
SRVC.                Patterson: SERVICE COMPANY
DATE.          Mon Aug 28 10:56:57 2006: LOG DATE
UWI.           05-071-08149-00: UNIQUE WELL ID
STAT.                 Colorado: STATE
~Curve Information Block
DEPT.FT            0 000 00 00: Depth
DCAL.in                       : CDL Caliper
RHOB.g/cc                     : CDL Bulk Density
RHOC.g/cc                     : CDL Density Correction
DPOR.pu                       : CDL Density Porosity
GR.GAPI                       : Gamma Ray
NPOR.pu                       : Neutron Porosity
~Parameter Information Block
~A  Depth       DCAL        RHOB        RHOC        DPOR         GR         NPOR    
# ...
  2574.0000      7.9366      2.4001      0.1060     15.1442     96.6791     27.0326
  2574.1000      7.9366      2.3589      0.0460     17.6401     97.9833     27.2632
  2574.2000      7.9366      2.3166      0.0236     20.2064     96.0566     27.7196
  2574.3000      7.9344      2.2869      0.0452     22.0068     92.7347     28.1020
  2574.4000      7.9344      2.2679      0.0653     23.1597     90.4478     28.3433
  2574.5000      7.9334      2.2554      0.0426     23.9143     88.9261     28.3328
  2574.6000      7.9334      2.2395      0.0825     24.8784     87.6777     28.3659
  2574.7000      7.9334      2.2095      0.0476     26.6994     86.4380     28.9158
  2574.8000      7.9394      2.1754      0.0436     28.7620     84.5108     29.5904
  2574.9000      7.9394      2.1584      0.0089     29.7955     84.4163     29.5885
  2575.0000      7.9473      2.1650      0.0369     29.3916     88.4446     29.0545
  2575.1000      7.9473      2.1932      0.0156     27.6829     93.2128     28.5323
  2575.2000      7.9473      2.2395      0.1100     24.8808     94.7912     28.2571
  2575.3000      7.9445      2.2962      0.1177     21.4405     94.1467     28.2287
  2575.4000      7.9445      2.3622      0.1251     17.4433     94.1108     28.2420
  2575.5000      7.9322      2.4350      0.1109     13.0308     95.1949     28.0223
  2575.6000      7.9322      2.5011      0.0974      9.0239     96.1836     27.4965
  2575.7000      7.9322      2.5421      0.1393      6.5388     95.4125     26.9908
  2575.8000      7.9282      2.5479      0.1267      6.1867     93.4056     26.8044
  2575.9000      7.9282      2.5308      0.0657      7.2243     92.3905     26.7622
  2576.0000      7.9329      2.5131      0.0589      8.2996     92.6430     26.5709
  2576.1000      7.9329      2.5100      0.0004      8.4828     94.4597     26.3377
  2576.2000      7.9329      2.5300      0.0035      7.2705     97.7125     26.1073
  2576.3000      7.9390      2.5608      0.0625      5.4061     98.9662     25.7314
  2576.4000      7.9390      2.5749      0.0718      4.5531     97.3819     25.2821
  2576.5000      7.9397      2.5671      0.0310      5.0250     96.0662     25.0271
  2576.6000      7.9397      2.5618      0.0381      5.3466     95.3177     25.0548
  2576.7000      7.9397      2.5780      0.0921      4.3648     93.4518     25.1023
  2576.8000      7.9283      2.6084      0.1288      2.5214     89.8558     24.8033
  2576.9000      7.9283      2.6371      0.1248      0.7801     86.5017     24.0486
  2577.0000      7.9045      2.6630      0.0998     -0.7902     85.7739     23.2370
  2577.1000      7.9045      2.6895      0.1352     -2.3932     85.6535     22.9000
  2577.2000      7.9045      2.7082      0.1515     -3.5295     82.4994     22.9227
  2577.3000      7.8860      2.7083      0.1476     -3.5315     79.4931     22.6144
  2577.4000      7.8860      2.6865      0.1145     -2.2111     81.9443     21.9267
  2577.5000      7.8894      2.6516      0.0572     -0.0977     87.6258     21.5537
  2577.6000      7.8894      2.6189      0.0735      1.8822     90.5029     21.6571
  2577.7000      7.8894      2.5991      0.0807      3.0874     88.2924     21.8781
  2577.8000      7.9121      2.5941      0.0181      3.3892     84.3926     21.9549
  2577.9000      7.9121      2.5984      0.0942      3.1294     83.5485     21.5966
  2578.0000      7.9330      2.6041      0.0797      2.7841     86.3417     20.8312
  2578.1000      7.9330      2.6043      0.0814      2.7693     88.9774     20.3159
  2578.2000      7.9330      2.5954      0.0744      3.3095     87.7801     20.3976
  2578.3000      7.9461      2.5833      0.0576      4.0425     84.6714     20.6958
  2578.4000      7.9461      2.5765      0.0294      4.4543     84.2332     20.8766
  2578.5000      7.9545      2.5735      0.0483      4.6379     87.1887     21.0401
  2578.6000      7.9545      2.5710      0.0345      4.7875     90.3337     21.3191
  2578.7000      7.9545      2.5736      0.0513      4.6313     90.8257     21.5751
  2578.8000      7.9557      2.5788      0.0661      4.3167     88.4512     21.6343
  2578.9000      7.9557      2.5753      0.0634      4.5276     86.1801     21.6226
  2579.0000      7.9536      2.5651      0.0168      5.1441     86.8193     21.5610
  2579.1000      7.9536      2.5711     -0.0098      4.7791     88.6180     21.3574
  2579.2000      7.9536      2.6034      0.0478      2.8269     89.4528     21.2185
  2579.3000      7.9501      2.6403      0.1333      0.5907     89.8784     21.1515
  2579.4000      7.9501      2.6584      0.1370     -0.5063     90.5720     21.0371
  2579.5000      7.9391      2.6450      0.1639      0.3025     90.8198     20.9532
  2579.6000      7.9391      2.6030      0.1000      2.8463     89.7082     20.9105
  2579.7000      7.9391      2.5634      0.0620      5.2495     87.5927     20.9045
  2579.8000      7.9324      2.5533      0.0404      5.8635     86.5336     21.0114
  2579.9000      7.9324      2.5682      0.0732      4.9581     88.3491     21.1831
  2580.0000      7.9422      2.5897      0.0884      3.6544     90.1294     21.1904
  2580.1000      7.9422      2.6113      0.0403      2.3468     88.1330     21.1134
  2580.2000      7.9422      2.6304      0.0910      1.1907     86.1403     21.3229
  2580.3000      7.9554      2.6316      0.1397      1.1127     86.7445     21.7059
  2580.4000      7.9554      2.6113      0.0808      2.3481     86.9330     21.9970
  2580.5000      7.9578      2.5878      0.0815      3.7676     87.5307     22.2166
  2580.6000      7.9578      2.5707      0.0718      4.8047     90.8597     22.1315
  2580.7000      7.9578      2.5605      0.0593      5.4232     92.6738     21.4625
  2580.8000      7.9521      2.5619      0.0681      5.3413     89.2063     20.5636
  2580.9000      7.9521      2.5736      0.0942      4.6332     85.4631     20.1771
  2581.0000      7.9443      2.5865      0.1218      3.8469     86.7907     20.5462
  2581.1000      7.9443      2.5903      0.0717      3.6192     90.8814     21.1981
  2581.2000      7.9443      2.5813      0.0679      4.1637     94.2349     21.7091
  2581.3000      7.9395      2.5691      0.0875      4.9031     96.8882     22.1899
  2581.4000      7.9395      2.5693      0.0613      4.8882     98.0383     22.8861
  2581.5000      7.9431      2.5821      0.1195      4.1181     96.5749     23.4974
  2581.6000      7.9431      2.5856      0.1202      3.9042     94.9865     23.6338
  2581.7000      7.9431      2.5767      0.0638      4.4413     95.4948     23.3853
  2581.8000      7.9498      2.5792      0.0741      4.2887     96.3899     22.8100
  2581.9000      7.9498      2.5967      0.1139      3.2333     96.2324     22.1281
  2582.0000      7.9531      2.6090      0.1081      2.4868     95.2118     21.7373
  2582.1000      7.9531      2.6144      0.0873      2.1555     93.7053     21.7120
  2582.2000      7.9531      2.6182      0.1229      1.9277     92.3085     22.0654
  2582.3000      7.9528      2.6175      0.0813      1.9722     90.9174     22.5866
  2582.4000      7.9528      2.6181      0.0800      1.9339     89.0898     22.6066
  2582.5000      7.9500      2.6193      0.1351      1.8636     86.3891     22.0221
  2582.6000      7.9500      2.6063      0.1185      2.6472     83.8228     21.5749
  2582.7000      7.9500      2.5795      0.0610      4.2732     82.8474     21.6959
  2582.8000      7.9487      2.5598      0.0334      5.4668     83.2958     22.1673
  2582.9000      7.9487      2.5620      0.0514      5.3358     83.6448     22.4635
  2583.0000      7.9458      2.5746      0.0708      4.5720     82.9763     22.1664
  2583.1000      7.9458      2.5763      0.0937      4.4695     81.8203     21.5718
  2583.2000      7.9458      2.5704      0.0157      4.8235     80.0059     21.0375
  2583.3000      7.9355      2.5783      0.0205      4.3466     77.1984     20.4337
  2583.4000      7.9355      2.5940      0.0586      3.3928     74.3610     19.7470
  2583.5000      7.9230      2.5938      0.0764      3.4068     73.7018     19.1606
