~Version Information
 VERS.                                  2.0 : CWLS LAS VERSION
 WRAP.                                   NO : WRAPING MODE
 SWARE .                 MController 2.5.0J : SOFTWARE VERSION
~Well Information
 WELL.                        Montoya 7-12R : WELL
 COMP.                       Petrogulf Corp : COMPANY
 FLD.                      Purgatorie River : FIELD
 LOC.                 SW/NW Sec 7 T33S R67W : LOCATION
 DATE.                    11/18/04 11/19/04 : DATE(S) LOGGED
 SRVC.       Blanco Geological Services LLC : SERVICE COMPANY
 STAT.                                   CO : STATE
 CNTY.                           Las Animas : COUNTY
 CTRY.                                  USA : COUNTRY
 API.                       05-071-08240-00 : API NUMBER
 STRT.FT                              30.00 : START DEPTH
 STOP.FT                            2040.00 : STOP DEPTH
 STEP.FT                               1.00 : DEPTH INCREMENT
 NULL.                                -9999 : NULL VALUE
~Curve information
 DEPTH.FT                                   :
 ROP.MIN/FT                                 :
 GAS.UNITS                                  :
~ASCII Log data
# ...
      1430.0         0.23       2213.6 
      1431.0         0.27        792.5 
      1432.0         0.30        475.8 
      1433.0         0.27         98.6 
      1434.0         0.23         31.8 
      1435.0         0.27         29.9 
      1436.0         0.43         40.2 
      1437.0         0.33         42.6 
      1438.0         0.30         38.5 
      1439.0         0.27         35.9 
      1440.0         0.28         24.6 
      1441.0         0.43         14.3 
      1442.0         0.47          8.9 
      1443.0         0.40          9.0 
      1444.0         0.37         13.8 
      1445.0         0.43         17.1 
      1446.0         0.37         17.3 
      1447.0         0.30         16.8 
      1448.0         0.27         16.7 
      1449.0         0.28         17.0 
      1450.0         0.37         18.9 
      1451.0         0.33         18.1 
      1452.0         0.37         18.7 
      1453.0         0.30         17.8 
      1454.0         0.27         17.4 
      1455.0         0.30         17.6 
      1456.0         0.30         17.7 
      1457.0         0.30         17.3 
      1458.0         0.27         17.3 
      1459.0         0.27         16.3 
      1460.0         0.35         88.8 
      1461.0         0.40         26.6 
      1462.0         0.43         41.0 
      1463.0         0.33         40.7 
      1464.0         0.27         36.0 
      1465.0         0.37         26.2 
      1466.0         0.20         16.0 
      1467.0         0.27          8.1 
      1468.0         0.43          3.9 
      1469.0         0.27          3.7 
      1470.0         0.27          5.1 
      1471.0         0.37          6.6 
      1472.0         0.28          7.9 
      1473.0         0.27          9.0 
      1474.0         0.27          9.1 
      1475.0         0.33         11.3 
      1476.0         0.30         12.6 
      1477.0         0.23         14.3 
      1478.0         0.23         16.4 
      1479.0         0.23         14.5 
      1480.0         0.33         15.4 
      1481.0         0.33         15.0 
      1482.0         0.37         15.5 
      1483.0         0.30         16.5 
      1484.0         0.32         18.0 
      1485.0         0.27         17.1 
      1486.0         0.27         14.6 
      1487.0         0.30         13.7 
      1488.0         0.30         79.3 
      1489.0         0.27         89.2 
      1490.0         0.37         68.3 
      1491.0         0.33         18.7 
      1492.0         0.30         14.5 
      1493.0         0.27         21.4 
      1494.0         0.23         36.0 
      1495.0         0.18         45.1 
      1496.0         0.17         48.8 
      1497.0         0.43         49.3 
      1498.0         0.53         27.4 
      1499.0         0.53         13.1 
      1500.0         0.27          3.1 
      1501.0         0.40          3.2 
      1502.0         0.37          5.3 
      1503.0         0.40          5.3 
      1504.0         0.28          5.9 
      1505.0         0.37          5.8 
      1506.0         0.37          6.9 
      1507.0         0.27          7.4 
      1508.0         0.27          7.7 
      1509.0         0.37         10.1 
      1510.0         0.27         12.1 
      1511.0         0.33         15.2 
      1512.0         0.23         15.4 
      1513.0         0.27         14.9 
      1514.0         0.20         14.2 
      1515.0         0.28         14.1 
      1516.0         0.27         14.3 
      1517.0         0.20         14.0 
      1518.0         0.27         14.2 
      1519.0         0.27         13.9 
      1520.0         0.33         78.6 
      1521.0         0.40          8.3 
      1522.0         0.23          7.1 
      1523.0         0.27          7.0 
      1524.0         0.43          7.2 
      1525.0         0.33          5.3 
      1526.0         0.28          3.2 
      1527.0         0.33          4.8 
      1528.0         0.27          5.0 
      1529.0         0.27          5.7 
      1530.0         0.33          7.3 
      1531.0         0.30          8.8 
      1532.0         0.33         10.1 
      1533.0         0.30         10.5 
      1534.0         0.38         10.3 
      1535.0         0.23          8.9 
      1536.0         0.20         10.4 
      1537.0         0.23         10.4 
      1538.0         0.27          9.9 
      1539.0         0.27         10.2 
      1540.0         0.37          9.5 
      1541.0         0.23          4.5 
      1542.0         0.23          7.1 
      1543.0         0.23          6.2 
      1544.0         0.33          5.0 
      1545.0         0.45          4.7 
      1546.0         0.30          4.5 
      1547.0         0.40          9.5 
      1548.0         0.37          8.0 
      1549.0         0.27          0.4 
      1550.0         0.43          1.6 
      1551.0         0.47         26.3 
      1552.0         0.30         22.9 
      1553.0         0.27         10.1 
      1554.0         0.42         12.7 
      1555.0         0.40         28.8 
      1556.0         0.10         28.8 
      1557.0         0.47         30.9 
      1558.0         0.45         16.9 
      1559.0         0.37          7.1 
      1560.0         0.43          3.8 
      1561.0         0.50          2.4 
      1562.0         0.30          1.9 
      1563.0         0.40          1.6 
      1564.0         0.37          2.7 
      1565.0         0.47          3.8 
      1566.0         0.52          4.5 
      1567.0         0.47          4.7 
      1568.0         0.47          5.3 
      1569.0         0.43          6.9 
      1570.0         0.40          7.7 
      1571.0         0.47         10.0 
      1572.0         0.37         10.9 
      1573.0         0.33         10.5 
      1574.0         0.28         10.0 
      1575.0         0.27          9.6 
      1576.0         0.27         10.4 
      1577.0         0.43         10.5 
      1578.0         0.40         10.2 
      1579.0         0.47          7.2 
      1580.0         0.40         35.4 
      1581.0         0.30          5.1 
      1582.0         0.47         25.0 
      1583.0         0.38         23.8 
      1584.0         0.33         22.4 
      1585.0         0.40         13.3 
      1586.0         0.13         12.6 
      1587.0         0.47         12.1 
      1588.0         0.42          9.3 
      1589.0         0.47          9.1 
      1590.0         0.30          9.6 
      1591.0         0.33          9.9 
      1592.0         0.27          9.1 
      1593.0         0.30          9.0 
      1594.0         0.47         10.0 
      1595.0         0.47          9.9 
      1596.0         0.48         10.6 
      1597.0         0.43         12.2 
      1598.0         0.37         12.1 
      1599.0         0.43         13.0 
      1600.0         0.37         12.1 
      1601.0         0.43         11.9 
      1602.0         0.37         12.3 
      1603.0         0.33         12.0 
      1604.0         0.37         12.3 
      1605.0         0.28         12.1 
      1606.0         0.47         11.8 
      1607.0         0.43         11.8 
      1608.0         0.33         71.1 
      1609.0         0.27         70.7 
      1610.0         0.27         63.2 
      1611.0         0.20         40.0 
      1612.0         0.20         22.7 
      1613.0         0.27         16.0 
      1614.0         0.23         16.5 
      1615.0         0.27         20.6 
      1616.0         0.23         28.0 
      1617.0         0.53         37.5 
      1618.0         0.57         22.1 
      1619.0         0.53         15.2 
      1620.0         0.60          9.1 
      1621.0         0.47          8.8 
      1622.0         0.52          7.8 
      1623.0         0.57          7.0 
      1624.0         0.50          7.5 
      1625.0         0.53          6.7 
      1626.0         0.67          7.9 
      1627.0         0.50          7.3 
      1628.0         0.42          7.0 
      1629.0         0.33          7.3 
