~Version Information
VERS.                      2.0: CWLS Log ASCII Standard - VERSION 2.0
WRAP.                       NO: One line per depth step
~Well Information Block
STRT.FT                -9.0000: 
STOP.FT              2130.0000: 
STEP.FT                 0.2500: 
NULL.                -999.2500: 
COMP.          Pioneer Natural Resources: COMPANY
WELL.               King 22-13: WELL
FLD.           Purgatorie River: FIELD
LOC.           2419' FNL & 1806' FWL: LOCATION
PROV.                 Colorado: PROVINCE
CNTY.               Las Animas: COUNTRY
SRVC.                Patterson: SERVICE COMPANY
DATE.          Wed Apr 20 09:20:28 2005: LOG DATE
UWI.           05-071-08318-00: UNIQUE WELL ID
~Curve Information Block
DEPT.FT            0 000 00 00: Depth
CCL.                          : Casing Collar Locator
TT3.usec                      : CBL 3' Travel Time
AMP3.mV                       : CBL 3' Amplitude
GR.GAPI                       : Gamma Ray
~Parameter Information Block
~A  Depth       CCL         TT3         AMP3         GR     
# ...
  1967.5000      0.0000    761.1202      4.1097     53.5668
  1967.7500      0.0000    755.7437      4.1398     56.3993
  1968.0000      0.0000    754.3426      4.1922     60.3149
  1968.2500      0.0000    757.8082      4.2398     63.8888
  1968.5000      0.0000    761.2789      4.2563     65.9786
  1968.7500      0.0000    761.8977      4.2388     66.3192
  1969.0000      0.0000    761.4443      4.2054     65.3097
  1969.2500      0.0000    760.0966      4.1691     63.5521
  1969.5000      0.0000    751.2894      4.1230     61.5807
  1969.7500      0.0000    727.7703      4.0551     59.8276
  1970.0000      0.0000    693.8752      3.9723     58.6815
  1970.2500      0.0000    668.1690      3.8999     58.3864
  1970.5000      0.0000    669.2621      3.8548     58.8710
  1970.7500      0.0000    698.5618      3.8278     59.9400
  1971.0000      0.0000    739.7336      3.7949     61.6769
  1971.2500      0.0000    774.2029      3.7441     64.3837
  1971.5000      0.0000    793.6382      3.6892     68.0998
  1971.7500      0.0000    798.9620      3.6574     72.2094
  1972.0000      0.0000    793.2358      3.6649     75.3590
  1972.2500      0.0000    778.6462      3.7039     76.0774
  1972.5000      0.0000    758.4989      3.7559     74.2388
  1972.7500      0.0000    738.6614      3.8121     71.7107
  1973.0000      0.0000    724.9661      3.8716     70.6401
  1973.2500      0.0000    719.2291      3.9296     71.1415
  1973.5000      0.0000    718.0340      3.9878     71.3287
  1973.7500      0.0000    713.9806      4.0673     69.4967
  1974.0000      0.0000    697.9422      4.1862     65.7225
  1974.2500     -5.0000    664.0784      4.3279     61.4285
  1974.5000      0.0000    617.1356      4.4489     57.9862
  1974.7500      0.0000    574.8109      4.5158     56.0309
  1975.0000      0.0000    558.3862      4.5311     55.6158
  1975.2500      0.0000    576.7280      4.5249     56.2141
  1975.5000      0.0000    618.0492      4.5165     56.4594
  1975.7500      0.0000    658.4564      4.4813     54.7662
  1976.0000      0.0000    680.0933      4.3744     50.9405
  1976.2500      0.0000    682.0283      4.1958     46.8134
  1976.5000      0.0000    674.9658      4.0060     44.6105
  1976.7500      0.0000    668.0299      3.8660     44.8079
  1977.0000      0.0000    662.5317      3.7849     46.0001
  1977.2500      0.0000    656.6253      3.7349     46.5989
  1977.5000      0.0000    651.3026      3.6925     46.2088
  1977.7500      0.0000    648.9761      3.6524     45.6089
  1978.0000      0.0000    647.1861      3.6183     45.8066
  1978.2500      0.0000    637.0825      3.5937     47.0894
  1978.5000      0.0000    611.7866      3.5801     48.9113
  1978.7500      0.0000    576.9610      3.5779     50.6159
  1979.0000      0.0000    550.4852      3.5854     51.9021
  1979.2500      0.0000    550.0226      3.5974     52.4500
  1979.5000      0.0000    580.3245      3.6074     51.6176
  1979.7500      0.0000    630.8035      3.6140     49.0384
  1980.0000      0.0000    683.4845      3.6201     45.3540
  1980.2500      0.0000    724.1545      3.6259     41.9392
  1980.5000      0.0000    748.3953      3.6267     39.8445
  1980.7500      0.0000    759.6671      3.6178     39.1919
  1981.0000      0.0000    763.7042      3.6010     39.5031
  1981.2500      0.0000    764.6643      3.5834     40.3036
  1981.5000      0.0000    764.2345      3.5758     41.3786
  1981.7500      0.0000    761.7914      3.5870     42.7018
  1982.0000      0.0000    754.3549      3.6188     44.2681
  1982.2500      0.0000    737.2642      3.6641     45.9546
  1982.5000      0.0000    707.7540      3.7134     47.5444
  1982.7500      0.0000    670.3562      3.7613     48.9618
  1983.0000      0.0000    637.3135      3.8092     50.3633
  1983.2500      0.0000    619.6982      3.8619     51.8255
  1983.5000      0.0000    617.6827      3.9221     53.0510
  1983.7500      0.0000    622.1264      3.9868     53.6152
  1984.0000      0.0000    624.7961      4.0482     53.4809
  1984.2500      0.0000    624.0588      4.0986     53.1201
  1984.5000      0.0000    622.1221      4.1329     53.1268
  1984.7500      0.0000    620.7516      4.1450     53.7619
  1985.0000      0.0000    620.2137      4.1279     54.7283
  1985.2500      0.0000    620.1653      4.0811     55.2084
  1985.5000      0.0000    620.3981      4.0119     54.2863
  1985.7500      0.0000    621.1514      3.9248     51.6965
  1986.0000      0.0000    623.3712      3.8110     48.2023
  1986.2500      0.0000    628.8029      3.6551     45.0340
  1986.5000      0.0000    639.3232      3.4521     43.0119
  1986.7500      0.0000    655.1531      3.2167     42.3368
  1987.0000      0.0000    673.1865      2.9760     42.9441
  1987.2500      0.0000    688.0017      2.7511     44.6481
  1987.5000      0.0000    696.2358      2.5460     46.8604
  1987.7500      0.0000    700.5013      2.3546     48.5031
  1988.0000      0.0000    707.3891      2.1766     48.6218
  1988.2500      0.0000    720.2249      2.0187     47.2031
  1988.5000      0.0000    735.2476      1.8825     45.2039
  1988.7500      0.0000    747.1778      1.7613     43.7180
  1989.0000      0.0000    758.1023      1.6503     43.1916
  1989.2500      0.0000    776.9926      1.5565     43.3162
  1989.5000      0.0000    807.3268      1.4920     43.4130
  1989.7500      0.0000    837.0539      1.4603     42.9980
  1990.0000      0.0000    846.1467      1.4535     42.2653
  1990.2500      0.0000    825.8741      1.4663     41.9861
  1990.5000      0.0000    787.0566      1.5043     42.8045
  1990.7500      0.0000    748.2850      1.5710     44.9181
  1991.0000      0.0000    720.2460      1.6537     48.6720
  1991.2500      0.0000    702.4402      1.7310     54.8966
  1991.5000      0.0000    689.5773      1.7977     64.0475
  1991.7500      0.0000    677.4722      1.8732     75.1008
  1992.0000      0.0000    664.6719      1.9743     85.7007
  1992.2500      0.0000    651.6384      2.0879     93.5853
  1992.5000      0.0000    639.6211      2.1805     98.0301
  1992.7500      0.0000    629.9280      2.2315    100.0815
  1993.0000      0.0000    623.5405      2.2489    101.4724
  1993.2500      0.0000    621.1596      2.2523    103.2294
  1993.5000      0.0000    623.8079      2.2500    104.9818
  1993.7500      0.0000    633.0228      2.2335    105.2486
  1994.0000      0.0000    650.2621      2.1929    102.4669
  1994.2500      0.0000    676.5506      2.1341     96.3041
  1994.5000      0.0000    711.5591      2.0778     88.3057
  1994.7500      0.0000    750.1885      2.0419     81.0751
  1995.0000      0.0000    780.5947      2.0287     76.5255
  1995.2500      0.0000    790.5039      2.0292     74.8165
  1995.5000      0.0000    777.6644      2.0380     74.8724
  1995.7500      0.0000    751.3638      2.0642     75.7144
  1996.0000      0.0000    723.0560      2.1295     77.2569
  1996.2500      0.0000    698.2161      2.2526     79.9316
  1996.5000      0.0000    676.9604      2.4319     83.8335
  1996.7500      0.0000    658.8457      2.6436     88.4284
  1997.0000      0.0000    645.2936      2.8559     92.9317
  1997.2500      0.0000    638.5387      3.0420     96.6802
  1997.5000      0.0000    639.5223      3.1836     99.1118
  1997.7500      0.0000    646.8922      3.2709     99.6339
  1998.0000      0.0000    657.5517      3.3057     97.8959
  1998.2500      0.0000    668.3279      3.3035     94.4518
  1998.5000      0.0000    677.5829      3.2900     90.9080
  1998.7500      0.0000    685.2845      3.2879     88.9301
  1999.0000      0.0000    691.4861      3.3055     88.8806
  1999.2500      0.0000    695.1699      3.3356     89.4417
  1999.5000      0.0000    695.1610      3.3669     88.6533
  1999.7500      0.0000    691.8680      3.3935     85.5384
  2000.0000      0.0000    687.3770      3.4149     80.9984
  2000.2500      0.0000    683.5299      3.4313     77.2008
  2000.5000      0.0000    680.1868      3.4423     75.9265
  2000.7500      0.0000    675.6367      3.4486     77.1799
