~Version Information
VERS.                      2.0: CWLS Log ASCII Standard - VERSION 2.0
WRAP.                       NO: One line per depth step
~Well Information Block
STRT.FT               950.0000: 
STOP.FT              2417.7000: 
STEP.FT                 0.1000: 
NULL.                -999.2500: 
COMP.          Pioneer Natural Resources: COMPANY
WELL.            Chevron 13-13: WELL
FLD.           Purgatoire River: FIELD
LOC.           1560' FSL & 711' FWL--: LOCATION
CNTY.               Las Animas: COUNTY
SRVC.          Superior Well Services: SERVICE COMPANY
DATE.          Mon Feb 12 14:55:24 2007: LOG DATE
UWI.           05 071 08319 00: UNIQUE WELL ID
STAT.                 Colorado: STATE
~Curve Information Block
DEPT.FT            0 000 00 00: Depth
DCAL.in                       : CDL Caliper
RHOB.g/cc                     : CDL Bulk Density
RHOC.g/cc                     : CDL Density Correction
DPOR.pu                       : CDL Density Porosity
GR.GAPI                       : Gamma Ray
~Parameter Information Block
~A  Depth       DCAL        RHOB        RHOC        DPOR         GR     
# ...
  2002.8000      7.8481      2.6168      0.1610      2.0123     81.8285
  2002.9000      7.8481      2.6240      0.0999      1.5782     86.0763
  2003.0000      7.8490      2.5993      0.0914      3.0718     92.0824
  2003.1000      7.8490      2.5550      0.0686      5.7558     94.9800
  2003.2000      7.8490      2.5097      0.0275      8.5021     94.4360
  2003.3000      7.8508      2.4816      0.0301     10.2080     93.6771
  2003.4000      7.8508      2.4732     -0.0163     10.7158     93.7338
  2003.5000      7.8525      2.4758      0.0305     10.5590     97.3505
  2003.6000      7.8525      2.4817      0.0291     10.1974    104.1769
  2003.7000      7.8525      2.4919      0.0407      9.5846    104.8646
  2003.8000      7.8535      2.5085      0.0624      8.5770     96.6306
  2003.9000      7.8535      2.5242      0.0588      7.6216     88.8640
  2004.0000      7.8534      2.5329      0.0482      7.0994     89.5781
  2004.1000      7.8534      2.5368      0.0918      6.8634     94.9588
  2004.2000      7.8534      2.5326      0.1104      7.1134     97.2661
  2004.3000      7.8525      2.5194      0.0560      7.9161     94.0751
  2004.4000      7.8525      2.5108      0.0525      8.4337     90.7031
  2004.5000      7.8521      2.5138      0.0915      8.2516     91.6306
  2004.6000      7.8521      2.5151      0.0981      8.1728     92.4846
  2004.7000      7.8521      2.5073      0.0453      8.6515     93.8758
  2004.8000      7.8524      2.5045      0.0409      8.8183     97.7715
  2004.9000      7.8524      2.5231      0.0556      7.6890     97.3367
  2005.0000      7.8523      2.5583      0.0698      5.5576     89.1551
  2005.1000      7.8523      2.5853      0.1280      3.9224     81.5722
  2005.2000      7.8523      2.5872      0.0836      3.8065     81.2158
  2005.3000      7.8516      2.5731      0.0442      4.6606     84.4389
  2005.4000      7.8516      2.5609      0.0333      5.3993     84.3491
  2005.5000      7.8507      2.5570      0.0644      5.6341     81.2546
  2005.6000      7.8507      2.5524      0.0707      5.9160     79.9522
  2005.7000      7.8507      2.5411      0.0651      6.6004     80.3835
  2005.8000      7.8506      2.5316      0.0172      7.1728     76.9883
  2005.9000      7.8506      2.5287      0.0730      7.3540     68.2757
  2006.0000      7.8494      2.5291      0.0523      7.3283     62.0972
  2006.1000      7.8494      2.5331      0.0790      7.0836     63.9139
  2006.2000      7.8494      2.5334      0.1013      7.0686     70.0846
  2006.3000      7.8481      2.5242      0.0382      7.6254     75.3614
  2006.4000      7.8481      2.5098      0.0730      8.4985     77.0903
  2006.5000      7.8490      2.4924      0.0019      9.5542     76.1687
  2006.6000      7.8490      2.4840      0.0014     10.0607     77.3143
  2006.7000      7.8490      2.4982      0.0453      9.2004     80.7618
  2006.8000      7.8504      2.5283      0.0675      7.3753     82.9928
  2006.9000      7.8504      2.5642      0.0980      5.1996     85.5720
  2007.0000      7.8521      2.6008      0.1037      2.9813     86.8898
  2007.1000      7.8521      2.6254      0.1402      1.4898     82.3085
  2007.2000      7.8521      2.6263      0.1224      1.4383     73.9338
  2007.3000      7.8534      2.6095      0.0725      2.4528     69.7653
  2007.4000      7.8534      2.5926      0.0736      3.4790     74.8308
  2007.5000      7.8536      2.5812      0.0973      4.1671     81.9085
  2007.6000      7.8536      2.5678      0.1060      4.9832     81.8894
  2007.7000      7.8536      2.5552      0.0275      5.7442     77.6136
  2007.8000      7.8531      2.5553      0.0402      5.7414     75.3108
  2007.9000      7.8531      2.5581      0.1042      5.5670     77.0263
  2008.0000      7.8528      2.5513      0.0511      5.9842     79.7387
  2008.1000      7.8528      2.5455      0.0350      6.3342     79.8471
  2008.2000      7.8528      2.5482      0.0607      6.1703     77.5734
  2008.3000      7.8532      2.5466      0.0821      6.2684     73.1365
  2008.4000      7.8532      2.5359      0.0011      6.9130     69.6654
  2008.5000      7.8538      2.5333      0.0345      7.0701     73.1499
  2008.6000      7.8538      2.5511      0.0817      5.9914     83.4052
  2008.7000      7.8538      2.5858      0.0710      3.8938     90.8943
  2008.8000      7.8539      2.6220      0.1153      1.6970     90.5058
  2008.9000      7.8539      2.6434      0.0922      0.4007     87.3011
  2009.0000      7.8534      2.6448      0.1020      0.3154     83.9293
  2009.1000      7.8534      2.6314      0.0677      1.1247     82.1231
  2009.2000      7.8534      2.6176      0.0533      1.9636     86.5189
  2009.3000      7.8521      2.6131      0.0829      2.2360     93.7375
  2009.4000      7.8521      2.6116      0.0602      2.3278     94.0759
  2009.5000      7.8505      2.6113      0.0367      2.3483     87.1001
  2009.6000      7.8505      2.6167      0.0737      2.0156     81.0289
  2009.7000      7.8505      2.6237      0.0883      1.5951     80.8493
  2009.8000      7.8499      2.6245      0.0721      1.5469     85.0987
  2009.9000      7.8499      2.6161      0.0561      2.0520     86.4161
  2010.0000      7.8490      2.6030      0.0436      2.8490     79.5712
  2010.1000      7.8490      2.5918      0.0180      3.5279     71.1009
  2010.2000      7.8490      2.5885      0.0113      3.7245     68.6673
  2010.3000      7.8491      2.5899      0.0553      3.6450     67.7793
  2010.4000      7.8491      2.5780      0.0774      4.3613     62.9555
  2010.5000      7.8516      2.5564     -0.0051      5.6756     59.3934
  2010.6000      7.8516      2.5521      0.0332      5.9350     61.0931
  2010.7000      7.8516      2.5644      0.0656      5.1876     63.3903
  2010.8000      7.8531      2.5696      0.0668      4.8719     63.1756
  2010.9000      7.8531      2.5621      0.0470      5.3258     63.0781
  2011.0000      7.8518      2.5517      0.0319      5.9597     65.6415
  2011.1000      7.8518      2.5407      0.0556      6.6232     68.2379
  2011.2000      7.8518      2.5325     -0.0055      7.1204     67.9325
  2011.3000      7.8494      2.5392      0.0049      6.7147     65.7611
  2011.4000      7.8494      2.5586      0.0301      5.5395     64.1562
  2011.5000      7.8486      2.5781      0.0475      4.3587     65.3711
  2011.6000      7.8486      2.5930      0.0792      3.4517     70.8169
  2011.7000      7.8486      2.5999      0.0528      3.0355     77.6421
  2011.8000      7.8498      2.5968      0.0652      3.2251     79.8582
  2011.9000      7.8498      2.5886      0.0585      3.7198     76.5532
  2012.0000      7.8492      2.5793      0.0714      4.2831     73.6422
  2012.1000      7.8492      2.5654      0.0644      5.1273     73.7257
  2012.2000      7.8492      2.5478      0.0639      6.1922     75.7995
  2012.3000      7.8470      2.5414     -0.0066      6.5815     78.0813
  2012.4000      7.8470      2.5518      0.0740      5.9537     75.8741
  2012.5000      7.8473      2.5565      0.0994      5.6644     71.1976
  2012.6000      7.8473      2.5453      0.0290      6.3433     72.9549
  2012.7000      7.8473      2.5369      0.0342      6.8518     79.0654
  2012.8000      7.8495      2.5429      0.0572      6.4929     81.9314
  2012.9000      7.8495      2.5579      0.0570      5.5816     83.9740
  2013.0000      7.8503      2.5793      0.0378      4.2822     88.9113
  2013.1000      7.8503      2.6003      0.0888      3.0106     96.1186
  2013.2000      7.8503      2.6009      0.1284      2.9744    101.6054
  2013.3000      7.8518      2.5812      0.0272      4.1685     99.8149
  2013.4000      7.8518      2.5626      0.0554      5.2984     94.6126
  2013.5000      7.8544      2.5479      0.0553      6.1908     94.4432
  2013.6000      7.8544      2.5345      0.0212      7.0011     98.2029
  2013.7000      7.8544      2.5289      0.0489      7.3421    104.0405
  2013.8000      7.8540      2.5342      0.0292      7.0207    112.0479
  2013.9000      7.8540      2.5512      0.0458      5.9850    116.0259
