~Version Information
VERS.                      2.0: CWLS Log ASCII Standard - VERSION 2.0
WRAP.                       NO: One line per depth step
~Well Information Block
STRT.FT                -9.2500: 
STOP.FT              2353.7500: 
STEP.FT                 0.2500: 
NULL.                -999.2500: 
COMP.          Petrogulf Corporation: COMPANY
WELL.             Kraft 17-23V: WELL
FLD.           Purgatorie River: FIELD
LOC.           1500' FSL & 1773' FWL--: LOCATION
PROV.                       CO: PROVINCE
CNTY.               Las Animas: COUNTRY
SRVC.          Patterson Wireline: SERVICE COMPANY
DATE.          Wed Dec 10 19:09:59 2003: LOG DATE
UWI.                          : UNIQUE WELL ID
~Curve Information Block
DEPT.FT            0 000 00 00: Depth
CCL.                          : Casing Collar Locator
TT3.usec                      : CBL 3' Travel Time
AMP3.mV                       : CBL 3' Amplitude
GR.GAPI                       : Gamma Ray
~Parameter Information Block
~A  Depth       CCL         TT3         AMP3         GR     
# ...
  1565.2500      0.0000    811.9774      2.0595    149.8948
  1565.5000      0.0000    811.6851      2.0264    147.2111
  1565.7500      0.0000    816.7669      1.9860    145.2725
  1566.0000      0.0000    824.6985      1.9758    144.1998
  1566.2500      0.0000    830.0562      2.0149    144.2436
  1566.5000      0.0000    829.8146      2.0769    145.9437
  1566.7500      0.0000    825.6423      2.1061    149.3131
  1567.0000      0.0000    821.6431      2.0685    153.1741
  1567.2500      0.0000    819.7947      1.9850    155.9169
  1567.5000      0.0000    817.7039      1.9071    156.7214
  1567.7500      0.0000    811.1464      1.8634    155.5093
  1568.0000      0.0000    798.9043      1.8427    152.1858
  1568.2500      0.0000    785.1619      1.8253    146.9556
  1568.5000      0.0000    776.8206      1.8135    141.2207
  1568.7500      0.0000    777.5418      1.8227    137.2344
  1569.0000      0.0000    784.4064      1.8594    136.6843
  1569.2500      0.0000    791.3627      1.9176    139.7399
  1569.5000      0.0000    795.6274      1.9824    144.9199
  1569.7500      0.0000    799.1202      2.0256    149.5134
  1570.0000      0.0000    803.7467      2.0186    150.8951
  1570.2500      0.0000    807.7004      1.9622    148.3859
  1570.5000      0.0000    807.5847      1.9021    143.8888
  1570.7500      0.0000    802.4408      1.8986    140.2815
  1571.0000      0.0000    793.9171      1.9774    138.9265
  1571.2500      0.0000    783.3271      2.1074    138.7586
  1571.5000      0.0000    770.9124      2.2261    137.7164
  1571.7500      0.0000    758.1249      2.2927    134.7310
  1572.0000      0.0000    747.9056      2.3173    130.0668
  1572.2500      0.0000    741.2856      2.3354    124.3793
  1572.5000      0.0000    735.6794      2.3623    118.4780
  1572.7500      0.0000    728.2470      2.3896    113.8400
  1573.0000      0.0000    720.0839      2.4262    112.0662
  1573.2500      0.0000    716.1866      2.5107    113.4861
  1573.5000      0.0000    721.5680      2.6688    117.0991
  1573.7500      0.0000    736.9841      2.8742    122.1019
  1574.0000      2.0000    757.3730      3.0625    128.6246
  1574.2500      2.0000    774.6523      3.1832    136.6526
  1574.5000      0.0000    782.7726      3.2500    144.9920
  1574.7500      0.0000    780.3324      3.3405    151.8699
  1575.0000      0.0000    769.4576      3.5171    156.2400
  1575.2500      0.0000    753.8895      3.7420    158.0884
  1575.5000      0.0000    737.9247      3.9030    157.7151
  1575.7500      0.0000    725.1496      3.9332    155.3103
  1576.0000      0.0000    717.0706      3.8748    151.4152
  1576.2500      0.0000    713.0916      3.8096    147.4110
  1576.5000      0.0000    711.8514      3.7530    144.9358
  1576.7500      0.0000    712.5135      3.6456    144.5249
  1577.0000      0.0000    715.0140      3.4354    145.1885
  1577.2500      0.0000    719.2598      3.1377    145.7426
  1577.5000      0.0000    723.9390      2.8204    145.8809
  1577.7500      0.0000    726.3092      2.5634    145.2886
  1578.0000      0.0000    723.9141      2.4294    142.6707
  1578.2500      0.0000    716.9829      2.4285    137.0685
  1578.5000      0.0000    708.8498      2.5014    129.8587
  1578.7500      0.0000    703.6036      2.5618    124.1383
  1579.0000      0.0000    703.2415      2.5576    121.8403
  1579.2500      0.0000    706.8547      2.4823    122.1402
  1579.5000      0.0000    711.8932      2.3547    122.8626
  1579.7500      0.0000    715.8100      2.2080    122.8985
  1580.0000      0.0000    717.0652      2.0713    122.9218
  1580.2500      0.0000    715.3494      1.9440    123.9740
  1580.5000      0.0000    710.8705      1.8132    126.0306
  1580.7500      0.0000    703.5773      1.7021    128.3679
  1581.0000      0.0000    694.0133      1.6653    130.5636
  1581.2500      0.0000    684.9723      1.7309    132.2246
  1581.5000      0.0000    680.7094      1.8729    132.1782
  1581.7500      0.0000    683.5052      2.0393    128.9989
  1582.0000      0.0000    691.6147      2.1753    122.5210
  1582.2500      0.0000    701.2026      2.2230    114.3147
  1582.5000      0.0000    709.9159      2.1443    106.5141
  1582.7500      0.0000    717.9242      1.9629    100.4947
  1583.0000      0.0000    725.6432      1.7590     96.4780
  1583.2500      0.0000    732.0769      1.6044     93.6516
  1583.5000      0.0000    736.4966      1.5174     90.6997
  1583.7500      0.0000    739.9320      1.4843     87.0324
  1584.0000      0.0000    742.8582      1.4899     83.5740
  1584.2500      0.0000    743.0565      1.5077     81.7466
  1584.5000      0.0000    738.4865      1.5026     81.7848
  1584.7500      0.0000    731.2669      1.4716     82.6592
  1585.0000      0.0000    726.1694      1.4603     83.4945
  1585.2500      0.0000    725.4354      1.5119     84.4183
  1585.5000      0.0000    727.2032      1.6147     85.9329
  1585.7500      0.0000    728.9720      1.7119     87.8880
  1586.0000      0.0000    730.1815      1.7508     89.2802
  1586.2500      0.0000    730.5921      1.7205     88.8489
  1586.5000      0.0000    728.8152      1.6529     85.8151
  1586.7500      0.0000    724.8198      1.5894     80.4297
  1587.0000      0.0000    722.1559      1.5477     74.1396
  1587.2500      0.0000    725.2105      1.5259     69.0611
  1587.5000      0.0000    734.6295      1.5227     66.7248
  1587.7500      0.0000    746.6889      1.5358     67.0099
  1588.0000      0.0000    756.6418      1.5495     68.3560
  1588.2500      0.0000    762.0214      1.5426     69.1486
  1588.5000      0.0000    763.1704      1.5065     68.9174
  1588.7500      0.0000    761.4765      1.4548     68.4191
  1589.0000      0.0000    757.5948      1.4149     68.9341
  1589.2500      0.0000    751.6460      1.4079     71.3886
  1589.5000      0.0000    745.0902      1.4333     75.5653
  1589.7500      0.0000    741.6621      1.4777     80.1921
  1590.0000      0.0000    745.1263      1.5361     84.3784
  1590.2500      0.0000    755.2655      1.6195     88.8268
  1590.5000      0.0000    766.7081      1.7349     95.0066
  1590.7500      0.0000    772.9773      1.8598    103.2561
  1591.0000      0.0000    771.9439      1.9568    112.2594
  1591.2500      0.0000    766.8739      2.0161    120.3211
  1591.5000      0.0000    762.4110      2.0682    126.6361
  1591.7500      0.0000    760.4579      2.1430    131.3684
  1592.0000      0.0000    760.1076      2.2358    135.0256
  1592.2500      0.0000    760.4683      2.3193    137.9525
  1592.5000      0.0000    761.8367      2.3688    140.1145
  1592.7500      0.0000    763.9052      2.3653    141.1698
  1593.0000      0.0000    764.8431      2.2957    140.9095
  1593.2500      0.0000    763.4206      2.1722    139.6312
  1593.5000      0.0000    761.0029      2.0418    137.7889
  1593.7500      0.0000    760.4928      1.9575    135.2835
  1594.0000      0.0000    763.5480      1.9343    131.3829
  1594.2500      0.0000    769.0916      1.9406    125.3351
  1594.5000      0.0000    774.8152      1.9314    117.0128
  1594.7500      0.0000    780.1875      1.8832    107.2590
  1595.0000      0.0000    787.1360      1.7986     97.5674
  1595.2500      0.0000    797.4093      1.6984     89.1389
  1595.5000      0.0000    810.3198      1.6227     82.4699
  1595.7500      0.0000    822.8424      1.6145     77.8389
  1596.0000      0.0000    830.3820      1.6779     75.4535
  1596.2500      0.0000    828.1912      1.7614     74.9489
  1596.5000      0.0000    814.3203      1.7953     75.5191
  1596.7500      0.0000    791.8595      1.7483     76.7240
  1597.0000      0.0000    768.0289      1.6522     78.6106
  1597.2500      0.0000    750.9011      1.5738     81.1310
  1597.5000      0.0000    745.4887      1.5549     84.1252
  1597.7500      0.0000    750.5236      1.5811     87.7498
  1598.0000      0.0000    758.6230      1.6159     92.2243
  1598.2500      0.0000    761.6315      1.6442     97.0850
  1598.5000      0.0000    757.6483      1.6672    101.2450
