~Version Information
VERS.                      2.0: CWLS Log ASCII Standard - VERSION 2.0
WRAP.                       NO: One line per depth step
~Well Information Block
STRT.FT               765.4000: 
STOP.FT              2581.2000: 
STEP.FT                 0.1000: 
NULL.                -999.2500: 
COMP.          Petrogulf Corporation: COMPANY
WELL.            Montoya 7-12V: WELL
FLD.           Purgatorie River: FIELD
LOC.           728' FWL & 1764' FNL: LOCATION
CNTY.               Las Animas: COUNTY
SRVC.                         : SERVICE COMPANY
DATE.          Fri Feb 20 09:23:58 2004: LOG DATE
UWI.           05-071-07887-00: UNIQUE WELL ID
STAT.                 Colorado: STATE
~Curve Information Block
DEPT.FT            0 000 00 00: Depth
DCAL.in                       : CDL Caliper
RHOB.g/cc                     : CDL Bulk Density
RHOC.g/cc                     : CDL Density Correction
DPOR.pu                       : CDL Density Porosity
GR.GAPI                       : Gamma Ray
NPOR.pu                       : Neutron Porosity
~Parameter Information Block
~A  Depth       DCAL        RHOB        RHOC        DPOR         GR         NPOR    
# ...
  1495.0000      8.2650      2.6235      0.1857      1.6090    103.1030     31.8985
  1495.1000      8.2650      2.5992      0.1548      3.0767     95.7323     31.8893
  1495.2000      8.2650      2.5438      0.0861      6.4385     85.9775     31.1647
  1495.3000      8.2999      2.4905     -0.0071      9.6668     77.2235     30.6325
  1495.4000      8.2999      2.4707     -0.0010     10.8652     75.8035     30.3696
  1495.5000      8.2346      2.4900     -0.0059      9.6992     84.1202     30.1874
  1495.6000      8.2346      2.5409      0.0164      6.6118     93.4888     30.5945
  1495.7000      8.2346      2.6193      0.0888      1.8608     93.8794     31.3193
  1495.8000      8.2198      2.7195      0.0822     -4.2104     85.9781     31.1058
  1495.9000      8.2198      2.8240      0.1939    -10.5440     78.6114     29.9730
  1496.0000      8.2055      2.9056      0.2168    -15.4884     77.0651     28.8276
  1496.1000      8.2055      2.9617      0.1927    -18.8885     78.9611     27.7787
  1496.2000      8.2055      2.9927      0.2482    -20.7706     82.6962     26.6982
  1496.3000      8.1889      2.9824      0.1953    -20.1443     88.3402     25.5816
  1496.4000      8.1889      2.9424      0.1030    -17.7213     90.5463     24.4430
  1496.5000      8.1791      2.9019      0.0258    -15.2639     81.6478     23.6809
  1496.6000      8.1791      2.8728     -0.0624    -13.5048     65.1125     23.4983
  1496.7000      8.1791      2.8484      0.0089    -12.0243     53.8977     23.4208
  1496.8000      8.1796      2.7990     -0.0244     -9.0331     53.1325     23.1871
  1496.9000      8.1796      2.7195     -0.0734     -4.2119     57.9417     22.9266
  1497.0000      8.1807      2.6446     -0.1429      0.3293     64.8963     22.9000
  1497.1000      8.1807      2.5934     -0.0938      3.4322     71.1999     23.2659
  1497.2000      8.1807      2.5686     -0.1551      4.9330     72.9284     23.9113
  1497.3000      8.1930      2.5800     -0.0464      4.2449     72.7481     24.4876
  1497.4000      8.1930      2.6138      0.0494      2.1926     77.0556     24.7067
  1497.5000      8.1916      2.6350      0.0555      0.9065     87.9294     24.5057
  1497.6000      8.1916      2.6392     -0.0278      0.6528    101.8915     24.0486
  1497.7000      8.1916      2.6399      0.0232      0.6097    110.4983     23.8690
  1497.8000      8.1966      2.6240      0.0434      1.5781    109.6756     24.4570
  1497.9000      8.1966      2.5906     -0.0176      3.6001     99.2937     25.4267
  1498.0000      8.2038      2.5657      0.0007      5.1082     80.4696     26.0927
  1498.1000      8.2038      2.5618     -0.0438      5.3468     62.2698     26.4289
  1498.2000      8.2038      2.5779     -0.0418      4.3677     52.2085     26.6013
  1498.3000      8.2053      2.6037      0.0460      2.8031     50.4704     26.6209
  1498.4000      8.2053      2.6222      0.0473      1.6873     56.0185     26.5484
  1498.5000      8.2035      2.6249      0.0576      1.5185     65.7184     26.7398
  1498.6000      8.2035      2.6187      0.0003      1.8988     73.7077     27.4206
  1498.7000      8.2035      2.6197      0.0224      1.8354     77.5105     27.9373
  1498.8000      8.2030      2.6343      0.0303      0.9522     78.4038     27.5313
  1498.9000      8.2030      2.6412      0.0924      0.5318     80.1782     26.8413
  1499.0000      8.2084      2.6172      0.0108      1.9882     79.0452     26.9481
  1499.1000      8.2084      2.5793      0.0036      4.2831     69.2004     27.5974
  1499.2000      8.2084      2.5534     -0.0242      5.8534     63.5790     27.9999
  1499.3000      8.2170      2.5402     -0.0272      6.6538     75.5131     28.3623
  1499.4000      8.2170      2.5390     -0.0401      6.7296     96.2484     28.9347
  1499.5000      8.2243      2.5510      0.0612      5.9993    109.3503     29.3352
  1499.6000      8.2243      2.5726      0.0138      4.6923    110.7271     29.6659
  1499.7000      8.2243      2.5931      0.0816      3.4494    107.9735     30.1233
  1499.8000      8.2383      2.5999      0.0441      3.0374    104.3661     30.4877
  1499.9000      8.2383      2.6005      0.0760      2.9981    100.2888     30.8557
  1500.0000      8.2460      2.5994      0.1111      3.0670    101.3700     31.2800
  1500.1000      8.2460      2.5887      0.1293      3.7164    106.0610     31.5856
  1500.2000      8.2460      2.5756      0.0864      4.5081    104.9022     31.7104
  1500.3000      8.2641      2.5693      0.1103      4.8935     99.9664     31.5967
  1500.4000      8.2641      2.5648      0.0728      5.1625    102.0284     31.3765
  1500.5000      8.2714      2.5621      0.0684      5.3248    106.9718     31.3386
  1500.6000      8.2714      2.5709      0.0720      4.7940    102.1563     31.1860
  1500.7000      8.2714      2.5965      0.1016      3.2437     91.7111     30.6539
  1500.8000      8.2458      2.6256      0.1323      1.4775     87.9762     30.1806
  1500.9000      8.2458      2.6458      0.0277      0.2561     90.6242     30.0306
  1501.0000      8.2218      2.6625      0.1147     -0.7549     91.9706     30.1381
  1501.1000      8.2218      2.6694      0.0746     -1.1753     88.9547     30.3843
  1501.2000      8.2218      2.6513      0.1037     -0.0802     81.3539     30.3307
  1501.3000      8.2219      2.6143      0.0231      2.1623     73.1030     29.7574
  1501.4000      8.2219      2.5837      0.0759      4.0156     69.1660     29.2829
  1501.5000      8.2246      2.5675      0.0472      5.0007     71.7314     29.2294
  1501.6000      8.2246      2.5563      0.0427      5.6811     80.2604     29.3728
  1501.7000      8.2246      2.5511      0.0004      5.9919     88.1840     29.5123
  1501.8000      8.2289      2.5615      0.0018      5.3617     86.0211     29.5430
  1501.9000      8.2289      2.5829      0.0265      4.0667     74.1573     29.4654
  1502.0000      8.2352      2.5937      0.0519      3.4125     64.5698     29.0919
  1502.1000      8.2352      2.5885      0.0499      3.7274     64.2049     28.4845
  1502.2000      8.2352      2.5859      0.0064      3.8877     68.6803     28.2138
  1502.3000      8.2574      2.5925      0.0259      3.4858     69.9791     28.4111
  1502.4000      8.2574      2.5992      0.0404      3.0807     68.2822     28.8932
  1502.5000      8.2593      2.5934     -0.0014      3.4330     71.0374     29.6483
  1502.6000      8.2593      2.5667      0.0462      5.0489     76.1092     30.1920
  1502.7000      8.2593      2.5308     -0.0206      7.2256     76.6155     29.9056
  1502.8000      8.2654      2.5062      0.0561      8.7148     77.7756     29.1694
  1502.9000      8.2654      2.4979     -0.0320      9.2152     88.1280     28.9448
  1503.0000      8.2779      2.4979     -0.0186      9.2165    101.5738     29.4071
  1503.1000      8.2779      2.4908      0.0255      9.6477    100.6282     30.0975
  1503.2000      8.2779      2.4690     -0.0175     10.9680     86.0916     30.7339
  1503.3000      8.3240      2.4393      0.0025     12.7683     73.4375     31.1738
  1503.4000      8.3240      2.4188     -0.0951     14.0149     67.4941     31.0925
  1503.5000      8.3672      2.4164      0.0104     14.1605     66.6824     30.3846
  1503.6000      8.3672      2.4095      0.0097     14.5734     67.1904     30.0837
  1503.7000      8.3672      2.3796      0.0376     16.3872     65.7878     31.2422
  1503.8000      8.3443      2.3381     -0.0107     18.9038     64.1866     33.0127
  1503.9000      8.3443      2.2952      0.0512     21.5011     67.1347     34.0195
  1504.0000      8.3798      2.2526      0.0083     24.0840     72.5305     34.0628
  1504.1000      8.3798      2.2353     -0.0141     25.1347     74.8767     33.6667
  1504.2000      8.3798      2.2678      0.0422     23.1625     75.7449     33.4599
  1504.3000      8.4204      2.3366      0.1089     18.9967     82.5909     33.3542
  1504.4000      8.4204      2.4128      0.1585     14.3758     97.9992     33.0801
  1504.5000      8.3059      2.4880      0.2069      9.8168    109.6853     32.9065
