~Version Information
VERS.                      2.0: CWLS Log ASCII Standard - VERSION 2.0
WRAP.                       NO: One line per depth step
~Well Information Block
STRT.FT               440.0000: 
STOP.FT              2735.2000: 
STEP.FT                 0.1000: 
NULL.                -999.2500: 
COMP.          Pioneer Natural Resources: COMPANY
WELL.              Cluck 21-25: WELL
FLD.           Purgatoire River: FIELD
LOC.           91' FNL & 1834' FWL--: LOCATION
PROV.                 Colorado: PROVINCE
CNTY.               Las Animas: COUNTRY
SRVC.                Patterson: SERVICE COMPANY
DATE.          Tue Jun 07 07:26:19 2005: LOG DATE
UWI.           05 071 08397 00: UNIQUE WELL ID
~Curve Information Block
DEPT.FT            0 000 00 00: Depth
DCAL.in                       : CDL Caliper
RHOB.g/cc                     : CDL Bulk Density
RHOC.g/cc                     : CDL Density Correction
DPOR.pu                       : CDL Density Porosity
NPOR.pu                       : Neutron Porosity
GR.GAPI                       : Gamma Ray
~Parameter Information Block
SNDERRM.mmho-m          0.0000: Medium Sonde Error Correction
~A  Depth       DCAL        RHOB        RHOC        DPOR        NPOR         GR     
# ...
  1803.2000      8.0782      2.5921      0.0725      3.5066     22.5370     93.3360
  1803.3000      8.0664      2.5863      0.0365      3.8618     22.8244     91.0787
  1803.4000      8.0664      2.5878      0.0565      3.7687     23.7595     87.5367
  1803.5000      8.0524      2.5863      0.0547      3.8599     25.0433     83.8616
  1803.6000      8.0524      2.5715      0.0261      4.7581     25.9738     79.6258
  1803.7000      8.0524      2.5459      0.0236      6.3109     26.5605     79.1994
  1803.8000      8.0415      2.5139      0.0253      8.2486     27.2702     87.0943
  1803.9000      8.0415      2.4744      0.0278     10.6396     28.3020    101.4596
  1804.0000      8.0345      2.4169      0.0041     14.1287     29.5408    117.4010
  1804.1000      8.0345      2.3339     -0.0055     19.1554     30.7747    129.2512
  1804.2000      8.0345      2.2387     -0.0607     24.9264     31.6831    134.5099
  1804.3000      8.0313      2.1547     -0.0593     30.0205     32.3608    135.7530
  1804.4000      8.0313      2.0867     -0.0626     34.1395     33.0453    134.0621
  1804.5000      8.0313      2.0146     -0.0588     38.5063     33.5050    129.4126
  1804.6000      8.0313      1.9260     -0.0653     43.8813     33.7666    125.9946
  1804.7000      8.0313      1.8474     -0.1137     48.6431     33.9141    125.2721
  1804.8000      8.0336      1.8224     -0.0739     50.1599     33.8674    123.4058
  1804.9000      8.0336      1.8591      0.0256     47.9317     33.6196    115.4155
  1805.0000      8.0375      1.9299      0.0877     43.6447     32.8304    102.8213
  1805.1000      8.0375      2.0090      0.1173     38.8507     31.4512     95.2900
  1805.2000      8.0375      2.0807      0.1847     34.5045     30.4746     95.1877
  1805.3000      8.0408      2.1440      0.1420     30.6687     30.1106     98.2037
  1805.4000      8.0408      2.2270      0.1547     25.6351     29.5043    102.9055
  1805.5000      8.0443      2.3406      0.2348     18.7519     28.8315    108.8270
  1805.6000      8.0443      2.4389      0.2957     12.7955     28.8472    115.6008
  1805.7000      8.0443      2.4814      0.2331     10.2159     29.4298    124.1330
  1805.8000      8.0458      2.4873      0.1391      9.8623     30.1817    131.0723
  1805.9000      8.0458      2.4844      0.1588     10.0390     31.0017    132.0047
  1806.0000      8.0454      2.4777      0.0841     10.4394     31.6172    132.3483
  1806.1000      8.0454      2.4788      0.0654     10.3760     31.5723    139.1451
  1806.2000      8.0454      2.4954      0.0800      9.3707     30.8805    146.9111
  1806.3000      8.0490      2.5186      0.0856      7.9636     29.9958    148.6400
  1806.4000      8.0490      2.5356      0.0718      6.9353     29.0606    147.6813
  1806.5000      8.0555      2.5331      0.0662      7.0859     28.2245    146.0060
  1806.6000      8.0555      2.5128      0.0227      8.3164     28.2295    141.6320
  1806.7000      8.0555      2.4901      0.0374      9.6892     29.4532    139.4366
  1806.8000      8.0578      2.4633      0.0218     11.3172     30.8232    145.4443
  1806.9000      8.0578      2.4215      0.0019     13.8467     31.2409    153.5916
  1807.0000      8.0552      2.3715     -0.0172     16.8769     31.2168    155.5159
  1807.1000      8.0552      2.3304     -0.0313     19.3694     31.6125    155.8851
  1807.2000      8.0552      2.3110     -0.0444     20.5483     32.2273    159.6923
  1807.3000      8.0537      2.3175     -0.0556     20.1486     32.6416    161.1156
  1807.4000      8.0537      2.3371      0.0534     18.9637     32.9249    154.3295
  1807.5000      8.0574      2.3497      0.0320     18.1973     33.2697    146.9320
  1807.6000      8.0574      2.3600      0.0487     17.5732     33.1559    149.4684
  1807.7000      8.0574      2.3804      0.0959     16.3381     32.1036    157.6707
  1807.8000      8.0661      2.4032      0.1276     14.9567     31.0721    162.4850
  1807.9000      8.0661      2.4179      0.1425     14.0663     30.7338    165.1649
  1808.0000      8.0737      2.4270      0.1597     13.5128     30.6892    164.2046
  1808.1000      8.0737      2.4314      0.1745     13.2502     30.8180    157.9808
  1808.2000      8.0737      2.4284      0.1732     13.4325     30.8905    153.8758
  1808.3000      8.0686      2.4321      0.0994     13.2089     30.5685    154.3661
  1808.4000      8.0686      2.4581      0.1103     11.6305     29.8478    153.3335
  1808.5000      8.0521      2.4953      0.1170      9.3747     28.8991    150.9589
  1808.6000      8.0521      2.5256      0.1668      7.5399     28.1098    153.8009
  1808.7000      8.0521      2.5437      0.1501      6.4423     27.7135    161.7559
  1808.8000      8.0392      2.5494      0.1691      6.0940     27.5914    169.1392
  1808.9000      8.0392      2.5481      0.1356      6.1773     27.4368    167.0350
  1809.0000      8.0350      2.5581      0.1311      5.5697     27.2834    154.1840
  1809.1000      8.0350      2.5898      0.1721      3.6464     27.2951    146.7046
  1809.2000      8.0350      2.6238      0.2308      1.5881     27.3138    152.4468
  1809.3000      8.0336      2.6268      0.2426      1.4086     27.3113    158.5355
  1809.4000      8.0336      2.5935      0.1346      3.4215     27.3413    156.4345
  1809.5000      8.0253      2.5622      0.0447      5.3199     27.6312    151.9481
  1809.6000      8.0253      2.5573      0.0726      5.6167     28.2632    148.6396
  1809.7000      8.0253      2.5555      0.0996      5.7294     28.9087    144.5009
  1809.8000      8.0159      2.5414      0.0547      6.5812     29.4221    141.1142
  1809.9000      8.0159      2.5333      0.0601      7.0744     29.8594    143.0081
  1810.0000      8.0132      2.5413      0.0388      6.5874     29.8854    149.4523
  1810.1000      8.0132      2.5528      0.0651      5.8891     29.3929    154.3384
  1810.2000      8.0132      2.5572      0.0436      5.6243     28.7384    157.0924
  1810.3000      8.0131      2.5612      0.0729      5.3823     28.0688    160.4981
  1810.4000      8.0131      2.5723      0.0987      4.7093     27.2578    161.7690
  1810.5000      8.0114      2.5869      0.0715      3.8232     26.1685    156.8949
  1810.6000      8.0114      2.5971      0.0956      3.2076     25.1944    149.8483
  1810.7000      8.0114      2.6036      0.0731      2.8096     25.0842    144.5356
  1810.8000      8.0092      2.6135      0.1043      2.2103     25.4237    136.8657
  1810.9000      8.0092      2.6179      0.1145      1.9427     24.8664    124.2872
  1811.0000      8.0086      2.6081      0.0802      2.5406     23.1982    111.0259
  1811.1000      8.0086      2.5984      0.0389      3.1289     21.6801    101.6633
  1811.2000      8.0086      2.6063      0.0226      2.6513     21.2238     97.6549
  1811.3000      8.0086      2.6260      0.0643      1.4548     21.2969     97.4197
  1811.4000      8.0086      2.6414      0.0671      0.5219     21.1386     95.5555
  1811.5000      8.0079      2.6489      0.0629      0.0682     20.8822     88.9375
  1811.6000      8.0079      2.6515      0.0768     -0.0888     20.8527     82.9237
  1811.7000      8.0079      2.6573      0.0114     -0.4451     21.4397     82.1987
  1811.8000      8.0065      2.6736      0.0789     -1.4309     22.2875     82.9010
  1811.9000      8.0065      2.6870      0.0770     -2.2424     22.2079     81.5224
  1812.0000      8.0059      2.6875      0.0654     -2.2717     21.4395     80.1118
  1812.1000      8.0059      2.6805      0.0744     -1.8494     21.1525     81.6904
  1812.2000      8.0059      2.6715      0.0502     -1.3044     21.5494     86.8449
  1812.3000      8.0074      2.6703      0.0650     -1.2294     22.1959     90.4998
  1812.4000      8.0074      2.6741      0.0973     -1.4618     22.5905     88.5845
  1812.5000      8.0110      2.6580      0.0820     -0.4876     22.4883     84.9000
  1812.6000      8.0110      2.6184      0.0357      1.9172     22.1929     84.4787
  1812.7000      8.0110      2.5785      0.0201      4.3358     22.2828     84.6171
