~Version Information
VERS.                      2.0: CWLS Log ASCII Standard - VERSION 2.0
WRAP.                       NO: One line per depth step
~Well Information Block
STRT.FT                -9.7500: 
STOP.FT              2374.2500: 
STEP.FT                 0.2500: 
NULL.                -999.2500: 
COMP.          Pioneer Natural Resources: COMPANY
WELL.            Chevron 13-13: WELL
FLD.           Purgatorie River: FIELD
LOC.           1560' FSL & 711' FWL--: LOCATION
CNTY.               Las Animas: COUNTY
SRVC.          Superior Well Services: SERVICE COMPANY
DATE.          Wed Apr 11 08:47:55 2007: LOG DATE
UWI.           05 071 08319 00: UNIQUE WELL ID
STAT.                       CO: STATE
~Curve Information Block
DEPT.FT            0 000 00 00: Depth
CCL.                          : Casing Collar Locator
TT3.usec                      : CBL 3' Travel Time
AMP3.mV                       : CBL 3' Amplitude
GR.GAPI                       : Gamma Ray
~Parameter Information Block
~A  Depth       CCL         TT3         AMP3         GR     
# ...
  2033.7500      0.0000    680.7603      2.3372    122.3553
  2034.0000      0.0000    705.5082      2.3053    105.2246
  2034.2500      0.0000    727.0228      2.2760     89.5415
  2034.5000      0.0000    738.0165      2.2734     77.1548
  2034.7500      0.0000    734.4285      2.3090     69.4146
  2035.0000      0.0000    718.8974      2.3827     67.3531
  2035.2500      0.0000    699.6577      2.4874     71.1423
  2035.5000      0.0000    685.0349      2.6134     79.5247
  2035.7500      0.0000    678.4643      2.7596     89.9399
  2036.0000      0.0000    677.8042      2.9416     99.4039
  2036.2500      0.0000    677.9983      3.1801    105.9588
  2036.5000      0.0000    673.9075      3.4752    109.6764
  2036.7500      0.0000    662.5623      3.8001    111.8528
  2037.0000      0.0000    645.8883      4.1225    113.1497
  2037.2500      0.0000    631.8564      4.4261    113.0168
  2037.5000      0.0000    629.5659      4.7075    110.8735
  2037.7500      0.0000    640.2532      4.9603    107.2637
  2038.0000      0.0000    654.3164      5.1727    103.5888
  2038.2500      0.0000    659.2441      5.3393    100.9273
  2038.5000      0.0000    650.0437      5.4684     99.4224
  2038.7500      0.0000    631.1058      5.5727     98.7291
  2039.0000      0.0000    608.5780      5.6537     98.6297
  2039.2500      0.0000    582.6810      5.6950     99.0015
  2039.5000      0.0000    549.5156      5.6735     99.4104
  2039.7500      0.0000    509.6926      5.5821     99.0479
  2040.0000      0.0000    471.2674      5.4398     97.3498
  2040.2500      0.0000    442.9384      5.2787     94.7167
  2040.5000      0.0000    427.1067      5.1249     92.4430
  2040.7500      0.0000    420.3807      4.9913     91.7648
  2041.0000      0.0000    418.1841      4.8856     92.9773
  2041.2500      0.0000    417.6428      4.8153     95.3375
  2041.5000      0.0000    417.6361      4.7867     97.5675
  2041.7500      0.0000    417.8514      4.7997     98.5307
  2042.0000      0.0000    418.1319      4.8450     97.8439
  2042.2500      0.0000    418.3426      4.9020     96.0453
  2042.5000      0.0000    418.4359      4.9427     94.0653
  2042.7500      0.0000    418.4489      4.9430     92.4563
  2043.0000      0.0000    418.4771      4.8961     91.0871
  2043.2500      0.0000    418.9123      4.8167     89.4498
  2043.5000      0.0000    421.1315      4.7311     87.2978
  2043.7500      0.0000    428.4764      4.6602     85.0881
  2044.0000      0.0000    446.3817      4.6088     83.7678
  2044.2500      0.0000    479.8253      4.5669     84.1232
  2044.5000      0.0000    528.2186      4.5190     86.3392
  2044.7500      0.0000    582.4286      4.4566     89.8099
  2045.0000      0.0000    628.7526      4.3875     93.1366
  2045.2500      0.0000    657.3559      4.3347     94.7740
  2045.5000      0.0000    667.4097      4.3202     94.1680
  2045.7500      0.0000    665.5638      4.3394     92.1827
  2046.0000      0.0000    660.7166      4.3535     90.3040
  2046.2500      0.0000    658.9957      4.3202     89.4506
  2046.5000      0.0000    661.5501      4.2352     89.4622
  2046.7500      0.0000    666.0522      4.1346     89.5955
  2047.0000      0.0000    670.0082      4.0519     89.3821
  2047.2500      0.0000    672.7111      3.9853     88.8383
  2047.5000      2.0000    674.6276      3.9078     87.9081
  2047.7500      0.0000    676.0701      3.7949     86.0913
  2048.0000      0.0000    677.2002      3.6393     82.9656
  2048.2500      0.0000    679.1290      3.4560     78.9642
  2048.5000      0.0000    684.0362      3.2795     75.2620
  2048.7500      0.0000    693.2374      3.1460     72.7834
  2049.0000      0.0000    705.0621      3.0704     71.4822
  2049.2500      0.0000    715.7544      3.0408     70.7512
  2049.5000      0.0000    723.2523      3.0356     70.4845
  2049.7500      0.0000    728.7889      3.0438     71.6324
  2050.0000      0.0000    733.4736      3.0729     75.5831
  2050.2500      0.0000    734.6758      3.1414     82.6858
  2050.5000      0.0000    728.0375      3.2646     91.0860
  2050.7500      0.0000    713.0556      3.4413     97.4037
  2051.0000      0.0000    694.9186      3.6518     99.3230
  2051.2500      0.0000    680.1705      3.8646     97.5644
  2051.5000      0.0000    671.7067      4.0510     94.9695
  2051.7500      0.0000    668.3339      4.1958     93.8754
  2052.0000      0.0000    667.5811      4.3010     94.6422
  2052.2500      0.0000    667.9454      4.3794     96.2057
  2052.5000      0.0000    669.2080      4.4444     97.3418
  2052.7500      0.0000    671.6613      4.4988     97.3931
  2053.0000      0.0000    675.0148      4.5324     96.3207
  2053.2500      0.0000    677.5487      4.5311     94.6171
  2053.5000      0.0000    676.1863      4.4908     93.3409
  2053.7500      0.0000    668.0576      4.4209     93.7332
  2054.0000      0.0000    653.5405      4.3387     96.0114
  2054.2500      0.0000    638.4871      4.2606     98.6736
  2054.5000      0.0000    631.5913      4.1988     99.7634
  2054.7500      0.0000    637.2410      4.1601     98.9427
  2055.0000      0.0000    651.4837      4.1465     97.6858
  2055.2500      0.0000    666.1916      4.1570     97.4981
  2055.5000      0.0000    675.9380      4.1894     98.7651
  2055.7500      0.0000    680.0200      4.2429    101.2359
  2056.0000      0.0000    680.0530      4.3153    104.3205
  2056.2500      0.0000    677.8979      4.4001    106.6334
  2056.5000      0.0000    675.5917      4.4879    106.3818
  2056.7500      0.0000    675.5569      4.5740    102.6833
  2057.0000      0.0000    679.5984      4.6602     96.0014
  2057.2500      0.0000    687.4393      4.7500     87.4699
  2057.5000      0.0000    696.4317      4.8334     78.5222
  2057.7500      0.0000    703.0204      4.8769     70.9864
  2058.0000      0.0000    704.6982      4.8346     66.6758
  2058.2500      0.0000    700.9197      4.6809     66.5368
  2058.5000      0.0000    692.6462      4.4326     70.2984
  2058.7500      0.0000    681.5139      4.1378     76.8685
  2059.0000      0.0000    669.6986      3.8493     84.7566
  2059.2500      0.0000    660.1978      3.6113     92.1696
  2059.5000      0.0000    656.1494      3.4587     97.2735
  2059.7500      0.0000    658.9459      3.4167     99.0094
  2060.0000      0.0000    666.9009      3.4949     97.7920
  2060.2500      0.0000    675.8439      3.6864     95.2115
  2060.5000      0.0000    681.1527      3.9749     92.8908
  2060.7500      0.0000    680.1862      4.3411     91.6010
  2061.0000      0.0000    674.2301      4.7620     91.3350
  2061.2500      0.0000    668.0344      5.2272     91.8938
  2061.5000      0.0000    665.8159      5.7765     93.1098
  2061.7500      0.0000    666.6211      6.5102     94.5996
  2062.0000      0.0000    663.2037      7.5468     95.7940
  2062.2500      2.0000    645.1674      8.9684     96.4768
  2062.5000      0.0000    604.7987     10.7994     96.9839
  2062.7500      0.0000    543.3338     13.0019     97.5778
  2063.0000      0.0000    472.7678     15.5042     97.9507
  2063.2500      0.0000    409.3139     18.2698     97.7082
  2063.5000      0.0000    363.4098     21.3170     97.0608
  2063.7500      0.0000    335.6856     24.6282     96.5396
  2064.0000      0.0000    320.6151     28.1049     96.0876
  2064.2500      0.0000    311.9094     31.6767     94.9744
  2064.5000      0.0000    305.3161     35.3355     92.9290
  2064.7500      0.0000    298.8226     38.9758     91.0924
  2065.0000      0.0000    291.7800     42.3359     91.3074
  2065.2500      0.0000    284.2487     45.1813     94.3132
  2065.5000      0.0000    276.9160     47.4364     98.9498
  2065.7500      0.0000    270.8571     49.1045    103.1770
  2066.0000      0.0000    266.8000     50.1745    105.4544
  2066.2500      0.0000    264.6556     50.6543    105.1473
  2066.5000      0.0000    263.7841     50.6380    102.3443
  2066.7500      0.0000    263.5421     50.2944     97.8454
  2067.0000      0.0000    263.5821     49.7997     93.1037
