~Version Information
VERS.                      2.0: CWLS Log ASCII Standard - VERSION 2.0
WRAP.                       NO: One line per depth step
~Well Information Block
STRT.FT                -8.5000: 
STOP.FT              2286.0000: 
STEP.FT                 0.2500: 
NULL.                -999.2500: 
COMP.          Pioneer Natural Resources: COMPANY
WELL.             Culver 14-12: WELL
FLD.           Purgatorie River: FIELD
LOC.           913' FSL & 1140' FWL--: LOCATION
PROV.                       CO: PROVINCE
CNTY.               Las Animas: COUNTRY
SRVC.          Patterson Wireline: SERVICE COMPANY
DATE.          Wed Jun 15 13:05:36 2005: LOG DATE
UWI.           05 071 08386 00: UNIQUE WELL ID
~Curve Information Block
DEPT.FT            0 000 00 00: Depth
CCL.                          : Casing Collar Locator
TT3.usec                      : CBL 3' Travel Time
AMP3.mV                       : CBL 3' Amplitude
GR.GAPI                       : Gamma Ray
~Parameter Information Block
~A  Depth       CCL         TT3         AMP3         GR     
# ...
   896.0000      0.0000    748.3007      4.6821    126.3388
   896.2500      0.0000    738.1067      4.6022    126.4621
   896.5000      0.0000    731.4853      4.4274    127.9327
   896.7500      0.0000    728.3387      4.2497    130.3371
   897.0000      0.0000    727.6896      4.1156    132.1245
   897.2500      0.0000    728.8919      3.9969    132.4562
   897.5000      0.0000    732.1797      3.8538    132.3905
   897.7500      0.0000    738.3887      3.6991    133.7460
   898.0000      0.0000    748.0279      3.5797    136.9869
   898.2500      0.0000    760.2637      3.5128    140.5974
   898.5000      0.0000    772.8204      3.4709    142.2732
   898.7500      0.0000    783.2441      3.4286    140.4352
   899.0000      0.0000    790.6433      3.4019    135.0573
   899.2500      0.0000    796.1552      3.4379    127.5938
   899.5000      0.0000    801.3641      3.5613    120.1402
   899.7500      0.0000    806.2576      3.7227    114.5017
   900.0000      0.0000    809.0341      3.8090    111.8771
   900.2500      0.0000    807.9105      3.7294    112.9293
   900.5000      0.0000    802.9529      3.5043    117.5445
   900.7500      0.0000    796.5234      3.2674    124.3587
   901.0000      0.0000    792.3765      3.1746    130.9371
   901.2500      0.0000    793.5829      3.2912    135.0786
   901.5000      0.0000    799.9481      3.5479    136.0023
   901.7500      0.0000    807.0425      3.7956    134.2596
   902.0000      0.0000    808.5920      3.9113    131.3321
   902.2500      0.0000    801.0439      3.8731    129.6540
   902.5000      0.0000    786.9215      3.7562    131.8046
   902.7500      0.0000    773.8951      3.6623    138.3972
   903.0000      0.0000    769.2812      3.6396    146.8316
   903.2500      0.0000    774.2600      3.6634    152.7395
   903.5000      0.0000    783.6855      3.6910    152.8883
   903.7500      0.0000    791.4929      3.7113    147.0301
   904.0000      0.0000    795.4497      3.7277    137.7435
   904.2500      0.0000    796.9656      3.7271    128.8432
   904.5000      0.0000    797.8898      3.6973    123.3055
   904.7500      0.0000    798.3454      3.6517    121.8525
   905.0000      0.0000    797.2115      3.6051    123.2407
   905.2500      0.0000    794.0706      3.5465    125.7382
   905.5000      0.0000    790.5580      3.4702    127.8848
   905.7500      0.0000    789.5875      3.4105    128.4141
   906.0000      0.0000    792.8019      3.4055    126.7793
   906.2500      0.0000    798.6417      3.4378    123.8438
   906.5000      0.0000    803.2043      3.4528    121.3666
   906.7500      0.0000    803.3689      3.4280    120.7583
   907.0000      0.0000    799.4146      3.3859    122.4659
   907.2500      0.0000    794.4165      3.3468    125.8673
   907.5000      0.0000    790.9194      3.3152    129.2555
   907.7500      0.0000    788.8890      3.3131    130.5071
   908.0000      0.0000    787.2397      3.3761    128.6097
   908.2500      0.0000    785.9634      3.4957    124.7450
   908.5000      0.0000    785.4816      3.6055    121.5065
   908.7500      0.0000    784.6177      3.6478    120.7653
   909.0000      0.0000    780.6552      3.6304    122.4812
   909.2500      0.0000    771.8503      3.5955    125.6164
   909.5000      0.0000    759.5318      3.5622    129.5114
   909.7500      0.0000    747.3205      3.5332    133.7506
   910.0000      0.0000    738.3910      3.5327    137.2222
   910.2500      0.0000    733.8224      3.5894    138.3723
   910.5000      0.0000    733.3386      3.6806    136.6045
   910.7500      0.0000    736.6994      3.7286    132.8807
   911.0000      0.0000    743.7863      3.6626    128.6671
   911.2500      0.0000    753.5336      3.4829    124.6686
   911.5000      0.0000    763.6944      3.2688    120.8274
   911.7500      0.0000    772.4186      3.1290    116.9450
   912.0000      0.0000    779.8558      3.1245    112.7879
   912.2500      0.0000    787.4464      3.2279    108.1688
   912.5000      0.0000    795.6103      3.3643    103.4915
   912.7500      0.0000    802.6862      3.4843     99.7052
   913.0000      0.0000    806.3192      3.5805     97.2114
   913.2500      0.0000    805.7827      3.6461     95.3232
   913.5000      0.0000    802.9309      3.6589     93.2581
   913.7500      0.0000    800.8796      3.6158     91.2920
   914.0000      0.0000    801.6320      3.5516     90.6286
   914.2500      0.0000    804.7580      3.5116     92.2768
   914.5000      0.0000    808.0721      3.5202     95.9912
   914.7500      0.0000    809.4611      3.5722    100.0839
   915.0000      0.0000    808.3890      3.6296    102.5478
   915.2500      0.0000    806.0145      3.6372    102.7975
   915.5000      0.0000    803.9875      3.5692    102.1775
   915.7500      0.0000    803.2060      3.4576    102.5177
   916.0000      0.0000    803.6789      3.3617    104.6177
   916.2500      0.0000    805.1986      3.3226    108.4488
   916.5000      0.0000    807.7269      3.3571    113.8766
   916.7500      0.0000    811.0042      3.4689    120.2772
   917.0000      0.0000    814.0464      3.6370    126.3190
   917.2500      0.0000    815.5101      3.8027    131.0960
   917.5000      0.0000    814.8315      3.8927    135.0324
   917.7500      0.0000    812.8032      3.8645    139.0820
   918.0000      0.0000    810.7980      3.7320    143.4455
   918.2500      0.0000    809.6121      3.5454    147.6419
   918.5000      0.0000    809.1857      3.3499    151.6327
   918.7500      0.0000    809.1181      3.1748    156.2050
   919.0000      0.0000    809.0997      3.0566    161.7496
   919.2500      0.0000    808.8922      3.0357    166.7778
   919.5000      0.0000    808.1341      3.1101    168.3733
   919.7500      0.0000    806.3715      3.2205    164.6042
   920.0000      0.0000    803.4020      3.2903    156.4179
   920.2500      0.0000    799.5386      3.2766    147.1277
   920.5000      0.0000    795.2629      3.1988    140.1055
   920.7500      0.0000    790.5846      3.1334    136.5897
   921.0000      0.0000    785.1636      3.1576    135.2836
   921.2500      0.0000    779.2940      3.2775    134.0775
   921.5000      0.0000    774.3104      3.4200    132.2751
   921.7500      0.0000    771.6838      3.4995    130.8605
   922.0000      0.0000    771.6858      3.4794    130.6872
   922.2500      0.0000    772.5517      3.3821    131.2459
   922.5000      0.0000    770.7980      3.2625    131.4817
   922.7500      0.0000    763.5205      3.1748    130.9244
   923.0000      0.0000    751.6164      3.1496    129.5146
   923.2500      0.0000    740.2725      3.1861    127.0846
   923.5000      0.0000    735.3545      3.2515    123.7077
   923.7500      0.0000    739.4487      3.2955    120.1230
   924.0000      0.0000    751.0729      3.2903    117.2638
   924.2500      0.0000    766.0280      3.2667    115.6639
   924.5000      0.0000    778.7212      3.2950    115.4585
   924.7500      0.0000    783.2612      3.4171    116.4767
   925.0000      0.0000    775.1194      3.5948    118.2557
   925.2500      0.0000    754.2869      3.7329    120.3153
   925.5000      0.0000    728.9459      3.7524    122.0793
   925.7500      0.0000    714.1573      3.6398    122.3111
   926.0000      0.0000    721.4688      3.4420    119.5787
   926.2500      0.0000    747.1675      3.2380    114.1257
   926.5000      0.0000    772.9936      3.1068    108.6027
   926.7500      0.0000    779.8756      3.0870    105.9862
   927.0000      0.0000    760.7691      3.1516    106.9358
   927.2500      0.0000    722.2816      3.2395    109.6669
   927.5000      0.0000    677.2195      3.3174    112.1052
   927.7500      0.0000    635.8647      3.3906    113.7535
   928.0000      0.0000    602.1535      3.4550    115.4556
   928.2500      0.0000    575.8251      3.4689    117.6413
   928.5000      0.0000    556.2297      3.3867    119.3163
   928.7500      0.0000    543.2965      3.2041    119.0819
   929.0000      0.0000    536.2526      2.9689    116.8083
   929.2500      0.0000    533.2400      2.7559    114.2057
