~Version Information
VERS.                      2.0: CWLS Log ASCII Standard - VERSION 2.0
WRAP.                       NO: One line per depth step
~Well Information Block
STRT.FT               630.0000: 
STOP.FT              1156.0000: 
STEP.FT                 0.2500: 
NULL.                -999.2500: 
COMP.          Pioneer Natural Resources: COMPANY
WELL.          Drewmeister 34-34: WELL
FLD.           Purgatoire River: FIELD
LOC.           958' FSL & 1857' FEL: LOCATION
STAT.                 Colorado: State
CNTY.               Las Animas: COUNTY
CTRY. USA : Country
SECT. 34 : Section
TOWN. 32S : Township
RANG. 65W : Range
SRVC.                Patterson: SERVICE COMPANY
DATE.          Mon Oct 03 23:24:37 2005: LOG DATE
API.           05 071 08131 00: UNIQUE WELL ID
~Curve Information Block
DEPT.FT            0 000 00 00: Depth
SN.Ohm-m                      : IEL Short Normal
SP.mV                         : IEL Spontaneous Potential
DIR.Ohm-m                     : IEL Induction Resistivity
GR.GAPI                       : Gamma Ray
~Parameter Information Block
~A  Depth        SN          SP         DIR          GR     
# ...
   931.5000    154.7042    799.9761     39.5149     45.0633
   931.7500    163.9706    799.9761     39.8074     46.7442
   932.0000    155.8794    799.9742     40.0042     48.8333
   932.2500    131.8748    799.9605     40.0500     49.6079
   932.5000    103.2110    799.8890     39.8699     49.7109
   932.7500     80.4257    799.5953     39.4023     49.2774
   933.0000     69.7892    798.6481     38.6189     48.4222
   933.2500     74.5195    796.2143     37.5344     48.0081
   933.5000     95.0132    791.1755     36.2083     48.2898
   933.7500    127.2330    782.6106     34.7296     49.6790
   934.0000    166.2766    770.3283     33.1855     54.4062
   934.2500    211.7191    754.9018     31.6389     59.2055
   934.5000    262.9983    737.0787     30.1309     67.5417
   934.7500    309.8755    717.0175     28.6932     72.9534
   935.0000    332.5322    694.0562     27.3516     80.1203
   935.2500    316.6212    667.5352     26.1150     84.3371
   935.5000    280.1490    638.2505     24.9696     90.1161
   935.7500    278.5612    609.2911     23.8886     93.6384
   936.0000    353.0054    585.6771     22.8557     98.3603
   936.2500    474.2277    573.2233     21.8840    101.1157
   936.5000    568.9236    576.6740     21.0155    104.6326
   936.7500    595.6067    597.0964     20.3018    106.5185
   937.0000    551.4333    630.3036     19.7800    108.5399
   937.2500    439.9586    668.5746     19.4601    109.3376
   937.5000    293.0072    704.8270     19.3256    109.9608
   937.7500    170.8833    735.4316     19.3428    110.1465
   938.0000    104.8090    759.5904     19.4713    109.6480
   938.2500     78.3892    777.3086     19.6701    108.1172
   938.5000     63.9932    788.6490     19.8992    103.3855
   938.7500     50.7592    794.0747     20.1195     99.2316
   939.0000     41.3842    794.3952     20.2951     93.6930
   939.2500     40.7852    790.4310     20.4004     91.2795
   939.5000     56.4761    783.4309     20.4309     89.1151
   939.7500    103.1979    775.9242     20.4088     87.8729
   940.0000    189.8433    771.3787     20.3772     85.8030
   940.2500    285.1878    772.1972     20.3850     84.6950
   940.5000    319.1894    777.9205     20.4685     84.6610
   940.7500    260.7856    785.6736     20.6373     86.2710
   941.0000    161.4375    792.4177     20.8674     91.0955
   941.2500     85.0231    796.7322     21.1067     95.2576
   941.5000     46.9362    798.8503     21.2930    101.6718
   941.7500     32.6274    799.6599     21.3772    105.9264
   942.0000     27.9755    799.8882     21.3384    112.8742
   942.2500     26.1179    799.8560     21.1869    117.9522
   942.5000     24.7647    799.4661     20.9559    125.0644
   942.7500     23.6910    798.0488     20.6905    128.3758
   943.0000     23.3435    794.0051     20.4344    129.9950
   943.2500     24.4461    784.6092     20.2162    129.0875
   943.5000     29.4550    766.5594     20.0369    126.7692
   943.7500     47.1908    737.3471     19.8679    126.0843
   944.0000     97.1639    696.6158     19.6638    127.7889
   944.2500    199.0523    646.5787     19.3868    130.2912
   944.5000    343.1199    591.4670     19.0289    133.5902
   944.7500    487.9555    536.6982     18.6147    134.2666
   945.0000    609.0048    488.3765     18.1852    133.4563
   945.2500    711.2188    453.1078     17.7760    133.2850
   945.5000    789.4626    437.2486     17.4064    135.9890
   945.7500    832.3804    444.9809     17.0818    139.7946
   946.0000    847.5690    476.4101     16.8066    146.3652
   946.2500    850.9496    527.2828     16.5962    149.8474
   946.5000    851.2846    589.9935     16.4768    152.4685
   946.7500    850.0382    654.8008     16.4735    152.6810
   947.0000    841.9744    711.7435     16.5948    152.0481
   947.2500    808.1821    753.8328     16.8269    151.7662
   947.5000    713.7798    779.6016     17.1385    151.5479
   947.7500    539.0892    792.4969     17.4891    150.4782
   948.0000    325.8501    797.7214     17.8342    145.0632
   948.2500    154.1168    799.4240     18.1295    138.2941
   948.5000     62.1829    799.8682     18.3399    124.8668
   948.7500     28.8373    799.9605     18.4555    115.5969
   949.0000     20.5373    799.9752     18.5045    104.0801
   949.2500     19.9039    799.9761     18.5518     98.7468
   949.5000     21.9107    799.9761     18.6793     94.4597
   949.7500     24.9202    799.9761     18.9586     94.1538
   950.0000     27.3003    799.9761     19.4287     97.6037
   950.2500     27.9735    799.9761     20.0858    102.1032
   950.5000     27.2495    799.9761     20.8838    110.6370
   950.7500     26.1364    799.9750     21.7441    116.6466
   951.0000     25.1424    799.9634     22.5721    125.2626
   951.2500     24.2416    799.8949     23.2737    130.3621
   951.5000     24.1947    799.5855     23.7685    135.8627
   951.7500     29.0591    798.4719     24.0007    137.1413
   952.0000     50.5253    795.2623     23.9539    134.6484
   952.2500    108.6130    787.8684     23.6685    130.7544
   952.5000    212.3555    774.3520     23.2471    124.5097
   952.7500    325.2225    755.1036     22.8321    121.7074
   953.0000    381.7465    734.7560     22.5603    120.3880
   953.2500    372.7999    721.1744     22.5168    120.8072
   953.5000    356.0707    720.8293     22.7108    121.8835
   953.7500    357.4028    734.0005     23.0776    122.4303
   954.0000    342.7737    754.4658     23.5050    123.0024
   954.2500    285.4695    774.0992     23.8777    123.4106
   954.5000    201.3665    787.9017     24.1234    124.3358
   954.7500    124.3777    795.3738     24.2335    125.1944
   955.0000     73.2140    798.5494     24.2511    126.5630
   955.2500     45.8157    799.6167     24.2434    127.2016
   955.5000     33.4927    799.8929     24.2783    127.2445
   955.7500     31.1860    799.9036     24.4072    126.6353
   956.0000     39.3104    799.7162     24.6506    125.3055
   956.2500     61.8774    799.0875     24.9898    124.5655
   956.5000    100.5724    797.4128     25.3763    123.7268
   956.7500    149.5730    793.6686     25.7581    122.7835
   957.0000    203.3728    786.6197     26.1077    119.7074
   957.2500    266.6274    775.5923     26.4353    116.5769
   957.5000    338.1243    761.6944     26.7784    111.5072
   957.7500    396.8921    748.4187     27.1755    108.5721
   958.0000    445.8642    740.3978     27.6339    104.7498
   958.2500    530.2535    740.7827     28.1137    101.8846
   958.5000    655.0485    749.3879     28.5479     96.0894
   958.7500    759.0401    762.9507     28.8833     91.3574
   959.0000    794.9378    776.9993     29.1076     84.3604
   959.2500    761.3983    788.0469     29.2354     80.7403
   959.5000    664.9386    794.8654     29.2767     77.9622
   959.7500    505.1631    798.1911     29.2253     77.9579
   960.0000    312.1139    799.4733     29.0770     79.8076
   960.2500    153.1439    799.8633     28.8446     81.3399
   960.5000     67.3695    799.9562     28.5409     82.7759
   960.7500     37.0040    799.9739     28.1366     82.9795
   961.0000     29.4971    799.9761     27.5429     82.6460
   961.2500     27.7871    799.9761     26.6648     82.3315
   961.5000     27.0492    799.9761     25.5020     81.9965
   961.7500     26.3009    799.9761     24.1943     82.0563
   962.0000     25.2629    799.9761     22.9532     83.4862
   962.2500     23.8066    799.9761     21.9495     86.0848
   962.5000     22.0237    799.9761     21.2522     92.9689
   962.7500     20.5486    799.9761     20.8326     98.8269
   963.0000     20.8055    799.9761     20.6000    106.7331
   963.2500     24.7610    799.9761     20.4457    109.6895
   963.5000     33.3959    799.9761     20.2845    109.0510
   963.7500     44.3692    799.9761     20.0779    105.3895
   964.0000     52.5376    799.9761     19.8350     96.7867
   964.2500     54.7673    799.9761     19.5948     90.4334
   964.5000     52.6369    799.9761     19.4026     82.1216
   964.7500     49.3093    799.9761     19.2903     77.8754
