~Version Information
VERS.                      2.0: CWLS Log ASCII Standard - VERSION 2.0
WRAP.                       NO: One line per depth step
~Well Information Block
STRT.FT               952.6000: 
STOP.FT              2511.5000: 
STEP.FT                 0.1000: 
NULL.                -999.2500: 
COMP.          Petrogulf Corporation: COMPANY
WELL.             Royal 8-33 V: WELL
FLD.           Purgatoire River: FIELD
LOC.           2365' FSL & 2336' FEL: LOCATION
PROV.                 Colorado: PROVINCE
CNTY.               Las Animas: COUNTRY
SRVC.                Patterson: SERVICE COMPANY
DATE.          Fri Dec 05 09:15:49 2003: LOG DATE
UWI.                          : UNIQUE WELL ID
~Curve Information Block
DEPT.FT            0 000 00 00: Depth
DCAL.in                       : CDL Caliper
RHOB.g/cc                     : CDL Bulk Density
RHOC.g/cc                     : CDL Density Correction
DPOR.pu                       : CDL Density Porosity
GR.GAPI                       : Gamma Ray
NPOR.pu                       : Neutron Porosity
~Parameter Information Block
~A  Depth       DCAL        RHOB        RHOC        DPOR         GR         NPOR    
# ...
  2296.6000      8.1201      2.6437      0.1640      0.3802     65.4202     12.1336
  2296.7000      8.1201      2.6218      0.1165      1.7089     59.4044     11.4747
  2296.8000      8.1076      2.6007      0.1101      2.9908     57.0568     10.8715
  2296.9000      8.1076      2.5855      0.1060      3.9114     55.4141     10.6934
  2297.0000      8.0960      2.5607      0.0744      5.4095     51.0808     10.9484
  2297.1000      8.0960      2.5310      0.0209      7.2130     47.4937     11.3292
  2297.2000      8.0960      2.5206      0.0611      7.8414     47.8514     11.4624
  2297.3000      8.0604      2.5364      0.0961      6.8852     52.6051     11.4117
  2297.4000      8.0604      2.5564      0.0987      5.6721     61.4659     11.2885
  2297.5000      8.1117      2.5635      0.0773      5.2445     71.1052     11.0239
  2297.6000      8.1117      2.5625      0.1030      5.3060     74.2057     10.8292
  2297.7000      8.1117      2.5601      0.1101      5.4487     68.7606     11.0489
  2297.8000      8.1180      2.5590      0.0601      5.5122     63.3519     11.5449
  2297.9000      8.1180      2.5641      0.1091      5.2040     63.2106     11.7444
  2298.0000      8.0883      2.5704      0.1502      4.8230     63.4187     11.5221
  2298.1000      8.0883      2.5587      0.1632      5.5355     58.9187     11.3494
  2298.2000      8.0883      2.5248      0.1440      7.5863     51.5144     11.4633
  2298.3000      8.0820      2.5056      0.0398      8.7539     44.8656     11.5808
  2298.4000      8.0820      2.5372      0.0019      6.8384     42.7900     11.4449
  2298.5000      8.0854      2.5885      0.1746      3.7280     46.5002     11.1917
  2298.6000      8.0854      2.6019      0.1105      2.9137     50.4205     10.9920
  2298.7000      8.0854      2.5844      0.0878      3.9749     50.5005     10.8955
  2298.8000      8.0957      2.5741      0.1088      4.5995     49.0461     10.9396
  2298.9000      8.0957      2.5757      0.1480      4.5032     51.7561     10.9979
  2299.0000      8.1094      2.5747      0.1174      4.5631     60.3400     10.9778
  2299.1000      8.1094      2.5703      0.1066      4.8304     67.0210     11.0998
  2299.2000      8.1094      2.5741      0.1118      4.6015     67.7904     11.3229
  2299.3000      8.1298      2.5875      0.1231      3.7885     70.0155     11.1704
  2299.4000      8.1298      2.6026      0.0973      2.8723     74.4083     10.8002
  2299.5000      8.0694      2.6115      0.1546      2.3357     73.2420     10.7049
  2299.6000      8.0694      2.6010      0.1503      2.9685     67.8094     10.8061
  2299.7000      8.0694      2.5778      0.0571      4.3768     62.9190     10.9211
  2299.8000      8.0687      2.5686      0.0748      4.9321     59.9224     11.1485
  2299.9000      8.0687      2.5807      0.0881      4.2016     59.1519     11.4995
  2300.0000      8.1048      2.5937      0.1233      3.4106     60.6306     11.6740
  2300.1000      8.1048      2.5851      0.1027      3.9341     62.0759     11.4752
  2300.2000      8.1048      2.5643      0.0389      5.1946     57.9057     11.1694
  2300.3000      8.1279      2.5607      0.0725      5.4094     52.6976     11.1553
  2300.4000      8.1279      2.5714      0.0957      4.7620     53.8689     11.5133
  2300.5000      8.1293      2.5723      0.1088      4.7091     56.5656     11.6838
  2300.6000      8.1293      2.5707      0.0923      4.8056     57.2290     11.2554
  2300.7000      8.1293      2.5886      0.1030      3.7200     58.3458     10.7041
  2300.8000      8.1073      2.6172      0.1743      1.9882     58.4442     10.6068
  2300.9000      8.1073      2.6314      0.1281      1.1275     55.2901     10.8590
  2301.0000      8.0974      2.6228      0.1898      1.6479     52.1407     11.0716
  2301.1000      8.0974      2.6055      0.1118      2.6955     53.0345     11.2622
  2301.2000      8.0974      2.5982      0.1133      3.1393     57.0639     11.6322
  2301.3000      8.1157      2.5933      0.1208      3.4393     59.7852     12.1349
  2301.4000      8.1157      2.5771      0.0588      4.4190     58.7181     12.7896
  2301.5000      8.1232      2.5649      0.0364      5.1553     56.8800     13.5309
  2301.6000      8.1232      2.5693      0.0823      4.8930     57.6557     13.9447
  2301.7000      8.1232      2.5743      0.0958      4.5888     59.2697     13.8013
  2301.8000      8.1412      2.5727      0.0717      4.6841     60.5874     13.3978
  2301.9000      8.1412      2.5803      0.0652      4.2226     62.2597     12.8982
  2302.0000      8.1477      2.6066      0.1298      2.6316     64.0579     12.3303
  2302.1000      8.1477      2.6377      0.1999      0.7431     66.4869     11.9776
  2302.2000      8.1477      2.6532      0.1131     -0.1917     66.1320     11.9968
  2302.3000      8.1213      2.6528      0.1365     -0.1707     59.7792     11.9041
  2302.4000      8.1213      2.6491      0.1822      0.0544     51.7322     11.3834
  2302.5000      8.1062      2.6425      0.1498      0.4551     47.1558     10.9771
  2302.6000      8.1062      2.6307      0.1429      1.1667     48.5964     11.1327
  2302.7000      8.1062      2.6170      0.1464      2.0004     54.8755     11.6681
  2302.8000      8.0946      2.5951      0.0948      3.3280     59.3552     12.2256
  2302.9000      8.0946      2.5639      0.0499      5.2189     58.5736     12.3518
  2303.0000      8.1195      2.5496      0.0484      6.0875     56.7726     11.7327
  2303.1000      8.1195      2.5642      0.1499      5.1988     57.0192     10.6806
  2303.2000      8.1195      2.5894      0.1271      3.6718     58.6295      9.9138
  2303.3000      8.1220      2.6142      0.1267      2.1716     59.9490     10.0087
  2303.4000      8.1220      2.6346      0.0917      0.9347     58.4862     10.9282
  2303.5000      8.1320      2.6422      0.1964      0.4748     55.4243     12.0294
  2303.6000      8.1320      2.6373      0.0972      0.7699     56.3769     12.4918
  2303.7000      8.1320      2.6281      0.1845      1.3284     60.3527     12.0523
  2303.8000      8.1239      2.6142      0.1148      2.1674     59.4772     11.1960
  2303.9000      8.1239      2.6039      0.0845      2.7915     54.0016     10.5340
  2304.0000      8.1074      2.6120      0.0553      2.3019     50.5206     10.2077
  2304.1000      8.1074      2.6370      0.1210      0.7889     51.6408      9.7981
  2304.2000      8.1074      2.6536      0.1737     -0.2174     55.2711      9.3401
  2304.3000      8.0932      2.6441      0.1074      0.3601     58.0341      9.3658
  2304.4000      8.0932      2.6211      0.0820      1.7505     58.9235      9.7684
  2304.5000      8.1276      2.5963      0.1114      3.2536     58.2261     10.3144
  2304.6000      8.1276      2.5717      0.0770      4.7464     58.4484     11.0186
  2304.7000      8.1276      2.5554      0.0794      5.7355     60.6162     11.4988
  2304.8000      8.1258      2.5553      0.0539      5.7375     62.7217     11.2471
  2304.9000      8.1258      2.5729      0.0298      4.6710     64.8994     10.4730
  2305.0000      8.1209      2.5942      0.1354      3.3801     66.5724     10.0190
  2305.1000      8.1209      2.5963      0.1315      3.2546     66.2787     10.3167
  2305.2000      8.1209      2.5807      0.0920      4.2028     63.7463     10.9214
  2305.3000      8.1291      2.5670      0.0618      5.0299     60.1594     11.1191
  2305.4000      8.1291      2.5566      0.1186      5.6618     58.5170     10.7316
  2305.5000      8.1328      2.5380      0.0729      6.7908     61.3435     10.3356
  2305.6000      8.1328      2.5228      0.0362      7.7102     65.9987     10.4567
  2305.7000      8.1328      2.5361      0.0408      6.9058     66.9664     10.7762
  2305.8000      8.1511      2.5775      0.0720      4.3957     63.4027     10.7377
  2305.9000      8.1511      2.6174      0.1503      1.9745     59.1320     10.3988
  2306.0000      8.1887      2.6234      0.1812      1.6148     58.7436     10.0513
  2306.1000      8.1887      2.5964      0.0764      3.2472     60.8260      9.8960
