~Version Information
VERS.                      2.0: CWLS Log ASCII Standard - VERSION 2.0
WRAP.                       NO: One line per depth step
~Well Information Block
STRT.FT                17.7500: 
STOP.FT              1139.0000: 
STEP.FT                 0.2500: 
NULL.                -999.2500: 
COMP.          El Paso E&P Company L.P.: COMPANY
WELL.              VPR "ST" 38: WELL
FLD.           Purgatorie River: FIELD
LOC.           687' FNL & 2121' FEL: LOCATION
CNTY.               Las Animas: COUNTY
SRVC.          Superior Well Services: SERVICE COMPANY
DATE.          Sat Oct 13 22-40-21 2007: LOG DATE
UWI.           05-071-08357-00: UNIQUE WELL ID
STAT.                       CO: STATE
~Curve Information Block
DEPT.FT            0 000 00 00: Depth
CCL.                          : Casing Collar Locator
TT3.usec                      : CBL 3' Travel Time
AMP3.mV                       : CBL 3' Amplitude
GR.GAPI                       : Gamma Ray
~Parameter Information Block
~A  Depth       CCL         TT3         AMP3         GR     
# ...
   151.7500      0.0000    838.5772      4.5539     54.5053
   152.0000      0.0000    820.0003      4.4977     53.9410
   152.2500      0.0000    792.3076      4.4111     54.3759
   152.5000      0.0000    764.5090      4.3206     55.0494
   152.7500      0.0000    746.8129      4.2375     55.5058
   153.0000      0.0000    745.0761      4.1563     55.0114
   153.2500      0.0000    760.1632      4.0648     53.3653
   153.5000      0.0000    789.1649      3.9539     52.3046
   153.7500      0.0000    826.0475      3.8249     51.7995
   154.0000      0.0000    862.1307      3.6918     52.4492
   154.2500      0.0000    887.4905      3.5744     54.9078
   154.5000      0.0000    894.4804      3.4846     57.4485
   154.7500      0.0000    882.4002      3.4203     62.2494
   155.0000      0.0000    858.1003      3.3696     65.6898
   155.2500      0.0000    830.5667      3.3204     70.3715
   155.5000      0.0000    805.8222      3.2726     72.9274
   155.7500      0.0000    787.1733      3.2458     76.1291
   156.0000      0.0000    777.2730      3.2743     78.1189
   156.2500      0.0000    777.2528      3.3870     80.8571
   156.5000      0.0000    784.6938      3.5878     81.9715
   156.7500      0.0000    795.5549      3.8516     81.3822
   157.0000      0.0000    809.8408      4.1346     79.4848
   157.2500      0.0000    833.7007      4.3935     76.1276
   157.5000      0.0000    872.0042      4.6042     74.7208
   157.7500      0.0000    917.3234      4.7631     73.9975
   158.0000      0.0000    949.4452      4.8720     73.3356
   158.2500      0.0000    950.4102      4.9244     70.0769
   158.5000      0.0000    920.0958      4.9094     66.3191
   158.7500      0.0000    874.4133      4.8223     60.5365
   159.0000      0.0000    830.1967      4.6705     58.4871
   159.2500      0.0000    795.6118      4.4703     60.0364
   159.5000      0.0000    772.1405      4.2417     63.5082
   159.7500      0.0000    759.3399      4.0047     68.6541
   160.0000      0.0000    756.0171      3.7806     69.9707
   160.2500      0.0000    759.7913      3.5923     68.3999
   160.5000      0.0000    767.6720      3.4593     66.5332
   160.7500      0.0000    776.6766      3.3891     65.2236
   161.0000      0.0000    783.3446      3.3733     65.7001
   161.2500      0.0000    783.9422      3.3944     67.2275
   161.5000      0.0000    777.3427      3.4384     67.9618
   161.7500      0.0000    767.7299      3.5061     68.1219
   162.0000      0.0000    761.4544      3.6129     67.6924
   162.2500      0.0000    759.5367      3.7670     66.2840
   162.5000      0.0000    755.4189      3.9399     64.6173
   162.7500      0.0000    742.2441      4.0709     60.8136
   163.0000      0.0000    721.2159      4.1157     57.8775
   163.2500      0.0000    701.7980      4.0855     54.6208
   163.5000      0.0000    695.0148      4.0289     53.9586
   163.7500     -2.0000    706.6549      3.9859     54.9723
   164.0000      2.0000    734.0076      3.9697     56.4729
   164.2500      2.0000    767.1838      3.9762     59.6688
   164.5000     -2.0000    794.6800      3.9979     62.1943
   164.7500      0.0000    809.4987      4.0287     64.7926
   165.0000      0.0000    811.4695      4.0574     64.3725
   165.2500      0.0000    805.7470      4.0548     59.9368
   165.5000      0.0000    799.9866      3.9868     55.5290
   165.7500      0.0000    801.2165      3.8553     49.4296
   166.0000      0.0000    812.1027      3.7135     46.7096
   166.2500      0.0000    827.7206      3.6191     44.9448
   166.5000      0.0000    836.7787      3.5831     45.0810
   166.7500      0.0000    829.5170      3.5750     46.9962
   167.0000      0.0000    806.0768      3.5635     49.4093
   167.2500      0.0000    776.3195      3.5387     54.6059
   167.5000      0.0000    751.9933      3.5056     58.8590
   167.7500      0.0000    740.8060      3.4725     65.8868
   168.0000      0.0000    746.4906      3.4486     70.7172
   168.2500      0.0000    769.8199      3.4431     77.3843
   168.5000      0.0000    806.6271      3.4616     80.6928
   168.7500      0.0000    846.7071      3.5007     83.1638
   169.0000      0.0000    878.8185      3.5448     83.6875
   169.2500      0.0000    897.7206      3.5699     84.8312
   169.5000      0.0000    904.3359      3.5621     86.3434
   169.7500      0.0000    900.5557      3.5335     88.2623
   170.0000      0.0000    888.6146      3.5118     87.9882
   170.2500      0.0000    874.6203      3.5128     84.6205
   170.5000      0.0000    865.9827      3.5298     81.2576
   170.7500      0.0000    863.3977      3.5505     76.6140
   171.0000      0.0000    859.9697      3.5749     74.5300
   171.2500      0.0000    849.9504      3.6135     73.2169
   171.5000      0.0000    834.8593      3.6721     73.5134
   171.7500      0.0000    819.5875      3.7443     75.5064
   172.0000      0.0000    806.2749      3.8205     77.5038
   172.2500      0.0000    794.7468      3.8977     80.4906
   172.5000      0.0000    785.8547      3.9781     81.8954
   172.7500      0.0000    780.8719      4.0597     82.5656
   173.0000      0.0000    779.2692      4.1304     82.1280
   173.2500      0.0000    779.6923      4.1763     80.9056
   173.5000      0.0000    782.0777      4.1936     80.2793
   173.7500      0.0000    787.1322      4.1970     80.2049
   174.0000      0.0000    794.5958      4.2135     80.6655
   174.2500      0.0000    802.9463      4.2658     81.3948
   174.5000      0.0000    810.0470      4.3564     81.4429
   174.7500      0.0000    813.9222      4.4646     80.9154
   175.0000      0.0000    814.1926      4.5595     80.8717
   175.2500      0.0000    812.3955      4.6201     82.7670
   175.5000      0.0000    809.8539      4.6453     85.6410
   175.7500      0.0000    806.8598      4.6457     91.4487
   176.0000      0.0000    805.4744      4.6269     95.2666
   176.2500      0.0000    810.2388      4.5858     99.2803
   176.5000      0.0000    822.4801      4.5230    100.4280
   176.7500      0.0000    835.3697      4.4552    100.1597
   177.0000      0.0000    839.0549      4.4099     98.8792
   177.2500      0.0000    831.4096      4.4086     95.1808
   177.5000      0.0000    820.7783      4.4556     91.5644
   177.7500      0.0000    817.2925      4.5400     85.4180
   178.0000      0.0000    823.5855      4.6423     81.7192
   178.2500      0.0000    834.4616      4.7397     77.9897
   178.5000      0.0000    843.2509      4.8125     77.1217
   178.7500      0.0000    847.0950      4.8573     78.2607
   179.0000      0.0000    847.3335      4.8965     80.1852
   179.2500      0.0000    846.5646      4.9682     83.6279
   179.5000      0.0000    846.0552      5.0989     85.6947
   179.7500      0.0000    845.9427      5.2833     87.7590
   180.0000      0.0000    846.5772      5.4879     88.2860
   180.2500      0.0000    848.2333      5.6699     88.0604
   180.5000      0.0000    849.7433      5.7940     87.5616
   180.7500      0.0000    848.9421      5.8432     86.7023
   181.0000      0.0000    845.5583      5.8248     86.1409
   181.2500      0.0000    843.3769      5.7622     85.4044
   181.5000      0.0000    848.2792      5.6752     84.9735
   181.7500      0.0000    863.6710      5.5702     84.0854
   182.0000      0.0000    887.2994      5.4474     83.1408
   182.2500      0.0000    910.4765      5.3075     81.5489
   182.5000      0.0000    920.2112      5.1535     80.8876
   182.7500      0.0000    906.2995      4.9949     80.7917
   183.0000      0.0000    869.8391      4.8458     80.8456
   183.2500      0.0000    823.9401      4.7126     80.0039
   183.5000      0.0000    784.2935      4.5889     78.7923
   183.7500      0.0000    759.5176      4.4659     77.4674
   184.0000      0.0000    750.1651      4.3426     78.0289
   184.2500      0.0000    753.1272      4.2239     81.5417
   184.5000      0.0000    763.2576      4.1168     84.7518
   184.7500      0.0000    772.5993      4.0269     88.3509
   185.0000      0.0000    773.3960      3.9528     88.7800
