~Version Information
VERS.                      2.0: CWLS Log ASCII Standard - VERSION 2.0
WRAP.                       NO: One line per depth step
~Well Information Block
STRT.FT               858.7000: 
STOP.FT              2478.2000: 
STEP.FT                 0.1000: 
NULL.                -999.2500: 
COMP.          Petrogulf Corporation: COMPANY
WELL.           Torcom 17-33 V: WELL
FLD.           Purgatoire River: FIELD
LOC.           1544' FSL & 1746' FEL: LOCATION
PROV.                 Colorado: PROVINCE
CNTY.               Las Animas: COUNTRY
SRVC.                Patterson: SERVICE COMPANY
DATE.          Wed Dec 03 09:22:08 2003: LOG DATE
UWI.                          : UNIQUE WELL ID
~Curve Information Block
DEPT.FT            0 000 00 00: Depth
DCAL.in                       : CDL Caliper
RHOB.g/cc                     : CDL Bulk Density
RHOC.g/cc                     : CDL Density Correction
DPOR.pu                       : CDL Density Porosity
GR.GAPI                       : Gamma Ray
NPOR.pu                       : Neutron Porosity
~Parameter Information Block
~A  Depth       DCAL        RHOB        RHOC        DPOR         GR         NPOR    
# ...
  1933.9000      8.1564      2.5806      0.0774      4.2072     82.8202     19.0042
  1934.0000      8.1551      2.6101      0.0927      2.4161     83.5695     18.1220
  1934.1000      8.1551      2.6238      0.1110      1.5871     79.6294     17.1638
  1934.2000      8.1551      2.6188      0.1038      1.8921     74.2900     17.0092
  1934.3000      8.1444      2.6062      0.0551      2.6529     71.8303     17.7493
  1934.4000      8.1444      2.6031      0.0502      2.8404     71.6844     18.6447
  1934.5000      8.1261      2.6057      0.1459      2.6865     72.7556     19.3570
  1934.6000      8.1261      2.5941      0.0666      3.3860     74.6991     19.8523
  1934.7000      8.1261      2.5672      0.0508      5.0208     79.2227     19.9125
  1934.8000      8.1249      2.5368      0.0352      6.8587     86.3655     19.3115
  1934.9000      8.1249      2.5127      0.0383      8.3184     91.2564     18.4146
  1935.0000      8.1203      2.5016      0.0366      8.9941     90.1424     17.9715
  1935.1000      8.1203      2.5046      0.0266      8.8132     83.2419     18.0434
  1935.2000      8.1203      2.5158      0.0723      8.1343     75.4062     18.0440
  1935.3000      8.1184      2.5321      0.0006      7.1462     70.9075     17.6724
  1935.4000      8.1184      2.5530      0.0777      5.8772     69.9373     17.1749
  1935.5000      8.1327      2.5679      0.1027      4.9757     71.6751     17.0156
  1935.6000      8.1327      2.5687      0.0991      4.9287     73.9951     17.2394
  1935.7000      8.1327      2.5591      0.0863      5.5107     73.4322     17.3867
  1935.8000      8.1193      2.5481      0.0870      6.1760     71.3571     17.1959
  1935.9000      8.1193      2.5448      0.0643      6.3780     72.5271     16.9566
  1936.0000      8.1031      2.5498      0.1076      6.0709     74.7735     16.9930
  1936.1000      8.1031      2.5541      0.1189      5.8106     76.0817     17.0832
  1936.2000      8.1031      2.5557      0.1268      5.7136     79.8842     16.9414
  1936.3000      8.0892      2.5606      0.1080      5.4195     84.7212     16.6616
  1936.4000      8.0892      2.5704      0.1146      4.8262     84.3441     16.3220
  1936.5000      8.1050      2.5834      0.1755      4.0368     77.9162     15.8566
  1936.6000      8.1050      2.5956      0.1532      3.2994     73.9469     15.1981
  1936.7000      8.1050      2.5936      0.1621      3.4192     78.5654     14.7209
  1936.8000      8.1001      2.5763      0.0387      4.4693     84.4228     14.7302
  1936.9000      8.1001      2.5726      0.0555      4.6928     82.4208     14.9440
  1937.0000      8.1221      2.5926      0.0941      3.4800     76.3834     14.8858
  1937.1000      8.1221      2.6086      0.1340      2.5105     74.1833     14.4003
  1937.2000      8.1221      2.6060      0.0750      2.6656     72.1553     13.9752
  1937.3000      8.1351      2.6020      0.0867      2.9092     63.5009     14.1066
  1937.4000      8.1351      2.5991      0.1343      3.0842     55.1559     14.4484
  1937.5000      8.1307      2.5863      0.0679      3.8608     55.6380     14.5789
  1937.6000      8.1307      2.5706      0.0679      4.8147     61.6947     14.8634
  1937.7000      8.1307      2.5526      0.0721      5.9020     68.0914     15.3087
  1937.8000      8.1614      2.5194      0.1046      7.9163     73.9782     15.5397
  1937.9000      8.1614      2.4857     -0.0161      9.9567     77.4382     15.4235
  1938.0000      8.1977      2.4824     -0.0324     10.1569     76.3116     15.0009
  1938.1000      8.1977      2.4988      0.0438      9.1640     72.2621     14.4840
  1938.2000      8.1977      2.5086      0.1133      8.5705     70.1197     14.1054
  1938.3000      8.1703      2.5232      0.0246      7.6850     68.8683     14.1672
  1938.4000      8.1703      2.5551      0.1160      5.7537     64.1675     14.6790
  1938.5000      8.1464      2.5884      0.1069      3.7341     59.8091     15.2925
  1938.6000      8.1464      2.6136      0.1629      2.2031     60.1354     15.8397
  1938.7000      8.1464      2.6340      0.1704      0.9727     61.2065     16.5062
  1938.8000      8.0952      2.6535      0.1863     -0.2121     60.2179     17.2324
  1938.9000      8.0952      2.6651      0.2444     -0.9131     60.7773     17.4430
  1939.0000      8.0894      2.6652      0.1605     -0.9216     61.9320     16.9922
  1939.1000      8.0894      2.6624      0.1651     -0.7501     58.7581     16.3975
  1939.2000      8.0894      2.6478      0.1586      0.1309     54.0037     16.0005
  1939.3000      8.1195      2.6134      0.1245      2.2210     50.1342     15.8433
  1939.4000      8.1195      2.5819      0.0360      4.1264     45.1118     15.5794
  1939.5000      8.1172      2.5786      0.1093      4.3286     41.3721     14.7398
  1939.6000      8.1172      2.5961      0.1067      3.2679     41.6659     13.8073
  1939.7000      8.1172      2.6061      0.1704      2.6577     44.7518     13.6877
  1939.8000      8.1158      2.5970      0.0796      3.2144     48.1368     14.1512
  1939.9000      8.1158      2.5841      0.0837      3.9950     51.8048     14.3302
  1940.0000      8.1358      2.5798      0.0650      4.2553     55.1334     14.2433
  1940.1000      8.1358      2.5805      0.1434      4.2122     54.5784     14.3566
  1940.2000      8.1358      2.5746      0.1074      4.5724     50.6807     14.5621
  1940.3000      8.1274      2.5615      0.1066      5.3617     46.9628     14.4564
  1940.4000      8.1274      2.5587      0.0614      5.5313     45.4133     14.2920
  1940.5000      8.1170      2.5816      0.0610      4.1472     45.7918     14.7767
  1940.6000      8.1170      2.6162      0.1544      2.0510     46.5596     15.8579
  1940.7000      8.1170      2.6279      0.1950      1.3379     48.2785     16.6876
  1940.8000      8.0982      2.6102      0.2014      2.4151     51.7325     16.8217
  1940.9000      8.0982      2.5866      0.0824      3.8441     55.5623     16.7639
  1941.0000      8.1149      2.5755      0.1061      4.5152     57.8752     16.7230
  1941.1000      8.1149      2.5765      0.0637      4.4551     56.9757     16.1952
  1941.2000      8.1149      2.5842      0.1104      3.9854     54.2978     15.1890
  1941.3000      8.0961      2.5967      0.0820      3.2319     54.0503     14.5416
  1941.4000      8.0961      2.6105      0.1227      2.3914     56.7889     14.4377
  1941.5000      8.0610      2.6165      0.1313      2.0277     57.1276     14.0704
  1941.6000      8.0610      2.6201      0.0712      1.8127     53.6852     13.3621
  1941.7000      8.0610      2.6261      0.1285      1.4455     53.8024     13.1256
  1941.8000      8.0983      2.6127      0.1271      2.2624     58.5071     13.7785
  1941.9000      8.0983      2.5863      0.0361      3.8632     61.0103     14.5700
  1942.0000      8.1171      2.5847      0.0742      3.9567     60.4883     14.5591
  1942.1000      8.1171      2.6095      0.1029      2.4542     58.7374     14.1044
  1942.2000      8.1171      2.6252      0.1410      1.5043     54.0540     14.0731
  1942.3000      8.1343      2.6092      0.1315      2.4714     48.5247     14.3959
  1942.4000      8.1343      2.5877     -0.0024      3.7782     46.3998     14.4836
  1942.5000      8.1038      2.5931      0.1208      3.4456     47.9607     14.0690
  1942.6000      8.1038      2.6043      0.1547      2.7670     51.3447     13.4339
  1942.7000      8.1038      2.5929      0.0593      3.4588     53.1257     13.0026
  1942.8000      8.1361      2.5708      0.0678      4.7995     53.1894     12.6312
  1942.9000      8.1361      2.5504      0.0727      6.0366     53.7490     12.2649
  1943.0000      8.1375      2.5254      0.0365      7.5508     53.5834     12.5402
  1943.1000      8.1375      2.4994      0.0175      9.1280     51.2268     13.7607
  1943.2000      8.1375      2.4895     -0.0206      9.7254     49.3906     15.1774
  1943.3000      8.1180      2.4940      0.0761      9.4539     50.9023     16.2268
  1943.4000      8.1180      2.4966     -0.0308      9.2983     52.8717     17.2483
