~Version Information
VERS.                      2.0: CWLS Log ASCII Standard - VERSION 2.0
WRAP.                       NO: One line per depth step
~Well Information Block
STRT.FT               460.5000: 
STOP.FT              2197.0000: 
STEP.FT                 0.2500: 
NULL.                -999.2500: 
COMP.          Petrogulf Corporation: COMPANY
WELL.              Silva 1-43R: WELL
FLD.           Purgatorie River: FIELD
LOC.           1971' FSL & 526' FEL: LOCATION
CNTY.               Las Animas: COUNTY
SRVC.                Patterson: SERVICE COMPANY
DATE.          Sun Jun 18 03:37:26 2006: LOG DATE
UWI.           05 071 08372 00: UNIQUE WELL ID
STAT.                 Colorado: STATE
~Curve Information Block
DEPT.FT            0 000 00 00: Depth
SN.Ohm-m                      : IEL Short Normal
SP.mV                         : IEL Spontaneous Potential
DIR.Ohm-m                     : IEL Induction Resistivity
GR.GAPI                       : Gamma Ray
~Parameter Information Block
~A  Depth        SN          SP         DIR          GR     
# ...
   929.5000   2000.0000   2000.0000     16.6560    140.6350
   929.7500   2000.0000   2000.0000     16.7270    142.6436
   930.0000   2000.0000   2000.0000     16.7501    146.2006
   930.2500   2000.0000   2000.0000     16.7228    148.3579
   930.5000   2000.0000   2000.0000     16.6571    150.7403
   930.7500   2000.0000   2000.0000     16.5675    151.7611
   931.0000   2000.0000   2000.0000     16.4577    152.8796
   931.2500   2000.0000   2000.0000     16.3179    153.6919
   931.5000   2000.0000   2000.0000     16.1354    155.2306
   931.7500   2000.0000   2000.0000     15.9074    156.3582
   932.0000   2000.0000   2000.0000     15.6440    158.1125
   932.2500   2000.0000   2000.0000     15.3627    159.3719
   932.5000   2000.0000   2000.0000     15.0803    160.9009
   932.7500   2000.0000   2000.0000     14.8106    160.8874
   933.0000   2000.0000   2000.0000     14.5694    158.0664
   933.2500   2000.0000   2000.0000     14.3806    154.2871
   933.5000   2000.0000   2000.0000     14.2751    146.9344
   933.7500   2000.0000   2000.0000     14.2780    141.7956
   934.0000   2000.0000   2000.0000     14.3933    134.8645
   934.2500   2000.0000   2000.0000     14.5951    131.1083
   934.5000   2000.0000   2000.0000     14.8365    126.8557
   934.7500   2000.0000   2000.0000     15.0721    124.6563
   935.0000   2000.0000   2000.0000     15.2779    121.3137
   935.2500   2000.0000   2000.0000     15.4570    118.4827
   935.5000   2000.0000   2000.0000     15.6285    113.2758
   935.7500   2000.0000   2000.0000     15.8145    109.8537
   936.0000   2000.0000   2000.0000     16.0326    106.3847
   936.2500   2000.0000   2000.0000     16.2946    105.7334
   936.5000   2000.0000   2000.0000     16.6063    107.2661
   936.7500   2000.0000   2000.0000     16.9665    109.6796
   937.0000   2000.0000   2000.0000     17.3679    114.6062
   937.2500   2000.0000   2000.0000     17.7983    118.0949
   937.5000   2000.0000   2000.0000     18.2476    122.4555
   937.7500   2000.0000   2000.0000     18.7138    124.3315
   938.0000   2000.0000   2000.0000     19.2033    125.0989
   938.2500   2000.0000   2000.0000     19.7238    123.9085
   938.5000   2000.0000   2000.0000     20.2731    119.2692
   938.7500   2000.0000   2000.0000     20.8370    114.7028
   939.0000   2000.0000   2000.0000     21.3971    107.3879
   939.2500   2000.0000   2000.0000     21.9427    103.2170
   939.5000   2000.0000   2000.0000     22.4782     98.7047
   939.7500   2000.0000   2000.0000     23.0194     96.5947
   940.0000   2000.0000   2000.0000     23.5860     93.9054
   940.2500   2000.0000   2000.0000     24.1942     92.1282
   940.5000   2000.0000   2000.0000     24.8548     89.6458
   940.7500   2000.0000   2000.0000     25.5772     88.4090
   941.0000   2000.0000   2000.0000     26.3710     87.4924
   941.2500   2000.0000   2000.0000     27.2387     87.4501
   941.5000   2000.0000   2000.0000     28.1587     87.9005
   941.7500   2000.0000   2000.0000     29.0689     88.3291
   942.0000   2000.0000   2000.0000     29.8632     88.8626
   942.2500   2000.0000   2000.0000     30.4179     89.0629
   942.5000   2000.0000   2000.0000     30.6421     89.2758
   942.7500   2000.0000   2000.0000     30.5250     89.5366
   943.0000   2000.0000   2000.0000     30.1400     90.2694
   943.2500   2000.0000   2000.0000     29.6023     90.9903
   943.5000   2000.0000   2000.0000     29.0232     92.5291
   943.7500   2000.0000   2000.0000     28.4867     94.0012
   944.0000   2000.0000   2000.0000     28.0456     96.9172
   944.2500   2000.0000   2000.0000     27.7224     99.0167
   944.5000   2000.0000   2000.0000     27.5179    101.2560
   944.7500   2000.0000   2000.0000     27.4283    101.4798
   945.0000   2000.0000   2000.0000     27.4611     99.6491
   945.2500   2000.0000   2000.0000     27.6311     97.4613
   945.5000   2000.0000   2000.0000     27.9363     93.9457
   945.7500   2000.0000   2000.0000     28.3377     91.9728
   946.0000   2000.0000   2000.0000     28.7638     89.9756
   946.2500   2000.0000   2000.0000     29.1329     89.3341
   946.5000   2000.0000   2000.0000     29.3761     89.2754
   946.7500   2000.0000   2000.0000     29.4623     89.6278
   947.0000   2000.0000   2000.0000     29.4237     90.2961
   947.2500   2000.0000   2000.0000     29.3587     90.7229
   947.5000   2000.0000   2000.0000     29.3858     91.6708
   947.7500   2000.0000   2000.0000     29.5744     92.8261
   948.0000   2000.0000   2000.0000     29.9095     95.2902
   948.2500   2000.0000   2000.0000     30.3172     96.9122
   948.5000   2000.0000   2000.0000     30.7282     98.4073
   948.7500   2000.0000   2000.0000     31.1211     98.6600
   949.0000   2000.0000   2000.0000     31.5187     98.3083
   949.2500   2000.0000   2000.0000     31.9563     97.8232
   949.5000   2000.0000   2000.0000     32.4551     96.8234
   949.7500   2000.0000   2000.0000     33.0116     95.8970
   950.0000   2000.0000   2000.0000     33.6014     94.0429
   950.2500   2000.0000   2000.0000     34.1952     92.6814
   950.5000   2000.0000   2000.0000     34.7826     91.1061
   950.7500   2000.0000   2000.0000     35.3901     90.6253
   951.0000   2000.0000   2000.0000     36.0697     90.4746
   951.2500   2000.0000   2000.0000     36.8618     90.2873
   951.5000   2000.0000   2000.0000     37.7594     89.2496
   951.7500   2000.0000   2000.0000     38.7099     87.9906
   952.0000   2000.0000   2000.0000     39.6578     85.3977
   952.2500   2000.0000   2000.0000     40.5931     83.2031
   952.5000   2000.0000   2000.0000     41.5606     79.1072
   952.7500   2000.0000   2000.0000     42.6247     75.9855
   953.0000   2000.0000   2000.0000     43.8222     71.6232
   953.2500   2000.0000   2000.0000     45.1337     69.5890
   953.5000   2000.0000   2000.0000     46.4849     68.2732
   953.7500   2000.0000   2000.0000     47.7631     68.1894
   954.0000   2000.0000   2000.0000     48.8445     68.2385
   954.2500   2000.0000   2000.0000     49.6171     68.0659
   954.5000   2000.0000   2000.0000     49.9852     67.6892
   954.7500   2000.0000   2000.0000     49.8554     67.6421
   955.0000   2000.0000   2000.0000     49.1273     67.9490
   955.2500   2000.0000   2000.0000     47.7262     68.0897
   955.5000   2000.0000   2000.0000     45.6594     67.6755
   955.7500   2000.0000   2000.0000     43.0508     67.1516
   956.0000   2000.0000   2000.0000     40.1205     67.1883
   956.2500   2000.0000   2000.0000     37.1320     68.5602
   956.5000   2000.0000   2000.0000     34.3295     73.4560
   956.7500   2000.0000   2000.0000     31.8806     78.6566
   957.0000   2000.0000   2000.0000     29.8459     88.6332
   957.2500   2000.0000   2000.0000     28.1917     95.8350
   957.5000   2000.0000   2000.0000     26.8379    105.7407
   957.7500   2000.0000   2000.0000     25.7091    111.1941
   958.0000   2000.0000   2000.0000     24.7573    117.7266
   958.2500   2000.0000   2000.0000     23.9484    121.1890
   958.5000   2000.0000   2000.0000     23.2378    125.0154
   958.7500   2000.0000   2000.0000     22.5640    126.4230
   959.0000   2000.0000   2000.0000     21.8727    126.1615
   959.2500   2000.0000   2000.0000     21.1498    123.9453
   959.5000   2000.0000   2000.0000     20.4364    117.5217
   959.7500   2000.0000   2000.0000     19.8075    112.1626
   960.0000   2000.0000   2000.0000     19.3321    105.5313
   960.2500   2000.0000   2000.0000     19.0428    103.4893
   960.5000   2000.0000   2000.0000     18.9288    104.3179
   960.7500   2000.0000   2000.0000     18.9522    106.6235
   961.0000   2000.0000   2000.0000     19.0710    111.0829
   961.2500   2000.0000   2000.0000     19.2539    114.1500
   961.5000   2000.0000   2000.0000     19.4742    118.2840
   961.7500   2000.0000   2000.0000     19.6948    120.3936
   962.0000   2000.0000   2000.0000     19.8669    122.1103
   962.2500   2000.0000   2000.0000     19.9477    122.1553
   962.5000   2000.0000   2000.0000     19.9213    120.7853
   962.7500   2000.0000   2000.0000     19.7985    119.4676
