~Version Information
VERS.                      2.0: CWLS Log ASCII Standard - VERSION 2.0
WRAP.                       NO: One line per depth step
~Well Information Block
STRT.FT                -2.5000: 
STOP.FT              2329.5000: 
STEP.FT                 0.2500: 
NULL.                -999.2500: 
COMP.          Pioneer Natural Resources: COMPANY
WELL.              Whinny 42-2: WELL
FLD.           Purgatorie River: FIELD
LOC.           1836' FNL & 466' FEL--: LOCATION
PROV.                       CO: PROVINCE
CNTY.               Las Animas: COUNTRY
SRVC.          Patterson Wireline: SERVICE COMPANY
DATE.          Mon Aug 29 13:18:04 2005: LOG DATE
UWI.           05 071 08406 00: UNIQUE WELL ID
~Curve Information Block
DEPT.FT            0 000 00 00: Depth
CCL.                          : Casing Collar Locator
TT3.usec                      : CBL 3' Travel Time
AMP3.mV                       : CBL 3' Amplitude
GR.GAPI                       : Gamma Ray
~Parameter Information Block
~A  Depth       CCL         TT3         AMP3         GR     
# ...
  1069.5000      0.0000    752.1054      6.3685    110.1110
  1069.7500      0.0000    754.2653      6.3666    104.2338
  1070.0000      0.0000    755.1011      6.3680    101.1082
  1070.2500      0.0000    755.0764      6.3869    100.9311
  1070.5000      0.0000    754.3475      6.4235    102.6183
  1070.7500      0.0000    753.7645      6.4750    104.4282
  1071.0000      0.0000    754.1445      6.5371    104.7942
  1071.2500      0.0000    754.5438      6.6037    103.5599
  1071.5000      0.0000    752.3398      6.6681    102.6567
  1071.7500      0.0000    745.7832      6.7252    104.9714
  1072.0000      0.0000    736.0114      6.7680    112.0823
  1072.2500      0.0000    725.8176      6.7867    122.6868
  1072.5000      0.0000    716.9095      6.7745    133.0242
  1072.7500      0.0000    709.1184      6.7338    139.3445
  1073.0000      0.0000    701.6807      6.6751    140.5619
  1073.2500      0.0000    694.3080      6.6088    138.5009
  1073.5000      0.0000    687.1936      6.5389    135.6814
  1073.7500      0.0000    680.7812      6.4640    133.3408
  1074.0000      0.0000    675.6741      6.3834    131.3810
  1074.2500      0.0000    672.4532      6.3014    129.2900
  1074.5000      0.0000    671.6207      6.2260    126.8363
  1074.7500      0.0000    674.0906      6.1636    124.4287
  1075.0000      0.0000    681.5703      6.1144    122.9999
  1075.2500      0.0000    695.5512      6.0683    123.0318
  1075.5000      0.0000    714.8326      6.0093    123.7173
  1075.7500      0.0000    734.0865      5.9282    123.6795
  1076.0000      0.0000    746.2897      5.8316    122.2787
  1076.2500      0.0000    747.8252      5.7363    119.5270
  1076.5000      0.0000    741.2857      5.6539    115.2173
  1076.7500      0.0000    733.0672      5.5839    109.2874
  1077.0000      0.0000    728.4056      5.5205    103.1153
  1077.2500      0.0000    728.5377      5.4616     99.4157
  1077.5000      0.0000    731.8235      5.4116    100.1835
  1077.7500      0.0000    736.8977      5.3733    104.8184
  1078.0000      0.0000    744.2804      5.3427    110.2868
  1078.2500      0.0000    754.5375      5.3137    113.0304
  1078.5000      0.0000    765.5309      5.2909    111.0126
  1078.7500      0.0000    773.2303      5.2914    104.5709
  1079.0000      0.0000    775.7239      5.3290     96.0430
  1079.2500      0.0000    774.8858      5.3970     88.7457
  1079.5000      0.0000    773.3484      5.4734     85.4907
  1079.7500      0.0000    771.4240      5.5408     86.9700
  1080.0000      0.0000    768.1160      5.6002     91.3345
  1080.2500      0.0000    763.7235      5.6655     95.9074
  1080.5000      0.0000    759.7491      5.7503     99.5719
  1080.7500      0.0000    756.5928      5.8603    103.3940
  1081.0000      0.0000    752.6979      5.9940    109.0333
  1081.2500      0.0000    746.3070      6.1447    116.8042
  1081.5000      0.0000    737.3763      6.3042    125.3278
  1081.7500      0.0000    727.3607      6.4673    132.6810
  1082.0000      0.0000    717.5137      6.6347    137.1762
  1082.2500      0.0000    707.9012      6.8071    137.2333
  1082.5000      0.0000    698.1291      6.9787    131.9056
  1082.7500      0.0000    688.5974      7.1357    122.4021
  1083.0000      0.0000    680.6040      7.2625    112.4138
  1083.2500      0.0000    675.3134      7.3456    105.9931
  1083.5000      0.0000    673.0838      7.3753    104.9225
  1083.7500      0.0000    673.9368      7.3453    108.0367
  1084.0000      0.0000    678.3194      7.2519    112.4737
  1084.2500      0.0000    686.8354      7.0992    115.2731
  1084.5000      0.0000    698.8354      6.9060    114.5477
  1084.7500      0.0000    711.4566      6.7067    110.3346
  1085.0000      0.0000    720.8122      6.5409    104.6521
  1085.2500      0.0000    724.7037      6.4391    100.1401
  1085.5000      0.0000    724.1906      6.4120     98.2390
  1085.7500      0.0000    722.6158      6.4497     98.7706
  1086.0000      0.0000    723.3217      6.5290    101.1335
  1086.2500      0.0000    727.8160      6.6193    105.2370
  1086.5000      0.0000    735.0479      6.6815    110.9367
  1086.7500      0.0000    741.7524      6.6725    117.2551
  1087.0000      0.0000    743.9497      6.5792    123.0096
  1087.2500      0.0000    739.7501      6.4625    127.9974
  1087.5000      0.0000    732.4465      6.4323    132.7892
  1087.7500      0.0000    730.3221      6.5338    137.3178
  1088.0000      0.0000    740.5195      6.6823    140.3331
  1088.2500      0.0000    761.8682      6.7592    140.4906
  1088.5000      0.0000    785.1576      6.7422    137.7807
  1088.7500      0.0000    800.7459      6.6921    133.8961
  1089.0000      0.0000    804.8859      6.6488    131.1994
  1089.2500      2.0000    799.9286      6.5993    131.0110
  1089.5000      0.0000    790.9426      6.5264    132.8181
  1089.7500      0.0000    782.0040      6.4583    135.2741
  1090.0000      0.0000    773.5782      6.4778    137.4489
  1090.2500      0.0000    763.1331      6.6759    138.5199
  1090.5000      0.0000    749.0950      7.0560    137.1129
  1090.7500      0.0000    733.5475      7.4926    132.3305
  1091.0000      0.0000    720.2516      7.8296    125.2151
  1091.2500      0.0000    710.7772      8.0129    118.2701
  1091.5000      0.0000    703.4904      8.1044    113.6453
  1091.7500      0.0000    696.0175      8.1990    112.1197
  1092.0000      0.0000    687.8549      8.3546    113.2907
  1092.2500      0.0000    680.4090      8.5645    116.0656
  1092.5000      0.0000    675.1659      8.7651    119.1303
  1092.7500      0.0000    672.4334      8.8819    121.6791
  1093.0000      0.0000    671.6274      8.8834    124.0363
  1093.2500      0.0000    672.1787      8.7900    127.0349
  1093.5000      0.0000    673.8978      8.6352    130.4957
  1093.7500      0.0000    676.6458      8.4343    133.0254
  1094.0000      0.0000    679.9599      8.1919    133.8095
  1094.2500      0.0000    683.5326      7.9286    133.7927
  1094.5000      0.0000    688.1624      7.6886    134.2541
  1094.7500      0.0000    695.3577      7.5123    134.5488
  1095.0000      0.0000    705.4240      7.4076    132.0775
  1095.2500      0.0000    716.9595      7.3551    124.6944
  1095.5000      0.0000    729.0240      7.3400    112.6991
  1095.7500      0.0000    742.3917      7.3671     98.3809
  1096.0000      0.0000    757.4181      7.4462     84.2212
  1096.2500      0.0000    772.0234      7.5703     71.8451
  1096.5000      0.0000    783.1730      7.7101     62.0641
  1096.7500      0.0000    789.5151      7.8255     55.1022
  1097.0000      0.0000    791.7115      7.8853     50.7558
  1097.2500      0.0000    790.9062      7.8792     48.8035
  1097.5000      0.0000    787.5402      7.8144     49.2686
  1097.7500      0.0000    781.5496      7.7046     51.9334
  1098.0000      0.0000    773.3651      7.5693     55.7933
  1098.2500      0.0000    764.5568      7.4334     59.4279
  1098.5000      0.0000    757.4641      7.3188     61.8685
  1098.7500      0.0000    754.2686      7.2322     62.7457
  1099.0000      0.0000    756.0089      7.1651     61.7871
  1099.2500      0.0000    761.7447      7.1050     58.7401
  1099.5000      0.0000    768.9312      7.0464     54.0031
  1099.7500      0.0000    775.3677      6.9929     49.0231
  1100.0000      0.0000    780.5461      6.9534     45.7456
  1100.2500      0.0000    784.8394      6.9369     45.5242
  1100.5000      0.0000    788.1293      6.9488     48.2713
  1100.7500      0.0000    789.6674      6.9877     52.3315
  1101.0000      0.0000    788.6028      7.0431     55.4037
  1101.2500      0.0000    784.4135      7.0967     56.1410
  1101.5000      0.0000    777.6802      7.1295     54.9283
  1101.7500      0.0000    770.9312      7.1296     52.9093
  1102.0000      0.0000    767.5875      7.0956     50.5600
  1102.2500      0.0000    768.8450      7.0362     47.6074
  1102.5000      0.0000    772.0215      6.9652     43.9893
  1102.7500      0.0000    772.8571      6.8961     40.2774
