~Version Information
 VERS.                                  2.0 : CWLS LAS VERSION
 WRAP.                                   NO : WRAPING MODE
 SWARE .                 MController 2.5.0J : SOFTWARE VERSION
~Well Information
 WELL.                         Squeal 11-26 : WELL
 COMP.    Pioneer Natural Resources USA Inc : COMPANY
 FLD.                      Purgatoire River : FIELD
 LOC.                NW/NW Sec 26 T32S R67W : LOCATION
 DATE.                         6/13-14/2005 : DATE(S) LOGGED
 SRVC.       Blanco Geological Services LLC : SERVICE COMPANY
 STAT.                                   CO : STATE
 CNTY.                           Las Animas : COUNTY
 CTRY.                                  USA : COUNTRY
 API.                       05-071-08404-00 : API NUMBER
 STRT.FT                             285.00 : START DEPTH
 STOP.FT                            2760.00 : STOP DEPTH
 STEP.FT                               1.00 : DEPTH INCREMENT
 NULL.                                -9999 : NULL VALUE
~Curve information
 DEPTH.FT                                   :
 ROP.MIN/FT                                 :
 GAS.UNITS                                  :
~ASCII Log data
# ...
      2085.0         0.73         13.4 
      2086.0         0.63         10.8 
      2087.0         0.23         17.9 
      2088.0         0.68         20.6 
      2089.0         1.00         85.9 
      2090.0         0.77        132.5 
      2091.0         0.47        151.6 
      2092.0         0.58        163.7 
      2093.0         0.33        169.4 
      2094.0         0.27        176.5 
      2095.0         1.33        180.6 
      2096.0         0.87        225.5 
      2097.0         0.48        258.3 
      2098.0         0.53        264.5 
      2099.0         0.43        262.0 
      2100.0         0.23        255.1 
      2101.0         4.35        256.5 
      2102.0         3.22        236.8 
      2103.0         0.10        244.6 
      2104.0         0.10        252.7 
      2105.0         0.23        274.0 
      2106.0         1.02        391.5 
      2107.0         1.83       1312.4 
      2108.0         1.48       1341.4 
      2109.0         1.60       1320.5 
      2110.0         1.72       1404.1 
      2111.0         1.03         72.0 
      2112.0         0.93         54.2 
      2113.0         0.93        122.4 
      2114.0         0.95        176.7 
      2115.0         1.07        199.6 
      2116.0         1.03        198.6 
      2117.0         1.02        199.7 
      2118.0         0.83        199.5 
      2119.0         1.30        193.3 
      2120.0         0.92        180.1 
      2121.0         1.03        190.5 
      2122.0         1.20        202.1 
      2123.0         1.25        204.4 
      2124.0         1.03        195.4 
      2125.0         1.23        203.5 
      2126.0         1.22        204.2 
      2127.0         1.30        208.8 
      2128.0         1.13        209.4 
      2129.0         1.42        226.4 
      2130.0         1.07        237.2 
      2131.0         7.03        421.7 
      2132.0         0.40       1367.4 
      2133.0         1.22       2047.3 
      2134.0         0.50       2259.2 
      2135.0         0.13       2314.4 
      2136.0         0.67       2555.0 
      2137.0         1.13       2936.4 
      2138.0         0.55       3038.1 
      2139.0         0.70       3041.8 
      2140.0         0.73       2788.1 
      2141.0         0.80       1703.6 
      2142.0         0.70       1272.0 
      2143.0         0.62       1172.6 
      2144.0         0.70       1113.7 
      2145.0         0.70       1262.9 
      2146.0         0.80       1214.4 
      2147.0         0.68        449.9 
      2148.0         0.50         42.8 
      2149.0         0.47         24.1 
      2150.0         0.43         20.1 
      2151.0         0.47         27.6 
      2152.0         0.60         44.8 
      2153.0         0.50         58.2 
      2154.0         0.45         76.1 
      2155.0         0.43         96.2 
      2156.0         0.47        107.2 
      2157.0         0.50        110.8 
      2158.0         0.60         99.8 
      2159.0         0.43         72.3 
      2160.0         0.40         65.6 
      2161.0        10.73       1242.7 
      2162.0         1.60       1533.1 
      2163.0         0.70       1617.7 
      2164.0         0.13       1634.2 
      2165.0         1.58       1933.4 
      2166.0         0.07       1535.8 
      2167.0         0.13       1452.3 
      2168.0         0.70       1342.1 
      2169.0         0.50        920.3 
      2170.0         0.47        877.1 
      2171.0         0.45        879.5 
      2172.0         0.53        894.7 
      2173.0         0.60        917.9 
      2174.0         0.63        961.7 
      2175.0         0.70       1272.3 
      2176.0         0.88       1205.6 
      2177.0         1.40        440.0 
      2178.0         0.77         12.9 
      2179.0         0.63         20.5 
      2180.0         0.65         62.4 
      2181.0         0.43         82.4 
      2182.0         0.40         93.4 
      2183.0         0.40        111.4 
      2184.0         0.50        130.9 
      2185.0         0.83        130.8 
      2186.0         0.53        133.3 
      2187.0         0.38        133.5 
      2188.0         0.33        134.1 
      2189.0         0.40        136.7 
      2190.0         0.33        140.5 
      2191.0         7.50        168.8 
      2192.0         0.10        172.5 
      2193.0         0.53        201.1 
      2194.0         0.82        271.5 
      2195.0         0.50        326.1 
      2196.0         0.77        402.6 
      2197.0         0.43        462.5 
      2198.0         0.70       1381.2 
      2199.0         0.53       1535.5 
      2200.0         0.38       1626.4 
      2201.0         0.33       1634.5 
      2202.0         0.40       1603.2 
      2203.0         0.33       1414.9 
      2204.0         0.43       1236.0 
      2205.0         0.50       1076.6 
      2206.0         0.57       1050.7 
      2207.0         0.68       1049.3 
      2208.0         0.80       1070.9 
      2209.0         0.47       1083.0 
      2210.0         0.47       1177.7 
      2211.0         0.47       1192.2 
      2212.0         0.60       1006.9 
      2213.0         0.82        493.1 
      2214.0         0.97         41.3 
      2215.0         0.83         16.9 
      2216.0         0.63         25.4 
      2217.0         0.33         35.8 
      2218.0         0.22         46.8 
      2219.0         0.30         65.1 
      2220.0         0.40         85.4 
      2221.0        12.90       1527.1 
      2222.0         2.43       1915.2 
      2223.0         2.32       2284.1 
      2224.0         0.10       1498.8 
      2225.0         0.97       1372.4 
      2226.0         1.18        866.0 
      2227.0         1.23        886.2 
      2228.0         1.27        838.4 
      2229.0         1.25         25.3 
      2230.0         1.00         28.6 
      2231.0         0.77         74.2 
      2232.0         0.68        101.5 
      2233.0         0.63        125.0 
      2234.0         0.67        132.1 
      2235.0         0.83        137.5 
      2236.0         0.73        140.3 
      2237.0         0.78        145.4 
      2238.0         0.93        149.0 
      2239.0         1.23        149.2 
      2240.0         1.22        147.5 
      2241.0         1.00        154.9 
      2242.0         1.40        158.5 
      2243.0         0.75        156.0 
      2244.0         0.70        159.8 
      2245.0         0.60        163.8 
      2246.0         0.47        165.6 
      2247.0         0.40        176.7 
      2248.0         0.40        192.8 
      2249.0         0.48        193.3 
      2250.0         0.50        181.3 
      2251.0         0.50        165.6 
      2252.0        10.85       1626.1 
      2253.0         0.07       1647.0 
      2254.0         0.97       1946.9 
      2255.0         0.88       2188.1 
      2256.0         1.83       2483.6 
      2257.0         1.58       2500.7 
      2258.0         0.43        814.8 
      2259.0         0.27        709.7 
      2260.0         0.33        673.3 
      2261.0         0.37        642.3 
      2262.0         0.37        627.2 
      2263.0         0.43        625.1 
      2264.0         0.58        709.4 
      2265.0         0.83        734.0 
      2266.0         0.87        440.0 
      2267.0         0.97         20.9 
      2268.0         1.02         16.7 
      2269.0         1.10         22.7 
      2270.0         1.00         68.9 
      2271.0         0.63         96.1 
      2272.0         1.25        124.9 
      2273.0         1.63        141.5 
      2274.0         1.08        157.5 
      2275.0         1.10        157.7 
      2276.0         1.10        157.1 
      2277.0         0.98        162.3 
      2278.0         1.10        164.2 
      2279.0         1.13        160.5 
      2280.0         1.08        167.0 
      2281.0         3.62        184.6 
      2282.0         0.57        192.9 
      2283.0         0.07        194.4 
      2284.0         1.30        203.6 
