~Version Information
VERS.                      2.0: CWLS Log ASCII Standard - VERSION 2.0
WRAP.                       NO: One line per depth step
~Well Information Block
STRT.FT               300.0000: 
STOP.FT               871.2500: 
STEP.FT                 0.2500: 
NULL.                -999.2500: 
COMP.          Pioneer Natural Resources: COMPANY
WELL.            Hustler 12-17: WELL
FLD.           Purgatoire River: FIELD
LOC.           2150' FNL & 450' FWL: LOCATION
PROV.                 Colorado: PROVINCE
CNTY.               Las Animas: COUNTRY
SRVC.                Patterson: SERVICE COMPANY
DATE.          Mon Dec 20 09:25:34 2004: LOG DATE
UWI.           05 071 08236 00: UNIQUE WELL ID
~Curve Information Block
DEPT.FT            0 000 00 00: Depth
SN.Ohm-m                      : IEL Short Normal
SP.mV                         : IEL Spontaneous Potential
DIR.Ohm-m                     : IEL Induction Resistivity
GR.GAPI                       : Gamma Ray
~Parameter Information Block
~A  Depth        SN          SP         DIR          GR     
# ...
   501.0000    645.9807   -800.0005     27.8512     66.4712
   501.2500    645.9807   -800.0005     27.1396     64.9259
   501.5000    645.9807   -800.0005     26.3185     64.9389
   501.7500    645.9807   -800.0005     25.5086     66.4549
   502.0000    645.9807   -800.0005     24.7997     70.2147
   502.2500    645.9807   -800.0005     24.2368     73.0182
   502.5000    645.9807   -799.9963     23.8066     76.5420
   502.7500    645.9807   -799.9808     23.4323     77.9973
   503.0000    645.9807   -799.9273     22.9837     78.5346
   503.2500    645.9807   -799.7733     22.3143     77.8968
   503.5000    645.9807   -799.3731     21.3175     76.0445
   503.7500    645.9807   -798.4350     19.9772     74.6821
   504.0000    645.9807   -796.4722     18.3778     73.3141
   504.2500    645.9807   -792.7866     16.6654     73.4589
   504.5000    645.9807   -786.5991     14.9878     76.3921
   504.7500    645.9807   -777.3260     13.4525     80.5224
   505.0000    645.9807   -764.9869     12.1146     89.3782
   505.2500    645.9807   -750.5110     10.9867     95.9646
   505.5000    645.9807   -735.7786     10.0549    104.5762
   505.7500    645.9807   -723.1500      9.2935    108.5565
   506.0000    645.9807   -714.6699      8.6751    111.7087
   506.2500    645.9807   -711.2242      8.1767    112.4317
   506.5000    645.9807   -712.0995      7.7826    112.3914
   506.7500    645.9807   -715.2301      7.4843    111.9116
   507.0000    645.9807   -718.1134      7.2776    110.6659
   507.2500    645.9807   -719.0201      7.1590    109.5392
   507.5000    645.9807   -717.9056      7.1214    107.6564
   507.7500    645.9807   -716.4954      7.1515    106.5410
   508.0000    645.9807   -717.4103      7.2281    105.5691
   508.2500    645.9807   -722.7651      7.3229    105.4889
   508.5000    645.9807   -733.0309      7.4052    105.8040
   508.7500    645.9807   -746.8118      7.4492    105.8036
   509.0000    645.9807   -761.5845      7.4431    104.8308
   509.2500    645.9807   -774.8781      7.3933    103.6648
   509.5000    645.9807   -785.1636      7.3210    102.3288
   509.7500    645.9807   -792.1008      7.2526    102.4660
   510.0000    645.9807   -796.2141      7.2096    104.4228
   510.2500    645.9807   -798.3667      7.2039    106.2414
   510.5000    645.9807   -799.3671      7.2390    108.1837
   510.7500    645.9807   -799.7797      7.3131    108.4083
   511.0000    645.9807   -799.9330      7.4233    107.2451
   511.2500    645.9807   -799.9823      7.5685    105.9885
   511.5000    645.9807   -799.9996      7.7505    104.5552
   511.7500    645.9807   -800.0005      7.9737    104.4596
   512.0000    645.9807   -800.0005      8.2433    105.8359
   512.2500    645.9807   -800.0005      8.5633    107.3979
   512.5000    645.9807   -800.0005      8.9313    109.5268
   512.7500    645.9807   -800.0005      9.3342    110.0978
   513.0000    645.9807   -800.0005      9.7474    109.1615
   513.2500    645.9807   -800.0005     10.1398    107.7354
   513.5000    645.9807   -800.0005     10.4840    105.9106
   513.7500    645.9807   -800.0005     10.7632    105.6828
   514.0000    645.9807   -800.0005     10.9726    107.1747
   514.2500    645.9807   -800.0005     11.1179    109.0188
   514.5000    645.9807   -800.0005     11.2150    111.8227
   514.7500    645.9807   -800.0005     11.2927    112.9335
   515.0000    645.9807   -800.0005     11.3878    112.7926
   515.2500    645.9807   -800.0005     11.5330    111.8414
   515.5000    645.9807   -800.0005     11.7403    110.7498
   515.7500    645.9807   -800.0005     11.9941    111.1539
   516.0000    645.9807   -800.0005     12.2601    113.8735
   516.2500    645.9807   -800.0005     12.5060    116.6149
   516.5000    645.9807   -800.0005     12.7199    120.7347
   516.7500    645.9807   -800.0005     12.9150    122.8000
   517.0000    645.9807   -800.0005     13.1197    124.3724
   517.2500    645.9807   -800.0005     13.3650    124.4223
   517.5000    645.9807   -800.0005     13.6727    122.9759
   517.7500    645.9807   -800.0005     14.0487    120.7469
   518.0000    645.9807   -800.0005     14.4810    114.9438
   518.2500    645.9807   -800.0005     14.9453    109.3691
   518.5000    645.9807   -800.0005     15.4130     99.2098
   518.7500    645.9807   -800.0005     15.8612     92.1662
   519.0000    645.9807   -800.0005     16.2785     82.9813
   519.2500    645.9807   -800.0005     16.6663     78.5107
   519.5000    645.9807   -800.0005     17.0349     74.7763
   519.7500    645.9807   -800.0005     17.3930     74.2964
   520.0000    645.9807   -800.0005     17.7359     76.3996
   520.2500    645.9807   -800.0005     18.0353     79.3227
   520.5000    645.9807   -800.0005     18.2408     84.7912
   520.7500    645.9807   -800.0005     18.2995     88.2159
   521.0000    645.9807   -800.0005     18.1860     91.4854
   521.2500    645.9807   -800.0005     17.9230     92.0217
   521.5000    645.9807   -800.0005     17.5765     91.1373
   521.7500    645.9807   -800.0005     17.2294     90.4332
   522.0000    645.9807   -800.0005     16.9541     90.4465
   522.2500    645.9807   -800.0005     16.7970     91.1655
   522.5000    645.9807   -800.0005     16.7757     92.7122
   522.7500    645.9807   -800.0005     16.8845     93.9003
   523.0000    645.9807   -800.0005     17.1013     95.8994
   523.2500    645.9807   -800.0005     17.3940     97.0739
   523.5000    645.9807   -800.0005     17.7302     97.4018
   523.7500    645.9807   -800.0005     18.0912     96.0899
   524.0000    645.9807   -800.0005     18.4858     92.0428
   524.2500    645.9807   -800.0005     18.9561     88.6918
   524.5000    645.9807   -800.0005     19.5685     83.8190
   524.7500    645.9807   -800.0005     20.3896     80.7999
   525.0000    645.9807   -800.0005     21.4585     76.1507
   525.2500    645.9807   -800.0005     22.7616     72.7697
   525.5000    645.9807   -800.0005     24.2254     67.6455
   525.7500    645.9807   -800.0005     25.7433     64.7888
   526.0000    645.9807   -800.0005     27.2307     62.3314
   526.2500    645.9807   -800.0005     28.6636     62.0952
   526.5000    645.9807   -800.0005     30.0552     63.4517
   526.7500    645.9807   -800.0005     31.3781     65.1887
   527.0000    645.9807   -800.0005     32.4931     69.0085
   527.2500    645.9807   -800.0005     33.1492     72.6265
   527.5000    645.9807   -800.0005     33.0854     79.8764
   527.7500    645.9807   -800.0005     32.1852     85.4741
   528.0000    645.9807   -800.0005     30.5615     93.3390
   528.2500    645.9807   -800.0005     28.4971     97.3260
   528.5000    645.9807   -800.0005     26.3074    101.0551
   528.7500    645.9807   -800.0005     24.2353    102.4889
   529.0000    645.9807   -800.0005     22.4195    104.0231
   529.2500    645.9807   -800.0005     20.9078    104.8450
   529.5000    645.9807   -800.0005     19.6886    105.4744
   529.7500    645.9807   -800.0005     18.7240    105.2382
   530.0000    645.9807   -800.0005     17.9745    103.8196
   530.2500    645.9807   -800.0005     17.4101    102.3018
   530.5000    645.9807   -800.0005     17.0088     99.4694
   530.7500    645.9807   -800.0005     16.7487     97.4101
   531.0000    645.9807   -800.0005     16.6046     94.5320
   531.2500    645.9807   -800.0005     16.5501     93.0963
   531.5000    645.9807   -800.0005     16.5661     92.3141
   531.7500    645.9807   -800.0005     16.6445     92.9969
   532.0000    645.9807   -800.0005     16.7835     95.5609
   532.2500    645.9807   -800.0005     16.9714     97.4880
   532.5000    645.9807   -800.0005     17.1736     98.9046
   532.7500    645.9807   -800.0005     17.3345     98.3236
   533.0000    645.9807   -800.0005     17.4025     95.8456
   533.2500    645.9807   -800.0005     17.3628     94.1846
   533.5000    645.9807   -800.0005     17.2486     93.2657
   533.7500    645.9807   -800.0005     17.1198     93.7731
   534.0000    645.9807   -800.0005     17.0287     94.7924
   534.2500    645.9807   -800.0005     17.0009     94.6895
