~Version Information
VERS.                      2.0: CWLS Log ASCII Standard - VERSION 2.0
WRAP.                       NO: One line per depth step
~Well Information Block
STRT.FT               720.0000: 
STOP.FT              2730.2000: 
STEP.FT                 0.1000: 
NULL.                -999.2500: 
COMP.          Evergreen Operating Corporation: COMPANY
WELL.            Rangely 22-28: WELL
FLD.           Purgatoire River: FIELD
LOC.           1741' FNL & 2335' FWL: LOCATION
PROV.                 Colorado: PROVINCE
CNTY.               Las Animas: COUNTRY
SRVC.                Patterson: SERVICE COMPANY
DATE.          Thu Sep 16 15:10:36 2004: LOG DATE
UWI.           05 071 08044 00: UNIQUE WELL ID
~Curve Information Block
DEPT.FT            0 000 00 00: Depth
DCAL.in                       : CDL Caliper
DPOR.pu                       : CDL Density Porosity
NPOR.pu                       : Neutron Porosity
RHOB.g/cc                     : CDL Bulk Density
RHOC.g/cc                     : CDL Density Correction
GR.GAPI                       : Gamma Ray
~Parameter Information Block
~A  Depth       DCAL        DPOR        NPOR        RHOB        RHOC         GR     
# ...
   940.8000      8.2608     10.6265     28.0327      2.4747      0.0509    158.4029
   940.9000      8.2608     10.5104     28.2610      2.4766      0.0767    162.0307
   941.0000      8.2730     10.6340     28.4319      2.4745      0.0817    158.1253
   941.1000      8.2730     10.7415     28.4167      2.4728      0.0984    152.3274
   941.2000      8.2730     10.8733     28.4241      2.4706      0.0661    150.5133
   941.3000      8.2774     11.1247     28.6927      2.4664      0.0580    152.0442
   941.4000      8.2774     11.2735     29.0883      2.4640      0.0298    154.8209
   941.5000      8.2769     11.3416     29.2775      2.4629      0.0399    157.7595
   941.6000      8.2769     11.8055     29.1633      2.4552      0.0237    160.5607
   941.7000      8.2769     12.4249     29.0748      2.4450      0.0278    161.9467
   941.8000      8.2755     12.3356     29.2938      2.4465      0.0374    160.1454
   941.9000      8.2755     11.7230     29.6841      2.4566      0.0625    157.9469
   942.0000      8.2721     11.4268     29.9648      2.4615      0.0460    158.9131
   942.1000      8.2721     10.9830     29.8771      2.4688      0.0429    158.6066
   942.2000      8.2721      9.7735     29.4659      2.4887      0.1073    154.6679
   942.3000      8.2688      8.9547     29.1712      2.5022      0.1267    155.1791
   942.4000      8.2688      9.9523     28.9824      2.4858      0.1015    162.3669
   942.5000      8.2731     12.1416     28.5996      2.4497      0.0380    168.9606
   942.6000      8.2731     13.5065     28.1570      2.4271      0.0463    172.9297
   942.7000      8.2731     13.3336     27.6528      2.4300      0.0930    176.1850
   942.8000      8.2792     12.7865     27.0409      2.4390      0.1114    178.5252
   942.9000      8.2792     13.4930     26.5332      2.4274      0.1104    181.4462
   943.0000      8.2833     15.9151     26.2695      2.3874     -0.0007    185.5057
   943.1000      8.2833     18.7825     26.2969      2.3401     -0.0294    187.4233
   943.2000      8.2833     21.2245     26.5075      2.2998      0.0106    184.5720
   943.3000      8.3026     23.8174     26.5526      2.2570      0.0328    178.5608
   943.4000      8.3026     26.8056     26.1689      2.2077     -0.0226    171.0177
   943.5000      8.3921     29.7660     25.6288      2.1589     -0.0165    162.6734
   943.6000      8.3921     32.6056     25.0726      2.1120      0.0593    154.7883
   943.7000      8.3921     36.0911     24.1064      2.0545      0.0846    148.0065
   943.8000      8.5769     42.0851     22.6327      1.9556      0.0752    143.7259
   943.9000      8.5769     51.5929     20.8922      1.7987     -0.0225    142.3200
   944.0000      8.7079     62.7526     19.1489      1.6146     -0.0660    143.5247
   944.1000      8.7079     72.4298     17.4252      1.4549     -0.1347    144.9168
   944.2000      8.7079     78.1943     15.4939      1.3598     -0.1238    142.1437
   944.3000      8.6839     79.1922     13.6797      1.3433     -0.0327    134.5352
   944.4000      8.6839     76.4432     12.4856      1.3887      0.0447    124.3739
   944.5000      8.6599     72.1243     11.7686      1.4599      0.1823    114.8362
   944.6000      8.6599     68.6326     11.0539      1.5176      0.3033    108.6788
   944.7000      8.6599     67.2242     10.3404      1.5408      0.3189    103.8498
   944.8000      8.6898     67.1629      9.9600      1.5418      0.2918     98.2009
   944.9000      8.6898     67.2000      9.9219      1.5412      0.2737     94.3430
   945.0000      8.7119     67.4981      9.9063      1.5363      0.2511     92.4998
   945.1000      8.7119     69.2675      9.8289      1.5071      0.1708     90.8439
   945.2000      8.7119     73.1761      9.8201      1.4426      0.0816     90.3557
   945.3000      8.6990     78.4789      9.8199      1.3551     -0.0028     89.8626
   945.4000      8.6990     83.0892      9.8075      1.2790     -0.0659     86.0662
   945.5000      8.6835     85.1685      9.8476      1.2447     -0.0020     80.4921
   945.6000      8.6835     84.8384      9.8356      1.2502      0.0895     77.2120
   945.7000      8.6835     83.5954      9.7068      1.2707      0.1376     75.1322
   945.8000      8.7082     82.8228      9.5204      1.2834      0.1541     72.4752
   945.9000      8.7082     82.9117      9.3610      1.2820      0.1165     71.7695
   946.0000      8.7320     83.0204      9.2348      1.2802      0.0780     75.1921
   946.1000      8.7320     82.0866      9.1563      1.2956      0.1026     80.0772
   946.2000      8.7320     80.1426      9.1642      1.3276      0.1045     82.1899
   946.3000      8.6999     78.3962      9.1180      1.3565      0.1336     82.6751
   946.4000      8.6999     77.9724      8.9090      1.3635      0.1101     85.2180
   946.5000      8.6166     78.2610      8.6793      1.3587      0.0785     89.0088
   946.6000      8.6166     77.3868      8.6575      1.3731      0.0995     90.4918
   946.7000      8.6166     74.5643      8.9332      1.4197      0.2118     88.6903
   946.8000      8.5345     70.6660      9.3031      1.4840      0.2776     87.4141
   946.9000      8.5345     66.6103      9.5884      1.5509      0.2946     88.7858
   947.0000      8.4732     63.1854      9.8119      1.6074      0.3348     91.2477
   947.1000      8.4732     61.4687      9.9773      1.6358      0.3010     95.5210
   947.2000      8.4732     61.4315     10.2403      1.6364      0.2145    100.2176
   947.3000      8.4346     61.5743     10.7263      1.6340      0.1702    101.4722
   947.4000      8.4346     60.5846     11.3083      1.6504      0.1537     98.7426
   947.5000      8.4205     58.4027     11.9547      1.6864      0.1617     94.1671
   947.6000      8.4205     55.9578     12.4602      1.7267      0.1528     89.6916
   947.7000      8.4205     54.3279     12.4815      1.7536      0.1578     84.5377
   947.8000      8.4193     54.4001     12.2168      1.7524      0.1401     80.1681
   947.9000      8.4193     56.7593     12.0979      1.7135      0.0910     81.0273
   948.0000      8.4198     61.0025     12.1847      1.6435      0.0074     85.5294
   948.1000      8.4198     65.4992     12.1913      1.5693     -0.0385     88.8219
   948.2000      8.4198     68.5499     11.8731      1.5189     -0.0324     90.4106
   948.3000      8.4197     69.8186     11.3929      1.4980      0.0147     91.1611
   948.4000      8.4197     69.8469     11.1828      1.4975     -0.0087     91.6003
   948.5000      8.4206     68.8226     11.4576      1.5144      0.0192     92.0844
   948.6000      8.4206     66.6772     12.0149      1.5498      0.0340     97.1680
   948.7000      8.4206     63.0921     12.5039      1.6090      0.0415    108.7124
   948.8000      8.4239     58.2491     12.8095      1.6889      0.1549    116.8035
   948.9000      8.4239     53.7163     13.0947      1.7637      0.1823    114.5447
   949.0000      8.4314     51.0716     13.4359      1.8073      0.2106    108.0820
   949.1000      8.4314     50.3050     13.6852      1.8200      0.1651    106.1394
   949.2000      8.4314     50.4204     13.7577      1.8181      0.1825    111.2192
   949.3000      8.4449     51.5600     13.6455      1.7993      0.1628    117.3362
   949.4000      8.4449     54.9330     13.1900      1.7436      0.0873    120.0164
   949.5000      8.4743     60.5661     12.2395      1.6507     -0.0787    120.6713
   949.6000      8.4743     66.8875     10.8586      1.5464     -0.1594    119.6432
   949.7000      8.4743     73.1150      9.2772      1.4436     -0.1202    117.3033
   949.8000      8.5372     79.5369      7.8857      1.3376     -0.1373    114.3848
   949.9000      8.5372     85.1960      6.8982      1.2443     -0.1452    110.8163
   950.0000      8.6383     88.2254      6.1488      1.1943     -0.0667    106.9115
   950.1000      8.6383     88.0089      5.5597      1.1979      0.0593    101.9324
   950.2000      8.6383     85.7193      5.3224      1.2356      0.1939     94.9791
   950.3000      8.7516     83.1133      5.5407      1.2786      0.2374     87.7713
