~Version Information
 VERS.                                  2.0 : CWLS LAS VERSION
 WRAP.                                   NO : WRAPING MODE
 SWARE .                 MController 2.5.0E : SOFTWARE VERSION
~Well Information
 WELL.                          Patten 22-2 : WELL
 COMP.           Pionneer Natural Resources : COMPANY
 FLD.                      Purgatoire River : FIELD
 LOC.                 SE/NW Sec 2 T35S R65W : LOCATION
 DATE.                             12/09/04 : DATE(S) LOGGED
 SRVC.                Blanco Geological LLC : SERVICE COMPANY
 STAT.                                   CO : STATE
 CNTY.                           Las Aminas : COUNTY
 CTRY.                                  USA : COUNTRY
 API.                          05-071-08168 : API NUMBER
 STRT.FT                             276.00 : START DEPTH
 STOP.FT                            1707.00 : STOP DEPTH
 STEP.FT                               1.00 : DEPTH INCREMENT
 NULL.                                -9999 : NULL VALUE
~Curve information
 DEPTH.FT                                   :
 ROP.MIN/FT                                 :
 GAS.UNITS                                  :
~ASCII Log data
# ...
     1076.00        3.017         13.3 
     1077.00        0.333         20.5 
     1078.00        0.333         21.6 
     1079.00        0.233         19.6 
     1080.00        0.300         15.8 
     1081.00        0.267         11.9 
     1082.00        0.300          8.9 
     1083.00        0.300          7.0 
     1084.00        0.283          5.7 
     1085.00        0.233          3.9 
     1086.00        0.333          3.7 
     1087.00        0.267          2.6 
     1088.00        0.267          2.3 
     1089.00        0.267          2.1 
     1090.00        0.300          2.0 
     1091.00        0.300          1.8 
     1092.00        0.267          1.9 
     1093.00        0.267          2.1 
     1094.00        0.233          1.8 
     1095.00        0.250          1.7 
     1096.00        0.233          1.5 
     1097.00        0.233          1.4 
     1098.00        0.233          1.3 
     1099.00        0.167          1.4 
     1100.00        0.200          1.2 
     1101.00        0.200          1.3 
     1102.00        0.267          1.5 
     1103.00        0.300          1.6 
     1104.00        0.300          1.8 
     1105.00        0.333          2.3 
     1106.00        2.950          9.7 
     1107.00        0.333         13.9 
     1108.00        0.333         14.3 
     1109.00        0.283         12.0 
     1110.00        0.333          9.0 
     1111.00        0.367          6.2 
     1112.00        0.267          5.0 
     1113.00        0.267          3.5 
     1114.00        0.300          2.9 
     1115.00        0.167          2.4 
     1116.00        0.167          2.6 
     1117.00        0.233          2.4 
     1118.00        0.167          2.1 
     1119.00        0.200          2.2 
     1120.00        0.167          2.2 
     1121.00        0.200          2.0 
     1122.00        0.217          1.9 
     1123.00        0.200          1.8 
     1124.00        0.167          1.8 
     1125.00        0.167          1.8 
     1126.00        0.233          1.7 
     1127.00        0.233          1.6 
     1128.00        0.167          1.6 
     1129.00        0.200          1.4 
     1130.00        0.267          1.6 
     1131.00        0.200          1.6 
     1132.00        0.233          1.9 
     1133.00        0.200          1.8 
     1134.00        0.233          1.7 
     1135.00        0.333          1.6 
     1136.00        4.067         18.1 
     1137.00        0.300         17.3 
     1138.00        0.233         13.6 
     1139.00        0.233         10.6 
     1140.00        0.233          8.4 
     1141.00        0.300          6.4 
     1142.00        0.200          4.5 
     1143.00        0.200          3.9 
     1144.00        0.167          3.4 
     1145.00        0.283          2.8 
     1146.00        0.300          2.6 
     1147.00        0.233          2.0 
     1148.00        0.200          1.9 
     1149.00        0.167          1.7 
     1150.00        0.167          1.7 
     1151.00        0.233          1.5 
     1152.00        0.233          1.5 
     1153.00        0.200          1.5 
     1154.00        0.233          1.4 
     1155.00        0.167          1.3 
     1156.00        0.233          1.6 
     1157.00        0.200          1.4 
     1158.00        0.167          1.3 
     1159.00        0.217          1.6 
     1160.00        0.200          1.6 
     1161.00        0.200          1.5 
     1162.00        0.200          2.0 
     1163.00        0.200          2.0 
     1164.00        0.233          1.5 
     1165.00        0.233          1.2 
     1166.00        2.650          3.0 
     1167.00        0.400          4.6 
     1168.00        0.333          5.9 
     1169.00        0.267          5.7 
     1170.00        0.300          5.4 
     1171.00        0.233          4.6 
     1172.00        0.233          4.1 
     1173.00        0.200          3.5 
     1174.00        0.200          3.1 
     1175.00        0.200          2.6 
     1176.00        0.150          2.2 
     1177.00        0.200          2.5 
     1178.00        0.167          2.0 
     1179.00        0.167          1.8 
     1180.00        0.167          1.6 
     1181.00        0.200          1.7 
     1182.00        0.167          1.3 
     1183.00        0.200          1.1 
     1184.00        0.233          1.3 
     1185.00        0.233          1.3 
     1186.00        0.233          1.3 
     1187.00        0.200          0.7 
     1188.00        0.200          1.2 
     1189.00        0.267          1.0 
     1190.00        0.200          1.2 
     1191.00        0.233          1.2 
     1192.00        0.217          0.9 
     1193.00        0.200          1.3 
     1194.00        0.233          1.2 
     1195.00        0.300          0.9 
     1196.00        2.983          3.4 
     1197.00        0.400          7.4 
     1198.00        0.267          9.9 
     1199.00        0.267         10.3 
     1200.00        0.267          9.1 
     1201.00        0.400          7.5 
     1202.00        0.233          5.4 
     1203.00        0.167          4.4 
     1204.00        0.233          3.4 
     1205.00        0.250          2.9 
     1206.00        0.233          2.2 
     1207.00        0.233          2.0 
     1208.00        0.167          2.0 
     1209.00        0.200          1.8 
     1210.00        0.200          1.5 
     1211.00        0.167          1.4 
     1212.00        0.200          1.2 
     1213.00        0.167          1.0 
     1214.00        0.167          0.8 
     1215.00        0.133          0.6 
     1216.00        0.100          0.6 
     1217.00        0.133          0.8 
     1218.00        0.200          1.0 
     1219.00        0.267          1.0 
     1220.00        0.167          1.0 
     1221.00        0.200          1.3 
     1222.00        0.200          1.6 
     1223.00        0.217          2.0 
     1224.00        0.200          1.6 
     1225.00        0.333          1.9 
     1226.00        2.783          2.0 
     1227.00        0.533          4.6 
     1228.00        0.400          5.7 
     1229.00        0.400          5.8 
     1230.00        0.267          4.4 
     1231.00        0.267          3.9 
     1232.00        0.233          3.1 
     1233.00        0.200          2.6 
     1234.00        0.233          2.5 
     1235.00        0.317          2.3 
     1236.00        0.233          2.2 
     1237.00        0.200          2.0 
     1238.00        0.267          1.8 
     1239.00        0.233          1.6 
     1240.00        0.300          1.5 
     1241.00        0.200          1.4 
     1242.00        0.233          1.2 
     1243.00        0.333          1.3 
     1244.00        0.233          1.2 
     1245.00        0.233          1.3 
     1246.00        0.233          1.2 
     1247.00        0.300          1.2 
     1248.00        0.250          1.3 
     1249.00        0.233          1.5 
     1250.00        0.233          1.3 
     1251.00        0.200          1.6 
     1252.00        0.167          1.8 
     1253.00        0.167          1.6 
     1254.00        0.200          1.4 
     1255.00        0.267          1.4 
     1256.00        4.583          1.6 
     1257.00        0.283          1.4 
     1258.00        0.267          1.5 
     1259.00        0.233          1.6 
     1260.00        0.200          1.6 
     1261.00        0.233          1.9 
     1262.00        0.233          2.3 
     1263.00        0.167          2.4 
     1264.00        0.233          2.4 
     1265.00        0.233          2.6 
     1266.00        0.200          2.4 
     1267.00        0.133          2.2 
     1268.00        0.167          2.4 
     1269.00        0.100          2.2 
     1270.00        0.133          2.3 
     1271.00        0.167          1.7 
     1272.00        0.150          1.9 
     1273.00        0.133          1.4 
     1274.00        0.100          1.9 
     1275.00        0.100          1.5 
