~Version Information
VERS.                      2.0: CWLS Log ASCII Standard - VERSION 2.0
WRAP.                       NO: One line per depth step
~Well Information Block
STRT.FT               375.0000: 
STOP.FT              2795.7000: 
STEP.FT                 0.1000: 
NULL.                -999.2500: 
COMP.          Pioneer Natural Resources: COMPANY
WELL.              Getem 21-23: WELL
FLD.           Purgatoire River: FIELD
LOC.           2623' FWL & 790' FNL--: LOCATION
PROV.                 Colorado: PROVINCE
CNTY.               Las Animas: COUNTRY
SRVC.                Patterson: SERVICE COMPANY
DATE.          Mon Jun 20 07:26:21 2005: LOG DATE
UWI.           05 071 08411 00: UNIQUE WELL ID
~Curve Information Block
DEPT.FT            0 000 00 00: Depth
DCAL.in                       : CDL Caliper
RHOB.g/cc                     : CDL Bulk Density
RHOC.g/cc                     : CDL Density Correction
DPOR.pu                       : CDL Density Porosity
NPOR.pu                       : Neutron Porosity
GR.GAPI                       : Gamma Ray
~Parameter Information Block
~A  Depth       DCAL        RHOB        RHOC        DPOR        NPOR         GR     
# ...
  2131.8000      7.9612      2.6079      0.0694      2.5538     29.6567     96.9048
  2131.9000      7.9612      2.5913      0.0241      3.5587     29.2512     97.1087
  2132.0000      7.9633      2.5763      0.0312      4.4667     28.6702     98.7136
  2132.1000      7.9633      2.5448      0.0041      6.3752     28.4180    104.2248
  2132.2000      7.9633      2.4931     -0.0008      9.5117     28.1699    112.7566
  2132.3000      7.9674      2.4442     -0.0407     12.4718     27.4856    120.9229
  2132.4000      7.9674      2.4191     -0.0053     13.9941     26.5604    124.4588
  2132.5000      7.9696      2.4201     -0.0170     13.9320     25.8467    125.3137
  2132.6000      7.9696      2.4400      0.0468     12.7266     25.3314    125.9096
  2132.7000      7.9696      2.4631      0.0684     11.3275     24.6008    125.0744
  2132.8000      7.9697      2.4795      0.0777     10.3315     23.5048    123.8562
  2132.9000      7.9697      2.4956      0.1196      9.3547     22.3407    123.3047
  2133.0000      7.9700      2.5202      0.1623      7.8688     21.3895    121.4555
  2133.1000      7.9700      2.5542      0.1735      5.8069     20.7760    119.5316
  2133.2000      7.9700      2.5862      0.1988      3.8641     20.7052    119.6234
  2133.3000      7.9696      2.6011      0.1398      2.9617     21.1946    117.8141
  2133.4000      7.9696      2.6025      0.1041      2.8766     21.7192    111.5225
  2133.5000      7.9665      2.6063      0.0864      2.6470     22.0007    105.5752
  2133.6000      7.9665      2.6187      0.0818      1.8952     22.4497    102.9238
  2133.7000      7.9665      2.6229      0.1082      1.6397     23.1165    101.8047
  2133.8000      7.9641      2.6010      0.0632      2.9671     23.5935    101.3284
  2133.9000      7.9641      2.5695     -0.0002      4.8784     23.7053    101.5454
  2134.0000      7.9655      2.5503      0.0086      6.0412     23.5484    101.8549
  2134.1000      7.9655      2.5392      0.0201      6.7128     23.3215    102.2393
  2134.2000      7.9655      2.5358     -0.0177      6.9197     23.0380    104.2791
  2134.3000      7.9678      2.5468      0.0223      6.2522     22.7841    108.2333
  2134.4000      7.9678      2.5593      0.0311      5.4989     22.9751    110.5724
  2134.5000      7.9669      2.5636      0.0476      5.2341     23.7067    108.2552
  2134.6000      7.9669      2.5674      0.0518      5.0091     24.5351    103.3568
  2134.7000      7.9669      2.5702      0.0593      4.8346     25.0349    100.6924
  2134.8000      7.9661      2.5592      0.0620      5.5058     25.0259    102.1729
  2134.9000      7.9661      2.5281      0.0200      7.3901     24.8367    105.9030
  2135.0000      7.9670      2.4939      0.0001      9.4587     25.1838    108.8684
  2135.1000      7.9670      2.4756      0.0471     10.5723     25.8412    108.1037
  2135.2000      7.9670      2.4688      0.0259     10.9797     25.7946    105.8045
  2135.3000      7.9687      2.4636      0.0143     11.2971     24.9174    105.8988
  2135.4000      7.9687      2.4635     -0.0257     11.3054     23.9754    106.5674
  2135.5000      7.9681      2.4730      0.0254     10.7289     23.6487    105.3565
  2135.6000      7.9681      2.4897      0.0463      9.7161     23.7804    102.4173
  2135.7000      7.9681      2.5116      0.0763      8.3905     23.7691     99.7079
  2135.8000      7.9651      2.5316      0.0951      7.1785     23.5672    101.7645
  2135.9000      7.9651      2.5427      0.1366      6.5026     23.3110    109.3915
  2136.0000      7.9635      2.5530      0.1523      5.8810     22.9533    115.6638
  2136.1000      7.9635      2.5815      0.1827      4.1509     22.4307    114.0415
  2136.2000      7.9635      2.6254      0.3470      1.4907     21.7709    106.6791
  2136.3000      7.9643      2.6533      0.3036     -0.1977     21.3118    105.2254
  2136.4000      7.9643      2.6482      0.2340      0.1082     21.3518    114.9569
  2136.5000      7.9641      2.6236      0.1340      1.5991     21.8285    123.4518
  2136.6000      7.9641      2.5995      0.1242      3.0622     22.3193    120.8716
  2136.7000      7.9641      2.5791      0.0945      4.2998     22.4844    113.3580
  2136.8000      7.9644      2.5634      0.0408      5.2501     22.4532    111.0276
  2136.9000      7.9644      2.5616      0.0247      5.3561     22.6119    114.3529
  2137.0000      7.9663      2.5726      0.0316      4.6886     23.1154    116.2691
  2137.1000      7.9663      2.5815      0.0613      4.1533     23.5091    116.0254
  2137.2000      7.9663      2.5797      0.0540      4.2589     23.4449    118.0260
  2137.3000      7.9676      2.5762      0.0504      4.4708     23.2038    124.5194
  2137.4000      7.9676      2.5766      0.0515      4.4473     23.1633    134.1105
  2137.5000      7.9681      2.5715      0.0632      4.7605     23.4862    140.9633
  2137.6000      7.9681      2.5595      0.0273      5.4870     24.0805    139.4781
  2137.7000      7.9681      2.5569      0.0255      5.6450     24.7450    131.4980
  2137.8000      7.9675      2.5666      0.0632      5.0542     25.4331    125.8995
  2137.9000      7.9675      2.5734      0.0554      4.6426     26.0286    127.2914
  2138.0000      7.9657      2.5777      0.0116      4.3788     26.1813    130.0963
  2138.1000      7.9657      2.5913      0.0712      3.5554     26.0516    129.8737
  2138.2000      7.9657      2.6058      0.0672      2.6790     26.3194    128.9311
  2138.3000      7.9627      2.6085      0.0691      2.5134     27.0335    128.5742
  2138.4000      7.9627      2.6025      0.0468      2.8796     27.3127    127.0713
  2138.5000      7.9630      2.5929      0.0354      3.4621     26.7700    124.6000
  2138.6000      7.9630      2.5823      0.0065      4.1046     26.2443    125.0318
  2138.7000      7.9630      2.5720      0.0074      4.7274     26.2212    129.9903
  2138.8000      7.9661      2.5650     -0.0152      5.1515     26.3988    135.9133
  2138.9000      7.9661      2.5689      0.0212      4.9178     26.6450    138.6387
  2139.0000      7.9662      2.5783      0.0232      4.3452     26.9067    136.9878
  2139.1000      7.9662      2.5742      0.0355      4.5953     26.9526    132.6656
  2139.2000      7.9662      2.5531      0.0061      5.8718     27.0345    129.2250
  2139.3000      7.9646      2.5243      0.0318      7.6166     27.4578    127.9835
  2139.4000      7.9646      2.4876      0.0073      9.8398     27.8056    128.2442
  2139.5000      7.9654      2.4518     -0.0238     12.0121     27.7613    128.8479
  2139.6000      7.9654      2.4364     -0.0332     12.9457     27.3954    128.1201
  2139.7000      7.9654      2.4475     -0.0381     12.2707     26.7341    125.3712
  2139.8000      7.9655      2.4713      0.0471     10.8291     25.9391    122.2232
  2139.9000      7.9655      2.4912      0.0284      9.6249     25.3696    121.6303
  2140.0000      7.9630      2.5093      0.0645      8.5300     25.0999    125.1919
  2140.1000      7.9630      2.5277      0.0834      7.4137     24.7722    131.3811
  2140.2000      7.9630      2.5387      0.0996      6.7464     24.3463    134.5056
  2140.3000      7.9578      2.5481      0.1113      6.1752     24.3360    130.0216
  2140.4000      7.9578      2.5715      0.1117      4.7563     24.9810    122.8662
  2140.5000      7.9492      2.6018      0.2127      2.9221     25.9451    120.3271
  2140.6000      7.9492      2.6224      0.1549      1.6756     26.7646    121.1851
  2140.7000      7.9492      2.6384      0.0948      0.7024     27.2429    119.4905
  2140.8000      7.9443      2.6496      0.1108      0.0255     27.3720    115.0649
  2140.9000      7.9443      2.6386      0.0959      0.6884     27.3386    111.1136
  2141.0000      7.9486      2.6021      0.0696      2.9038     27.3857    108.2383
  2141.1000      7.9486      2.5541      0.0232      5.8104     27.6441    106.8929
  2141.2000      7.9486      2.5031      0.0389      8.9057     28.0152    106.7702
  2141.3000      7.9559      2.4501     -0.0140     12.1166     28.2848    106.8491
