~Version Information
VERS.                      2.0: CWLS Log ASCII Standard - VERSION 2.0
WRAP.                       NO: One line per depth step
~Well Information Block
STRT.FT                -9.2500: 
STOP.FT              2353.7500: 
STEP.FT                 0.2500: 
NULL.                -999.2500: 
COMP.          Petrogulf Corporation: COMPANY
WELL.             Kraft 17-23V: WELL
FLD.           Purgatorie River: FIELD
LOC.           1500' FSL & 1773' FWL--: LOCATION
PROV.                       CO: PROVINCE
CNTY.               Las Animas: COUNTRY
SRVC.          Patterson Wireline: SERVICE COMPANY
DATE.          Wed Dec 10 19:09:59 2003: LOG DATE
UWI.                          : UNIQUE WELL ID
~Curve Information Block
DEPT.FT            0 000 00 00: Depth
CCL.                          : Casing Collar Locator
TT3.usec                      : CBL 3' Travel Time
AMP3.mV                       : CBL 3' Amplitude
GR.GAPI                       : Gamma Ray
~Parameter Information Block
~A  Depth       CCL         TT3         AMP3         GR     
# ...
  2168.2500      0.0000    683.5341      1.0415     74.1650
  2168.5000      0.0000    684.4933      1.0739     73.6027
  2168.7500      0.0000    680.6078      1.1311     71.6330
  2169.0000      0.0000    673.4504      1.2214     69.6614
  2169.2500      0.0000    666.5217      1.3213     68.8275
  2169.5000      0.0000    662.8890      1.3990     69.1199
  2169.7500      0.0000    664.4202      1.4402     69.7353
  2170.0000      0.0000    672.2534      1.4417     70.2367
  2170.2500      0.0000    686.5297      1.4014     71.0160
  2170.5000      0.0000    705.1051      1.3325     72.5181
  2170.7500      0.0000    723.3149      1.2680     74.3472
  2171.0000      0.0000    736.2167      1.2375     75.5222
  2171.2500      0.0000    741.6133      1.2482     75.5929
  2171.5000      0.0000    740.7918      1.2879     75.2974
  2171.7500      0.0000    736.4991      1.3313     75.9695
  2172.0000      0.0000    730.6279      1.3489     78.2417
  2172.2500      0.0000    723.7148      1.3224     81.2964
  2172.5000      0.0000    716.0355      1.2494     83.4773
  2172.7500      0.0000    708.8167      1.1382     83.6908
  2173.0000      0.0000    704.2288      1.0091     82.1849
  2173.2500      0.0000    703.8748      0.9005     80.0788
  2173.5000      0.0000    707.2205      0.8544     78.5117
  2173.7500      0.0000    711.8569      0.8898     78.2882
  2174.0000      0.0000    715.3886      0.9924     79.7376
  2174.2500      0.0000    716.8542      1.1303     82.3217
  2174.5000      0.0000    716.5549      1.2737     84.6306
  2174.7500      0.0000    715.0505      1.3970     85.4213
  2175.0000      0.0000    712.3508      1.4752     84.7745
  2175.2500      0.0000    707.6999      1.4904     83.8485
  2175.5000      0.0000    700.1179      1.4448     83.4207
  2175.7500      0.0000    689.5623      1.3587     83.1252
  2176.0000      0.0000    677.6810      1.2493     82.2559
  2176.2500      0.0000    667.0711      1.1194     80.7160
  2176.5000      0.0000    659.5815      0.9747     78.7576
  2176.7500      0.0000    655.3879      0.8498     76.2783
  2177.0000      0.0000    653.5010      0.7994     72.9604
  2177.2500      0.0000    652.7693      0.8590     68.9230
  2177.5000      0.0000    652.4339      1.0177     64.8155
  2177.7500      0.0000    652.1791      1.2275     61.3550
  2178.0000      0.0000    651.9742      1.4356     59.0508
  2178.2500      0.0000    651.8790      1.6075     58.2557
  2178.5000      0.0000    651.9154      1.7292     59.1547
  2178.7500      0.0000    652.0734      1.7987     61.5263
  2179.0000     -2.0000    652.3700      1.8163     64.4990
  2179.2500      0.0000    652.8396      1.7821     66.6401
  2179.5000      0.0000    653.4623      1.7003     66.6035
  2179.7500      0.0000    654.1318      1.5857     64.1239
  2180.0000      0.0000    654.6869      1.4679     60.5300
  2180.2500      0.0000    654.9496      1.3854     58.1245
  2180.5000      0.0000    654.7744      1.3704     58.7137
  2180.7500      0.0000    654.1437      1.4265     62.3294
  2181.0000      0.0000    653.2285      1.5208     67.1397
  2181.2500      0.0000    652.2975      1.6037     70.5927
  2181.5000      0.0000    651.5498      1.6387     70.9379
  2181.7500      0.0000    651.0402      1.6170     68.2217
  2182.0000      0.0000    650.7247      1.5473     64.1543
  2182.2500      0.0000    650.5267      1.4403     60.7968
  2182.5000      0.0000    650.3755      1.3025     59.1906
  2182.7500      0.0000    650.2333      1.1425     59.1955
  2183.0000      0.0000    650.1148      0.9824     60.2240
  2183.2500      0.0000    650.1102      0.8652     61.6409
  2183.5000      0.0000    650.4220      0.8447     62.7554
  2183.7500      0.0000    651.4435      0.9539     63.0222
  2184.0000      0.0000    653.7439      1.1700     62.3670
  2184.2500      0.0000    657.7639      1.4118     61.2198
  2184.5000      0.0000    663.3590      1.5789     60.2655
  2184.7500      0.0000    669.6953      1.6030     59.9990
  2185.0000      0.0000    675.5289      1.4763     60.1557
  2185.2500      0.0000    679.3956      1.2564     59.5878
  2185.5000      0.0000    679.8701      1.0476     57.1082
  2185.7500      0.0000    676.4368      0.9521     52.5165
  2186.0000      0.0000    670.2587      1.0113     46.6088
  2186.2500      0.0000    663.5716      1.1837     40.4369
  2186.5000      0.0000    658.1276      1.3837     35.0250
  2186.7500      0.0000    654.3777      1.5417     31.5819
  2187.0000      0.0000    651.9385      1.6317     31.1638
  2187.2500      0.0000    650.3738      1.6606     33.6256
  2187.5000      0.0000    649.4606      1.6464     37.2788
  2187.7500      0.0000    649.0557      1.6061     40.1144
  2188.0000      0.0000    648.9742      1.5584     41.3611
  2188.2500      0.0000    649.0341      1.5339     41.6745
  2188.5000      0.0000    649.1372      1.5774     42.0524
  2188.7500      0.0000    649.2767      1.7269     42.8327
  2189.0000      0.0000    649.4727      1.9780     43.5518
  2189.2500      0.0000    649.7297      2.2728     43.5250
  2189.5000      0.0000    650.0400      2.5271     42.5240
  2189.7500      0.0000    650.3960      2.6726     40.9467
  2190.0000      0.0000    650.7783      2.6865     39.4372
  2190.2500      0.0000    651.1426      2.5987     38.4632
  2190.5000      0.0000    651.4337      2.4759     38.1581
  2190.7500      0.0000    651.6740      2.3781     38.2727
  2191.0000      0.0000    652.0559      2.3118     38.3238
  2191.2500      0.0000    652.9141      2.2246     38.1386
  2191.5000      0.0000    654.3432      2.0605     38.2475
  2191.7500      0.0000    655.5651      1.8209     39.4577
  2192.0000      0.0000    654.9013      1.5649     42.0738
  2192.2500      0.0000    651.2644      1.3543     45.7196
  2192.5000      0.0000    646.1069      1.2093     49.8466
  2192.7500      0.0000    643.2047      1.1168     54.2869
  2193.0000      0.0000    645.7119      1.0672     59.3578
  2193.2500      0.0000    653.3027      1.0703     65.3514
  2193.5000      0.0000    662.2410      1.1349     71.7785
  2193.7500      0.0000    668.3049      1.2386     77.2163
  2194.0000      0.0000    669.8968      1.3259     80.1228
  2194.2500      0.0000    668.6024      1.3410     79.9495
  2194.5000      0.0000    667.1717      1.2686     77.5433
  2194.7500      0.0000    667.4413      1.1535     74.5556
  2195.0000      0.0000    669.9227      1.0763     72.5185
  2195.2500      0.0000    674.4125      1.0982     72.3525
  2195.5000      0.0000    680.3751      1.2117     74.2797
  2195.7500      0.0000    687.1142      1.3419     77.7374
  2196.0000      0.0000    694.1226      1.3995     81.4576
  2196.2500      0.0000    701.1568      1.3462     84.1926
  2196.5000      0.0000    707.5280      1.2249     85.6188
  2196.7500      0.0000    711.6975      1.1316     86.2775
  2197.0000      0.0000    712.4466      1.1465     86.5875
  2197.2500      0.0000    710.5818      1.2724     86.3131
  2197.5000      0.0000    708.6053      1.4366     85.1913
  2197.7500      0.0000    708.2185      1.5493     83.7003
  2198.0000      0.0000    708.6236      1.5613     82.7645
  2198.2500      0.0000    707.8767      1.4803     82.6250
  2198.5000      0.0000    705.5179      1.3531     82.3205
  2198.7500      0.0000    702.8329      1.2348     80.5800
  2199.0000      0.0000    700.6859      1.1572     77.0921
  2199.2500      0.0000    698.5470      1.1177     72.8477
  2199.5000      0.0000    695.9539      1.1027     69.5882
  2199.7500      0.0000    693.4585      1.1160     68.8958
  2200.0000      0.0000    691.4759      1.1676     71.1078
  2200.2500      0.0000    689.2153      1.2391     74.6804
  2200.5000      0.0000    685.4630      1.2827     76.9720
  2200.7500      0.0000    680.0236      1.2689     76.1412
  2201.0000      0.0000    673.9592      1.2230     72.4411
  2201.2500      0.0000    668.5783      1.2008     67.6248
  2201.5000      0.0000    664.4708      1.2284     63.2294
