~Version Information
VERS.                      2.0: CWLS Log ASCII Standard - VERSION 2.0
WRAP.                       NO: One line per depth step
~Well Information Block
STRT.FT               866.0000: 
STOP.FT              2027.5000: 
STEP.FT                 0.1000: 
NULL.                -999.2500: 
COMP.          Petrogulf Corporation: COMPANY
WELL.             State 16-21R: WELL
FLD.           Purgatorie River: FIELD
LOC.           203' FNL & 1560' FWL: LOCATION
PROV.                 Colorado: PROVINCE
CNTY.               Las Animas: COUNTRY
SRVC.                Patterson: SERVICE COMPANY
DATE.          Tue Aug 16 13:32:09 2005: LOG DATE
UWI.                071 08313 : UNIQUE WELL ID
~Curve Information Block
DEPT.FT            0 000 00 00: Depth
DCAL.in                       : CDL Caliper
RHOB.g/cc                     : CDL Bulk Density
RHOC.g/cc                     : CDL Density Correction
DPOR.pu                       : CDL Density Porosity
GR.GAPI                       : Gamma Ray
NPOR.pu                       : Neutron Porosity
~Parameter Information Block
~A  Depth       DCAL        RHOB        RHOC        DPOR         GR         NPOR    
# ...
  1096.4000      8.0931      2.1563     -0.0472     29.9211    112.0700     26.3198
  1096.5000      8.0819      2.0794     -0.0475     34.5812    110.2426     27.6201
  1096.6000      8.0819      2.0185     -0.0169     38.2731    109.1221     28.3170
  1096.7000      8.0819      1.9670      0.0093     41.3954    109.7119     28.8915
  1096.8000      8.1783      1.9171      0.0181     44.4179    110.1834     29.8181
  1096.9000      8.1783      1.8762     -0.0058     46.8992    107.2314     30.8364
  1097.0000      8.2849      1.8539      0.0094     48.2476    102.5406     31.6399
  1097.1000      8.2849      1.8500      0.0667     48.4823    101.2225     32.2432
  1097.2000      8.2849      1.8579      0.1146     48.0068    101.9628     32.6320
  1097.3000      8.2134      1.8720      0.1649     47.1516    101.6224     32.7656
  1097.4000      8.2134      1.8915      0.1550     45.9709     99.9017     32.7438
  1097.5000      8.2394      1.9168      0.1243     44.4387     98.5121     32.7136
  1097.6000      8.2394      1.9436      0.1236     42.8109     99.9563     32.9113
  1097.7000      8.2394      1.9681      0.1057     41.3247    102.8291     33.2953
  1097.8000      8.2254      1.9888      0.0980     40.0697    104.0778     33.4272
  1097.9000      8.2254      1.9973      0.1485     39.5602    103.7134     33.1114
  1098.0000      8.2686      1.9892      0.0827     40.0513    102.1989     32.8290
  1098.1000      8.2686      1.9809      0.0793     40.5528    100.5887     32.9673
  1098.2000      8.2686      1.9900      0.0807     40.0025    101.6389     33.1221
  1098.3000      8.2566      2.0202      0.0793     38.1718    104.8621     32.9451
  1098.4000      8.2566      2.0681      0.1139     35.2658    107.5442     32.7015
  1098.5000      8.2207      2.1286      0.1448     31.5974    109.6608     32.7150
  1098.6000      8.2207      2.1982      0.1518     27.3820    112.2622     32.9338
  1098.7000      8.2207      2.2737      0.1893     22.8087    115.5527     33.0586
  1098.8000      8.2593      2.3470      0.2007     18.3665    118.1728     32.8723
  1098.9000      8.2593      2.4104      0.1989     14.5190    119.8823     32.5453
  1099.0000      8.2290      2.4680      0.1226     11.0311    120.8753     32.2025
  1099.1000      8.2290      2.5206      0.1698      7.8436    119.7954     31.6515
  1099.2000      8.2290      2.5533      0.1302      5.8603    118.5092     30.9654
  1099.3000      8.1937      2.5619      0.1226      5.3386    120.8599     30.2182
  1099.4000      8.1937      2.5601      0.1230      5.4503    125.6713     28.9715
  1099.5000      8.1794      2.5656      0.0794      5.1147    128.0442     27.2200
  1099.6000      8.1794      2.5873      0.1088      3.7972    126.4924     25.8003
  1099.7000      8.1794      2.6100      0.1570      2.4262    124.1106     25.1045
  1099.8000      8.1384      2.6097      0.1306      2.4454    123.0922     24.7316
  1099.9000      8.1384      2.5825      0.0958      4.0890    122.4696     24.4441
  1100.0000      8.1084      2.5399      0.0637      6.6719    121.5002     24.2481
  1100.1000      8.1084      2.4913      0.0645      9.6194    121.3945     24.3293
  1100.2000      8.1084      2.4480      0.0293     12.2450    121.7660     24.8380
  1100.3000      8.1185      2.4228      0.0000     13.7669    120.6036     25.5440
  1100.4000      8.1185      2.4133      0.0303     14.3437    118.7528     26.2438
  1100.5000      8.1598      2.4038      0.0533     14.9186    118.5205     26.8386
  1100.6000      8.1598      2.3934      0.0150     15.5521    118.6244     27.2744
  1100.7000      8.1598      2.3978      0.0698     15.2858    116.8699     27.4930
  1100.8000      8.2255      2.4252      0.0712     13.6220    115.8369     27.5421
  1100.9000      8.2255      2.4694      0.1024     10.9428    117.7401     27.6477
  1101.0000      8.2919      2.5155      0.1281      8.1488    119.5997     27.8952
  1101.1000      8.2919      2.5499      0.1231      6.0677    119.0003     28.1694
  1101.2000      8.2919      2.5682      0.0974      4.9595    116.9098     28.0316
  1101.3000      8.3290      2.5722      0.1077      4.7179    115.7440     27.2163
  1101.4000      8.3290      2.5623      0.1277      5.3134    116.7728     26.3431
  1101.5000      8.3276      2.5495      0.0792      6.0908    116.7918     25.8941
  1101.6000      8.3276      2.5519      0.0421      5.9430    112.8765     25.4728
  1101.7000      8.3276      2.5681      0.0757      4.9655    108.4552     24.9100
  1101.8000      8.3137      2.5874      0.0612      3.7953    106.7810     24.5545
  1101.9000      8.3137      2.6113      0.0879      2.3455    105.0194     24.1549
  1102.0000      8.2961      2.6378      0.0894      0.7410    100.9654     23.1973
  1102.1000      8.2961      2.6557      0.1449     -0.3448     96.1028     21.8626
  1102.2000      8.2961      2.6567      0.1698     -0.4047     93.2168     20.6000
  1102.3000      8.2521      2.6480      0.1153      0.1230     93.6776     19.6519
  1102.4000      8.2521      2.6455      0.1095      0.2740     94.9272     19.2141
  1102.5000      8.1430      2.6500      0.1498      0.0000     93.6696     19.2075
  1102.6000      8.1430      2.6509      0.1235     -0.0524     91.7463     19.3152
  1102.7000      8.1430      2.6432      0.1166      0.4120     92.7174     19.3657
  1102.8000      8.0337      2.6335      0.0498      1.0022     95.0207     19.3188
  1102.9000      8.0337      2.6291      0.0810      1.2687     96.1369     19.1741
  1103.0000      8.0997      2.6207      0.0830      1.7759     97.2018     18.9465
  1103.1000      8.0997      2.5987      0.0450      3.1121     98.5396     18.7599
  1103.2000      8.0997      2.5731      0.0261      4.6583     99.4549     18.8505
  1103.3000      8.1332      2.5604      0.0127      5.4292    101.5357     19.5632
  1103.4000      8.1332      2.5665      0.0682      5.0601    105.7279     20.8892
  1103.5000      8.1305      2.5793      0.0699      4.2851    108.6768     22.0380
  1103.6000      8.1305      2.5838      0.0792      4.0133    109.1979     22.5807
  1103.7000      8.1305      2.5768      0.0954      4.4381    110.6834     23.1580
  1103.8000      8.1131      2.5592      0.0661      5.5015    112.9745     24.1685
  1103.9000      8.1131      2.5358      0.0781      6.9209    114.0433     25.2841
  1104.0000      8.0924      2.5211      0.0714      7.8138    115.9391     26.1830
  1104.1000      8.0924      2.5256      0.0808      7.5413    119.6800     26.6908
  1104.2000      8.0924      2.5395      0.1169      6.6981    122.3381     27.0012
  1104.3000      8.0978      2.5531      0.0944      5.8753    122.8825     27.6293
  1104.4000      8.0978      2.5675      0.1173      4.9988    122.9316     28.3506
  1104.5000      8.1736      2.5822      0.1217      4.1068    121.8880     28.4098
  1104.6000      8.1736      2.5930      0.1199      3.4559    119.6160     27.9820
  1104.7000      8.1736      2.5886      0.1849      3.7188    117.7576     27.7712
  1104.8000      8.1857      2.5677      0.1326      4.9907    116.2062     27.8088
  1104.9000      8.1857      2.5496      0.1644      6.0826    115.8276     27.8397
  1105.0000      8.2632      2.5391      0.1789      6.7215    118.1559     27.8141
  1105.1000      8.2632      2.5230      0.1189      7.6967    120.6825     27.7225
  1105.2000      8.2632      2.5004      0.1035      9.0665    119.8866     27.5684
  1105.3000      8.2709      2.4861      0.0778      9.9317    117.1241     27.4632
  1105.4000      8.2709      2.4948      0.0781      9.4071    116.7895     27.4936
  1105.5000      8.3188      2.5228      0.1108      7.7096    118.5518     27.5602
  1105.6000      8.3188      2.5510      0.1373      6.0006    117.2726     27.6386
  1105.7000      8.3188      2.5655      0.1571      5.1208    111.1794     27.7178
  1105.8000      8.3661      2.5726      0.1276      4.6883    104.4947     27.4083
  1105.9000      8.3661      2.5847      0.1643      3.9586    101.3330     26.6363
