~Version Information
VERS.                      2.0: CWLS Log ASCII Standard - VERSION 2.0
WRAP.                       NO: One line per depth step
~Well Information Block
STRT.FT               480.1000: 
STOP.FT              2029.0000: 
STEP.FT                 0.1000: 
NULL.                -999.2500: 
COMP.          Petrogulf Corporation: COMPANY
WELL.            Montoya 7-12R: WELL
FLD.           Purgatorie River: FIELD
LOC.           1769' FNL & 658' FWL: LOCATION
CNTY.               Las Animas: COUNTY
SRVC.                         : SERVICE COMPANY
DATE.          Mon Nov 22 07:21:54 2004: LOG DATE
UWI.           05 071 08240 00: UNIQUE WELL ID
STAT.                 Colorado: STATE
~Curve Information Block
DEPT.FT            0 000 00 00: Depth
DCAL.in                       : CDL Caliper
RHOB.g/cc                     : CDL Bulk Density
RHOC.g/cc                     : CDL Density Correction
DPOR.pu                       : CDL Density Porosity
GR.GAPI                       : Gamma Ray
NPOR.pu                       : Neutron Porosity
~Parameter Information Block
~A  Depth       DCAL        RHOB        RHOC        DPOR         GR         NPOR    
# ...
  1910.5000      7.9072      2.5387      0.0699      6.7470     99.5981     24.9332
  1910.6000      7.9072      2.5574      0.0932      5.6133    105.0730     24.1014
  1910.7000      7.9072      2.5750      0.0608      4.5474    108.9907     23.1884
  1910.8000      7.8818      2.5824      0.1054      4.0991    110.1484     23.1086
  1910.9000      7.8818      2.5787      0.0485      4.3185    108.6084     24.0210
  1911.0000      7.8860      2.5847      0.0815      3.9590    108.0776     25.5075
  1911.1000      7.8860      2.5986      0.1118      3.1140    112.3649     26.4346
  1911.2000      7.8860      2.5960      0.0962      3.2719    120.2086     26.2622
  1911.3000      7.8955      2.5750      0.0644      4.5444    125.6266     25.7530
  1911.4000      7.8955      2.5513      0.0687      5.9822    125.7442     25.5004
  1911.5000      7.9036      2.5399     -0.0184      6.6719    123.1913     25.7074
  1911.6000      7.9036      2.5491      0.0281      6.1129    121.2825     26.3100
  1911.7000      7.9036      2.5655      0.0451      5.1189    121.4643     27.1670
  1911.8000      7.9663      2.5690      0.0225      4.9111    122.3114     28.2724
  1911.9000      7.9663      2.5567      0.0014      5.6525    122.8735     29.2962
  1912.0000      7.9899      2.5420     -0.0128      6.5477    125.8786     29.5586
  1912.1000      7.9899      2.5392      0.0471      6.7147    132.2698     28.7378
  1912.2000      7.9899      2.5483      0.0204      6.1641    137.9643     27.3066
  1912.3000      8.0404      2.5569      0.0972      5.6453    138.6909     26.6530
  1912.4000      8.0404      2.5627      0.0433      5.2906    134.2292     27.4127
  1912.5000      8.0014      2.5724      0.1214      4.7043    130.3006     28.3049
  1912.6000      8.0014      2.5715      0.1130      4.7581    129.8370     27.9481
  1912.7000      8.0014      2.5429      0.0872      6.4900    127.2612     26.6594
  1912.8000      7.9958      2.4868      0.1408      9.8904    121.5168     26.0122
  1912.9000      7.9958      2.4182      0.0581     14.0469    117.6413     26.8596
  1913.0000      7.9173      2.3627      0.0299     17.4119    117.3736     28.3215
  1913.1000      7.9173      2.3278      0.0669     19.5278    119.9354     29.4186
  1913.2000      7.9173      2.3051      0.0418     20.9025    124.9230     30.2664
  1913.3000      7.9428      2.2950      0.0133     21.5182    129.0604     30.8858
  1913.4000      7.9428      2.2852      0.0781     22.1071    129.2253     30.3313
  1913.5000      8.1235      2.2374      0.1869     25.0038    128.0307     28.8221
  1913.6000      8.1235      2.1366      0.2389     31.1138    129.4282     28.5634
  1913.7000      8.1235      2.0224      0.2020     38.0366    134.6527     30.2814
  1913.8000      8.2441      1.9422      0.1943     42.8949    139.7941     32.1852
  1913.9000      8.2441      1.9154      0.1663     44.5184    138.6334     32.7522
  1914.0000      8.4699      1.9511      0.1410     42.3559    133.1582     32.3586
  1914.1000      8.4699      2.0470      0.2409     36.5464    127.5228     32.5597
  1914.2000      8.4699      2.1702      0.3384     29.0781    122.3273     33.7461
  1914.3000      8.2549      2.2780      0.3683     22.5432    119.2703     34.2844
  1914.4000      8.2549      2.3527      0.3628     18.0197    118.7237     33.0882
  1914.5000      8.7186      2.4059      0.3649     14.7960    118.5383     31.3248
  1914.6000      8.7186      2.4540      0.3451     11.8804    118.8782     30.2705
  1914.7000      8.7186      2.4947      0.3023      9.4112    120.3730     29.5176
  1914.8000      9.5882      2.5125      0.3004      8.3342    120.7043     28.9622
  1914.9000      9.5882      2.5056      0.1854      8.7521    118.1373     29.1687
  1915.0000      9.8750      2.4834      0.1904     10.0949    113.9852     29.9046
  1915.1000      9.8750      2.4454      0.1766     12.4018    110.3257     30.1049
  1915.2000      9.8750      2.3993      0.1249     15.1943    108.8926     29.5008
  1915.3000      9.9108      2.3707      0.0179     16.9268    109.5501     29.2320
  1915.4000      9.9108      2.3758      0.0354     16.6186    111.0999     29.6543
  1915.5000     10.0058      2.4123      0.0193     14.4083    113.2859     30.1404
  1915.6000     10.0058      2.4711      0.0622     10.8451    114.2974     30.3672
  1915.7000     10.0058      2.5312      0.1566      7.1994    111.1504     30.1346
  1915.8000      9.5474      2.5712      0.1920      4.7759    104.3022     29.3617
  1915.9000      9.5474      2.5793      0.2033      4.2830     97.9733     28.4828
  1916.0000      8.1491      2.5506      0.1977      6.0261     96.7656     27.7910
  1916.1000      8.1491      2.5057      0.0651      8.7458    102.0617     27.3089
  1916.2000      8.1491      2.4811      0.1156     10.2390    109.6141     27.1036
  1916.3000      7.9447      2.4884      0.0432      9.7948    111.4662     26.8427
  1916.4000      7.9447      2.5164      0.1156      8.0996    107.4584     26.2652
  1916.5000      7.9526      2.5471      0.1030      6.2359    105.5906     25.7401
  1916.6000      7.9526      2.5683      0.1292      4.9494    105.9995     25.5794
  1916.7000      7.9526      2.5738      0.1400      4.6187    104.1181     25.5842
  1916.8000      7.9913      2.5668      0.1048      5.0452    103.0903     25.2793
  1916.9000      7.9913      2.5557      0.0946      5.7182    105.3501     24.5289
  1917.0000      7.9991      2.5423      0.1193      6.5262    107.2710     24.0551
  1917.1000      7.9991      2.5279      0.0997      7.4004    108.6831     24.3013
  1917.2000      7.9991      2.5197      0.0163      7.8940    112.2614     24.7608
  1917.3000      7.9887      2.5239     -0.0014      7.6449    113.9791     24.8298
  1917.4000      7.9887      2.5346      0.0480      6.9921    108.7405     24.3671
  1917.5000      8.0190      2.5411      0.0853      6.5996    100.3528     23.6116
  1917.6000      8.0190      2.5403      0.0252      6.6472     94.8603     22.9506
  1917.7000      8.0190      2.5347      0.0684      6.9890     95.7935     22.6389
  1917.8000      8.0253      2.5327     -0.0022      7.1082    101.4172     22.5822
  1917.9000      8.0253      2.5423      0.0296      6.5253    106.4608     22.9823
  1918.0000      8.0443      2.5542      0.0385      5.8056    111.0173     23.7798
  1918.1000      8.0443      2.5627      0.0487      5.2898    114.1204     23.6893
  1918.2000      8.0443      2.5752      0.0405      4.5307    111.8604     22.1695
  1918.3000      8.1481      2.5935      0.0422      3.4255    105.8573     20.6360
  1918.4000      8.1481      2.6090      0.0663      2.4829     99.1734     19.9523
  1918.5000      8.1981      2.6109      0.0535      2.3723     91.9501     19.7282
  1918.6000      8.1981      2.6000      0.0546      3.0313     87.0359     19.9398
  1918.7000      8.1981      2.5963     -0.0135      3.2548     86.8330     20.2139
  1918.8000      7.9406      2.6033      0.0487      2.8321     86.9052     19.1931
  1918.9000      7.9406      2.5954      0.0471      3.3091     83.7514     16.9358
  1919.0000      7.8953      2.5740     -0.0404      4.6040     80.9670     15.2482
  1919.1000      7.8953      2.5691     -0.0269      4.9055     82.2479     15.1090
  1919.2000      7.8953      2.5811      0.0404      4.1732     84.3511     16.1407
  1919.3000      7.9039      2.5882      0.0585      3.7477     83.5134     17.5498
  1919.4000      7.9039      2.5835      0.0310      4.0320     80.7899     18.3343
  1919.5000      7.8630      2.5654      0.0563      5.1295     77.8824     18.2387
  1919.6000      7.8630      2.5334      0.0319      7.0667     73.8396     17.8757
  1919.7000      7.8630      2.5036      0.0507      8.8703     67.8057     17.6190
  1919.8000      7.8714      2.4876      0.0352      9.8411     60.6335     17.4845
  1919.9000      7.8714      2.4797      0.0271     10.3226     54.2947     17.4690
  1920.0000      7.8575      2.4725      0.0320     10.7582     49.4755     17.7051
