~Version Information
VERS.                      2.0: CWLS Log ASCII Standard - VERSION 2.0
WRAP.                       NO: One line per depth step
~Well Information Block
STRT.FT               590.0000: 
STOP.FT              1563.5000: 
STEP.FT                 0.1000: 
NULL.                -999.2500: 
COMP.          Petrogulf Corporation: COMPANY
WELL.             State 16-43R: WELL
FLD.           Purgatorie River: FIELD
LOC.           2538' FSL & 716' FEL: LOCATION
PROV.                 Colorado: PROVINCE
CNTY.               Las Animas: COUNTRY
SRVC.                Patterson: SERVICE COMPANY
DATE.          Tue Aug 09 14:21:37 2005: LOG DATE
UWI.                          : UNIQUE WELL ID
~Curve Information Block
DEPT.FT            0 000 00 00: Depth
DCAL.in                       : CDL Caliper
RHOB.g/cc                     : CDL Bulk Density
RHOC.g/cc                     : CDL Density Correction
DPOR.pu                       : CDL Density Porosity
GR.GAPI                       : Gamma Ray
NPOR.pu                       : Neutron Porosity
~Parameter Information Block
~A  Depth       DCAL        RHOB        RHOC        DPOR         GR         NPOR    
# ...
  1530.8000      7.8870      2.6191      0.1121      1.8734   -999.2500   -999.2500
  1530.9000      7.8870      2.6371      0.1340      0.7819   -999.2500   -999.2500
  1531.0000      7.8855      2.6408      0.1188      0.5563   -999.2500   -999.2500
  1531.1000      7.8855      2.6345      0.1299      0.9416   -999.2500   -999.2500
  1531.2000      7.8855      2.6216      0.1121      1.7216   -999.2500   -999.2500
  1531.3000      7.8784      2.6072      0.0908      2.5937   -999.2500   -999.2500
  1531.4000      7.8784      2.6010      0.0923      2.9701   -999.2500   -999.2500
  1531.5000      7.8939      2.6082      0.0591      2.5325   -999.2500   -999.2500
  1531.6000      7.8939      2.6217      0.1104      1.7158   -999.2500   -999.2500
  1531.7000      7.8939      2.6270      0.1224      1.3958   -999.2500   -999.2500
  1531.8000      7.9156      2.6226      0.1106      1.6583   -999.2500   -999.2500
  1531.9000      7.9156      2.6175      0.1020      1.9677   -999.2500   -999.2500
  1532.0000      7.9367      2.6150      0.0987      2.1199   -999.2500   -999.2500
  1532.1000      7.9367      2.6119      0.0767      2.3075   -999.2500   -999.2500
  1532.2000      7.9367      2.6029      0.0789      2.8519   -999.2500   -999.2500
  1532.3000      7.9328      2.5852      0.1030      3.9243   -999.2500   -999.2500
  1532.4000      7.9328      2.5658      0.0560      5.1055   -999.2500   -999.2500
  1532.5000      7.9323      2.5549      0.0385      5.7619   -999.2500   -999.2500
  1532.6000      7.9323      2.5526      0.0741      5.9038   -999.2500   -999.2500
  1532.7000      7.9323      2.5558      0.0623      5.7120   -999.2500   -999.2500
  1532.8000      7.9356      2.5651      0.0574      5.1470   -999.2500   -999.2500
  1532.9000      7.9356      2.5755      0.0282      4.5169   -999.2500   -999.2500
  1533.0000      7.9417      2.5788      0.0731      4.3128   -999.2500   -999.2500
  1533.1000      7.9417      2.5755      0.0781      4.5159   -999.2500   -999.2500
  1533.2000      7.9417      2.5707      0.0316      4.8047   -999.2500   -999.2500
  1533.3000      7.9487      2.5667      0.0600      5.0472   -999.2500   -999.2500
  1533.4000      7.9487      2.5691      0.0313      4.9009   -999.2500   -999.2500
  1533.5000      7.9632      2.5790      0.0655      4.3012   -999.2500   -999.2500
  1533.6000      7.9632      2.5831      0.0861      4.0534   -999.2500   -999.2500
  1533.7000      7.9632      2.5786      0.0778      4.3249   -999.2500   -999.2500
  1533.8000      7.9417      2.5744      0.1019      4.5790   -999.2500   -999.2500
  1533.9000      7.9417      2.5679      0.0741      4.9782   -999.2500   -999.2500
  1534.0000      7.9284      2.5558      0.0593      5.7092   -999.2500   -999.2500
  1534.1000      7.9284      2.5468      0.0377      6.2530   -999.2500   -999.2500
  1534.2000      7.9284      2.5467      0.0509      6.2615   -999.2500   -999.2500
  1534.3000      7.9422      2.5498      0.0421      6.0715   -999.2500   -999.2500
  1534.4000      7.9422      2.5518      0.0505      5.9544   -999.2500   -999.2500
  1534.5000      7.9677      2.5532      0.0571      5.8664   -999.2500   -999.2500
  1534.6000      7.9677      2.5545      0.0551      5.7857   -999.2500   -999.2500
  1534.7000      7.9677      2.5578      0.0583      5.5888   -999.2500   -999.2500
  1534.8000      7.9531      2.5681      0.0454      4.9650   -999.2500   -999.2500
  1534.9000      7.9531      2.5834      0.0950      4.0385   -999.2500   -999.2500
  1535.0000      7.9424      2.5907      0.1077      3.5912   -999.2500   -999.2500
  1535.1000      7.9424      2.5851      0.0911      3.9340   -999.2500   -999.2500
  1535.2000      7.9424      2.5770      0.0699      4.4252   -999.2500   -999.2500
  1535.3000      7.9390      2.5754      0.0489      4.5190   -999.2500   -999.2500
  1535.4000      7.9390      2.5791      0.0829      4.2998   -999.2500   -999.2500
  1535.5000      7.9510      2.5815      0.0885      4.1506   -999.2500   -999.2500
  1535.6000      7.9510      2.5792      0.0435      4.2881   -999.2500   -999.2500
  1535.7000      7.9510      2.5725      0.0443      4.6986   -999.2500   -999.2500
  1535.8000      7.9587      2.5610      0.0561      5.3958   -999.2500   -999.2500
  1535.9000      7.9587      2.5480      0.0416      6.1838   -999.2500   -999.2500
  1536.0000      7.9667      2.5399      0.0214      6.6727   -999.2500   -999.2500
  1536.1000      7.9667      2.5377      0.0048      6.8046   -999.2500   -999.2500
  1536.2000      7.9667      2.5397      0.0588      6.6821   -999.2500   -999.2500
  1536.3000      7.9732      2.5467      0.0370      6.2620   -999.2500   -999.2500
  1536.4000      7.9732      2.5570      0.0530      5.6384   -999.2500   -999.2500
  1536.5000      7.9746      2.5627      0.0684      5.2884   -999.2500   -999.2500
  1536.6000      7.9746      2.5629      0.0658      5.2799   -999.2500   -999.2500
  1536.7000      7.9746      2.5662      0.0775      5.0799   -999.2500   -999.2500
  1536.8000      7.9570      2.5745      0.0683      4.5737   -999.2500   -999.2500
  1536.9000      7.9570      2.5828      0.1122      4.0714   -999.2500   -999.2500
  1537.0000      7.9308      2.5881      0.0919      3.7535   -999.2500   -999.2500
  1537.1000      7.9308      2.5873      0.0846      3.7990   -999.2500   -999.2500
  1537.2000      7.9308      2.5785      0.0701      4.3341   -999.2500   -999.2500
  1537.3000      7.9455      2.5740      0.0479      4.6049   -999.2500   -999.2500
  1537.4000      7.9455      2.5826      0.0709      4.0842   -999.2500   -999.2500
  1537.5000      7.9747      2.5867      0.1016      3.8335   -999.2500   -999.2500
  1537.6000      7.9747      2.5729      0.0638      4.6749   -999.2500   -999.2500
  1537.7000      7.9747      2.5532      0.0503      5.8652   -999.2500   -999.2500
  1537.8000      7.9621      2.5388      0.0322      6.7412   -999.2500   -999.2500
  1537.9000      7.9621      2.5251      0.0314      7.5695   -999.2500   -999.2500
  1538.0000      7.8895      2.5091      0.0388      8.5374   -999.2500   -999.2500
  1538.1000      7.8895      2.5216      0.0234      7.7843   -999.2500   -999.2500
  1538.2000      7.8895      2.7139      0.0373     -3.8720   -999.2500   -999.2500
  1538.3000      7.5472      3.3521      0.0194    -42.5545   -999.2500   -999.2500
  1538.4000      7.5472      4.2034      0.4673    -94.1481   -999.2500   -999.2500
  1538.5000      5.9996      4.0594      1.7627    -85.4174   -999.2500   -999.2500
  1538.6000      5.9996      2.4779      0.0000     10.4293   -999.2500   -999.2500
  1538.7000      5.9996      0.8692   -999.2500    107.9263   -999.2500   -999.2500
  1538.8000     -1.7498      0.1677   -999.2500    150.4397   -999.2500   -999.2500
  1538.9000     -1.7498      0.0174   -999.2500    159.5493   -999.2500   -999.2500
  1539.0000     -2.7901      0.0010   -999.2500    160.5482   -999.2500   -999.2500
  1539.1000     -2.7901      0.0000   -999.2500    160.6061   -999.2500   -999.2500
  1539.2000     -2.7901   -999.2500   -999.2500   -999.2500   -999.2500   -999.2500
  1539.3000   -999.2500   -999.2500   -999.2500   -999.2500   -999.2500   -999.2500
  1539.4000   -999.2500   -999.2500   -999.2500   -999.2500   -999.2500   -999.2500
  1539.5000   -999.2500   -999.2500   -999.2500   -999.2500   -999.2500   -999.2500
  1539.6000   -999.2500   -999.2500   -999.2500   -999.2500   -999.2500   -999.2500
  1539.7000   -999.2500   -999.2500   -999.2500   -999.2500   -999.2500   -999.2500
  1539.8000   -999.2500   -999.2500   -999.2500   -999.2500   -999.2500   -999.2500
  1539.9000   -999.2500   -999.2500   -999.2500   -999.2500   -999.2500   -999.2500
  1540.0000   -999.2500   -999.2500   -999.2500   -999.2500   -999.2500   -999.2500
  1540.1000   -999.2500   -999.2500   -999.2500   -999.2500   -999.2500   -999.2500
  1540.2000   -999.2500   -999.2500   -999.2500   -999.2500   -999.2500   -999.2500
  1540.3000   -999.2500   -999.2500   -999.2500   -999.2500   -999.2500   -999.2500
