~Version Information
VERS.                      2.0: CWLS Log ASCII Standard - VERSION 2.0
WRAP.                       NO: One line per depth step
~Well Information Block
STRT.FT               510.0000: 
STOP.FT              1845.5000: 
STEP.FT                 0.1000: 
NULL.                -999.2500: 
COMP.          Pioneer Natural Resources: COMPANY
WELL.           Stampede 42-18: WELL
FLD.           Purgatoire River: FIELD
LOC.           2479' FNL & 160' FEL--: LOCATION
CNTY.               Las Animas: COUNTY
SRVC.          Superior Well Services: SERVICE COMPANY
DATE.          Sat Jun 09 02:39:23 2007: LOG DATE
UWI.           05 071 08237 00: UNIQUE WELL ID
STAT.                 Colorado: STATE
~Curve Information Block
DEPT.FT            0 000 00 00: Depth
DCAL.in                       : CDL Caliper
RHOB.g/cc                     : CDL Bulk Density
RHOC.g/cc                     : CDL Density Correction
DPOR.pu                       : CDL Density Porosity
GR.GAPI                       : Gamma Ray
~Parameter Information Block
~A  Depth       DCAL        RHOB        RHOC        DPOR         GR     
# ...
  1484.4000      7.8253      2.5970      0.0902      3.2095    115.0977
  1484.5000      7.8250      2.5872      0.0529      3.8061    115.9700
  1484.6000      7.8250      2.5721      0.0656      4.7208    115.9285
  1484.7000      7.8250      2.5497      0.0352      6.0767    117.1648
  1484.8000      7.8225      2.5231      0.0050      7.6896    120.6489
  1484.9000      7.8225      2.5114      0.0123      8.3999    122.2000
  1485.0000      7.8161      2.5280      0.0092      7.3960    119.8118
  1485.1000      7.8161      2.5619      0.0630      5.3410    116.0720
  1485.2000      7.8161      2.5890      0.1041      3.6964    116.3461
  1485.3000      7.8102      2.5962      0.1168      3.2604    120.7345
  1485.4000      7.8102      2.5905      0.0839      3.6044    124.6302
  1485.5000      7.8084      2.5872      0.0611      3.8064    127.7299
  1485.6000      7.8084      2.5911      0.0762      3.5701    129.2522
  1485.7000      7.8084      2.5934      0.1027      3.4320    127.1000
  1485.8000      7.8096      2.5893      0.0527      3.6785    123.3441
  1485.9000      7.8096      2.5890      0.0784      3.6995    121.8542
  1486.0000      7.8109      2.5979      0.0349      3.1568    121.7492
  1486.1000      7.8109      2.6033      0.0705      2.8278    121.6759
  1486.2000      7.8109      2.5944      0.0876      3.3703    122.6817
  1486.3000      7.8116      2.5853      0.0572      3.9182    124.6576
  1486.4000      7.8116      2.5931      0.0986      3.4473    126.9581
  1486.5000      7.8125      2.6037      0.1035      2.8079    128.1559
  1486.6000      7.8125      2.6021      0.0978      2.9042    125.7002
  1486.7000      7.8125      2.6030      0.0534      2.8500    120.3320
  1486.8000      7.8139      2.6157      0.1218      2.0812    120.2328
  1486.9000      7.8139      2.6238      0.1148      1.5850    128.0004
  1487.0000      7.8136      2.6190      0.0899      1.8786    131.8882
  1487.1000      7.8136      2.6132      0.0618      2.2310    125.0466
  1487.2000      7.8136      2.6104      0.0798      2.3991    113.2593
  1487.3000      7.8121      2.6044      0.0663      2.7663    104.8863
  1487.4000      7.8121      2.5967      0.1048      3.2278    105.1409
  1487.5000      7.8165      2.5940      0.0652      3.3944    111.5755
  1487.6000      7.8165      2.5988      0.0954      3.1056    114.9823
  1487.7000      7.8165      2.6039      0.0798      2.7923    110.8881
  1487.8000      7.8271      2.6003      0.0729      3.0098    104.1206
  1487.9000      7.8271      2.5891      0.0418      3.6924    100.3458
  1488.0000      7.8350      2.5770      0.0603      4.4246    101.1326
  1488.1000      7.8350      2.5720      0.0418      4.7300    105.6453
  1488.2000      7.8350      2.5811      0.0633      4.1734    109.0879
  1488.3000      7.8369      2.5974      0.0957      3.1870    109.1223
  1488.4000      7.8369      2.6065      0.0811      2.6369    109.5477
  1488.5000      7.8394      2.6018      0.0858      2.9229    111.8736
  1488.6000      7.8394      2.5839      0.0586      4.0060    114.0002
  1488.7000      7.8394      2.5666      0.0218      5.0575    117.3341
  1488.8000      7.8430      2.5644      0.0430      5.1877    121.9129
  1488.9000      7.8430      2.5668      0.0439      5.0395    123.4154
  1489.0000      7.8472      2.5536      0.0670      5.8447    120.0121
  1489.1000      7.8472      2.5298     -0.0049      7.2859    115.8818
  1489.2000      7.8472      2.5191      0.0146      7.9314    116.1277
  1489.3000      7.8527      2.5275      0.0437      7.4251    120.1240
  1489.4000      7.8527      2.5425      0.0310      6.5140    123.0830
  1489.5000      7.8509      2.5574      0.0452      5.6107    121.3883
  1489.6000      7.8509      2.5698      0.0674      4.8578    117.3911
  1489.7000      7.8509      2.5738      0.0795      4.6186    116.4414
  1489.8000      7.8388      2.5665      0.0705      5.0612    118.3385
  1489.9000      7.8388      2.5515      0.0467      5.9714    121.1992
  1490.0000      7.8299      2.5343      0.0365      7.0117    125.1777
  1490.1000      7.8299      2.5214      0.0356      7.7960    130.8120
  1490.2000      7.8299      2.5163      0.0191      8.1008    138.1331
  1490.3000      7.8279      2.5130      0.0806      8.3029    142.1649
  1490.4000      7.8279      2.5006      0.0414      9.0536    139.2420
  1490.5000      7.8295      2.4858      0.0265      9.9512    135.3078
  1490.6000      7.8295      2.4847      0.0188     10.0178    137.1166
  1490.7000      7.8295      2.4991      0.0622      9.1436    141.3974
  1490.8000      7.8362      2.5208      0.0752      7.8288    144.0533
  1490.9000      7.8362      2.5388      0.1220      6.7408    146.9714
  1491.0000      7.8436      2.5489      0.0951      6.1269    149.5923
  1491.1000      7.8436      2.5637      0.1102      5.2300    149.9535
  1491.2000      7.8436      2.5848      0.1423      3.9501    149.5304
  1491.3000      7.8394      2.5910      0.1597      3.5733    147.8254
  1491.4000      7.8394      2.5790      0.0924      4.3014    143.1039
  1491.5000      7.8308      2.5690      0.0971      4.9069    137.4016
  1491.6000      7.8308      2.5680      0.0978      4.9680    131.8080
  1491.7000      7.8308      2.5749      0.0751      4.5539    126.9448
  1491.8000      7.8334      2.5872      0.1469      3.8058    126.2350
  1491.9000      7.8334      2.5945      0.1150      3.3631    133.4195
  1492.0000      7.8484      2.5879      0.1412      3.7622    143.6103
  1492.1000      7.8484      2.5672      0.1182      5.0199    146.5177
  1492.2000      7.8484      2.5454      0.0720      6.3387    141.1034
  1492.3000      7.8628      2.5330      0.0679      7.0879    133.8718
  1492.4000      7.8628      2.5263      0.0958      7.4960    128.3599
  1492.5000      7.8647      2.5208      0.0686      7.8274    123.9566
  1492.6000      7.8647      2.5247      0.0262      7.5965    121.6197
  1492.7000      7.8647      2.5467      0.0648      6.2597    122.9758
  1492.8000      7.8585      2.5770      0.1204      4.4247    126.0143
  1492.9000      7.8585      2.6043      0.1081      2.7719    128.5397
  1493.0000      7.8532      2.6312      0.1272      1.1385    130.8298
  1493.1000      7.8532      2.6493      0.1515      0.0445    133.1108
  1493.2000      7.8532      2.6383      0.1477      0.7063    133.9101
  1493.3000      7.8482      2.6013      0.0729      2.9529    132.2254
  1493.4000      7.8482      2.5717      0.0163      4.7457    130.3747
  1493.5000      7.8417      2.5688      0.0493      4.9240    129.5017
  1493.6000      7.8417      2.5763      0.0705      4.4687    128.4078
  1493.7000      7.8417      2.5833      0.0287      4.0397    126.9614
  1493.8000      7.8374      2.5894      0.1218      3.6698    129.0353
  1493.9000      7.8374      2.5834      0.0775      4.0351    136.3291
  1494.0000      7.8339      2.5652      0.0859      5.1396    145.1726
  1494.1000      7.8339      2.5445      0.0911      6.3923    151.7694
  1494.2000      7.8339      2.5260      0.0436      7.5177    152.3126
  1494.3000      7.8313      2.5118      0.0631      8.3753    148.8410
  1494.4000      7.8313      2.5090      0.0331      8.5433    147.9407
  1494.5000      7.8311      2.5303     -0.0079      7.2571    149.4703
  1494.6000      7.8311      2.5694      0.1249      4.8869    148.1666
  1494.7000      7.8311      2.6039      0.1219      2.7920    142.4414
  1494.8000      7.8335      2.6258      0.1580      1.4697    135.3492
  1494.9000      7.8335      2.6288      0.2177      1.2834    129.7732
  1495.0000      7.8400      2.6111      0.1822      2.3579    127.2925
  1495.1000      7.8400      2.5873      0.1440      3.7990    130.5045
  1495.2000      7.8400      2.5619      0.1140      5.3370    137.4285
  1495.3000      7.8489      2.5317      0.0603      7.1670    140.2257
  1495.4000      7.8489      2.5093      0.0480      8.5277    137.9975
  1495.5000      7.8630      2.5058      0.0459      8.7407    139.4189
