~Version Information
VERS.                      2.0: CWLS Log ASCII Standard - VERSION 2.0
WRAP.                       NO: One line per depth step
~Well Information Block
STRT.FT               275.0000: 
STOP.FT              1682.2000: 
STEP.FT                 0.1000: 
NULL.                -999.2500: 
COMP.          Pioneer Natural Resources: COMPANY
WELL.               Elmo 14-21: WELL
FLD.           Purgatoire River: FIELD
LOC.           623' FSL & 450' FWL----: LOCATION
PROV.                 Colorado: PROVINCE
CNTY.               Las Animas: COUNTRY
SRVC.                Patterson: SERVICE COMPANY
DATE.          Wed May 18 08:17:30 2005: LOG DATE
UWI.           05 071 08360 00: UNIQUE WELL ID
~Curve Information Block
DEPT.FT            0 000 00 00: Depth
DCAL.in                       : CDL Caliper
RHOB.g/cc                     : CDL Bulk Density
RHOC.g/cc                     : CDL Density Correction
DPOR.pu                       : CDL Density Porosity
NPOR.pu                       : Neutron Porosity
GR.GAPI                       : Gamma Ray
~Parameter Information Block
~A  Depth       DCAL        RHOB        RHOC        DPOR        NPOR         GR     
# ...
   371.0000      8.2393      2.5540      0.0356      5.8177     15.2501     47.1517
   371.1000      8.2393      2.5310      0.0046      7.2131     15.1568     43.3343
   371.2000      8.2393      2.5122     -0.0078      8.3493     15.0070     38.0192
   371.3000      8.2362      2.5091     -0.0211      8.5412     14.5587     34.8507
   371.4000      8.2362      2.5158      0.0056      8.1331     14.0810     36.1753
   371.5000      8.2338      2.5207      0.0217      7.8372     13.9214     40.0652
   371.6000      8.2338      2.5218      0.0169      7.7694     14.0678     44.4024
   371.7000      8.2338      2.5273      0.0589      7.4380     14.3957     47.8966
   371.8000      8.2358      2.5460      0.0380      6.3038     14.8365     48.1010
   371.9000      8.2358      2.5766      0.0930      4.4467     15.2851     46.2823
   372.0000      8.2389      2.6043      0.0750      2.7723     15.7214     46.4421
   372.1000      8.2389      2.6236      0.0724      1.5980     16.0658     48.6171
   372.2000      8.2389      2.6352      0.1029      0.8969     16.3720     51.2049
   372.3000      8.2397      2.6304      0.0758      1.1853     16.9489     52.4989
   372.4000      8.2397      2.6086      0.0386      2.5100     17.8103     52.9345
   372.5000      8.2395      2.5841      0.0323      3.9942     18.6589     55.9377
   372.6000      8.2395      2.5698     -0.0024      4.8614     19.4666     61.1709
   372.7000      8.2395      2.5632      0.0159      5.2607     20.5188     66.7328
   372.8000      8.2374      2.5525      0.0113      5.9089     21.9000     73.5138
   372.9000      8.2374      2.5322      0.0399      7.1395     23.2982     81.6783
   373.0000      8.2342      2.5113     -0.0239      8.4044     23.9861     90.0137
   373.1000      8.2342      2.5035     -0.0080      8.8776     23.9345     98.9327
   373.2000      8.2342      2.5040      0.0318      8.8494     23.8121    108.4306
   373.3000      8.2340      2.4990      0.0003      9.1516     23.6035    115.7147
   373.4000      8.2340      2.4912      0.0189      9.6257     23.2335    119.7428
   373.5000      8.2355      2.4968      0.0262      9.2875     22.8828    124.1665
   373.6000      8.2355      2.5229      0.0699      7.7047     22.5949    131.3231
   373.7000      8.2355      2.5489      0.0952      6.1289     22.5836    137.7054
   373.8000      8.2366      2.5532      0.0814      5.8665     22.8175    140.5455
   373.9000      8.2366      2.5403      0.0423      6.6495     23.0651    141.0686
   374.0000      8.2372      2.5232      0.0287      7.6825     23.4541    139.9189
   374.1000      8.2372      2.5067      0.0318      8.6870     23.9820    137.9885
   374.2000      8.2372      2.4889      0.0383      9.7606     24.3288    137.7826
   374.3000      8.2368      2.4742     -0.0009     10.6523     24.1627    139.5300
   374.4000      8.2368      2.4726     -0.0134     10.7494     23.4931    137.8333
   374.5000      8.2352      2.4849      0.0323     10.0031     23.0308    133.0258
   374.6000      8.2352      2.5059      0.0226      8.7304     23.2403    135.1564
   374.7000      8.2352      2.5341      0.0660      7.0265     23.5292    144.2852
   374.8000      8.2344      2.5593      0.0857      5.4971     23.4080    150.3231
   374.9000      8.2344      2.5702      0.0472      4.8374     23.2221    148.5978
   375.0000      8.2346      2.5701      0.0464      4.8410     23.3829    140.0735
   375.1000      8.2346      2.5697      0.0402      4.8663     23.6947    128.9817
   375.2000      8.2346      2.5734      0.0822      4.6432     23.7039    119.4833
   375.3000      8.2356      2.5780      0.0531      4.3633     23.5141    113.5308
   375.4000      8.2356      2.5786      0.0772      4.3299     23.3511    113.8026
   375.5000      8.2371      2.5736      0.0580      4.6314     23.0056    118.9443
   375.6000      8.2371      2.5681      0.0777      4.9652     22.6490    122.8452
   375.7000      8.2371      2.5653      0.0509      5.1318     22.8727    123.5048
   375.8000      8.2380      2.5646      0.0655      5.1769     23.6281    122.6902
   375.9000      8.2380      2.5655      0.0396      5.1239     24.1923    120.9098
   376.0000      8.2394      2.5614      0.0619      5.3686     24.1755    121.1315
   376.1000      8.2394      2.5451      0.0159      6.3547     23.7408    124.4403
   376.2000      8.2394      2.5245      0.0279      7.6077     23.4561    124.9635
   376.3000      8.2401      2.5051      0.0665      8.7805     23.7248    117.9285
   376.4000      8.2401      2.4901     -0.0217      9.6885     24.0718    110.3166
   376.5000      8.2401      2.4910     -0.0049      9.6386     24.0039    111.3294
   376.6000      8.2401      2.5044      0.0273      8.8241     23.7340    118.3087
   376.7000      8.2401      2.5181      0.0394      7.9945     23.6890    123.8699
   376.8000      8.2391      2.5302      0.0873      7.2621     24.0262    125.5537
   376.9000      8.2391      2.5491      0.0317      6.1179     24.4425    123.1172
   377.0000      8.2375      2.5864      0.0771      3.8574     24.8234    116.5579
   377.1000      8.2375      2.6377      0.0542      0.7449     25.2614    108.4876
   377.2000      8.2375      2.6887      0.1100     -2.3441     25.4174    104.6403
   377.3000      8.2377      2.7336      0.1442     -5.0683     25.1426    105.4996
   377.4000      8.2377      2.7680      0.1567     -7.1514     24.7816    105.4422
   377.5000      8.2385      2.7792      0.1474     -7.8329     24.6243    102.5517
   377.6000      8.2385      2.7713      0.1139     -7.3531     24.7671     98.1003
   377.7000      8.2385      2.7643      0.0929     -6.9279     25.1139     94.7559
   377.8000      8.2390      2.7539      0.1046     -6.2993     25.3995     96.2163
   377.9000      8.2390      2.7207      0.0237     -4.2858     25.5053    103.0578
   378.0000      8.2387      2.6758     -0.0160     -1.5658     25.6087    108.6988
   378.1000      8.2387      2.6392      0.0035      0.6557     25.7806    108.4846
   378.2000      8.2387      2.6062     -0.0177      2.6531     25.7611    107.9358
   378.3000      8.2377      2.5794     -0.0107      4.2761     25.4929    110.3770
   378.4000      8.2377      2.5706      0.0149      4.8109     25.2834    115.8579
   378.5000      8.2367      2.5686      0.0658      4.9334     25.1483    123.2510
   378.6000      8.2367      2.5618      0.0119      5.3461     24.6881    126.9256
   378.7000      8.2367      2.5593      0.0543      5.4972     23.9914    125.1012
   378.8000      8.2369      2.5630      0.0394      5.2747     23.6081    122.4006
   378.9000      8.2369      2.5593      0.0680      5.4950     23.6360    123.6507
   379.0000      8.2396      2.5420      0.0189      6.5444     23.8191    129.8438
   379.1000      8.2396      2.5246     -0.0164      7.6021     23.7950    137.5219
   379.2000      8.2396      2.5133      0.0183      8.2847     23.3368    140.5333
   379.3000      8.2417      2.5016      0.0074      8.9943     22.8054    137.4348
   379.4000      8.2417      2.4958     -0.0096      9.3477     22.7120    133.0352
   379.5000      8.2409      2.5054      0.0230      8.7610     22.8829    128.8270
   379.6000      8.2409      2.5259      0.0470      7.5206     22.8869    122.3304
   379.7000      8.2409      2.5459      0.0650      6.3091     22.6790    116.8527
   379.8000      8.2381      2.5570      0.0597      5.6382     22.4328    115.5054
   379.9000      8.2381      2.5571      0.0861      5.6275     22.3020    116.0975
   380.0000      8.2361      2.5486      0.0489      6.1459     22.1606    118.4808
   380.1000      8.2361      2.5397      0.0504      6.6842     21.9991    123.0395
   380.2000      8.2361      2.5390      0.0474      6.7299     22.1074    126.1377
   380.3000      8.2362      2.5437      0.0736      6.4448     22.4670    125.8038
   380.4000      8.2362      2.5483      0.0581      6.1634     23.0140    124.6653
   380.5000      8.2357      2.5508      0.0692      6.0130     23.5266    124.9691
