~Version Information
VERS.                      2.0: CWLS Log ASCII Standard - VERSION 2.0
WRAP.                       NO: One line per depth step
~Well Information Block
STRT.FT                10.0000: 
STOP.FT               859.0000: 
STEP.FT                 0.2500: 
NULL.                -999.2500: 
COMP.          Pioneer Natural Resources: COMPANY
WELL.          Prospector 12-19: WELL
FLD.           Purgatoire River: FIELD
LOC.           2262' FNL & 634' FWL: LOCATION
PROV.                 Colorado: PROVINCE
CNTY.               Las Animas: COUNTRY
SRVC.                Patterson: SERVICE COMPANY
DATE.          Tue May 10 11:52:48 2005: LOG DATE
UWI.           05 071 08191 00: UNIQUE WELL ID
~Curve Information Block
DEPT.FT            0 000 00 00: Depth
CCL.                          : Casing Collar Locator
TT3.usec                      : CBL 3' Travel Time
AMP3.mV                       : CBL 3' Amplitude
GR.GAPI                       : Gamma Ray
~Parameter Information Block
~A  Depth       CCL         TT3         AMP3         GR     
# ...
   211.0000      0.0000   1297.0748      6.7467     95.6251
   211.2500      0.0000   1259.8586      6.7937    102.2220
   211.5000      0.0000   1234.7150      6.8682    107.5223
   211.7500      0.0000   1215.8218      6.9487    110.7763
   212.0000      0.0000   1191.9708      7.0169    111.6458
   212.2500      0.0000   1155.1549      7.0614    110.4083
   212.5000      0.0000   1106.7170      7.0802    107.9197
   212.7500      0.0000   1056.0616      7.0779    105.1695
   213.0000      0.0000   1012.6969      7.0619    102.8838
   213.2500      0.0000    980.0806      7.0425    101.4807
   213.5000      0.0000    956.6928      7.0295    101.1270
   213.7500      0.0000    940.4670      7.0235    101.6299
   214.0000      0.0000    930.7663      7.0147    102.3679
   214.2500      0.0000    927.7903      6.9885    102.4436
   214.5000      0.0000    931.3179      6.9346    100.9362
   214.7500      0.0000    939.9083      6.8562     97.2179
   215.0000      0.0000    950.4826      6.7755     91.4520
   215.2500      0.0000    958.9732      6.7246     84.7149
   215.5000      0.0000    961.8054      6.7277     78.2823
   215.7500      0.0000    957.4799      6.7829     72.8345
   216.0000      0.0000    947.4546      6.8598     68.5920
   216.2500      0.0000    935.7841      6.9189     66.0347
   216.5000      0.0000    927.6165      6.9365     66.1420
   216.7500      0.0000    928.3666      6.9102     69.8067
   217.0000      0.0000    943.1757      6.8513     76.8914
   217.2500      0.0000    972.7348      6.7762     85.8109
   217.5000      0.0000   1006.6076      6.7012     94.2711
   217.7500      0.0000   1025.0231      6.6411    100.5662
   218.0000      0.0000   1014.0931      6.6058    104.0789
   218.2500      0.0000    979.1898      6.5925    104.7756
   218.5000      0.0000    939.8030      6.5836    102.7551
   218.7500      0.0000    912.7471      6.5573     98.3298
   219.0000      0.0000    902.8245      6.5053     92.1771
   219.2500      0.0000    906.4454      6.4376     85.3107
   219.5000      0.0000    919.8463      6.3765     78.8725
   219.7500      0.0000    942.6894      6.3513     73.6421
   220.0000      0.0000    973.6967      6.3881     69.7474
   220.2500      0.0000   1003.5939      6.4936     67.0441
   220.5000      0.0000   1016.7197      6.6481     65.6231
   220.7500      0.0000   1004.0584      6.8122     65.8782
   221.0000      0.0000    972.6410      6.9399     68.3513
   221.2500      0.0000    938.8453      6.9971     73.5232
   221.5000      0.0000    914.5847      6.9752     81.2724
   221.7500      0.0000    901.9796      6.8926     90.2170
   222.0000      0.0000    897.6265      6.7852     97.9370
   222.2500      0.0000    897.9619      6.6961    102.5212
   222.5000      0.0000    901.0703      6.6618    104.1093
   222.7500      0.0000    906.4274      6.6928    104.5496
   223.0000      0.0000    915.4344      6.7647    105.4451
   223.2500      0.0000    933.5062      6.8329    106.8683
   223.5000      0.0000    971.0403      6.8607    107.9376
   223.7500      0.0000   1038.3802      6.8374    108.1672
   224.0000      0.0000   1135.1564      6.7794    107.9802
   224.2500      0.0000   1243.8085      6.7147    108.1922
   224.5000      0.0000   1337.2699      6.6627    109.5424
   224.7500      0.0000   1395.1632      6.6282    112.4560
   225.0000      0.0000   1413.3098      6.6108    116.3782
   225.2500      0.0000   1402.3346      6.6112    119.5061
   225.5000      0.0000   1381.9260      6.6232    120.2398
   225.7500      0.0000   1372.4072      6.6263    118.9137
   226.0000      0.0000   1383.3391      6.5978    117.1653
   226.2500      0.0000   1408.3369      6.5348    115.6928
   226.5000      0.0000   1432.8589      6.4615    113.6810
   226.7500      0.0000   1445.3204      6.4134    110.4868
   227.0000      0.0000   1438.7631      6.4128    106.8009
   227.2500      0.0000   1405.8644      6.4587    103.8116
   227.5000      0.0000   1339.1737      6.5353    101.9506
   227.7500      0.0000   1240.0959      6.6223    100.8932
   228.0000      0.0000   1125.9219      6.6998    100.3791
   228.2500      0.0000   1023.1934      6.7572    100.5915
   228.5000      0.0000    952.2322      6.7973    101.7527
   228.7500      0.0000    918.9679      6.8287    103.6333
   229.0000      0.0000    920.2465      6.8566    105.6146
   229.2500      0.0000    952.2488      6.8800    107.1046
   229.5000      0.0000   1009.7727      6.8921    107.7374
   229.7500      0.0000   1077.0355      6.8844    107.2431
   230.0000      0.0000   1125.2231      6.8571    105.4782
   230.2500      0.0000   1128.7627      6.8252    102.8904
   230.5000      0.0000   1086.9640      6.8100    100.7762
   230.7500      0.0000   1024.7159      6.8245    100.4672
   231.0000      0.0000    970.4724      6.8664    101.8817
   231.2500      0.0000    937.0877      6.9194    103.1612
   231.5000      0.0000    921.7122      6.9583    102.1098
   231.7500      0.0000    916.2605      6.9618     98.0141
   232.0000      0.0000    914.8136      6.9271     91.9985
   232.2500      0.0000    914.8000      6.8710     85.9843
   232.5000      0.0000    915.9321      6.8141     81.6681
   232.7500      0.0000    919.7458      6.7685     80.1084
   233.0000      0.0000    929.8894      6.7396     81.3387
   233.2500      0.0000    950.6075      6.7308     84.0338
   233.5000      0.0000    981.2357      6.7398     86.1677
   233.7500      0.0000   1010.7747      6.7593     86.4686
   234.0000      0.0000   1022.2045      6.7769     85.0603
   234.2500      0.0000   1007.1295      6.7750     82.6930
   234.5000      0.0000    974.6433      6.7378     79.7564
   234.7500      0.0000    942.5219      6.6677     76.1492
   235.0000      0.0000    921.7225      6.5921     71.8456
   235.2500      0.0000    911.4033      6.5499     67.4838
   235.5000      0.0000    905.3430      6.5628     64.4746
   235.7500      0.0000    899.4157      6.6165     64.3619
   236.0000      0.0000    893.8340      6.6690     67.6137
   236.2500      0.0000    890.8951      6.6794     72.8579
   236.5000      0.0000    891.7148      6.6359     77.6139
   236.7500      0.0000    894.9193      6.5635     80.0796
   237.0000      0.0000    898.0797      6.5055     80.1849
   237.2500      0.0000    899.5750      6.4890     79.0082
   237.5000      0.0000    899.0376      6.5058     77.5802
   237.7500      0.0000    897.0305      6.5287     76.4289
   238.0000      0.0000    895.0721      6.5393     75.8706
   238.2500      0.0000    895.3849      6.5367     76.2870
   238.5000      0.0000    899.8609      6.5288     78.0829
   238.7500      0.0000    909.0507      6.5262     81.5078
   239.0000      0.0000    921.7135      6.5388     86.3600
   239.2500      0.0000    935.0833      6.5679     91.7854
   239.5000      0.0000    946.1177      6.6002     96.6262
   239.7500      0.0000    953.0668      6.6157    100.1824
   240.0000      0.0000    955.8251      6.6041    102.5435
   240.2500      0.0000    955.3060      6.5714    104.1731
   240.5000      0.0000    953.4352      6.5250    105.4157
   240.7500      0.0000    954.4724      6.4490    106.5186
   241.0000      0.0000    964.8942      6.3088    107.9386
   241.2500      0.0000    988.7537      6.0960    110.2578
   241.5000      0.0000   1022.0261      5.8563    113.4710
   241.7500      0.0000   1055.9504      5.6485    116.3850
   242.0000      0.0000   1089.7106      5.4851    117.0464
   242.2500      0.0000   1135.1490      5.3469    114.0610
   242.5000      0.0000   1202.6636      5.2383    107.6679
   242.7500      0.0000   1285.1317      5.1867     99.8143
   243.0000      0.0000   1361.1099      5.1956     93.4372
   243.2500     -2.0000   1411.5491      5.2344     91.2980
   243.5000     -1.5225   1428.4373      5.2740     94.4291
   243.7500      0.0000   1409.6663      5.3212    101.0949
   244.0000      0.0000   1353.8271      5.4302    107.7888
   244.2500      0.0000   1265.3257      5.6747    111.8918
