~Version Information
 VERS.                                  2.0 : CWLS LAS VERSION
 WRAP.                                   NO : WRAPING MODE
 SWARE .                 MController 2.5.0N : SOFTWARE VERSION
~Well Information
 WELL.                         Vector 33-23 : WELL
 COMP.    Pioneer Natural Resources USA Inc : COMPANY
 FLD.                      Purgatoire River : FIELD
 LOC.                NW/SE Sec 23 T32S R66W : LOCATION
 DATE.                              3/25/05 : DATE(S) LOGGED
 SRVC.       Blanco Geological Services LLC : SERVICE COMPANY
 STAT.                                   CO : STATE
 CNTY.                           Las Animas : COUNTY
 CTRY.                                  USA : COUNTRY
 API.                       05-071-08336-00 : API NUMBER
 STRT.FT                             770.00 : START DEPTH
 STOP.FT                            2300.00 : STOP DEPTH
 STEP.FT                               1.00 : DEPTH INCREMENT
 NULL.                                -9999 : NULL VALUE
~Curve information
 DEPTH.FT                                   :
 ROP.MIN/FT                                 :
 GAS.UNITS                                  :
~ASCII Log data
# ...
      2170.0         0.27        106.3 
      2171.0         0.33        105.8 
      2172.0         0.23        104.2 
      2173.0         0.28        103.0 
      2174.0         0.27        101.1 
      2175.0         0.23         99.5 
      2176.0         0.27         98.7 
      2177.0         0.27         98.2 
      2178.0         0.27         97.4 
      2179.0         0.30         95.7 
      2180.0         0.23         94.1 
      2181.0         0.30        120.1 
      2182.0         0.27        183.8 
      2183.0         0.27        238.9 
      2184.0         0.27        266.0 
      2185.0         0.38        268.2 
      2186.0       366.12       9426.6 
      2187.0         1.42         27.4 
      2188.0         1.13         17.8 
      2189.0         0.77         11.1 
      2190.0         0.62          9.5 
      2191.0         0.67          6.3 
      2192.0         0.50          5.3 
      2193.0         0.50          4.0 
      2194.0         0.83          3.6 
      2195.0         0.85          4.4 
      2196.0         0.80         11.0 
      2197.0         0.57          8.8 
      2198.0         0.53          9.1 
      2199.0         0.57          8.5 
      2200.0         0.53          8.2 
      2201.0         0.68          7.6 
      2202.0         0.67          7.7 
      2203.0         0.70          7.1 
      2204.0         0.67          7.1 
      2205.0         0.73          8.0 
      2206.0         0.78          6.6 
      2207.0         0.90          6.2 
      2208.0         0.77          6.4 
      2209.0         0.70          6.4 
      2210.0         0.72          6.9 
      2211.0         0.70          6.6 
      2212.0         0.80          6.5 
      2213.0         1.13          7.0 
      2214.0         1.05          6.4 
      2215.0         0.73          7.1 
      2216.0         1.73          6.4 
      2217.0         0.72          6.4 
      2218.0         0.60          5.5 
      2219.0         0.63          5.5 
      2220.0         0.57          5.7 
      2221.0         0.53          6.3 
      2222.0         0.52          6.4 
      2223.0         0.43          6.4 
      2224.0         0.50          5.8 
      2225.0         0.53          5.2 
      2226.0         0.87          6.8 
      2227.0         0.57          5.8 
      2228.0         0.62          6.4 
      2229.0         0.60          5.7 
      2230.0         0.57          5.3 
      2231.0         0.60          5.3 
      2232.0         0.60          5.8 
      2233.0         0.57          5.2 
      2234.0         0.62          5.6 
      2235.0         0.63          6.4 
      2236.0         0.60          5.7 
      2237.0         0.77          5.6 
      2238.0         0.85          6.0 
      2239.0         0.60          6.2 
      2240.0         0.47          6.2 
      2241.0         0.50          5.8 
      2242.0         0.73          5.5 
      2243.0         0.77          6.2 
      2244.0         0.68          5.7 
      2245.0         0.63          5.3 
      2246.0         1.00          6.5 
      2247.0         0.90          5.8 
      2248.0         0.45          5.6 
      2249.0         0.47          5.3 
      2250.0         0.70          6.5 
      2251.0         0.60          5.9 
      2252.0         0.57          6.4 
      2253.0         0.57          6.2 
      2254.0         0.72          6.5 
      2255.0         0.73          6.3 
      2256.0         0.63          6.3 
      2257.0         0.67          6.3 
      2258.0         0.67          6.3 
      2259.0         0.65          6.1 
      2260.0         0.63          6.4 
      2261.0         0.67          6.5 
      2262.0         0.83          6.6 
      2263.0         0.73          6.7 
      2264.0         0.82          6.6 
      2265.0         0.93          6.7 
      2266.0         0.73          6.5 
      2267.0         0.67          6.1 
      2268.0         0.52          7.1 
      2269.0         0.53          6.9 
      2270.0         0.47          6.5 
      2271.0         0.53          6.2 
      2272.0         0.53          5.0 
      2273.0         0.40          6.0 
      2274.0         0.43          6.1 
      2275.0         0.48          6.3 
      2276.0         0.50          5.7 
      2277.0         3.72          6.7 
      2278.0         0.80          6.2 
      2279.0         0.77          6.8 
      2280.0         1.12          6.0 
      2281.0         1.07          6.1 
      2282.0         0.77          6.8 
      2283.0         1.05          6.3 
      2284.0         0.93          6.2 
      2285.0         0.60          6.1 
      2286.0         0.93          6.0 
      2287.0         1.02          6.0 
      2288.0         0.73          6.1 
      2289.0         1.03          6.3 
      2290.0         0.97          6.3 
      2291.0         0.75          6.0 
      2292.0         0.73          6.0 
      2293.0         0.73          6.0 
      2294.0         0.93          5.7 
      2295.0         0.78          6.3 
      2296.0         0.90          6.0 
      2297.0         0.87          5.8 
      2298.0         0.87          5.6 
      2299.0         0.40          6.3 
      2300.0         0.72          6.5 
