~Version Information
VERS.                      2.0: CWLS Log ASCII Standard - VERSION 2.0
WRAP.                       NO: One line per depth step
~Well Information Block
STRT.FT                -5.2500: 
STOP.FT               769.5000: 
STEP.FT                 0.2500: 
NULL.                -999.2500: 
COMP.          Pioneer Natural Resources: COMPANY
WELL.          HG Duran 34-27 Tr: WELL
FLD.           Purgatorie River: FIELD
LOC.           1076' FSL & 1465' FEL: LOCATION
PROV.                 Colorado: PROVINCE
CNTY.               Las Animas: COUNTRY
SRVC.          Patterson Wireline: SERVICE COMPANY
DATE.          Mon Apr 18 09:19:17 2005: LOG DATE
UWI.           05-071-08218-00: UNIQUE WELL ID
~Curve Information Block
DEPT.FT            0 000 00 00: Depth
CCL.                          : Casing Collar Locator
TT3.usec                      : CBL 3' Travel Time
AMP3.mV                       : CBL 3' Amplitude
GR.GAPI                       : Gamma Ray
~Parameter Information Block
~A  Depth       CCL         TT3         AMP3         GR     
# ...
   296.2500      0.0000    646.6597      8.9741     79.3641
   296.5000      0.0000    632.8776      8.7142     81.6575
   296.7500      0.0000    599.0272      8.6986     83.3198
   297.0000      0.0000    564.2450      8.8393     84.6434
   297.2500      0.0000    546.8060      8.9953     85.2876
   297.5000      0.0000    551.7264      9.0752     84.7222
   297.7500      0.0000    569.3698      9.0645     82.9924
   298.0000      0.0000    586.2298      8.9745     80.8956
   298.2500      0.0000    595.5927      8.7820     79.4852
   298.5000      0.0000    598.4288      8.4273     79.3626
   298.7500      0.0000    597.7645      7.8852     80.2262
   299.0000      0.0000    595.2512      7.2352     81.1541
   299.2500      0.0000    592.5395      6.6405     81.4720
   299.5000      0.0000    592.7415      6.2506     81.3120
   299.7500      0.0000    598.8710      6.1315     81.2908
   300.0000      0.0000    612.8316      6.2748     81.9377
   300.2500      0.0000    636.8426      6.6408     83.4704
   300.5000      0.0000    672.4189      7.1720     85.5877
   300.7500      0.0000    715.8432      7.7642     87.3121
   301.0000      0.0000    757.9241      8.2377     87.5537
   301.2500      0.0000    790.6513      8.3883     86.0724
   301.5000      0.0000    812.2208      8.1298     83.8945
   301.7500      0.0000    825.1604      7.5982     82.6796
   302.0000      0.0000    832.3800      7.0754     83.1982
   302.2500      0.0000    835.8525      6.7804     84.1861
   302.5000      0.0000    836.9067      6.7290     83.4022
   302.7500      0.0000    836.2828      6.7614     80.3091
   303.0000      0.0000    833.9744      6.6532     76.9884
   303.2500      0.0000    829.4865      6.2190     75.6995
   303.5000      0.0000    822.4077      5.4120     76.2040
   303.7500      0.0000    812.8889      4.3899     76.4514
   304.0000      0.0000    801.7030      3.4577     75.5157
   304.2500      0.0000    790.1652      2.8917     74.7294
   304.5000      0.0000    780.1479      2.7873     75.7904
   304.7500      0.0000    773.7196      3.0457     78.5480
   305.0000      0.0000    772.0466      3.4734     80.9075
   305.2500      0.0000    774.3569      3.9020     80.6605
   305.5000      0.0000    778.2305      4.2562     77.4615
   305.7500      0.0000    781.3511      4.5481     72.9769
   306.0000      0.0000    783.1549      4.8209     69.0551
   306.2500      0.0000    784.7426      5.0933     66.3288
   306.5000      0.0000    787.3678      5.3475     64.8192
   306.7500      0.0000    791.1982      5.5626     64.7986
   307.0000      0.0000    795.3614      5.7448     66.1387
   307.2500      0.0000    798.8493      5.9066     67.6022
   307.5000      0.0000    801.2241      6.0232     67.8038
   307.7500      0.0000    802.6039      6.0425     66.5273
   308.0000      0.0000    803.2835      5.9582     64.4951
   308.2500      0.0000    803.5076      5.8547     62.3452
   308.5000      0.0000    803.4612      5.8500     60.3390
   308.7500      0.0000    803.3296      5.9907     58.6840
   309.0000      0.0000    803.3600      6.2151     57.6059
   309.2500      0.0000    803.9319      6.4093     56.9578
   309.5000      0.0000    805.4428      6.4840     55.8007
   309.7500      0.0000    807.9079      6.4170     52.6995
   310.0000      0.0000    810.7173      6.2542     46.9942
   310.2500      0.0000    813.2468      6.0760     39.9551
   310.5000      0.0000    816.1083      5.9557     34.2218
   310.7500      0.0000    821.3069      5.9357     31.7446
   311.0000      0.0000    830.8796      6.0297     32.3749
   311.2500      0.0000    846.6882      6.2243     34.5175
   311.5000      0.0000    873.6766      6.4580     36.7338
   311.7500      0.0000    922.4597      6.5958     38.4440
   312.0000      0.0000   1003.6267      6.4784     39.5576
   312.2500      0.0000   1115.1096      6.0539     40.1948
   312.5000      0.0000   1236.1360      5.4432     40.9179
   312.7500      0.0000   1337.5182      4.8380     42.6734
   313.0000      0.0000   1398.6100      4.3727     46.0016
   313.2500      5.0000   1414.1486      4.1248     50.4780
   313.5000     -5.0000   1388.6716      4.1890     55.3660
   313.7500      0.0000   1329.2241      4.6821     60.7315
   314.0000      0.0000   1242.9928      5.6284     67.4441
   314.2500      0.0000   1138.9945      6.8277     75.8892
   314.5000      0.0000   1030.6431      7.8889     84.9250
   314.7500      0.0000    933.8613      8.4704     92.2661
   315.0000      0.0000    859.3442      8.5143     96.0079
   315.2500      0.0000    807.3833      8.2381     96.1534
   315.5000      0.0000    771.9752      7.9339     94.8771
   315.7500      0.0000    748.1834      7.7869     95.0451
   316.0000      0.0000    734.4363      7.8224     97.9864
   316.2500      0.0000    730.1160      7.9583    102.3755
   316.5000      0.0000    733.1905      8.0992    105.4728
   316.7500      0.0000    740.1392      8.2053    105.8738
   317.0000      0.0000    747.3328      8.3018    104.8638
   317.2500      0.0000    752.5649      8.4450    104.6593
   317.5000      0.0000    755.4521      8.6800    105.8311
   317.7500      0.0000    756.7254      9.0095    107.0564
   318.0000      0.0000    757.2782      9.3917    106.8300
   318.2500      0.0000    757.7120      9.7723    104.5735
   318.5000      0.0000    758.4362     10.1161    100.5299
   318.7500      0.0000    759.9819     10.4008     95.5469
   319.0000      0.0000    763.1660     10.5885     91.1389
   319.2500      0.0000    768.7563     10.6231     89.1582
   319.5000      0.0000    776.8234     10.4640     90.8074
   319.7500      0.0000    786.4788     10.1314     95.7278
   320.0000      0.0000    796.2104      9.7228    101.9472
   320.2500      0.0000    804.1188      9.3760    106.8815
   320.5000      0.0000    808.1448      9.1880    108.9563
   320.7500      0.0000    807.3675      9.1482    108.6498
   321.0000      0.0000    803.5481      9.1477    107.8283
   321.2500      0.0000    800.4898      9.0644    107.9514
   321.5000      0.0000    801.3737      8.8545    108.9580
   321.7500      0.0000    807.2241      8.5700    109.6980
   322.0000      0.0000    818.0130      8.2893    109.1812
   322.2500      0.0000    834.6348      8.0444    107.5376
   322.5000      0.0000    859.2451      7.8168    106.0679
   322.7500      0.0000    893.1567      7.5885    106.2568
   323.0000      0.0000    933.9258      7.3829    108.4681
   323.2500      0.0000    974.7972      7.2593    111.5605
   323.5000      0.0000   1008.1020      7.2616    113.7694
   323.7500      0.0000   1029.8387      7.3668    113.9131
   324.0000      0.0000   1041.1140      7.5003    111.9505
   324.2500      0.0000   1045.7607      7.6256    108.8640
   324.5000      0.0000   1047.3031      7.8102    106.2565
   324.7500      0.0000   1047.7372      8.1824    105.6328
   325.0000      0.0000   1047.8679      8.8221    107.5137
   325.2500      0.0000   1047.9562      9.7001    111.0757
   325.5000      0.0000   1048.0579     10.7203    114.6560
   325.7500      0.0000   1048.0082     11.8015    116.7073
   326.0000      0.0000   1047.0410     12.9029    116.5975
   326.2500      0.0000   1043.3146     13.9701    114.8768
   326.5000      0.0000   1034.0721     14.8748    112.8338
   326.7500      0.0000   1017.5637     15.4333    111.7137
   327.0000      0.0000    995.9251     15.4952    112.3017
   327.2500      0.0000    975.6129     15.0251    115.0564
   327.5000      0.0000    963.2599     14.1178    120.1656
   327.7500      0.0000    961.2394     12.9520    127.1510
   328.0000      0.0000    968.4227     11.7177    134.5948
   328.2500      0.0000    984.2408     10.5480    140.6012
   328.5000      0.0000   1008.5610      9.4906    143.5221
   328.7500      0.0000   1035.8168      8.5332    142.1887
   329.0000      0.0000   1052.6205      7.6498    135.8603
   329.2500      0.0000   1047.6616      6.8342    124.6093
   329.5000      0.0000   1025.5825      6.1013    110.0724
