~Version Information
VERS.                      2.0: CWLS Log ASCII Standard - VERSION 2.0
WRAP.                       NO: One line per depth step
~Well Information Block
STRT.FT               419.7500: 
STOP.FT              1170.0000: 
STEP.FT                 0.2500: 
NULL.                -999.2500: 
COMP.          Evergreen Operating Corporation: COMPANY
WELL.             Bernice 21-3: WELL
FLD.           Purgatoire River: FIELD
LOC.           201' FNL & 2575' FWL: LOCATION
PROV.                 Colorado: PROVINCE
CNTY.               Las Animas: COUNTRY
SRVC.                Patterson: SERVICE COMPANY
DATE.          Mon Jan 26 13:04:04 2004: LOG DATE
UWI.           05 071 07912   : UNIQUE WELL ID
~Curve Information Block
DEPT.FT            0 000 00 00: Depth
SN.Ohm-m                      : IEL Short Normal
SP.mV                         : IEL Spontaneous Potential
DIR.Ohm-m                     : IEL Induction Resistivity
GR.GAPI                       : Gamma Ray
~Parameter Information Block
~A  Depth        SN          SP         DIR          GR     
# ...
   754.7500     34.9145   -414.0153     25.5988     72.7467
   755.0000     36.1380   -413.8143     25.3537     69.0505
   755.2500     35.8989   -413.3994     25.1597     70.5381
   755.5000     33.9482   -412.7642     24.9493     77.1570
   755.7500     31.3316   -411.9680     24.6179     82.7208
   756.0000     29.2612   -411.1083     24.1246     89.8737
   756.2500     28.1356   -410.2591     23.5455     92.7761
   756.5000     27.7818   -409.4256     23.0195     93.8826
   756.7500     27.8313   -408.5563     22.6493     92.8626
   757.0000     27.7612   -407.6066     22.4523     90.0659
   757.2500     27.2542   -406.5993     22.3804     88.3198
   757.5000     26.4537   -405.6145     22.3659     87.2602
   757.7500     25.6849   -404.7202     22.3515     87.7881
   758.0000     25.2058   -403.9402     22.2931     89.3825
   758.2500     25.0963   -403.3073     22.1618     90.0792
   758.5000     25.0442   -402.9120     21.9565     89.9402
   758.7500     24.5971   -402.8452     21.7119     89.3418
   759.0000     23.8673   -403.0889     21.4814     88.3666
   759.2500     23.4383   -403.4828     21.3060     87.7863
   759.5000     23.5381   -403.7957     21.1945     86.7943
   759.7500     23.8444   -403.8255     21.1314     85.9016
   760.0000     24.0670   -403.4669     21.0954     84.3542
   760.2500     24.3429   -402.7323     21.0669     83.5139
   760.5000     24.8972   -401.7229     21.0125     82.9227
   760.7500     25.6097   -400.5595     20.8677     82.8069
   761.0000     26.1515   -399.3102     20.5530     82.4039
   761.2500     26.3001   -397.9755     20.0250     81.7760
   761.5000     26.0717   -396.5481     19.3046     80.4438
   761.7500     25.7789   -395.0871     18.4468     79.4773
   762.0000     25.8712   -393.7238     17.4936     78.0112
   762.2500     26.4836   -392.5955     16.4723     76.9863
   762.5000     27.1977   -391.7740     15.4313     75.6261
   762.7500     27.5542   -391.2343     14.4593     75.2999
   763.0000     27.6127   -390.8760     13.6691     76.4102
   763.2500     27.6275   -390.5910     13.1737     78.1322
   763.5000     27.5775   -390.3275     13.0771     81.1785
   763.7500     27.3954   -390.1008     13.4721     82.8913
   764.0000     27.1856   -389.9664     14.4293     84.4136
   764.2500     27.0164   -389.9968     15.9562     84.6203
   764.5000     26.9464   -390.2729     17.9236     83.6758
   764.7500     27.1755   -390.8829     20.0018     82.3018
   765.0000     27.8750   -391.9277     21.7115     79.4645
   765.2500     28.9007   -393.5156     22.6074     77.2154
   765.5000     29.8405   -395.7269     22.4495     73.4710
   765.7500     30.4948   -398.5755     21.2306     70.9761
   766.0000     30.8871   -401.9909     19.1416     68.1610
   766.2500     30.8855   -405.7962     16.5038     67.5730
   766.5000     30.6212   -409.6827     13.6873     69.4577
   766.7500     30.8803   -413.2528     11.0468     72.6320
   767.0000     32.1525   -416.1622      8.8579     79.4830
   767.2500     33.7515   -418.2726      7.2585     84.6453
   767.5000     34.7613   -419.7068      6.2564     92.2825
   767.7500     35.4105   -420.7823      5.8045     97.2504
   768.0000     36.5620   -421.8841      5.8899    104.6852
   768.2500     38.3688   -423.3748      6.6347    109.3056
   768.5000     40.3557   -425.5845      8.5889    114.3955
   768.7500     42.2524   -428.8051     14.5438    115.8856
   769.0000     43.8396   -433.2204    102.3968    115.2613
   769.2500     44.3266   -438.8321 100000.0000    113.6601
   769.5000     42.7838   -445.4766 100000.0000    111.0195
   769.7500     39.3312   -452.9633 100000.0000    109.4922
   770.0000     35.1792   -461.3270 100000.0000    107.0119
   770.2500     30.7741   -471.0190 100000.0000    104.7814
   770.5000     25.2029   -482.7154 100000.0000    100.8761
   770.7500     18.4331   -496.7215      8.3522     98.7089
   771.0000     12.0902   -512.3988      3.1969     97.3326
   771.2500      7.5291   -527.9825      2.0495     97.7945
   771.5000      4.8748   -540.8589      1.6506    100.2181
   771.7500      3.6429   -548.3197      1.5369    102.8023
   772.0000      3.2913   -548.6726      1.6014    107.3964
   772.2500      3.5211   -542.1014      1.8641    109.9738
   772.5000      4.5157   -530.5373      2.5005    111.4108
   772.7500      6.8342   -516.5751      4.2175    110.4922
   773.0000     10.9770   -502.3391     12.3776    107.3921
   773.2500     17.0092   -489.0658 100000.0000    105.2669
   773.5000     24.2670   -477.3133 100000.0000    103.6168
   773.7500     31.2867   -467.2863 100000.0000    103.7941
   774.0000     36.5048   -459.0130 100000.0000    104.9099
   774.2500     39.5276   -452.4078 100000.0000    105.3220
   774.5000     41.2596   -447.2921     76.1752    104.9685
   774.7500     42.1338   -443.4339     14.5964    104.5195
   775.0000     41.4151   -440.6176      8.5640    104.2890
   775.2500     38.9181   -438.6558      6.3869    104.4587
   775.5000     35.6429   -437.3273      5.3277    105.0964
   775.7500     32.3039   -436.3704      4.7876    106.1035
   776.0000     28.8390   -435.5633      4.5729    109.7881
   776.2500     25.2372   -434.7408      4.5977    114.4737
   776.5000     21.7807   -433.6812      4.8067    125.1551
   776.7500     18.7552   -432.0315      5.1496    133.9109
   777.0000     16.4425   -429.4356      5.5733    147.0013
   777.2500     15.0898   -425.7780      6.0199    154.5028
   777.5000     14.6860   -421.3054      6.4274    163.2732
   777.7500     14.8759   -416.5234      6.7379    167.5042
   778.0000     15.1803   -411.9787      6.9192    171.2272
   778.2500     15.3648   -408.0865      6.9783    171.9523
   778.5000     15.4859   -405.0500      6.9498    171.5549
   778.7500     15.5994   -402.8454      6.8714    171.4002
   779.0000     15.6335   -401.2669      6.7718    172.3187
   779.2500     15.5361   -400.0295      6.6766    173.3517
   779.5000     15.3366   -398.8950      6.6154    174.3781
   779.7500     15.0656   -397.7585      6.6199    174.3994
   780.0000     14.8164   -396.6580      6.7139    173.5363
   780.2500     14.7661   -395.7095      6.9061    172.5100
   780.5000     14.8744   -395.0116      7.1895    170.7994
   780.7500     14.8720   -394.5879      7.5479    170.1539
   781.0000     14.7517   -394.3963      7.9644    170.9534
   781.2500     14.8622   -394.3713      8.4276    172.6918
   781.5000     15.4272   -394.4485      8.9317    175.7649
   781.7500     16.3338   -394.5660      9.4730    176.9373
   782.0000     17.4095   -394.6717     10.0437    176.2697
   782.2500     18.5449   -394.7354     10.6236    174.6314
   782.5000     19.5370   -394.7480     11.1782    171.9462
   782.7500     20.1102   -394.7038     11.6693    170.3738
   783.0000     20.1707   -394.5938     12.0742    167.5956
   783.2500     20.0166   -394.4243     12.3996    164.8009
   783.5000     20.1206   -394.2375     12.6782    158.5908
   783.7500     20.5362   -394.0991     12.9565    153.2059
   784.0000     20.8355   -394.0581     13.2839    144.2050
   784.2500     20.7675   -394.1251     13.6991    138.4177
   784.5000     20.6325   -394.2950     14.2119    131.4016
   784.7500     20.9084   -394.5740     14.7863    128.3810
   785.0000     21.6012   -394.9633     15.3392    126.7982
   785.2500     22.2761   -395.4220     15.7659    127.6095
   785.5000     22.7403   -395.8749     15.9803    130.3538
   785.7500     23.0218   -396.2735     15.9467    131.7265
   786.0000     23.0360   -396.6340     15.6893    130.3960
   786.2500     22.9203   -396.9985     15.2796    126.6847
   786.5000     22.9575   -397.3659     14.8096    118.7734
   786.7500     22.9729   -397.6727     14.3623    114.1695
   787.0000     22.5291   -397.8419     13.9900    111.8234
   787.2500     21.5458   -397.8360     13.7092    114.1606
   787.5000     20.2728   -397.6652     13.5029    122.2046
   787.7500     18.9269   -397.3623     13.3275    128.7856
   788.0000     17.6797   -396.9609     13.1275    137.9309
