~Version Information
VERS.                      2.0: CWLS Log ASCII Standard - VERSION 2.0
WRAP.                       NO: One line per depth step
~Well Information Block
STRT.FT               521.6000: 
STOP.FT              1490.2000: 
STEP.FT                 0.1000: 
NULL.                -999.2500: 
COMP.          Petrogulf Corporation: COMPANY
WELL.          Robinson 15-11R: WELL
FLD.           Purgatorie River: FIELD
LOC.           324' FNL & 570' FWL: LOCATION
CNTY.               Las Animas: COUNTY
SRVC.                         : SERVICE COMPANY
DATE.          Sat Nov 06 22:43:15 2004: LOG DATE
UWI.           05 071 08029 00: UNIQUE WELL ID
STAT.                 Colorado: STATE
~Curve Information Block
DEPT.FT            0 000 00 00: Depth
DCAL.in                       : CDL Caliper
RHOB.g/cc                     : CDL Bulk Density
RHOC.g/cc                     : CDL Density Correction
DPOR.pu                       : CDL Density Porosity
GR.GAPI                       : Gamma Ray
NPOR.pu                       : Neutron Porosity
~Parameter Information Block
~A  Depth       DCAL        RHOB        RHOC        DPOR         GR         NPOR    
# ...
   982.4000      7.9366      2.5146      0.0739      8.2058    149.6695     27.9104
   982.5000      7.8789      2.5358      0.1025      6.9226    151.8637     28.5354
   982.6000      7.8789      2.5751      0.0959      4.5413    150.7020     28.6537
   982.7000      7.8789      2.6141      0.1290      2.1767    147.3896     28.4712
   982.8000      7.8287      2.6320      0.1563      1.0888    144.3092     28.4640
   982.9000      7.8287      2.6232      0.1195      1.6250    138.4693     28.8413
   983.0000      7.8039      2.5978      0.0990      3.1614    127.5897     29.1985
   983.1000      7.8039      2.5615      0.0898      5.3607    116.3674     29.1447
   983.2000      7.8039      2.5189      0.0521      7.9442    109.9144     28.8617
   983.3000      7.7446      2.4868      0.0393      9.8916    109.2399     28.7229
   983.4000      7.7446      2.4828     -0.0125     10.1343    112.9106     28.5260
   983.5000      7.7453      2.5011      0.0657      9.0231    116.0120     27.9599
   983.6000      7.7453      2.5214      0.0088      7.7912    113.7592     27.3497
   983.7000      7.7453      2.5415      0.0755      6.5747    109.7837     26.8556
   983.8000      7.7710      2.5602      0.1050      5.4423    110.2138     26.5306
   983.9000      7.7710      2.5688      0.1037      4.9190    111.2782     26.7328
   984.0000      7.7970      2.5702      0.1265      4.8392    108.9680     26.9638
   984.1000      7.7970      2.5726      0.1418      4.6893    107.8498     26.3909
   984.2000      7.7970      2.5758      0.1390      4.4987    110.2463     25.6488
   984.3000      7.7688      2.5730      0.1324      4.6685    112.9104     25.6326
   984.4000      7.7688      2.5677      0.1016      4.9875    115.3139     25.9468
   984.5000      7.7813      2.5752      0.0932      4.5318    120.1477     26.0562
   984.6000      7.7813      2.5955      0.0587      3.3019    126.4543     26.1446
   984.7000      7.7813      2.6106      0.0930      2.3907    128.9460     26.5179
   984.8000      7.7665      2.6113      0.0996      2.3447    125.4722     27.0633
   984.9000      7.7665      2.6035      0.1150      2.8168    122.1880     27.5735
   985.0000      7.7567      2.5957      0.1112      3.2935    123.0785     28.1179
   985.1000      7.7567      2.5862      0.1085      3.8690    125.2397     28.4229
   985.2000      7.7567      2.5696      0.0608      4.8707    127.4680     28.3014
   985.3000      7.8418      2.5616      0.0334      5.3590    132.0466     28.0810
   985.4000      7.8418      2.5776      0.0691      4.3889    137.3089     27.7342
   985.5000      7.9062      2.5980      0.0965      3.1507    137.9263     27.1614
   985.6000      7.9062      2.5934      0.1084      3.4313    135.0632     26.6556
   985.7000      7.9062      2.5675      0.0421      4.9978    134.0479     26.4490
   985.8000      7.8937      2.5488      0.0509      6.1316    133.2748     26.6091
   985.9000      7.8937      2.5500      0.0523      6.0597    129.7997     26.9647
   986.0000      7.8899      2.5578      0.0748      5.5853    124.9980     27.3216
   986.1000      7.8899      2.5519      0.0805      5.9476    120.8257     27.6057
   986.2000      7.8899      2.5355      0.0346      6.9388    120.9305     27.5771
   986.3000      7.9087      2.5331      0.0190      7.0847    125.3863     27.1805
   986.4000      7.9087      2.5470      0.0385      6.2451    130.2913     26.7607
   986.5000      7.9247      2.5496      0.0977      6.0868    134.7993     26.5306
   986.6000      7.9247      2.5340      0.0359      7.0323    138.1774     26.2129
   986.7000      7.9247      2.5300     -0.0102      7.2749    139.8105     25.6296
   986.8000      7.8681      2.5488      0.0795      6.1356    142.1811     25.0763
   986.9000      7.8681      2.5669      0.0968      5.0351    147.3709     24.7905
   987.0000      7.8713      2.5663      0.0721      5.0715    154.1675     24.2977
   987.1000      7.8713      2.5452      0.0748      6.3497    158.5073     23.2593
   987.2000      7.8713      2.5106      0.0246      8.4473    155.4798     22.3749
   987.3000      7.8608      2.4741      0.0510     10.6596    145.1702     22.1722
   987.4000      7.8608      2.4418      0.0262     12.6199    134.2114     22.0336
   987.5000      7.8767      2.4130      0.0511     14.3662    129.3102     21.2985
   987.6000      7.8767      2.3837      0.0013     16.1392    128.7506     20.5225
   987.7000      7.8767      2.3523      0.0268     18.0445    129.0272     20.1850
   987.8000      7.9243      2.3212      0.0102     19.9259    129.4335     19.7916
   987.9000      7.9243      2.2968     -0.0068     21.4047    127.5562     19.1272
   988.0000      7.9528      2.2768      0.0276     22.6174    125.2382     18.3970
   988.1000      7.9528      2.2437      0.0403     24.6241    126.0349     17.5399
   988.2000      7.9528      2.1948      0.0030     27.5894    128.4444     16.8555
   988.3000      7.9165      2.1518      0.0268     30.1919    129.0775     17.0019
   988.4000      7.9165      2.1247      0.0574     31.8374    124.2540     17.6927
   988.5000      7.9154      2.1011      0.0027     33.2666    113.6291     18.1230
   988.6000      7.9154      2.0681      0.0523     35.2685    102.7270     18.1452
   988.7000      7.9154      2.0247      0.0542     37.8948     97.7049     18.0547
   988.8000      7.9147      1.9900      0.0410     39.9992     97.9886     18.1056
   988.9000      7.9147      1.9866      0.0440     40.2087     97.1066     18.3214
   989.0000      7.8973      2.0167      0.0863     38.3800     93.1050     18.4752
   989.1000      7.8973      2.0634      0.1647     35.5544     90.8641     18.3973
   989.2000      7.8973      2.0981      0.2275     33.4467     92.2592     17.8779
   989.3000      7.8896      2.1008      0.1657     33.2855     93.4097     16.7130
   989.4000      7.8896      2.0703      0.2062     35.1349     92.5360     15.5691
   989.5000      7.9189      2.0100      0.1806     38.7896     91.4105     15.0925
   989.6000      7.9189      1.9330      0.0805     43.4543     91.0203     14.9370
   989.7000      7.9189      1.8572      0.0682     48.0472     91.5650     14.7007
   989.8000      7.9248      1.7862      0.0543     52.3536     92.7819     14.8188
   989.9000      7.9248      1.7341     -0.0342     55.5072     94.3036     15.6675
   990.0000      7.9158      1.7369     -0.0302     55.3374     96.8068     16.9018
   990.1000      7.9158      1.8046      0.0921     51.2369    101.0675     18.3714
   990.2000      7.9158      1.9081      0.2213     44.9664    105.6986     20.1994
   990.3000      7.9363      2.0235      0.2478     37.9682    110.1041     21.9585
   990.4000      7.9363      2.1427      0.3404     30.7441    116.6592     23.2601
   990.5000      7.9815      2.2476      0.3979     24.3857    125.2264     24.3484
   990.6000      7.9815      2.3230      0.3540     19.8152    130.4514     25.2215
   990.7000      7.9815      2.3747      0.3408     16.6849    132.4631     25.9051
   990.8000      8.1045      2.4141      0.2533     14.2978    141.2688     26.6854
   990.9000      8.1045      2.4478      0.0803     12.2553    156.1590     27.4435
   991.0000      8.0448      2.4707      0.1322     10.8661    162.8856     28.0631
   991.1000      8.0448      2.4722      0.1167     10.7766    158.4312     28.6856
   991.2000      8.0448      2.4632      0.0407     11.3215    152.3689     29.2554
   991.3000      7.8771      2.4698      0.0384     10.9190    151.7861     29.4532
   991.4000      7.8771      2.5000      0.0790      9.0886    156.3279     29.0962
   991.5000      7.8353      2.5412      0.1077      6.5954    159.3293     28.4966
   991.6000      7.8353      2.5736      0.1280      4.6285    158.0476     28.2386
   991.7000      7.8353      2.5811      0.1598      4.1764    158.0884     28.4006
   991.8000      7.8640      2.5695      0.1044      4.8782    159.0724     28.4982
   991.9000      7.8640      2.5579      0.1119      5.5789    154.9315     28.3831
