~Version Information
VERS.                      2.0: CWLS Log ASCII Standard - VERSION 2.0
WRAP.                       NO: One line per depth step
~Well Information Block
STRT.FT                37.7500: 
STOP.FT              1898.5000: 
STEP.FT                 0.2500: 
NULL.                -999.2500: 
COMP.          Petrogulf Corporation: COMPANY
WELL.           Montoya 12-41R: WELL
FLD.           Purgatorie River: FIELD
LOC.           1086' FNL & 610' FEL--: LOCATION
PROV.                       CO: PROVINCE
CNTY.               Las Animas: COUNTRY
SRVC.                         : SERVICE COMPANY
DATE.          Wed Feb 09 11:45:45 2005: LOG DATE
UWI.         005 071 08241 : UNIQUE WELL ID
~Curve Information Block
DEPT.FT            0 000 00 00: Depth
CCL.                          : Casing Collar Locator
TT3.usec                      : CBL 3' Travel Time
AMP3.mV                       : CBL 3' Amplitude
GR.GAPI                       : Gamma Ray
~Parameter Information Block
~A  Depth       CCL         TT3         AMP3         GR     
# ...
   908.7500      0.0000    265.7416     74.6321    178.8181
   909.0000      0.0000    265.7996     75.1952    176.0109
   909.2500      0.0000    265.8701     75.7840    169.9893
   909.5000      0.0000    265.9402     76.4664    162.6122
   909.7500      0.0000    265.9920     77.2733    155.7847
   910.0000      0.0000    266.0058     78.1191    150.4917
   910.2500      0.0000    265.9737     78.7675    146.6161
   910.5000      0.0000    265.9064     78.9545    143.0454
   910.7500      0.0000    265.8271     78.6111    138.3256
   911.0000      0.0000    265.7576     77.9459    132.2410
   911.2500      0.0000    265.7070     77.2764    126.7770
   911.5000      0.0000    265.6719     76.7905    124.8029
   911.7500      0.0000    265.6449     76.4886    127.7721
   912.0000      0.0000    265.6246     76.3205    134.7481
   912.2500      0.0000    265.6147     76.3305    143.1078
   912.5000      0.0000    265.6156     76.6634    150.1078
   912.7500      0.0000    265.6205     77.4351    154.3995
   913.0000      0.0000    265.6200     78.5961    156.2919
   913.2500      0.0000    265.6086     79.9189    156.7586
   913.5000      0.0000    265.5853     81.1257    156.7620
   913.7500      0.0000    265.5518     82.0353    157.1662
   914.0000      0.0000    265.5141     82.6104    158.1425
   914.2500      0.0000    265.4852     82.8917    158.6827
   914.5000      0.0000    265.4851     82.8673    157.7298
   914.7500      0.0000    265.5476     82.3257    155.6203
   915.0000      0.0000    265.7459     80.7817    153.6488
   915.2500      0.0000    266.2086     77.6490    152.6471
   915.5000      0.0000    267.0672     72.7213    152.5646
   915.7500      0.0000    268.3329     66.6269    152.8988
   916.0000      0.0000    269.8124     60.7036    153.0817
   916.2500      0.0000    271.1844     56.2157    152.7910
   916.5000      0.0000    272.1953     53.5857    152.1248
   916.7500      0.0000    272.7930     52.3628    151.2188
   917.0000      0.0000    273.0850     51.8492    149.5649
   917.2500      2.0000    273.2049     51.6795    145.9794
   917.5000      2.0000    273.2242     51.8867    139.5515
   917.7500      0.0000    273.1449     52.6556    130.7298
   918.0000      0.0000    272.9192     54.1299    121.4238
   918.2500      0.0000    272.4608     56.3310    113.9090
   918.5000      0.0000    271.6710     59.0912    109.5198
   918.7500      0.0000    270.5226     62.0556    108.0203
   919.0000      0.0000    269.1520     64.8106    107.7508
   919.2500      0.0000    267.8404     67.0079    106.4594
   919.5000      0.0000    266.8524     68.4143    102.9802
   919.7500      0.0000    266.2794     68.9902     98.7440
   920.0000      0.0000    266.0334     68.9515     97.0065
   920.2500      0.0000    265.9595     68.6485     99.7041
   920.5000      0.0000    265.9394     68.3462    105.2521
   920.7500      0.0000    265.9196     68.1421    110.0097
   921.0000      0.0000    265.8911     68.0400    111.6228
   921.2500      0.0000    265.8612     68.0280    110.2483
   921.5000      0.0000    265.8369     68.0863    107.0885
   921.7500      0.0000    265.8206     68.1761    103.2694
   922.0000      0.0000    265.8121     68.2514    100.2869
   922.2500      0.0000    265.8102     68.2895     99.9001
   922.5000      0.0000    265.8123     68.3037    102.5968
   922.7500      0.0000    265.8148     68.3241    106.8424
   923.0000      0.0000    265.8158     68.3664    110.4133
   923.2500      0.0000    265.8184     68.4177    112.1139
   923.5000      0.0000    265.8295     68.4514    112.0570
   923.7500      0.0000    265.8538     68.4560    110.8207
   924.0000      0.0000    265.8882     68.4519    108.8052
   924.2500      0.0000    265.9220     68.4775    106.2613
   924.5000      0.0000    265.9427     68.5550    103.5292
   924.7500      0.0000    265.9424     68.6666    101.2361
   925.0000      0.0000    265.9229     68.7596    100.3789
   925.2500      0.0000    265.8961     68.7825    101.9429
   925.5000      0.0000    265.8763     68.7231    106.2483
   925.7500      0.0000    265.8706     68.6171    112.6451
   926.0000      0.0000    265.8777     68.5175    119.5923
   926.2500      0.0000    265.8939     68.4581    125.0557
   926.5000      0.0000    265.9162     68.4478    127.7578
   926.7500      0.0000    265.9409     68.4828    128.6020
   927.0000      0.0000    265.9622     68.5511    130.1343
   927.2500      0.0000    265.9749     68.6344    133.9050
   927.5000      0.0000    265.9777     68.7241    138.7366
   927.7500      0.0000    265.9738     68.8292    142.0706
   928.0000      0.0000    265.9687     68.9625    142.7058
   928.2500      0.0000    265.9675     69.1296    141.6238
   928.5000      0.0000    265.9711     69.3402    140.2380
   928.7500      0.0000    265.9738     69.6116    138.5952
   929.0000      0.0000    265.9684     69.9416    135.7792
   929.2500      0.0000    265.9536     70.2689    131.7462
   929.5000      0.0000    265.9345     70.4608    128.0654
   929.7500      0.0000    265.9189     70.3677    126.5311
   930.0000      0.0000    265.9106     69.9353    127.3069
   930.2500      0.0000    265.9077     69.2824    128.7978
   930.5000      0.0000    265.9061     68.6387    129.5055
   930.7500      0.0000    265.9045     68.1862    129.8194
   931.0000      0.0000    265.9057     67.9692    131.6072
   931.2500      0.0000    265.9114     67.9489    135.9807
   931.5000      0.0000    265.9173     68.1060    141.7917
   931.7500      0.0000    265.9164     68.4642    146.3782
   932.0000      0.0000    265.9051     69.0154    147.7526
   932.2500      0.0000    265.8857     69.6330    146.1822
   932.5000      0.0000    265.8640     70.0835    143.7417
   932.7500      0.0000    265.8448     70.1624    142.4121
   933.0000      0.0000    265.8316     69.8442    142.6680
   933.2500      0.0000    265.8282     69.2892    143.5615
   933.5000      0.0000    265.8390     68.6986    143.7433
   933.7500      0.0000    265.8657     68.1825    142.6836
   934.0000      0.0000    265.9023     67.7668    141.3583
   934.2500      0.0000    265.9367     67.4692    141.6018
   934.5000      0.0000    265.9581     67.3283    144.4676
   934.7500      0.0000    265.9637     67.3793    149.2687
   935.0000      0.0000    265.9576     67.6374    154.3979
   935.2500      0.0000    265.9450     68.1047    158.8888
   935.5000      0.0000    265.9286     68.7911    162.7178
   935.7500      0.0000    265.9097     69.7274    165.6920
   936.0000      0.0000    265.8907     70.9366    166.8612
   936.2500      0.0000    265.8740     72.3575    165.4886
   936.5000      0.0000    265.8598     73.7974    162.2287
   936.7500      0.0000    265.8460     74.9939    158.6828
   937.0000      0.0000    265.8282     75.7612    155.7771
   937.2500      0.0000    265.8006     76.0947    153.0931
   937.5000      0.0000    265.7602     76.1485    149.7314
   937.7500      0.0000    265.7104     76.1264    145.2421
   938.0000      0.0000    265.6602     76.1940    139.7699
   938.2500      0.0000    265.6183     76.4546    134.0914
   938.5000      0.0000    265.5878     76.9585    129.6438
   938.7500      0.0000    265.5649     77.7187    127.7544
   939.0000      0.0000    265.5443     78.7205    128.4918
   939.2500      0.0000    265.5264     79.9108    130.5808
   939.5000      0.0000    265.5186     81.1734    132.5223
   939.7500      0.0000    265.5274     82.3352    133.5322
   940.0000      0.0000    265.5490     83.2310    133.4763
   940.2500      0.0000    265.5696     83.7833    132.5612
   940.5000      0.0000    265.5742     84.0285    131.5424
   940.7500      0.0000    265.5581     84.0796    131.7392
   941.0000      0.0000    265.5302     84.0654    134.0597
   941.2500      0.0000    265.5049     84.0757    137.9135
   941.5000      0.0000    265.4934     84.1290    141.4818
   941.7500      0.0000    265.5007     84.1830    143.2459
   942.0000      0.0000    265.5247     84.1901    143.2205
