~Version Information
VERS.                      2.0: CWLS Log ASCII Standard - VERSION 2.0
WRAP.                       NO: One line per depth step
~Well Information Block
STRT.FT               300.0000: 
STOP.FT               871.2500: 
STEP.FT                 0.2500: 
NULL.                -999.2500: 
COMP.          Pioneer Natural Resources: COMPANY
WELL.            Hustler 12-17: WELL
FLD.           Purgatoire River: FIELD
LOC.           2150' FNL & 450' FWL: LOCATION
PROV.                 Colorado: PROVINCE
CNTY.               Las Animas: COUNTRY
SRVC.                Patterson: SERVICE COMPANY
DATE.          Mon Dec 20 09:25:34 2004: LOG DATE
UWI.           05 071 08236 00: UNIQUE WELL ID
~Curve Information Block
DEPT.FT            0 000 00 00: Depth
SN.Ohm-m                      : IEL Short Normal
SP.mV                         : IEL Spontaneous Potential
DIR.Ohm-m                     : IEL Induction Resistivity
GR.GAPI                       : Gamma Ray
~Parameter Information Block
~A  Depth        SN          SP         DIR          GR     
# ...
   601.5000    645.9807   -800.0005     27.9713    103.2110
   601.7500    645.9807   -800.0005     27.8259    105.5325
   602.0000    645.9807   -800.0005     27.7858    108.4597
   602.2500    645.9807   -800.0005     27.8132    109.0693
   602.5000    645.9807   -800.0005     27.8496    106.8440
   602.7500    645.9807   -800.0005     27.8580    103.3326
   603.0000    645.9807   -800.0005     27.8406     96.4207
   603.2500    645.9807   -800.0005     27.8205     92.0163
   603.5000    645.9807   -800.0005     27.8089     87.9768
   603.7500    645.9807   -800.0005     27.7876     87.7554
   604.0000    645.9807   -800.0005     27.7177     90.6257
   604.2500    645.9807   -800.0005     27.5582     93.4953
   604.5000    645.9807   -800.0005     27.2783     97.2082
   604.7500    645.9807   -800.0005     26.8629     98.8494
   605.0000    645.9807   -800.0005     26.3193    100.6402
   605.2500    645.9807   -800.0005     25.6840    101.9822
   605.5000    645.9807   -800.0005     25.0209    104.7372
   605.7500    645.9807   -800.0005     24.4080    106.8758
   606.0000    645.9807   -800.0005     23.9184    109.5360
   606.2500    645.9807   -800.0005     23.6007    110.2325
   606.5000    645.9807   -800.0005     23.4611    108.7715
   606.7500    645.9807   -800.0005     23.4526    106.0937
   607.0000    645.9807   -800.0005     23.4760    100.5156
   607.2500    645.9807   -800.0005     23.4015     96.6896
   607.5000    645.9807   -800.0005     23.1122     92.0998
   607.7500    645.9807   -800.0005     22.5496     90.1244
   608.0000    645.9807   -800.0005     21.7347     89.0098
   608.2500    645.9807   -800.0005     20.7508     89.8943
   608.5000    645.9807   -800.0005     19.7041     94.8411
   608.7500    645.9807   -800.0005     18.6898    100.8988
   609.0000    645.9807   -800.0005     17.7746    112.8875
   609.2500    645.9807   -800.0005     16.9938    121.0775
   609.5000    645.9807   -800.0005     16.3557    130.3861
   609.7500    645.9807   -800.0005     15.8520    133.4509
   610.0000    645.9807   -800.0005     15.4707    133.6066
   610.2500    645.9807   -800.0005     15.2058    131.9581
   610.5000    645.9807   -800.0005     15.0611    128.9955
   610.7500    645.9807   -800.0005     15.0479    127.1080
   611.0000    645.9807   -800.0005     15.1815    123.7014
   611.2500    645.9807   -800.0005     15.4761    120.5546
   611.5000    645.9807   -800.0005     15.9402    114.7913
   611.7500    645.9807   -800.0005     16.5694    111.0545
   612.0000    645.9807   -800.0005     17.3423    106.8063
   612.2500    645.9807   -800.0005     18.2190    104.8329
   612.5000    645.9807   -800.0005     19.1424    102.1647
   612.7500    645.9807   -800.0005     20.0412    100.3200
   613.0000    645.9807   -800.0005     20.8390     98.3589
   613.2500    645.9807   -800.0005     21.4736     98.3984
   613.5000    645.9807   -800.0005     21.9190    100.8857
   613.7500    645.9807   -800.0005     22.1921    103.6147
   614.0000    645.9807   -800.0005     22.3390    107.6870
   614.2500    645.9807   -800.0005     22.4132    109.4421
   614.5000    645.9807   -800.0005     22.4611    109.6037
   614.7500    645.9807   -800.0005     22.5196    108.1494
   615.0000    645.9807   -800.0005     22.6161    104.9862
   615.2500    645.9807   -800.0005     22.7665    103.1498
   615.5000    645.9807   -800.0005     22.9684    101.3639
   615.7500    645.9807   -800.0005     23.1984    100.5187
   616.0000    645.9807   -800.0005     23.4190     99.2793
   616.2500    645.9807   -800.0005     23.5980     98.6888
   616.5000    645.9807   -800.0005     23.7280     99.1015
   616.7500    645.9807   -800.0005     23.8294    100.4904
   617.0000    645.9807   -800.0005     23.9318    103.3501
   617.2500    645.9807   -800.0005     24.0515    104.7223
   617.5000    645.9807   -800.0005     24.1832    104.6927
   617.7500    645.9807   -800.0005     24.3086    103.4453
   618.0000    645.9807   -800.0005     24.4121    101.2790
   618.2500    645.9807   -800.0005     24.4904    100.5182
   618.5000    645.9807   -800.0005     24.5513    100.8140
   618.7500    645.9807   -800.0005     24.6030    101.5717
   619.0000    645.9807   -800.0005     24.6464    102.4994
   619.2500    645.9807   -800.0005     24.6730    102.6128
   619.5000    645.9807   -800.0005     24.6714    102.3331
   619.7500    645.9807   -800.0005     24.6343    102.3956
   620.0000    645.9807   -800.0005     24.5628    103.4021
   620.2500    645.9807   -800.0005     24.4656    104.3491
   620.5000    645.9807   -800.0005     24.3537    105.0003
   620.7500    645.9807   -800.0005     24.2331    104.6445
   621.0000    645.9807   -800.0005     24.1001    103.7802
   621.2500    645.9807   -800.0005     23.9449    103.6639
   621.5000    645.9807   -800.0005     23.7608    104.1918
   621.7500    645.9807   -800.0005     23.5479    104.3674
   622.0000    645.9807   -800.0005     23.3107    103.4691
   622.2500    645.9807   -800.0005     23.0558    102.1918
   622.5000    645.9807   -800.0005     22.7952    100.2743
   622.7500    645.9807   -800.0005     22.5489     99.7459
   623.0000    645.9807   -800.0005     22.3401    101.0288
   623.2500    645.9807   -800.0005     22.1871    103.3180
   623.5000    645.9807   -800.0005     22.0974    107.9761
   623.7500    645.9807   -800.0005     22.0670    111.1128
   624.0000    645.9807   -800.0005     22.0817    114.7888
   624.2500    645.9807   -800.0005     22.1190    116.1149
   624.5000    645.9807   -800.0005     22.1559    115.8417
   624.7500    645.9807   -800.0005     22.1794    114.1065
   625.0000    645.9807   -800.0005     22.1960    110.0400
   625.2500    645.9807   -800.0005     22.2338    107.3322
   625.5000    645.9807   -800.0005     22.3359    104.9609
   625.7500    645.9807   -800.0005     22.5451    104.9328
   626.0000    645.9807   -800.0005     22.8865    106.4753
   626.2500    645.9807   -800.0005     23.3529    107.6014
   626.5000    645.9807   -800.0005     23.9001    108.2217
   626.7500    645.9807   -800.0005     24.4538    107.7759
   627.0000    645.9807   -800.0005     24.9291    105.9497
   627.2500    645.9807   -800.0005     25.2550    103.9800
   627.5000    645.9807   -800.0005     25.3969    100.1284
   627.7500    645.9807   -800.0005     25.3652     97.4101
   628.0000    645.9807   -800.0005     25.2058     94.1732
   628.2500    645.9807   -800.0005     24.9799     93.0654
   628.5000    645.9807   -800.0005     24.7432     93.1836
   628.7500    645.9807   -800.0005     24.5324     94.2232
   629.0000    645.9807   -800.0005     24.3591     96.5961
   629.2500    645.9807   -800.0005     24.2141     98.3465
   629.5000    645.9807   -800.0005     24.0782    100.6795
   629.7500    645.9807   -800.0005     23.9399    101.9561
   630.0000    645.9807   -800.0005     23.8063    104.0246
   630.2500    645.9807   -800.0005     23.7004    106.0395
   630.5000    645.9807   -800.0005     23.6456    110.2081
   630.7500    645.9807   -800.0005     23.6511    113.1307
   631.0000    645.9807   -800.0005     23.7068    116.1303
   631.2500    645.9807   -800.0005     23.7893    116.7177
   631.5000    645.9807   -800.0005     23.8677    115.9386
   631.7500    645.9807   -800.0005     23.9069    114.9386
   632.0000    645.9807   -800.0005     23.8765    113.4882
   632.2500    645.9807   -800.0005     23.7703    112.7341
   632.5000    645.9807   -800.0005     23.6225    112.0972
   632.7500    645.9807   -800.0005     23.4995    112.0027
   633.0000    645.9807   -800.0005     23.4670    111.8046
   633.2500    645.9807   -800.0005     23.5537    111.0421
   633.5000    645.9807   -800.0005     23.7317    108.3828
   633.7500    645.9807   -800.0005     23.9207    105.8861
   634.0000    645.9807   -800.0005     24.0144    102.1599
   634.2500    645.9807   -800.0005     23.9227    100.1853
   634.5000    645.9807   -800.0005     23.6074     98.4574
   634.7500    645.9807   -800.0005     23.0922     98.4997
