~Version Information
VERS.                      2.0: CWLS Log ASCII Standard - VERSION 2.0
WRAP.                       NO: One line per depth step
~Well Information Block
STRT.FT               350.0000: 
STOP.FT              2264.0000: 
STEP.FT                 0.1000: 
NULL.                -999.2500: 
COMP.          Pioneer Natural Resources: COMPANY
WELL.             Warrior 32-1: WELL
FLD.           Purgatoire River: FIELD
LOC.           2624' FNL & 2392' FEL: LOCATION
PROV.                 Colorado: PROVINCE
CNTY.               Las Animas: COUNTRY
SRVC.                Patterson: SERVICE COMPANY
DATE.          Tue Oct 05 06:54:20 2004: LOG DATE
UWI.           05 071 08176 00: UNIQUE WELL ID
~Curve Information Block
DEPT.FT            0 000 00 00: Depth
DCAL.in                       : CDL Caliper
RHOB.g/cc                     : CDL Bulk Density
RHOC.g/cc                     : CDL Density Correction
DPOR.pu                       : CDL Density Porosity
NPOR.pu                       : Neutron Porosity
GR.GAPI                       : Gamma Ray
~Parameter Information Block
~A  Depth       DCAL        RHOB        RHOC        DPOR        NPOR         GR     
# ...
   983.6000      8.1789      2.5236      0.1130      7.6579     26.9290    107.9693
   983.7000      8.1789      2.5378      0.0906      6.8011     27.2399    101.1954
   983.8000      8.1765      2.5380      0.1100      6.7892     27.1531    103.5544
   983.9000      8.1765      2.5344      0.0709      7.0055     26.8871    106.4512
   984.0000      8.1746      2.5474      0.1173      6.2156     26.6915    104.7104
   984.1000      8.1746      2.5734      0.1657      4.6451     26.4821    104.3363
   984.2000      8.1746      2.5934      0.1346      3.4328     26.2489    110.3053
   984.3000      8.1756      2.6015      0.1179      2.9377     26.0245    118.4178
   984.4000      8.1756      2.6040      0.0759      2.7886     25.8381    122.7512
   984.5000      8.1795      2.6140      0.0432      2.1834     25.9543    124.4240
   984.6000      8.1795      2.6238      0.0884      1.5890     26.4726    130.2094
   984.7000      8.1795      2.6009      0.0872      2.9783     26.8439    140.7700
   984.8000      8.1832      2.5477     -0.0284      6.1979     26.5161    147.5065
   984.9000      8.1832      2.5068      0.0181      8.6770     25.7193    145.2630
   985.0000      8.1833      2.5011     -0.0061      9.0269     24.9324    137.8696
   985.1000      8.1833      2.5196      0.0004      7.9039     24.3127    128.2410
   985.2000      8.1833      2.5399      0.0068      6.6708     23.9789    118.2291
   985.3000      8.1748      2.5539     -0.0085      5.8268     24.0105    112.7698
   985.4000      8.1748      2.5746     -0.0273      4.5703     24.1249    111.7048
   985.5000      8.1601      2.5995      0.0702      3.0610     24.1033    111.1704
   985.6000      8.1601      2.5992      0.0443      3.0767     24.0140    109.9885
   985.7000      8.1601      2.5694     -0.0019      4.8866     23.9263    106.3209
   985.8000      8.1509      2.5428     -0.0241      6.4949     23.8978    102.8619
   985.9000      8.1509      2.5458      0.0101      6.3157     24.0338    105.7780
   986.0000      8.1472      2.5720      0.0581      4.7264     24.4078    113.0245
   986.1000      8.1472      2.5987      0.0992      3.1081     24.8491    115.6471
   986.2000      8.1472      2.6121      0.0369      2.2977     25.1769    107.7444
   986.3000      8.1447      2.6095      0.0662      2.4538     25.2954     95.0012
   986.4000      8.1447      2.5906      0.0492      3.5972     25.1524     89.6443
   986.5000      8.1432      2.5713     -0.0241      4.7692     25.0297     94.9264
   986.6000      8.1432      2.5688      0.0429      4.9205     25.3327    102.7503
   986.7000      8.1432      2.5676      0.0485      4.9925     25.7761    104.4032
   986.8000      8.1424      2.5482      0.0269      6.1678     25.8326     97.8756
   986.9000      8.1424      2.5231      0.0007      7.6905     25.8075     89.1058
   987.0000      8.1424      2.5148      0.0226      8.1961     26.1650     84.8996
   987.1000      8.1424      2.5153      0.0427      8.1641     26.6155     85.1665
   987.2000      8.1424      2.5013     -0.0081      9.0099     26.7115     86.9479
   987.3000      8.1386      2.4742     -0.0337     10.6573     26.5069     88.8853
   987.4000      8.1386      2.4509     -0.0085     12.0695     26.2440     89.7229
   987.5000      8.1332      2.4393      0.0304     12.7714     26.0065     90.6013
   987.6000      8.1332      2.4365      0.0230     12.9371     25.7073     94.0328
   987.7000      8.1332      2.4487      0.0140     12.1989     25.2393    100.4273
   987.8000      8.1347      2.4848      0.0769     10.0117     24.8181    108.2349
   987.9000      8.1347      2.5327      0.1180      7.1098     24.7498    113.0613
   988.0000      8.1374      2.5693      0.1277      4.8908     24.7732    113.0102
   988.1000      8.1374      2.5808      0.1096      4.1955     24.3538    109.7912
   988.2000      8.1374      2.5697      0.0938      4.8640     23.7947    104.0260
   988.3000      8.1306      2.5536      0.0679      5.8438     23.8409     98.6400
   988.4000      8.1306      2.5475      0.0557      6.2122     24.2988     96.3160
   988.5000      8.1230      2.5426      0.0833      6.5108     24.4412     95.8363
   988.6000      8.1230      2.5220      0.0322      7.7567     24.3588     96.7491
   988.7000      8.1230      2.4930      0.0149      9.5134     24.2843     99.9764
   988.8000      8.1258      2.4729     -0.0013     10.7313     23.9373    102.4887
   988.9000      8.1258      2.4706     -0.0245     10.8712     23.4029     99.6586
   989.0000      8.1325      2.4836      0.0060     10.0839     23.2973     94.3683
   989.1000      8.1325      2.4951      0.0295      9.3885     23.6262     91.4615
   989.2000      8.1325      2.4950      0.0106      9.3955     23.6967     87.0740
   989.3000      8.1373      2.4887      0.0150      9.7729     23.2345     79.0216
   989.4000      8.1373      2.4827      0.0272     10.1406     22.6798     72.4890
   989.5000      8.1419      2.4855     -0.0144      9.9726     22.3366     72.3615
   989.6000      8.1419      2.4991      0.0724      9.1426     22.1268     77.7440
   989.7000      8.1419      2.5141      0.0087      8.2340     21.9192     82.1271
   989.8000      8.1435      2.5287      0.0325      7.3496     21.7264     82.0468
   989.9000      8.1435      2.5335      0.0635      7.0584     21.6250     79.6419
   990.0000      8.1425      2.5212      0.0237      7.8081     21.4591     77.7628
   990.1000      8.1425      2.5119      0.0121      8.3696     21.4477     75.5206
   990.2000      8.1425      2.5190      0.0465      7.9386     21.9270     72.0873
   990.3000      8.1425      2.5238      0.0900      7.6471     22.2497     70.8960
   990.4000      8.1425      2.5115      0.0271      8.3965     21.8097     72.8154
   990.5000      8.1433      2.4933      0.0400      9.4990     21.2879     74.5382
   990.6000      8.1433      2.4816      0.0314     10.2039     21.3622     74.9300
   990.7000      8.1433      2.4725      0.0827     10.7581     21.6883     73.0088
   990.8000      8.1470      2.4570      0.0037     11.6976     21.7474     68.9385
   990.9000      8.1470      2.4391     -0.0348     12.7825     21.3972     65.4175
   991.0000      8.1524      2.4277      0.0243     13.4710     20.8441     62.6958
   991.1000      8.1524      2.4269      0.0362     13.5191     20.5318     62.6267
   991.2000      8.1524      2.4391      0.0659     12.7840     20.5007     66.5769
   991.3000      8.1523      2.4598      0.1067     11.5258     20.2267     68.5791
   991.4000      8.1523      2.4799      0.1297     10.3116     19.5122     65.4501
   991.5000      8.1501      2.4948      0.1566      9.4049     18.9942     61.8104
   991.6000      8.1501      2.5053      0.1346      8.7669     19.2164     60.9765
   991.7000      8.1501      2.5114      0.1118      8.4007     19.7798     61.6319
   991.8000      8.1490      2.5114      0.0923      8.4026     19.7890     62.4100
   991.9000      8.1490      2.5096      0.0801      8.5074     19.1754     62.6611
   992.0000      8.1465      2.5142      0.0898      8.2333     18.7017     62.3042
   992.1000      8.1465      2.5289      0.0220      7.3377     18.8087     61.6446
   992.2000      8.1465      2.5409      0.1164      6.6121     19.2386     59.6426
   992.3000      8.1443      2.5221      0.0680      7.7490     19.4957     54.7497
   992.4000      8.1443      2.4808      0.0061     10.2560     19.1781     49.5915
   992.5000      8.1453      2.4538      0.0157     11.8935     18.4279     50.7163
   992.6000      8.1453      2.4507     -0.0109     12.0812     17.8611     58.1902
   992.7000      8.1453      2.4571      0.0052     11.6914     17.8392     64.3967
   992.8000      8.1480      2.4628      0.0078     11.3441     18.1861     67.9221
   992.9000      8.1480      2.4648      0.0122     11.2215     18.4744     70.6205
   993.0000      8.1494      2.4647      0.0103     11.2276     18.7024     70.9950
   993.1000      8.1494      2.4717      0.0114     10.8090     19.1129     70.8869
