~Version Information
 VERS.                      2.0: CWLS Log ASCII Standard - VERSION 2.0
 WRAP.                       NO: One line per depth step
 ~Well Information Block
 STRT.FT               462.4000: 
 STOP.FT              2260.5000: 
 STEP.FT                 0.1000: 
 NULL.                -999.2500: 
 COMP.          Petrogulf Corporation: COMPANY
 WELL.             McLeod 9-42V: WELL
 FLD.           Purgatorie River: FIELD
 LOC.           1658' FNL & 415' FEL: LOCATION
 CNTY.               Las Animas: COUNTY
 SRVC.                         : SERVICE COMPANY
 DATE.          Fri Nov 12 10:12:24 2004: LOG DATE
 UWI.           05 071 08071 00: UNIQUE WELL ID
 STAT.                 Colorado: STATE
 PROV.                         :Province
 ~Curve Information Block
 DEPT.FT            0 000 00 00: Depth
 DCAL.in                       : CDL Caliper
 RHOB.g/cc                     : CDL Bulk Density
 RHOC.g/cc                     : CDL Density Correction
 DPOR.pu                       : CDL Density Porosity
 GR.GAPI                       : Gamma Ray
 NPOR.pu                       : Neutron Porosity
 ~Parameter Information Block
 ~A  Depth       DCAL        RHOB        RHOC        DPOR         GR         NPOR    
# ...
   587.2000      8.0540      2.5763     -0.0009      4.4645    122.5978     26.6608
   587.3000      8.0828      2.5882      0.0554      3.7438    120.5150     26.1998
   587.4000      8.0828      2.5977     -0.0202      3.1718    119.9334     26.6046
   587.5000      8.0352      2.6059      0.0339      2.6728    120.5835     27.2787
   587.6000      8.0352      2.6169      0.0532      2.0046    121.0902     27.7832
   587.7000      8.0352      2.6205      0.0529      1.7879    121.1661     28.3295
   587.8000      8.0212      2.6153      0.0366      2.1009    121.0179     28.6094
   587.9000      8.0212      2.6148      0.0170      2.1306    119.5372     28.3518
   588.0000      8.0206      2.6235      0.0524      1.6065    116.6131     27.9919
   588.1000      8.0206      2.6305      0.0436      1.1794    113.8297     27.6762
   588.2000      8.0206      2.6293      0.0367      1.2576    110.5382     27.5101
   588.3000      8.0072      2.6183      0.0397      1.9219    106.1398     27.6261
   588.4000      8.0072      2.5951      0.0235      3.3265    102.0146     27.4859
   588.5000      7.9993      2.5647      0.0142      5.1718     99.1441     26.9614
   588.6000      7.9993      2.5438      0.0199      6.4334     98.6399     26.5019
   588.7000      7.9993      2.5463      0.0028      6.2853    100.7054     26.0406
   588.8000      8.0009      2.5659      0.0149      5.0978    102.6317     25.4238
   588.9000      8.0009      2.5890      0.0538      3.6973    103.4540     24.9529
   589.0000      8.0099      2.6147      0.0099      2.1399    105.4863     24.7635
   589.1000      8.0099      2.6316      0.0743      1.1123    109.3959     24.7194
   589.2000      8.0099      2.6195      0.0486      1.8500    113.1239     24.8532
   589.3000      7.9976      2.5906      0.0586      3.6011    113.5495     24.8581
   589.4000      7.9976      2.5726      0.0203      4.6893    110.0155     24.4638
   589.5000      7.9886      2.5733      0.0593      4.6455    106.2065     24.2592
   589.6000      7.9886      2.5801      0.0778      4.2338    104.4775     24.5740
   589.7000      7.9886      2.5779      0.0814      4.3695    103.4668     24.6101
   589.8000      7.9885      2.5644      0.0658      5.1897    102.5088     23.9532
   589.9000      7.9885      2.5535      0.0364      5.8497    101.7456     23.2309
   590.0000      7.9876      2.5611      0.0159      5.3859    101.5357     22.9950
   590.1000      7.9876      2.5812      0.0254      4.1682    104.1341     23.2731
   590.2000      7.9876      2.5898      0.0367      3.6462    109.5097     23.9014
   590.3000      7.9984      2.5747      0.0221      4.5636    112.2084     24.6991
   590.4000      7.9984      2.5548     -0.0737      5.7683    110.4463     25.5008
   590.5000      8.0690      2.5553     -0.0101      5.7415    108.5115     25.9564
   590.6000      8.0690      2.5716      0.0286      4.7522    107.4405     25.9234
   590.7000      8.0690      2.5952     -0.0185      3.3192    106.0980     25.8392
   590.8000      8.0125      2.6277      0.0366      1.3520    106.0135     26.1194
   590.9000      8.0125      2.6544      0.0681     -0.2671    107.5819     26.7268
   591.0000      8.0542      2.6682      0.0001     -1.1013    107.8448     27.3233
   591.1000      8.0542      2.6870     -0.0017     -2.2440    106.0543     27.6934
   591.2000      8.0542      2.7051      0.1105     -3.3368    104.3939     27.8545
   591.3000      8.0049      2.6921      0.0552     -2.5535    103.9270     27.8619
   591.4000      8.0049      2.6595     -0.0211     -0.5739    103.9047     27.7196
   591.5000      7.9904      2.6410     -0.0060      0.5436    103.0967     27.4242
   591.6000      7.9904      2.6318      0.0468      1.1037    101.2651     26.9714
   591.7000      7.9904      2.6137     -0.0532      2.1984     99.2374     26.6010
   591.8000      8.0075      2.5983     -0.0311      3.1341     98.7357     26.4277
   591.9000      8.0075      2.5981     -0.0301      3.1428    100.8915     26.2399
   592.0000      8.1122      2.6065      0.0058      2.6341    104.7104     26.1413
   592.1000      8.1122      2.6115     -0.0115      2.3346    107.9744     26.3843
   592.2000      8.1122      2.6045      0.0139      2.7563    109.6984     26.9019
   592.3000      8.1378      2.5877     -0.0223      3.7779    111.7993     27.4072
   592.4000      8.1378      2.5748      0.0125      4.5584    116.3495     27.6895
   592.5000      8.1100      2.5731     -0.0011      4.6635    120.4176     27.7437
   592.6000      8.1100      2.5740      0.0000      4.6036    121.0005     27.8023
   592.7000      8.1100      2.5627     -0.0066      5.2879    119.8427     27.9932
   592.8000      8.1132      2.5442     -0.0681      6.4123    118.4357     28.0975
   592.9000      8.1132      2.5392      0.0018      6.7155    118.0261     27.9399
   593.0000      8.1185      2.5469      0.0050      6.2469    118.5573     27.6233
   593.1000      8.1185      2.5558     -0.0164      5.7099    117.3206     27.2816
   593.2000      8.1185      2.5586     -0.0021      5.5374    114.9959     26.8391
   593.3000      8.0981      2.5501     -0.0043      6.0540    113.7435     26.3212
   593.4000      8.0981      2.5348     -0.0361      6.9805    111.8558     25.8344
   593.5000      8.0950      2.5258     -0.0226      7.5244    108.2679     25.3055
   593.6000      8.0950      2.5235     -0.0311      7.6659    103.7844     24.7969
   593.7000      8.0950      2.5087     -0.0006      8.5645     99.2642     24.7005
   593.8000      8.0584      2.4744     -0.0640     10.6432     97.8662     24.8644
   593.9000      8.0584      2.4417     -0.0404     12.6272    101.8106     24.6020
   594.0000      8.1363      2.4254     -0.0390     13.6097    108.9262     23.7163
   594.1000      8.1363      2.4148      0.0137     14.2529    115.7221     22.6149
   594.2000      8.1363      2.3925     -0.0419     15.6050    119.7827     21.6366
   594.3000      8.2099      2.3559     -0.0564     17.8222    120.5937     20.6136
   594.4000      8.2099      2.3046     -0.0266     20.9346    120.1467     19.0997
   594.5000      8.2585      2.2290     -0.0365     25.5121    121.0750     17.0014
   594.6000      8.2585      2.1303     -0.0656     31.4968    122.7242     14.5839
   594.7000      8.2585      2.0217      0.0554     38.0776    124.8176     12.0747
   594.8000      8.3194      1.9038      0.0703     45.2270    130.6984      9.6082
   594.9000      8.3194      1.7752      0.0042     53.0174    140.2288      7.3598
   595.0000      8.4397      1.6572     -0.0717     60.1669    146.9603      5.5411
   595.1000      8.4397      1.5693     -0.0311     65.4993    145.9888      4.4713
   595.2000      8.4397      1.4989     -0.0150     69.7643    139.5951      4.5967
   595.3000      8.5015      1.4324     -0.0451     73.7940    131.6209      5.5289
   595.4000      8.5015      1.3820      0.0065     76.8483    123.5328      6.3963
   595.5000      8.5204      1.3579      0.0719     78.3076    115.6480      7.0890
   595.6000      8.5204      1.3530      0.1076     78.6045    108.7743      7.8827
   595.7000      8.5204      1.3697      0.0813     77.5960    103.4478      8.7674
   595.8000      8.5246      1.4281      0.0969     74.0562     98.3477      9.4987
   595.9000      8.5246      1.5329      0.1153     67.7037     91.8350     10.3665
   596.0000      8.4293      1.6666      0.1125     59.6018     85.2617     12.2091
   596.1000      8.4293      1.8207      0.1158     50.2597     80.5500     15.3944
   596.2000      8.4293      1.9932      0.2253     39.8081     77.8513     19.2595
   596.3000      8.4343      2.1644      0.3670     29.4295     78.5796     22.4387
   596.4000      8.4343      2.3156      0.3734     20.2670     81.8444     24.2656
   596.5000      8.5456      2.4406      0.4139     12.6907     83.6842     25.3300
   596.6000      8.5456      2.5239      0.3724      7.6415     84.2696     26.4953
   596.7000      8.5456      2.5518      0.2361      5.9491     86.9910     27.9905
