~Version Information
VERS.                      2.0: CWLS Log ASCII Standard - VERSION 2.0
WRAP.                       NO: One line per depth step
~Well Information Block
STRT.FT               -11.0000: 
STOP.FT              2634.5000: 
STEP.FT                 0.2500: 
NULL.                -999.2500: 
COMP.          Evergreen Operating Corporation: COMPANY
WELL.          Sand PebbleS 13-33: WELL
FLD.           Purgatorie River: FIELD
LOC.           1883' FSL & 63' FWL--: LOCATION
PROV.                 Colorado: PROVINCE
CNTY.               Las Animas: COUNTRY
SRVC.          Patterson Wireline: SERVICE COMPANY
DATE.          Fri Mar 18 09:37:20 2005: LOG DATE
UWI.          005 071 08224 : UNIQUE WELL ID
~Curve Information Block
DEPT.FT            0 000 00 00: Depth
CCL.                          : Casing Collar Locator
TT3.usec                      : CBL 3' Travel Time
AMP3.mV                       : CBL 3' Amplitude
GR.GAPI                       : Gamma Ray
~Parameter Information Block
~A  Depth       CCL         TT3         AMP3         GR     
# ...
   692.5000      0.0000    330.1013      8.8552    137.2989
   692.7500      0.0000    332.0087      8.9331    137.3828
   693.0000      0.0000    335.7628      8.9104    137.6677
   693.2500      0.0000    341.2866      8.8036    137.4876
   693.5000      0.0000    349.4653      8.6405    136.3797
   693.7500      0.0000    359.2927      8.4617    134.3607
   694.0000      0.0000    365.9282      8.3189    131.7735
   694.2500      0.0000    363.7032      8.2598    128.8111
   694.5000      0.0000    351.7405      8.3056    125.2152
   694.7500      0.0000    335.3238      8.4405    120.5467
   695.0000      0.0000    321.2250      8.6237    114.9648
   695.2500      0.0000    312.8936      8.8127    109.5832
   695.5000      0.0000    310.4321      8.9764    105.8014
   695.7500      0.0000    313.6860      9.0916    104.6785
   696.0000      0.0000    324.0218      9.1345    107.2150
   696.2500      0.0000    342.4858      9.0822    114.0809
   696.5000      0.0000    365.8758      8.9283    124.1489
   696.7500      0.0000    385.8017      8.6958    134.1389
   697.0000      0.0000    394.2481      8.4324    140.6915
   697.2500      0.0000    391.1546      8.1890    142.7154
   697.5000      0.0000    385.2870      7.9986    141.7383
   697.7500      0.0000    387.1341      7.8697    140.5490
   698.0000      0.0000    401.2263      7.7938    141.4746
   698.2500      0.0000    424.0203      7.7586    145.0952
   698.5000      0.0000    447.0223      7.7570    149.8716
   698.7500      0.0000    461.6822      7.7818    153.2389
   699.0000      0.0000    463.3142      7.8158    153.6754
   699.2500      0.0000    452.8852      7.8318    151.8263
   699.5000      0.0000    436.1338      7.8085    149.5285
   699.7500      0.0000    420.3085      7.7462    148.0363
   700.0000      0.0000    410.7636      7.6682    147.4810
   700.2500      0.0000    409.9992      7.6066    147.7068
   700.5000      0.0000    418.7324      7.5852    149.0183
   700.7500      0.0000    436.3403      7.6106    151.8321
   701.0000      0.0000    459.9633      7.6753    155.6928
   701.2500      0.0000    484.4860      7.7648    159.0352
   701.5000      0.0000    504.8202      7.8604    160.4362
   701.7500      0.0000    518.5973      7.9379    160.1324
   702.0000      0.0000    526.6151      7.9695    159.8272
   702.2500      0.0000    531.1006      7.9346    160.9086
   702.5000      0.0000    533.9027      7.8303    163.3943
   702.7500      0.0000    535.8626      7.6741    166.5943
   703.0000      0.0000    537.0633      7.4960    169.9459
   703.2500      0.0000    537.3261      7.3286    172.9576
   703.5000      0.0000    536.9080      7.1951    174.9026
   703.7500      0.0000    537.4888      7.0976    175.0078
   704.0000      0.0000    542.4271      7.0150    173.0250
   704.2500      0.0000    554.8215      6.9191    169.5079
   704.5000      0.0000    574.7627      6.8000    165.1375
   704.7500      0.0000    599.1543      6.6772    159.6220
   705.0000      0.0000    623.7546      6.5881    151.5868
   705.2500      0.0000    642.9626      6.5698    139.7617
   705.5000      0.0000    647.6151      6.6483    124.4101
   705.7500      0.0000    627.2305      6.8314    108.0227
   706.0000      0.0000    578.8581      7.1012     94.7990
   706.2500      0.0000    514.4417      7.4131     88.9334
   706.5000      0.0000    457.0337      7.7064     92.4721
   706.7500      0.0000    427.3495      7.9244    104.0353
   707.0000      0.0000    431.3691      8.0384    119.4576
   707.2500      0.0000    456.5140      8.0688    134.0654
   707.5000      0.0000    478.2114      8.0806    144.7566
   707.7500      0.0000    475.4770      8.1429    150.4029
   708.0000      0.0000    445.4396      8.2819    151.2509
   708.2500      0.0000    402.5812      8.4706    148.8244
   708.5000      0.0000    364.0595      8.6586    145.9253
   708.7500      0.0000    337.9919      8.8018    145.3923
   709.0000      0.0000    323.8361      8.8732    148.2141
   709.2500      0.0000    318.1122      8.8631    153.0223
   709.5000      0.0000    317.6517      8.7819    157.5848
   709.7500      0.0000    319.9247      8.6600    160.7101
   710.0000      0.0000    323.0450      8.5397    162.6844
   710.2500      0.0000    326.0515      8.4580    164.1305
   710.5000      0.0000    328.4850      8.4318    164.9305
   710.7500      0.0000    329.4888      8.4555    164.3869
   711.0000      0.0000    327.9898      8.5079    162.1035
   711.2500      0.0000    324.0721      8.5625    158.5247
   711.5000      0.0000    319.4825      8.5993    154.6842
   711.7500      0.0000    316.5152      8.6134    151.5077
   712.0000      0.0000    316.7789      8.6140    149.6420
   712.2500      0.0000    320.7980      8.6132    150.0630
   712.5000      0.0000    327.9149      8.6179    153.9231
   712.7500      0.0000    336.3154      8.6272    160.9009
   713.0000      0.0000    343.7851      8.6327    168.3300
   713.2500      0.0000    348.9619      8.6206    173.0504
   713.5000      0.0000    352.0341      8.5784    174.0932
   713.7500      0.0000    354.5873      8.5063    173.0642
   714.0000      0.0000    359.3888      8.4229    172.2017
   714.2500      0.0000    370.2459      8.3549    172.7087
   714.5000      0.0000    390.7969      8.3162    174.7229
   714.7500      0.0000    421.6614      8.2954    177.6910
   715.0000      0.0000    458.0555      8.2641    180.1396
   715.2500      0.0000    490.7659      8.1987    179.9582
   715.5000      0.0000    510.3517      8.1003    176.0535
   715.7500      0.0000    511.8217      7.9972    169.6201
   716.0000      0.0000    497.4602      7.9319    163.2943
   716.2500      0.0000    476.2726      7.9352    159.3892
   716.5000      0.0000    459.5312      8.0021    158.9439
   716.7500      0.0000    455.6187      8.0864    161.4227
   717.0000      0.0000    468.5010      8.1267    164.8333
   717.2500      0.0000    498.7186      8.0833    166.8331
   717.5000      0.0000    542.6018      7.9614    166.3268
   717.7500      0.0000    590.9538      7.8030    164.0282
   718.0000      0.0000    632.3141      7.6591    161.6728
   718.2500      0.0000    659.5116      7.5590    161.0357
   718.5000      0.0000    672.6580      7.4962    163.3278
   718.7500      0.0000    676.7838      7.4392    168.5368
   719.0000      0.0000    678.3397      7.3576    175.1251
   719.2500      0.0000    682.7638      7.2487    181.0993
   719.5000      0.0000    692.3391      7.1459    185.6115
   719.7500      0.0000    705.0777      7.1022    188.8038
   720.0000      0.0000    716.4133      7.1543    190.1624
   720.2500      0.0000    722.6623      7.2960    188.2709
   720.5000      0.0000    722.7959      7.4819    182.5315
   720.7500      0.0000    717.0088      7.6544    174.2065
   721.0000      0.0000    703.9460      7.7613    165.3067
   721.2500      0.0000    680.3282      7.7512    156.7747
   721.5000      0.0000    644.9846      7.5674    148.1169
   721.7500      0.0000    604.0679      7.1773    138.8342
   722.0000      0.0000    570.7668      6.6339    129.9202
   722.2500      0.0000    557.7466      6.0943    123.6180
   722.5000      0.0000    569.0518      5.7350    121.6749
   722.7500      0.0000    597.9184      5.6270    123.9114
   723.0000      0.0000    630.3702      5.7060    128.3905
   723.2500      0.0000    652.2966      5.8623    132.8407
   723.5000      2.0000    657.4315      6.0300    136.0597
   723.7500      2.0000    650.7933      6.1883    138.1350
   724.0000      0.0000    643.3040      6.3197    139.7261
   724.2500      0.0000    641.2324      6.4063    141.7261
   724.5000      0.0000    641.0147      6.4670    145.4698
   724.7500      0.0000    635.0998      6.5656    152.0788
   725.0000      0.0000    621.2667      6.7565    160.9774
   725.2500      0.0000    604.2701      7.0246    169.6671
   725.5000      0.0000    590.7890      7.2879    175.5195
   725.7500      0.0000    586.6525      7.4591    177.5266
