~Version Information
 VERS.                                  2.0 : CWLS LAS VERSION
 WRAP.                                   NO : WRAPING MODE
 SWARE .                 MController 2.5.0J : SOFTWARE VERSION
~Well Information
 WELL.                       Beacon 11-18TR : WELL
 COMP.        Pioneer Natural Resources Inc : COMPANY
 FLD.                      Purgatoire River : FIELD
 LOC.                NW/NW Sec 18 T32S R66W : LOCATION
 DATE.                           1/15-16/05 : DATE(S) LOGGED
 SRVC.       Blanco Geological Services LLC : SERVICE COMPANY
 STAT.                                   CO : STATE
 CNTY.                           Las Animas : COUNTY
 CTRY.                                  USA : COUNTRY
 API.                          05-071-08251 : API NUMBER
 STRT.FT                             283.00 : START DEPTH
 STOP.FT                            2753.00 : STOP DEPTH
 STEP.FT                               1.00 : DEPTH INCREMENT
 NULL.                                -9999 : NULL VALUE
~Curve information
 DEPTH.FT                                   :
 ROP.MIN/FT                                 :
 GAS.UNITS                                  :
~ASCII Log data
# ...
      1283.0         0.17         45.5 
      1284.0         0.27         44.7 
      1285.0         0.23         41.4 
      1286.0         0.27         35.6 
      1287.0         0.27         30.0 
      1288.0         0.23         26.0 
      1289.0         0.27         22.7 
      1290.0         0.27         20.5 
      1291.0         0.27         18.9 
      1292.0         0.25         17.4 
      1293.0         0.33         16.7 
      1294.0         0.23         16.1 
      1295.0         0.23         15.9 
      1296.0         0.23         16.0 
      1297.0         0.23         16.8 
      1298.0         0.27         18.2 
      1299.0         0.27         20.1 
      1300.0         0.23         20.9 
      1301.0         0.17         20.8 
      1302.0         0.23         21.1 
      1303.0         0.17         20.7 
      1304.0         0.17         20.5 
      1305.0         0.17         21.2 
      1306.0         0.17         19.0 
      1307.0         0.17         21.5 
      1308.0         0.22         29.2 
      1309.0         0.17         37.5 
      1310.0         0.17         43.4 
      1311.0         0.17         45.3 
      1312.0         0.20         45.1 
      1313.0         0.20         42.7 
      1314.0         0.17         40.3 
      1315.0         0.17         36.5 
      1316.0         0.17         33.6 
      1317.0         0.20         30.0 
      1318.0         0.27         27.0 
      1319.0         0.33         23.8 
      1320.0         0.30         20.7 
      1321.0         0.30         18.4 
      1322.0         0.23         17.2 
      1323.0         0.27         16.5 
      1324.0         0.23         16.7 
      1325.0         0.23         16.4 
      1326.0         0.30         27.0 
      1327.0         0.25         55.5 
      1328.0         0.27        104.6 
      1329.0         0.23        127.8 
      1330.0         0.20        128.9 
      1331.0         0.17        124.5 
      1332.0         0.20        114.6 
      1333.0         0.20         95.9 
      1334.0         0.27         77.5 
      1335.0         0.27         57.2 
      1336.0         0.27         40.7 
      1337.0         0.23         30.2 
      1338.0         0.23         25.2 
      1339.0         0.23         13.6 
      1340.0         0.23         16.4 
      1341.0         0.22         22.3 
      1342.0         0.23         27.5 
      1343.0         0.27         31.4 
      1344.0         0.23         32.3 
      1345.0         0.23         31.2 
      1346.0         0.27         29.6 
      1347.0         0.17         26.0 
      1348.0         0.23         24.2 
      1349.0         0.20         21.2 
      1350.0         0.30         19.4 
      1351.0         0.30         17.6 
      1352.0         0.30         16.5 
      1353.0         0.27         15.6 
      1354.0         0.23         15.4 
      1355.0         0.17         14.3 
      1356.0         0.23         13.7 
      1357.0         0.23         13.0 
      1358.0         0.27         12.2 
      1359.0         0.25         12.4 
      1360.0         0.33         12.2 
      1361.0         0.30         12.5 
      1362.0         0.40         12.2 
      1363.0         0.37         12.1 
      1364.0         0.43         12.5 
      1365.0         0.33         12.8 
      1366.0         0.37         12.6 
      1367.0         0.33         12.7 
      1368.0         0.25         12.4 
      1369.0         0.20         12.7 
      1370.0         0.23         10.0 
      1371.0         0.23         10.8 
      1372.0         0.27         14.2 
      1373.0         0.27         19.4 
      1374.0         0.33         22.8 
      1375.0         0.20         24.2 
      1376.0         0.27         23.9 
      1377.0         0.27         22.9 
      1378.0         0.37         20.8 
      1379.0         0.33         18.2 
      1380.0         0.33         15.8 
      1381.0         0.27         13.5 
      1382.0         0.27         12.5 
      1383.0         0.30         12.0 
      1384.0         0.30         10.8 
      1385.0         0.33         10.6 
      1386.0         0.28         10.0 
      1387.0         0.30         10.2 
      1388.0         0.27          9.9 
      1389.0         0.27          9.6 
      1390.0         0.27          9.7 
      1391.0         0.30          9.5 
      1392.0         0.40          9.3 
      1393.0         0.30          9.0 
      1394.0         0.30          8.9 
      1395.0         0.33          8.9 
      1396.0         0.22          9.1 
      1397.0         0.20          9.1 
      1398.0         0.27          9.2 
      1399.0         0.37         10.0 
      1400.0         0.30          9.0 
      1401.0         0.23         10.9 
      1402.0         0.23         12.9 
      1403.0         0.20         14.5 
      1404.0         0.27         16.2 
      1405.0         0.30         16.3 
      1406.0         0.23         15.6 
      1407.0         0.23         14.3 
      1408.0         0.20         12.7 
      1409.0         0.23         11.9 
      1410.0         0.27         10.3 
      1411.0         0.27         10.0 
      1412.0         0.33          9.4 
      1413.0         0.23          8.6 
      1414.0         0.27          8.1 
      1415.0         0.23          7.8 
      1416.0         0.28          7.4 
      1417.0         0.23          7.4 
      1418.0         0.27          7.3 
      1419.0         0.37          7.2 
      1420.0         0.20          7.1 
      1421.0         0.23          7.5 
      1422.0         0.27          5.6 
      1423.0         0.23          6.2 
      1424.0         0.23          6.3 
      1425.0         0.30          6.5 
      1426.0         0.27         30.6 
      1427.0         0.27         32.5 
      1428.0         0.22         42.7 
      1429.0         0.17         50.6 
      1430.0         0.20         60.9 
      1431.0         0.17         67.9 
      1432.0         0.17         73.3 
      1433.0         0.20         74.3 
      1434.0         0.17         73.9 
      1435.0         0.10         72.1 
      1436.0         0.17         70.0 
      1437.0         0.20         65.8 
      1438.0         0.20         58.7 
      1439.0         0.23         52.2 
      1440.0         0.23         46.6 
      1441.0         0.33         42.7 
      1442.0         0.30         38.9 
      1443.0         0.23         36.3 
      1444.0         0.23         35.5 
      1445.0         0.30         34.6 
      1446.0         0.30         33.4 
      1447.0         0.27         32.7 
      1448.0         0.27         32.2 
      1449.0         0.25         31.1 
      1450.0         0.33         30.3 
      1451.0         0.20         29.4 
      1452.0         0.30         29.5 
      1453.0         0.20         31.4 
      1454.0         0.23         35.7 
      1455.0         0.20         38.5 
      1456.0         0.27         43.1 
      1457.0         0.33         34.2 
      1458.0         0.33         30.4 
      1459.0         0.17         27.3 
      1460.0         0.20         26.6 
      1461.0         0.13         27.9 
      1462.0         0.15         29.9 
      1463.0         0.13         33.9 
      1464.0         0.13         37.6 
      1465.0         0.17         43.0 
      1466.0         0.23         49.5 
      1467.0         0.27         54.9 
      1468.0         0.37         56.6 
      1469.0         0.27         56.5 
      1470.0         0.27         53.4 
      1471.0         0.42         47.4 
      1472.0         0.27         39.5 
      1473.0         0.30         36.5 
      1474.0         0.17         35.0 
      1475.0         0.23         34.3 
      1476.0         0.27         31.7 
      1477.0         0.27         28.3 
      1478.0         0.20         26.5 
      1479.0         0.17         24.4 
      1480.0         0.30         23.2 
      1481.0         0.42         22.2 
      1482.0         0.27         21.8 
