~Version Information
VERS.                      2.0: CWLS Log ASCII Standard - VERSION 2.0
WRAP.                       NO: One line per depth step
~Well Information Block
STRT.FT               665.0000: 
STOP.FT              1972.5000: 
STEP.FT                 0.1000: 
NULL.                -999.2500: 
COMP.          Petrogulf Corporation: COMPANY
WELL.          Great Plains 22-21V: WELL
FLD.           Purgatorie River: FIELD
LOC.           63' FNL & 1895' FWL: LOCATION
PROV.                 Colorado: PROVINCE
CNTY.               Las Animas: COUNTRY
SRVC.                Patterson: SERVICE COMPANY
DATE.          Thu Sep 01 07:39:43 2005: LOG DATE
UWI.                          : UNIQUE WELL ID
~Curve Information Block
DEPT.FT            0 000 00 00: Depth
DCAL.in                       : CDL Caliper
RHOB.g/cc                     : CDL Bulk Density
RHOC.g/cc                     : CDL Density Correction
DPOR.pu                       : CDL Density Porosity
GR.GAPI                       : Gamma Ray
NPOR.pu                       : Neutron Porosity
~Parameter Information Block
~A  Depth       DCAL        RHOB        RHOC        DPOR         GR         NPOR    
# ...
   924.2000      8.3730      2.5382      0.0651      6.7747    129.5989     29.4188
   924.3000      8.3517      2.5329      0.0474      7.0979    128.4765     30.3409
   924.4000      8.3517      2.5337      0.0417      7.0506    127.8045     31.2809
   924.5000      8.3669      2.5384      0.0658      6.7665    126.9541     31.2715
   924.6000      8.3669      2.5377      0.0754      6.8036    124.4181     30.8405
   924.7000      8.3669      2.5289      0.1195      7.3372    121.0900     30.7649
   924.8000      8.3550      2.5200      0.0380      7.8769    118.9339     30.9583
   924.9000      8.3550      2.5195      0.0894      7.9076    119.7316     30.6719
   925.0000      8.3686      2.5241      0.0855      7.6307    122.2548     29.3962
   925.1000      8.3686      2.5309      0.0510      7.2206    120.9467     27.7556
   925.2000      8.3686      2.5401      0.0722      6.6601    112.8544     26.7398
   925.3000      8.3622      2.5463      0.0628      6.2832    102.6581     26.3352
   925.4000      8.3622      2.5431      0.0844      6.4786     96.6606     26.0353
   925.5000      8.3531      2.5313      0.0777      7.1924     95.7738     25.8219
   925.6000      8.3531      2.5162      0.0794      8.1083     96.2672     25.9164
   925.7000      8.3531      2.4972      0.0705      9.2599     96.4563     25.9370
   925.8000      8.3420      2.4746      0.0332     10.6315     98.4025     25.4379
   925.9000      8.3420      2.4565     -0.0112     11.7270    101.9711     24.7945
   926.0000      8.3456      2.4460     -0.0430     12.3639    105.0326     24.6594
   926.1000      8.3456      2.4384     -0.0145     12.8227    107.9181     25.2636
   926.2000      8.3456      2.4256      0.0160     13.6018    111.3556     26.2371
   926.3000      8.3770      2.3994      0.0570     15.1860    114.5243     26.9154
   926.4000      8.3770      2.3662      0.0752     17.2026    117.3561     27.4143
   926.5000      8.4172      2.3306      0.0968     19.3562    120.5237     28.4405
   926.6000      8.4172      2.2707      0.1665     22.9887    124.2685     29.7637
   926.7000      8.4172      2.1741      0.0083     28.8409    128.5727     30.2133
   926.8000      8.4797      2.0664      0.0077     35.3672    132.6451     29.5191
   926.9000      8.4797      1.9674     -0.0333     41.3670    135.1496     28.9229
   927.0000      8.4416      1.8772     -0.0416     46.8393    135.8513     29.4474
   927.1000      8.4416      1.7933     -0.0406     51.9242    136.0958     30.5506
   927.2000      8.4416      1.7200     -0.1049     56.3623    135.8020     31.4859
   927.3000      8.4579      1.6717     -0.0515     59.2883    132.7168     32.1716
   927.4000      8.4579      1.6604     -0.0056     59.9784    127.7681     31.9530
   927.5000      8.5053      1.6892      0.0361     58.2273    124.0773     30.9527
   927.6000      8.5053      1.7558      0.0701     54.1957    121.8959     30.8507
   927.7000      8.5053      1.8458      0.1570     48.7419    119.6612     31.5863
   927.8000      8.7101      1.9364      0.2016     43.2489    117.2602     31.3435
   927.9000      8.7101      2.0153      0.1697     38.4692    116.0506     29.8504
   928.0000      8.5880      2.0830      0.1575     34.3627    118.5502     28.6332
   928.1000      8.5880      2.1399      0.1545     30.9130    125.0226     28.8792
   928.2000      8.5880      2.1824      0.1420     28.3372    131.4919     30.2839
   928.3000      8.5405      2.2094      0.0876     26.7046    134.0609     31.6019
   928.4000      8.5405      2.2277      0.0694     25.5957    133.0031     32.0868
   928.5000      8.5598      2.2395      0.1051     24.8795    131.0779     32.2399
   928.6000      8.5598      2.2326      0.1185     25.2993    129.4720     32.5350
   928.7000      8.5598      2.2046      0.0729     26.9961    128.8931     32.4834
   928.8000      8.5907      2.1764      0.0632     28.7018    129.9227     31.8291
   928.9000      8.5907      2.1659      0.0616     29.3392    131.6675     31.5737
   929.0000      8.6034      2.1765      0.0346     28.6964    134.1451     32.0147
   929.1000      8.6034      2.2056      0.0689     26.9331    136.7859     31.9800
   929.2000      8.6034      2.2408      0.1114     24.8026    137.9066     31.6644
   929.3000      8.6329      2.2681      0.1135     23.1457    138.0957     32.2801
   929.4000      8.6329      2.2844      0.1320     22.1589    137.5979     33.4198
   929.5000      8.6437      2.2904      0.1427     21.7965    136.5124     33.7135
   929.6000      8.6437      2.2879      0.1083     21.9447    136.7018     33.0175
   929.7000      8.6437      2.2789      0.0876     22.4910    137.8358     32.3739
   929.8000      8.6274      2.2598      0.0533     23.6463    137.7172     32.2406
   929.9000      8.6274      2.2274      0.0657     25.6127    135.9633     32.3572
   930.0000      8.6143      2.1890      0.0079     27.9392    133.8194     32.2886
   930.1000      8.6143      2.1526      0.0409     30.1460    132.4637     31.7524
   930.2000      8.6143      2.1109     -0.0025     32.6717    131.8543     31.0258
   930.3000      8.6279      2.0523      0.0135     36.2250    131.1987     30.9117
   930.4000      8.6279      1.9688      0.0269     41.2835    130.0348     31.5717
   930.5000      8.6278      1.8650      0.0034     47.5766    128.0937     31.8101
   930.6000      8.6278      1.7578     -0.0269     54.0750    125.2155     31.1485
   930.7000      8.6278      1.6532     -0.0409     60.4103    123.2050     31.1656
   930.8000      8.6304      1.5504     -0.0914     66.6404    123.3808     32.4522
   930.9000      8.6304      1.4573     -0.1311     72.2845    121.8317     33.1226
   931.0000      8.6431      1.3754     -0.1173     77.2458    114.6516     31.9336
   931.1000      8.6431      1.3069     -0.0869     81.3997    104.9106     30.0109
   931.2000      8.6431      1.2808     -0.0351     82.9844     97.6113     28.6422
   931.3000      8.7451      1.3234      0.0502     80.3970     93.6042     27.8734
   931.4000      8.7451      1.4130      0.1304     74.9676     90.6962     27.2171
   931.5000      9.0417      1.4988      0.1671     69.7671     87.4705     26.3551
   931.6000      9.0417      1.5542      0.1436     66.4136     85.5049     26.0610
   931.7000      9.0417      1.5853      0.1713     64.5266     86.4642     27.3207
   931.8000      9.4422      1.6074      0.1469     63.1902     89.4117     29.6001
   931.9000      9.4422      1.6278      0.2037     61.9520     94.0524     31.3581
   932.0000      8.9205      1.6352      0.2116     61.5037     99.7868     32.1491
   932.1000      8.9205      1.6083      0.1050     63.1318    104.8923     32.8273
   932.2000      8.9205      1.5334      0.0688     67.6709    108.8742     33.6512
   932.3000      8.6912      1.4261     -0.0558     74.1734    111.2446     33.7983
   932.4000      8.6912      1.3441     -0.0749     79.1477    111.2072     32.6122
   932.5000      8.6798      1.3409     -0.0589     79.3393    109.1633     31.0062
   932.6000      8.6798      1.4134      0.0126     74.9430    107.8101     31.0358
   932.7000      8.6798      1.5100      0.0634     69.0893    108.3208     32.9815
   932.8000      8.6854      1.5905      0.0520     64.2104    107.6720     34.5415
   932.9000      8.6854      1.6771     -0.0054     58.9642    103.9783     34.3064
   933.0000      8.6919      1.8204      0.0847     50.2788    101.4348     33.5148
   933.1000      8.6919      2.0122      0.2989     38.6536    104.0031     33.2649
   933.2000      8.6919      2.1769      0.4377     28.6738    109.5377     32.8274
   933.3000      8.7081      2.2661      0.2078     23.2662    114.5639     31.3947
   933.4000      8.7081      2.2973      0.1554     21.3772    118.2979     29.7087
   933.5000      8.7174      2.2951      0.0878     21.5078    121.0710     28.5047
   933.6000      8.7174      2.2739      0.0423     22.7967    122.7684     27.4774
   933.7000      8.7174      2.2417      0.0495     24.7465    123.4838     26.8840
