~Version Information
 VERS.                                  2.0 : CWLS LAS VERSION
 WRAP.                                   NO : WRAPING MODE
 SWARE .                 MController 2.5.0J : SOFTWARE VERSION
~Well Information
 WELL.                      Bucksnort 41-35 : WELL
 COMP.   Pioneer Natural Resources USA Inc. : COMPANY
 FLD.                      Purgatoire River : FIELD
 LOC.                NE/NE Sec 35 T32S R66W : LOCATION
 DATE.                              7/22/05 : DATE(S) LOGGED
 SRVC.       BLANCO Geological Services LLC : SERVICE COMPANY
 STAT.                             Colorado : STATE
 CNTY.                           Las Animas : COUNTY
 CTRY.                               U.S.A. : COUNTRY
 API.                                   N/A : API NUMBER
 STRT.FT                             581.00 : START DEPTH
 STOP.FT                            2010.00 : STOP DEPTH
 STEP.FT                               1.00 : DEPTH INCREMENT
 NULL.                                -9999 : NULL VALUE
~Curve information
 DEPTH.FT                                   :
 ROP.MIN/FT                                 :
 GAS.UNITS                                  :
~ASCII Log data
# ...
      1581.0         0.23          8.7 
      1582.0         0.33         12.1 
      1583.0         0.30         14.7 
      1584.0         0.23         15.7 
      1585.0         0.23         15.4 
      1586.0         0.27         14.6 
      1587.0         0.30         13.6 
      1588.0         0.23         13.9 
      1589.0         0.27         14.2 
      1590.0         0.28         16.4 
      1591.0         6.22        209.0 
      1592.0         0.32        229.8 
      1593.0         0.33        229.2 
      1594.0         0.30        205.8 
      1595.0         0.30        178.6 
      1596.0         0.33        159.3 
      1597.0         0.37        146.6 
      1598.0         0.37        138.6 
      1599.0         0.40        129.6 
      1600.0         0.33         91.0 
      1601.0         0.23         46.8 
      1602.0         0.27         28.7 
      1603.0         0.35         15.7 
      1604.0         0.33          6.6 
      1605.0         0.23          2.5 
      1606.0         0.67          2.6 
      1607.0         0.43          6.8 
      1608.0         0.30          7.7 
      1609.0         0.23          9.7 
      1610.0         0.20         10.5 
      1611.0         0.33         12.6 
      1612.0         0.27         12.4 
      1613.0         0.48         12.5 
      1614.0         0.37         12.3 
      1615.0         0.30         12.5 
      1616.0         0.20         12.8 
      1617.0         0.20         14.5 
      1618.0         0.23         16.8 
      1619.0         0.37         20.1 
      1620.0         0.17         24.1 
      1621.0         5.77        163.9 
      1622.0         0.20        181.7 
      1623.0         0.10        183.8 
      1624.0         0.17        183.1 
      1625.0         0.13        175.8 
      1626.0         0.30        160.0 
      1627.0         0.33        121.2 
      1628.0         0.40         85.9 
      1629.0         0.72         64.5 
      1630.0         0.50         51.6 
      1631.0         0.57         37.1 
      1632.0         0.33         29.0 
      1633.0         0.33         18.5 
      1634.0         0.33          8.9 
      1635.0         0.30          2.9 
      1636.0         0.30          0.9 
      1637.0         0.45         -0.3 
      1638.0         0.37          1.4 
      1639.0         0.33          6.1 
      1640.0         0.33         13.3 
      1641.0         0.23         19.6 
      1642.0         0.40         29.8 
      1643.0         0.67         38.1 
      1644.0         0.57         42.4 
      1645.0         0.27         42.3 
      1646.0         0.18         42.5 
      1647.0         0.27         42.7 
      1648.0         0.23         42.7 
      1649.0         0.27         43.6 
      1650.0         0.40         47.5 
      1651.0         8.10        332.9 
      1652.0         0.60        332.6 
      1653.0         0.42        242.1 
      1654.0         0.73        179.0 
      1655.0         0.77        138.4 
      1656.0         0.53        102.8 
      1657.0         0.60         31.9 
      1658.0         0.45          5.0 
      1659.0         0.60         -0.4 
      1660.0         0.67          2.3 
      1661.0         0.60          9.2 
      1662.0         0.33         13.4 
      1663.0         0.37         17.1 
      1664.0         0.43         22.1 
      1665.0         0.32         26.5 
      1666.0         0.23         27.5 
      1667.0         0.20         31.2 
      1668.0         0.27         34.9 
      1669.0         0.23         40.0 
      1670.0         0.20         42.7 
      1671.0         0.20         45.1 
      1672.0         0.27         45.7 
      1673.0         0.27         45.7 
      1674.0         0.27         46.1 
      1675.0         0.27         47.3 
      1676.0         0.30         49.1 
      1677.0         0.40         49.8 
      1678.0         0.38         50.9 
      1679.0         0.43         50.7 
      1680.0         0.37         48.7 
      1681.0         5.08        193.8 
      1682.0         0.55        238.4 
      1683.0         0.47        239.0 
      1684.0         0.53        202.4 
      1685.0         0.43        134.8 
      1686.0         0.53        110.5 
      1687.0         0.57        111.1 
      1688.0         0.57        114.2 
      1689.0         0.45         72.9 
      1690.0         0.40         21.3 
      1691.0         0.47          5.5 
      1692.0         0.33         -0.3 
      1693.0         0.37         -1.1 
      1694.0         0.10         -2.0 
      1695.0         0.10         -1.3 
      1696.0         0.07         -1.2 
      1697.0         0.13         -1.4 
      1698.0         0.17         -0.5 
      1699.0         0.23          0.1 
      1700.0         0.23          2.1 
      1701.0         0.20          3.8 
      1702.0         0.23          6.0 
      1703.0         0.62         22.3 
      1704.0         0.40         52.6 
      1705.0         0.30         75.6 
      1706.0         0.23         78.0 
      1707.0         0.20         74.4 
      1708.0         0.37         63.6 
      1709.0         0.53         48.5 
      1710.0         0.60         35.3 
      1711.0         5.53        210.7 
      1712.0         0.67        264.3 
      1713.0         0.82        266.1 
      1714.0         0.53        263.6 
      1715.0         0.63        275.2 
      1716.0         0.77        320.9 
      1717.0         0.60        274.3 
      1718.0         0.57         73.7 
      1719.0         0.45         14.1 
      1720.0         0.50          2.1 
      1721.0         0.47          0.1 
      1722.0         0.53         -0.6 
      1723.0         0.50          3.5 
      1724.0         0.43          8.0 
      1725.0         0.55         12.5 
      1726.0         0.33         15.8 
      1727.0         0.20         16.0 
      1728.0         0.23         18.8 
      1729.0         0.30         21.5 
      1730.0         0.30         23.9 
      1731.0         0.30         28.1 
      1732.0         0.27         29.7 
      1733.0         0.33         32.8 
      1734.0         0.33         36.1 
      1735.0         0.40         42.2 
      1736.0         0.35         48.6 
      1737.0         0.30         49.3 
      1738.0         0.30         48.4 
      1739.0         0.30         45.1 
      1740.0         0.27         41.3 
      1741.0         5.97        195.5 
      1742.0         0.37        195.2 
      1743.0         0.33        156.8 
      1744.0         0.27        114.6 
      1745.0         0.33         91.1 
      1746.0         0.40         71.0 
      1747.0         0.43         56.6 
      1748.0         0.47         51.1 
      1749.0         0.52         41.7 
      1750.0         0.43         16.9 
      1751.0         0.33          3.4 
      1752.0         0.30         -1.2 
      1753.0         0.10         -1.8 
      1754.0         0.10         -1.2 
      1755.0         0.17         -1.7 
      1756.0         0.27         -1.6 
      1757.0         0.23         -1.5 
      1758.0         0.27         -1.5 
      1759.0         0.33         -1.2 
      1760.0         0.27         -0.3 
      1761.0         0.27          2.2 
      1762.0         0.35         17.2 
      1763.0         0.40         43.6 
      1764.0         0.37         52.9 
      1765.0         0.37         52.2 
      1766.0         0.37         42.9 
      1767.0         0.37         36.3 
      1768.0         0.37         30.5 
      1769.0         0.37         25.8 
      1770.0         0.45         21.9 
      1771.0         7.57        309.8 
      1772.0         0.53        326.7 
      1773.0         0.33        314.1 
      1774.0         0.23        297.5 
      1775.0         0.27        291.9 
      1776.0         0.37        281.7 
      1777.0         0.37        262.3 
      1778.0         0.33        243.6 
      1779.0         0.35        229.6 
      1780.0         0.17        224.5 
