~Version Information
VERS.                      2.0: CWLS Log ASCII Standard - VERSION 2.0
WRAP.                       NO: One line per depth step
~Well Information Block
STRT.FT               846.5000: 
STOP.FT              2610.0000: 
STEP.FT                 0.2500: 
NULL.                -999.2500: 
COMP.          Petrogulf Corporation: COMPANY
WELL.            Lavedure 7-44: WELL
FLD.           Purgatoire River: FIELD
LOC.           969' FSL & 501' FEL: LOCATION
PROV.                 Colorado: PROVINCE
CNTY.               Las Animas: COUNTRY
SRVC.                Patterson: SERVICE COMPANY
DATE.          Sun Dec 07 15:26:03 2003: LOG DATE
UWI.                          : UNIQUE WELL ID
~Curve Information Block
DEPT.FT            0 000 00 00: Depth
SP.mV                         : DIL Spontaneous Potential
RILD.Ohm-m                    : DIL Deep Resistivity
RILM.Ohm-m                    : DIL Medium Resistivity
RLL3.Ohm-m                    : DIL Shallow Resistivity
GR.GAPI                       : Gamma Ray
~Parameter Information Block
~A  Depth        SP         RILD        RILM        RLL3         GR     
# ...
  1546.5000   -730.5149      8.3224      9.7993     13.8886    138.7968
  1546.7500   -735.2491      8.2575      9.6996     13.8505    141.8414
  1547.0000   -737.8442      8.2310      9.5981     13.7372    145.0325
  1547.2500   -739.3354      8.2486      9.4986     13.5750    145.2005
  1547.5000   -740.3487      8.3147      9.4071     13.3872    142.1736
  1547.7500   -741.0538      8.4333      9.3333     13.1852    138.8787
  1548.0000   -741.1747      8.6072      9.2922     12.9543    134.2421
  1548.2500   -740.0658      8.8353      9.3047     12.6670    132.1199
  1548.5000   -736.9895      9.1077      9.3963     12.3585    130.1895
  1548.7500   -731.6397      9.4045      9.5934     12.2763    128.9990
  1549.0000   -724.8547      9.7014      9.9172     13.0273    125.9709
  1549.2500   -718.9058      9.9817     10.3766     15.5044    122.6586
  1549.5000   -716.5775     10.2454     10.9613     20.3328    115.6225
  1549.7500   -719.3273     10.5095     11.6370     26.9701    109.7388
  1550.0000   -725.9744     10.7984     12.3491     33.3247    100.2576
  1550.2500   -733.2229     11.1352     13.0395     36.7833     94.8782
  1550.5000   -737.8516     11.5371     13.6706     36.1295     90.8131
  1550.7500   -738.7411     12.0152     14.2405     32.4733     91.2787
  1551.0000   -737.0524     12.5724     14.7776     28.1921     94.9720
  1551.2500   -734.7523     13.1977     15.3164     25.1166     97.6393
  1551.5000   -732.9538     13.8590     15.8728     23.7167     99.9243
  1551.7500   -731.2606     14.4993     16.4304     23.5079    100.2989
  1552.0000   -728.5117     15.0460     16.9430     23.7597    100.3106
  1552.2500   -724.2244     15.4367     17.3506     23.9079    100.5584
  1552.5000   -719.0541     15.6500     17.6037     23.6993    101.5274
  1552.7500   -713.4462     15.7157     17.6825     23.1886    102.3805
  1553.0000   -706.2558     15.6961     17.6020     22.5952    103.7150
  1553.2500   -695.6508     15.6561     17.4011     22.0863    104.8068
  1553.5000   -681.7173     15.6425     17.1299     21.6350    107.5046
  1553.7500   -667.6738     15.6798     16.8422     21.0579    110.3587
  1554.0000   -657.8754     15.7741     16.5935     20.2139    115.9479
  1554.2500   -654.2495     15.9187     16.4390     19.2184    119.8540
  1554.5000   -654.7613     16.1010     16.4282     18.4778    124.4637
  1554.7500   -655.6926     16.3088     16.5992     18.4790    125.9615
  1555.0000   -655.0552     16.5334     16.9729     19.4988    125.2442
  1555.2500   -653.1611     16.7683     17.5481     21.4718    122.9273
  1555.5000   -650.6835     17.0075     18.2948     24.1021    117.4735
  1555.7500   -647.5115     17.2475     19.1450     27.1107    112.9796
  1556.0000   -643.3219     17.4918     19.9923     30.3838    105.6368
  1556.2500   -638.3198     17.7532     20.7134     33.8415    100.9437
  1556.5000   -633.2690     18.0487     21.2153     37.1508     95.6856
  1556.7500   -629.1027     18.3948     21.4758     39.6392     93.9832
  1557.0000   -626.5894     18.8052     21.5422     40.5641     93.6955
  1557.2500   -626.1268     19.2895     21.4972     39.5202     94.0408
  1557.5000   -627.3232     19.8504     21.4247     36.7036     93.8989
  1557.7500   -628.6962     20.4790     21.3951     32.9044     93.2165
  1558.0000   -628.6053     21.1533     21.4634     29.2061     92.1942
  1558.2500   -627.0989     21.8433     21.6708     26.5270     92.2606
  1558.5000   -626.4278     22.5236     22.0468     25.2972     94.1208
  1558.7500   -629.3231     23.1833     22.6088     25.4478     96.1348
  1559.0000   -636.9927     23.8289     23.3537     26.6053     98.6520
  1559.2500   -648.4999     24.4798     24.2433     28.3099     99.2028
  1559.5000   -661.0008     25.1596     25.2003     30.1824     98.3538
  1559.7500   -670.3637     25.8911     26.1342     32.0239     97.2944
  1560.0000   -673.0175     26.6956     26.9954     33.8378     95.7003
  1560.2500   -668.5559     27.5937     27.8106     35.8191     94.4031
  1560.5000   -660.1738     28.6042     28.6608     38.3123     91.2106
  1560.7500   -651.6785     29.7388     29.6211     41.6340     88.0620
  1561.0000   -644.4888     30.9932     30.7225     45.7657     82.2022
  1561.2500   -638.0047     32.3383     31.9638     50.2062     77.7820
  1561.5000   -631.7667     33.7158     33.3479     54.2391     70.5358
  1561.7500   -626.1805     35.0465     34.8893     57.4345     65.4802
  1562.0000   -621.8995     36.2507     36.5700     59.8784     58.4413
  1562.2500   -619.5758     37.2730     38.2805     61.8737     54.8177
  1562.5000   -619.9609     38.0919     39.8170     63.4289     51.9702
  1562.7500   -623.3777     38.7098     40.9605     64.0816     52.0478
  1563.0000   -628.9576     39.1389     41.5813     63.2275     54.9028
  1563.2500   -634.8320     39.4000     41.6843     60.6127     58.0963
  1563.5000   -639.2422     39.5314     41.3771     56.5594     63.3988
  1563.7500   -641.3076     39.5879     40.8120     51.8137     66.4839
  1564.0000   -641.0671     39.6306     40.1371     47.1718     69.7482
  1564.2500   -639.3340     39.7043     39.4643     43.1368     70.9211
  1564.5000   -637.3469     39.8137     38.8596     39.8220     71.0769
  1564.7500   -636.1227     39.8968     38.3580     37.1241     70.1965
  1565.0000   -636.3613     39.8147     37.9864     34.9548     68.2801
  1565.2500   -639.0161     39.4036     37.7674     33.3245     67.3024
  1565.5000   -645.1338     38.5969     37.7025     32.2759     66.6000
  1565.7500   -654.4148     37.5309     37.7499     31.7911     66.1723
  1566.0000   -664.1013     36.5088     37.8178     31.7558     64.7508
  1566.2500   -669.9506     35.8377     37.7884     32.0019     63.2720
  1566.5000   -668.9732     35.6844     37.5687     32.4018     60.7304
  1566.7500   -661.8372     36.0400     37.1467     32.9321     59.0130
  1567.0000   -652.6734     36.7726     36.6170     33.6343     56.6286
  1567.2500   -645.9625     37.7179     36.1597     34.5089     55.4730
  1567.5000   -643.2943     38.7545     35.9847     35.4810     55.1657
  1567.7500   -643.0754     39.8284     36.2738     36.5221     56.2112
  1568.0000   -642.7161     40.9280     37.1464     37.8553     59.4798
  1568.2500   -640.4844     42.0515     38.6460     40.0710     62.3437
  1568.5000   -636.0908     43.1991     40.7394     44.0276     66.7910
  1568.7500   -630.8676     44.3860     43.3186     50.5448     69.4972
  1569.0000   -627.3343     45.6415     46.2019     60.0077     72.8613
  1569.2500   -627.4689     46.9793     49.1406     72.0529     74.6631
  1569.5000   -631.0251     48.3550     51.8408     85.4528     77.2860
  1569.7500   -635.8030     49.6281     54.0093     98.2296     79.5560
  1570.0000   -639.4221     50.5425     55.4029    108.0151     84.4350
  1570.2500   -640.6089     50.7314     55.8459    112.6782     88.5490
  1570.5000   -639.5150     49.8041     55.1987    111.0872     94.9650
  1570.7500   -637.7275     47.5581     53.3328    103.6515     98.6840
  1571.0000   -637.4901     44.1795     50.1905     92.3108    102.8289
  1571.2500   -639.9550     40.1838     45.9177     79.8949    104.7102
  1571.5000   -644.3259     36.1296     40.9306     69.0209    106.0796
  1571.7500   -649.0491     32.3873     35.7997     60.9161    105.4213
  1572.0000   -653.2228     29.1055     31.0286     54.8647    101.2191
  1572.2500   -656.5242     26.2841     26.9138     48.9297     96.9086
  1572.5000   -658.7082     23.8541     23.5482     41.6487     91.4119
  1572.7500   -659.9864     21.7340     20.8950     33.2675     90.3405
  1573.0000   -661.1805     19.8669     18.8569     25.3797     93.5881
  1573.2500   -662.4838     18.2320     17.3162     19.5195     97.8909
  1573.5000   -662.3515     16.8306     16.1535     16.1652    104.5319
  1573.7500   -658.4872     15.6565     15.2597     14.7866    107.9312
  1574.0000   -650.1245     14.6788     14.5448     14.4552    111.5716
  1574.2500   -639.1624     13.8469     13.9456     14.3976    113.7839
