~Version Information
VERS.                      2.0: CWLS Log ASCII Standard - VERSION 2.0
WRAP.                       NO: One line per depth step
~Well Information Block
STRT.FT               185.5000: 
STOP.FT              2039.2500: 
STEP.FT                 0.2500: 
NULL.                -999.2500: 
COMP.          Petrogulf Corporation: COMPANY
WELL.            Montoya 7-12R: WELL
FLD.           Purgatorie River: FIELD
LOC.           1769' FNL & 658' FWL--: LOCATION
PROV.                       CO: PROVINCE
CNTY.               Las Animas: COUNTRY
SRVC.                         : SERVICE COMPANY
DATE.          Wed Feb 09 09:05:42 2005: LOG DATE
UWI.         005 071 08240  : UNIQUE WELL ID
~Curve Information Block
DEPT.FT            0 000 00 00: Depth
CCL.                          : Casing Collar Locator
CCLRT.                        : CCLRT
TT3.usec                      : CBL 3' Travel Time
AMP3.mV                       : CBL 3' Amplitude
GR.GAPI                       : Gamma Ray
~Parameter Information Block
~A  Depth       CCL        CCLRT        TT3         AMP3         GR     
   185.5000   -999.2500   -999.2500   -999.2500   -999.2500    100.4331
   185.7500   -999.2500   -999.2500   -999.2500   -999.2500    101.0401
   186.0000   -999.2500   -999.2500   -999.2500   -999.2500    102.9518
   186.2500   -999.2500   -999.2500   -999.2500   -999.2500    103.5004
   186.5000   -999.2500   -999.2500   -999.2500   -999.2500    101.6064
   186.7500   -999.2500   -999.2500   -999.2500   -999.2500     98.3369
   187.0000   -999.2500   -999.2500   -999.2500   -999.2500     95.3732
   187.2500   -999.2500   -999.2500   -999.2500   -999.2500     93.8699
   187.5000   -999.2500   -999.2500   -999.2500   -999.2500     94.4457
   187.7500   -999.2500   -999.2500   -999.2500   -999.2500     96.9764
   188.0000   -999.2500   -999.2500   -999.2500   -999.2500    100.1381
   188.2500   -999.2500   -999.2500   -999.2500   -999.2500    101.9255
   188.5000   -999.2500   -999.2500   -999.2500   -999.2500    101.0507
   188.7500   -999.2500   -999.2500   -999.2500   -999.2500     97.8231
   189.0000   -999.2500   -999.2500   -999.2500   -999.2500     93.7307
   189.2500   -999.2500   -999.2500   -999.2500   -999.2500     90.3777
   189.5000   -999.2500   -999.2500   -999.2500   -999.2500     88.7125
   189.7500   -999.2500   -999.2500   -999.2500   -999.2500     88.6440
   190.0000   -999.2500   -999.2500   -999.2500   -999.2500     89.0387
   190.2500   -999.2500   -999.2500   -999.2500   -999.2500     88.4875
   190.5000   -999.2500   -999.2500   -999.2500   -999.2500     86.4500
   190.7500   -999.2500   -999.2500    798.0000      1.1316     83.6958
   191.0000   -999.2500   -999.2500    798.0000      1.1209     81.7287
   191.2500   -999.2500   -999.2500    798.0000      1.1182     81.7116
   191.5000   -999.2500   -999.2500    798.0000      1.1196     83.6726
   191.7500   -999.2500   -999.2500    798.0000      1.1159     86.6441
   192.0000   -999.2500   -999.2500    798.0000      1.1060     89.5853
   192.2500   -999.2500   -999.2500    798.0000      1.0983     92.2419
   192.5000   -999.2500   -999.2500    798.0000      1.0997     95.2373
   192.7500   -999.2500   -999.2500    798.0000      1.1066     99.2522
   193.0000   -999.2500   -999.2500    798.0000      1.1100    103.9942
   193.2500   -999.2500   -999.2500    798.0000      1.1036    108.1525
   193.5000   -999.2500   -999.2500    798.0000      1.0867    110.4681
   193.7500   -999.2500   -999.2500    798.0000      1.0613    110.6005
   194.0000   -999.2500   -999.2500    798.0000      1.0319    109.0392
   194.2500   -999.2500   -999.2500    798.0000      1.0064    106.6581
   194.5000   -999.2500   -999.2500    798.0000      0.9923    104.4681
   194.7500   -999.2500   -999.2500    798.0000      0.9929    103.5031
   195.0000   -999.2500   -999.2500    798.0000      1.0085    104.6901
   195.2500   -999.2500   -999.2500    798.0000      1.0384    108.3527
   195.5000   -999.2500   -999.2500    798.0000      1.0798    113.3675
   195.7500   -999.2500   -999.2500    798.0000      1.1254    117.2701
   196.0000      0.0000   -999.2500    798.0000      1.1675    118.0666
   196.2500      0.0000   -999.2500    798.0000      1.2025    115.8861
   196.5000      0.0000   -999.2500    798.0000      1.2307    112.3307
   196.7500      0.0000   -999.2500    798.0000      1.2513    108.6479
   197.0000      0.0000   -999.2500    798.0000      1.2619    105.2909
   197.2500      0.0000   -999.2500    798.0000      1.2598    102.8049
   197.5000      0.0000   -999.2500    798.0000      1.2444    101.9898
   197.7500      0.0000   -999.2500    798.0000      1.2168    102.8167
   198.0000      0.0000   -999.2500    798.0000      1.1806    103.7249
   198.2500      0.0000   -999.2500    798.0000      1.1413    102.6776
   198.5000      0.0000   -999.2500    798.0000      1.1030     99.1775
   198.7500      0.0000   -999.2500    798.0000      1.0683     94.9788
   199.0000      0.0000   -999.2500    798.0000      1.0405     92.4844
   199.2500      0.0000   -999.2500    798.0000      1.0260     92.5350
   199.5000     -2.0000   -999.2500    798.0000      1.0305     94.0725
   199.7500      0.0000   -999.2500    798.0000      1.0535     95.7474
   200.0000      0.0000   -999.2500    798.0000      1.0877     97.2589
   200.2500      0.0000   -999.2500    798.0000      1.1228     99.1359
   200.5000      0.0000   -999.2500    798.0000      1.1506    101.9758
   200.7500      0.0000   -999.2500    797.9645      1.1711    106.1953
   201.0000      0.0000   -999.2500    797.7329      1.2008    111.9177
   201.2500      0.0000   -999.2500    796.5569      1.3098    118.4619
   201.5000      0.0000   -999.2500    791.9058      1.7252    124.0031
   201.7500      0.0000   -999.2500    777.5785      2.9985    126.3776
   202.0000      0.0000   -999.2500    743.2073      6.0603    124.9441
   202.2500      0.0000   -999.2500    678.9887     11.8163    121.6014
   202.5000      0.0000   -999.2500    585.5419     20.2733    119.2352
   202.7500      0.0000   -999.2500    479.6387     29.9934    119.0348
   203.0000      0.0000   -999.2500    386.1620     38.7464    119.9059
   203.2500      0.0000   -999.2500    321.8979     44.9380    120.4398
   203.5000      0.0000   -999.2500    287.4797     48.4061    120.6469
   203.7500      0.0000   -999.2500    273.1086     49.9987    121.6030
   204.0000      0.0000   -999.2500    268.4181     50.6800    124.0096
   204.2500      0.0000   -999.2500    267.2124     51.0189    127.3740
   204.5000      0.0000   -999.2500    266.9674     51.2052    130.3989
   204.7500      0.0000   -999.2500    266.9364     51.2776    132.0147
   205.0000      0.0000   -999.2500    266.9569     51.2711    132.0305
   205.2500      0.0000   -999.2500    266.9913     51.2227    130.7020
   205.5000      0.0000   -999.2500    267.0328     51.1330    128.0595
   205.7500      0.0000   -999.2500    267.0646     50.9812    124.2455
   206.0000      0.0000   -999.2500    267.0667     50.7704    120.2385
   206.2500      0.0000   -999.2500    267.0316     50.5355    117.3829
   206.5000      0.0000   -999.2500    266.9713     50.3138    115.8931
   206.7500      0.0000   -999.2500    266.9065     50.1356    114.1306
   207.0000      0.0000   -999.2500    266.8511     50.0404    109.9159
   207.2500      0.0000   -999.2500    266.8078     50.0589    102.8684
   207.5000      0.0000   -999.2500    266.7729     50.1580     95.4430
   207.7500      0.0000   -999.2500    266.7444     50.2396     91.4490
   208.0000      0.0000   -999.2500    266.7272     50.2262     93.1427
   208.2500      0.0000   -999.2500    266.7332     50.1313     99.3722
   208.5000      0.0000   -999.2500    266.7695     50.0331    106.5553
   208.7500      0.0000   -999.2500    266.8280     49.9921    111.4906
   209.0000      0.0000   -999.2500    266.8874     50.0092    113.1969
   209.2500      0.0000   -999.2500    266.9277     50.0450    112.5403
   209.5000      0.0000   -999.2500    266.9418     50.0490    110.8661
   209.7500      0.0000   -999.2500    266.9379     49.9658    108.9862
   210.0000      0.0000   -999.2500    266.9294     49.7480    106.9404
   210.2500      0.0000   -999.2500    266.9235     49.3882    104.3749
   210.5000      0.0000   -999.2500    266.9176     48.9240    101.1413
   210.7500      0.0000   -999.2500    266.9077     48.4133     97.6929
   211.0000      0.0000   -999.2500    266.8964     47.9291     94.7887
   211.2500      0.0000   -999.2500    266.8914     47.5514     92.5469
   211.5000      0.0000   -999.2500    266.8979     47.3199     90.0673
   211.7500      0.0000   -999.2500    266.9103     47.2030     86.3703
   212.0000      0.0000   -999.2500    266.9142     47.1432     81.5861
   212.2500      0.0000   -999.2500    266.8960     47.1124     76.9398
   212.5000      0.0000   -999.2500    266.8571     47.0930     73.6095
   212.7500      0.0000   -999.2500    266.8181     47.0318     71.6164
   213.0000      0.0000   -999.2500    266.8076     46.8613     69.7627
   213.2500      0.0000   -999.2500    266.8387     46.5813     66.6611
