~Version Information
VERS.                      2.0: CWLS Log ASCII Standard - VERSION 2.0
WRAP.                       NO: One line per depth step
~Well Information Block
STRT.FT                 0.0000: 
STOP.FT              2234.2500: 
STEP.FT                 0.2500: 
NULL.                -999.2500: 
COMP.          Pioner Natural Resources: COMPANY
WELL.          Casablanca 11-28 Tr: WELL
FLD.           Purgatoire River: FIELD
LOC.           422' FNL & 215' FWL--: LOCATION
PROV.                 Colorado: PROVINCE
CNTY.               Las Animas: COUNTRY
SRVC.                         : SERVICE COMPANY
DATE.          Fri Mar 11 13:02:46 2005: LOG DATE
UWI.           005 071 08314  : UNIQUE WELL ID
~Curve Information Block
DEPT.FT            0 000 00 00: Depth
CCL.                          : Casing Collar Locator
TT3.usec                      : CBL 3' Travel Time
AMP3.mV                       : CBL 3' Amplitude
AMP5.mV                       : CBL 5' Amplitude
GR.GAPI                       : Gamma Ray
~Parameter Information Block
~A  Depth       CCL         TT3         AMP3        AMP5         GR     
# ...
  1764.0000      0.0000    699.8967      4.1736     -1.4409    108.1877
  1764.2500      0.0000    701.4058      4.1713     -0.8316    102.5802
  1764.5000      0.0000    702.3005      4.2105     -0.6575     96.1590
  1764.7500      0.0000    702.9094      4.3244     -0.3093     90.4102
  1765.0000      0.0000    702.9846      4.5057     -0.3093     86.4946
  1765.2500      0.0000    701.8328      4.6931     -0.8316     85.4272
  1765.5000      0.0000    698.4160      4.8026     -2.2244     87.8688
  1765.7500      0.0000    691.6222      4.7845     -1.3539     93.5299
  1766.0000      0.0000    681.3317      4.6575     -1.5280    101.1191
  1766.2500      0.0000    669.9092      4.4904     -1.0927    109.1434
  1766.5000      0.0000    662.5031      4.3515     -1.0927    116.8502
  1766.7500      0.0000    664.7427      4.2718     -1.5280    124.4921
  1767.0000      0.0000    678.4788      4.2433     -0.8316    132.6618
  1767.2500      0.0000    699.1782      4.2413     -1.7021    141.3246
  1767.5000      0.0000    718.0864      4.2436     -1.1798    149.6569
  1767.7500      0.0000    727.4917      4.2391     -1.1798    156.7036
  1768.0000      0.0000    724.4956      4.2282     -0.3964    161.5299
  1768.2500      0.0000    711.4821      4.2185     -1.0057    162.7795
  1768.5000      0.0000    694.5215      4.2170     -0.7446    159.2825
  1768.7500      0.0000    680.6765      4.2201     -1.3539    151.8003
  1769.0000      0.0000    674.9833      4.2152     -1.1798    143.3027
  1769.2500      0.0000    678.4269      4.1929     -1.6150    136.6098
  1769.5000      0.0000    687.7305      4.1581     -1.5280    131.9124
  1769.7500      0.0000    697.2267      4.1276     -1.5280    126.9390
  1770.0000      0.0000    702.4913      4.1226     -1.0927    119.3473
  1770.2500      0.0000    703.2173      4.1655     -1.1798    108.7269
  1770.5000      0.0000    702.3719      4.2702     -1.6150     96.7768
  1770.7500      0.0000    702.9084      4.4197     -1.0057     86.1449
  1771.0000      0.0000    705.9522      4.5547     -1.3539     78.8549
  1771.2500      0.0000    711.2122      4.6061     -0.4834     75.2148
  1771.5000      0.0000    717.4614      4.5485     -0.7446     74.1467
  1771.7500      0.0000    722.5123      4.4175     -0.8316     74.5944
  1772.0000      0.0000    723.7985      4.2782     -1.3539     76.4971
  1772.2500      0.0000    719.5241      4.1814     -1.2668     80.6006
  1772.5000      0.0000    709.3667      4.1429     -1.0057     87.7531
  1772.7500      0.0000    694.5771      4.1483     -0.8316     98.2046
  1773.0000      0.0000    677.6360      4.1719     -0.8316    111.0333
  1773.2500      0.0000    661.2906      4.1936     -1.0057    124.2516
  1773.5000      0.0000    647.5510      4.2032     -1.2668    135.7581
  1773.7500      0.0000    637.5369      4.1975     -1.0927    144.0964
  1774.0000      0.0000    631.8910      4.1791     -0.9187    148.4789
  1774.2500      0.0000    631.2402      4.1584     -1.0057    148.8472
  1774.5000      0.0000    636.7416      4.1487     -1.0927    146.2286
  1774.7500      0.0000    649.9588      4.1560     -0.8316    142.4459
  1775.0000      0.0000    670.9667      4.1738     -1.2668    139.1040
  1775.2500      0.0000    696.2243      4.1916     -0.8316    136.9678
  1775.5000      0.0000    719.5664      4.2036     -1.3539    136.1256
  1775.7500      0.0000    736.1483      4.2079     -1.3539    136.4443
  1776.0000      0.0000    745.0688      4.2032     -1.2668    138.0916
  1776.2500      0.0000    748.2851      4.1919     -1.0057    141.7425
  1776.5000      0.0000    747.9191      4.1828     -1.0057    147.7000
  1776.7500      0.0000    744.7876      4.1850     -1.2668    154.5502
  1777.0000      0.0000    738.7504      4.1983     -0.8316    159.4742
  1777.2500      0.0000    729.8865      4.2136     -0.3093    160.7056
  1777.5000      0.0000    719.1443      4.2222     -1.1798    159.4847
  1777.7500      0.0000    707.7902      4.2227     -0.8316    158.9589
  1778.0000      0.0000    696.5186      4.2203     -1.2668    161.0550
  1778.2500      0.0000    685.7399      4.2182     -1.0057    164.6699
  1778.5000      0.0000    676.8154      4.2130     -0.9187    166.8235
  1778.7500      0.0000    672.4449      4.1973     -1.2668    165.2142
  1779.0000      0.0000    675.3786      4.1703     -1.2668    159.8040
  1779.2500      0.0000    686.5192      4.1426     -1.3539    152.7157
  1779.5000      0.0000    704.0067      4.1287     -1.0927    146.8916
  1779.7500      0.0000    724.0549      4.1360     -0.9187    144.2549
  1780.0000      0.0000    742.7762      4.1614     -1.3539    144.6094
  1780.2500      0.0000    757.3152      4.1942     -1.6150    146.2295
  1780.5000      0.0000    765.8826      4.2221     -1.0927    147.3439
  1780.7500      0.0000    767.9402      4.2377     -1.0927    147.0608
  1781.0000      0.0000    764.7089      4.2419     -1.1798    145.5265
  1781.2500      0.0000    758.4841      4.2408     -1.1798    143.9440
  1781.5000      0.0000    750.7026      4.2369     -2.0503    144.0012
  1781.7500      0.0000    740.9692      4.2267     -1.2668    146.2608
  1782.0000      0.0000    728.2647      4.2090     -1.0927    149.2382
  1782.2500      0.0000    712.8947      4.1928     -1.7021    150.9381
  1782.5000      0.0000    697.2076      4.1907     -0.9187    151.0440
  1782.7500      0.0000    684.6006      4.2061     -1.4409    150.7622
  1783.0000      0.0000    677.5103      4.2288     -1.7021    150.9751
  1783.2500      0.0000    675.6014      4.2461     -1.1798    151.7099
  1783.5000      0.0000    675.7383      4.2535     -1.4409    153.3162
  1783.7500      0.0000    674.3268      4.2558     -1.2668    156.8019
  1784.0000      0.0000    670.0789      4.2584     -0.9187    162.2148
  1784.2500      0.0000    664.4411      4.2583     -1.3539    167.3670
  1784.5000      0.0000    659.6243      4.2465     -1.3539    169.2704
  1784.7500      0.0000    656.7259      4.2214     -1.0057    167.1592
  1785.0000      0.0000    655.5317      4.1953     -1.7021    163.6373
  1785.2500      0.0000    655.3250      4.1839     -1.0057    162.3949
  1785.5000      0.0000    655.5284      4.1928     -1.6150    164.7841
  1785.7500      0.0000    655.8443      4.2154     -1.1798    168.7452
  1786.0000      0.0000    656.1502      4.2413     -0.8316    170.9111
  1786.2500      0.0000    656.3903      4.2635     -1.0927    169.4933
  1786.5000      0.0000    656.5363      4.2792     -1.6150    165.3575
  1786.7500      0.0000    656.5923      4.2883     -1.7891    160.8607
  1787.0000      0.0000    656.5935      4.2901     -1.2668    157.9121
  1787.2500      0.0000    656.5812      4.2834     -1.2668    157.1037
  1787.5000      0.0000    656.5715      4.2684     -1.0057    158.3583
  1787.7500      0.0000    656.5480      4.2490     -1.1798    161.7402
  1788.0000      0.0000    656.4870      4.2316     -1.0057    167.2125
  1788.2500      0.0000    656.3840      4.2217     -1.2668    173.9331
  1788.5000      0.0000    656.2548      4.2224     -1.1798    180.2334
  1788.7500      0.0000    656.1199      4.2363     -1.1798    184.2714
  1789.0000      0.0000    655.9957      4.2623     -1.5280    184.7091
  1789.2500      0.0000    655.8965      4.2928     -1.2668    181.2121
  1789.5000      0.0000    655.8286      4.3136     -1.3539    174.8240
  1789.7500      0.0000    655.7776      4.3137     -1.3539    167.8813
  1790.0000      0.0000    655.7169      4.2937     -1.4409    163.1215
  1790.2500      0.0000    655.6355      4.2664     -1.2668    162.2958
  1790.5000      0.0000    655.5594      4.2463     -1.0927    165.1066
  1790.7500      0.0000    655.5428      4.2408     -1.4409    169.1001
  1791.0000      0.0000    655.6435      4.2524     -0.7446    171.0477
  1791.2500      0.0000    655.8963      4.2838     -1.0927    169.4841
  1791.5000      0.0000    656.2997      4.3359     -1.0927    165.9092
  1791.7500      0.0000    656.8163      4.3973     -1.7021    162.8536
