~Version Information
VERS.                      2.0: CWLS Log ASCII Standard - VERSION 2.0
WRAP.                       NO: One line per depth step
~Well Information Block
STRT.FT               750.6000: 
STOP.FT              2495.5000: 
STEP.FT                 0.1000: 
NULL.                -999.2500: 
COMP.                         : COMPANY
WELL.                         : WELL
FLD.                          : FIELD
LOC.                          : LOCATION
CNTY.                         : COUNTY
SRVC.                         : SERVICE COMPANY
DATE.          Sat Feb 28 14:05:57 2004: LOG DATE
UWI.                          : UNIQUE WELL ID
STAT.                         : STATE
~Curve Information Block
DEPT.FT            0 000 00 00: Depth
DCAL.in                       : CDL Caliper
RHOB.g/cc                     : CDL Bulk Density
RHOC.g/cc                     : CDL Density Correction
DPOR.pu                       : CDL Density Porosity
GR.GAPI                       : Gamma Ray
NPOR.pu                       : Neutron Porosity
~Parameter Information Block
~A  Depth       DCAL        RHOB        RHOC        DPOR         GR         NPOR    
# ...
  1125.0000      8.2196      2.5947      0.0739      3.3523    154.4559     27.7244
  1125.1000      8.2196      2.5766      0.0645      4.4513    152.1470     28.4300
  1125.2000      8.2196      2.5546      0.1089      5.7788    148.5449     28.7596
  1125.3000      8.2165      2.5501      0.0517      6.0533    145.2662     28.3634
  1125.4000      8.2165      2.5797      0.0711      4.2582    144.3217     27.4390
  1125.5000      8.2147      2.6276      0.1222      1.3598    144.6817     26.7489
  1125.6000      8.2147      2.6512      0.1530     -0.0718    146.2632     26.8632
  1125.7000      8.2147      2.6398      0.1332      0.6166    149.0755     27.3436
  1125.8000      8.2132      2.6184      0.1685      1.9147    153.2574     27.5114
  1125.9000      8.2132      2.5986      0.1266      3.1122    160.2754     27.4161
  1126.0000      8.2286      2.5675      0.1404      4.9988    165.8548     27.3456
  1126.1000      8.2286      2.5210      0.0695      7.8176    164.4714     27.3680
  1126.2000      8.2286      2.4922      0.0197      9.5627    160.1881     27.4768
  1126.3000      8.2205      2.5091      0.0873      8.5414    157.6073     27.4386
  1126.4000      8.2205      2.5484      0.1226      6.1557    157.5745     27.1178
  1126.5000      8.2277      2.5692      0.1621      4.8943    157.5052     26.9830
  1126.6000      8.2277      2.5567      0.1673      5.6551    153.5325     27.0553
  1126.7000      8.2277      2.5227      0.0989      7.7160    150.0714     26.7203
  1126.8000      8.2125      2.4933      0.0615      9.4987    152.0389     26.2512
  1126.9000      8.2125      2.4793      0.1308     10.3469    159.0381     26.1899
  1127.0000      8.2095      2.4632      0.1012     11.3235    170.1423     26.1116
  1127.1000      8.2095      2.4460      0.0290     12.3625    180.9040     25.7106
  1127.2000      8.2095      2.4460      0.1067     12.3662    183.2012     25.5192
  1127.3000      8.2107      2.4436      0.1380     12.5086    176.9141     25.6387
  1127.4000      8.2107      2.4170      0.0682     14.1235    172.3953     25.2613
  1127.5000      8.2139      2.3950      0.0437     15.4564    176.8009     24.2033
  1127.6000      8.2139      2.4050      0.0659     14.8456    186.8581     23.1146
  1127.7000      8.2139      2.4168      0.1556     14.1332    192.1109     22.1902
  1127.8000      8.2093      2.3945      0.1344     15.4870    186.3302     21.3765
  1127.9000      8.2093      2.3470      0.1068     18.3666    175.9286     20.6991
  1128.0000      8.2067      2.2858      0.0969     22.0734    168.2722     19.9453
  1128.1000      8.2067      2.2109      0.0414     26.6097    163.8555     18.8412
  1128.2000      8.2067      2.1448     -0.0347     30.6183    161.5162     17.8744
  1128.3000      8.2190      2.1054      0.0101     33.0063    160.3887     17.9064
  1128.4000      8.2190      2.0693      0.0985     35.1952    158.6177     18.4449
  1128.5000      8.2278      2.0140      0.0974     38.5474    155.7723     18.3684
  1128.6000      8.2278      1.9561      0.0806     42.0516    149.6997     17.7379
  1128.7000      8.2278      1.9110      0.1180     44.7884    141.7906     17.0030
  1128.8000      8.2342      1.8671      0.1305     47.4464    141.0169     16.4172
  1128.9000      8.2342      1.8163      0.1309     50.5279    145.3206     16.1549
  1129.0000      8.2373      1.7620      0.0706     53.8157    145.9177     15.9917
  1129.1000      8.2373      1.7113     -0.0261     56.8929    143.6157     15.4666
  1129.2000      8.2373      1.6690      0.0115     59.4565    139.9079     14.5742
  1129.3000      8.2617      1.6298      0.0426     61.8297    136.4222     13.6200
  1129.4000      8.2617      1.5875      0.0336     64.3968    136.0541     12.5788
  1129.5000      8.3275      1.5466      0.0573     66.8749    132.5667     11.5142
  1129.6000      8.3275      1.5150      0.0879     68.7885    119.3075     10.8380
  1129.7000      8.3275      1.4922      0.1097     70.1708    104.2066     10.6302
  1129.8000      8.4148      1.4654      0.1326     71.7947     96.1112     10.5488
  1129.9000      8.4148      1.4164      0.1001     74.7634     93.1087     10.4846
  1130.0000      8.3734      1.3503      0.0084     78.7671     89.3792     10.4299
  1130.1000      8.3734      1.3069      0.0339     81.3994     83.7144     10.1312
  1130.2000      8.3734      1.3065      0.1680     81.4268     76.7350      9.4091
  1130.3000      8.4077      1.3149      0.2556     80.9146     66.7481      8.4424
  1130.4000      8.4077      1.3045      0.1853     81.5428     54.9142      7.5700
  1130.5000      8.4886      1.2980      0.1224     81.9380     47.3656      6.9067
  1130.6000      8.4886      1.3168      0.2391     80.7992     44.1633      6.4571
  1130.7000      8.4886      1.3454      0.2798     79.0640     40.3835      6.2701
  1130.8000      8.6122      1.3650      0.2925     77.8779     37.6723      6.3978
  1130.9000      8.6122      1.3729      0.2764     77.4007     38.3306      6.6969
  1131.0000      8.9932      1.3687      0.2861     77.6545     37.6660      6.7754
  1131.1000      8.9932      1.3493      0.2551     78.8313     33.2271      6.6098
  1131.2000      8.9932      1.3135      0.2447     80.9983     29.5197      6.5788
  1131.3000      9.2412      1.2625      0.2287     84.0907     29.6195      6.8172
  1131.4000      9.2412      1.2056      0.1789     87.5412     31.8399      7.0862
  1131.5000      9.1777      1.1666      0.1129     89.9014     34.5731      7.2754
  1131.6000      9.1777      1.1789      0.1022     89.1561     37.5996      7.8156
  1131.7000      9.1777      1.2716      0.1284     83.5403     40.3008      9.0718
  1131.8000      8.8991      1.4515      0.1684     72.6334     43.6524     10.8925
  1131.9000      8.8991      1.6819      0.3274     58.6737     51.1765     13.2027
  1132.0000      9.0662      1.8977      0.4318     45.5920     63.0521     16.1078
  1132.1000      9.0662      2.0704      0.4828     35.1283     72.3717     19.0689
  1132.2000      9.0662      2.2099      0.5917     26.6753     77.5147     21.2795
  1132.3000      9.1724      2.3090      0.6030     20.6669     84.8075     22.8585
  1132.4000      9.1724      2.3507      0.5689     18.1400     93.5281     24.3586
  1132.5000      9.2256      2.3548      0.3366     17.8896     99.1974     25.5478
  1132.6000      9.2256      2.3637      0.1954     17.3510    103.4589     25.8863
  1132.7000      9.2256      2.3791      0.1757     16.4187    107.7713     25.4586
  1132.8000      8.8303      2.3803      0.0837     16.3436    111.3435     24.7144
  1132.9000      8.8303      2.3763      0.0749     16.5859    113.2396     24.0035
  1133.0000      8.3516      2.3755      0.1295     16.6360    115.6624     23.3271
  1133.1000      8.3516      2.3721      0.0760     16.8430    121.5440     22.4481
  1133.2000      8.3516      2.3771      0.0603     16.5378    126.6617     21.5879
  1133.3000      8.1613      2.4009      0.1007     15.0959    127.2769     21.2522
  1133.4000      8.1613      2.4319      0.1690     13.2197    127.8704     21.2932
  1133.5000      8.1160      2.4595      0.1851     11.5428    131.9722     21.4081
  1133.6000      8.1160      2.4723      0.3065     10.7676    133.8201     21.8698
  1133.7000      8.1160      2.4425      0.2589     12.5766    127.8113     22.9036
  1133.8000      8.1234      2.3564      0.1936     17.7960    119.9245     23.9440
  1133.9000      8.1234      2.2380      0.1260     24.9670    119.6900     24.2798
  1134.0000      8.1526      2.1651     -0.0103     29.3874    125.1577     24.1520
  1134.1000      8.1526      2.1961      0.0581     27.5084    127.3966     24.3144
  1134.2000      8.1526      2.2766      0.0968     22.6329    128.8642     25.0454
  1134.3000      8.1490      2.3392      0.1165     18.8375    137.2191     25.9960
  1134.4000      8.1490      2.3879      0.1738     15.8854    146.5788     26.6141
  1134.5000      8.1584      2.4270      0.2374     13.5161    147.8736     26.7423
