~Version Information
VERS.                      2.0: CWLS Log ASCII Standard - VERSION 2.0
WRAP.                       NO: One line per depth step
~Well Information Block
STRT.FT               640.0000: 
STOP.FT               927.0000: 
STEP.FT                 0.1000: 
NULL.                -999.2500: 
COMP.          Pioneer Natural Resources: COMPANY
WELL.          Claim Jumper 41-22: WELL
FLD.           Purgatoire River: FIELD
LOC.           1120' FNL & 977' FEL: LOCATION
PROV.                 Colorado: PROVINCE
CNTY.               Las Animas: COUNTRY
SRVC.                Patterson: SERVICE COMPANY
DATE.          Thu Jun 23 08:35:14 2005: LOG DATE
UWI.           05-071-08405-00: UNIQUE WELL ID
~Curve Information Block
DEPT.FT            0 000 00 00: Depth
DCAL.in                       : CDL Caliper
RHOB.g/cc                     : CDL Bulk Density
RHOC.g/cc                     : CDL Density Correction
DPOR.pu                       : CDL Density Porosity
GR.GAPI                       : Gamma Ray
NPOR.pu                       : Neutron Porosity
~Parameter Information Block
~A  Depth       DCAL        RHOB        RHOC        DPOR         GR         NPOR    
# ...
   784.0000      7.9059      2.6476      0.0531      0.1425     62.9301     23.8735
   784.1000      7.9059      2.6291      0.0379      1.2696     65.4935     23.9112
   784.2000      7.9059      2.6168      0.0068      2.0147     65.5582     23.9782
   784.3000      7.9035      2.6213      0.0588      1.7372     61.6209     23.8341
   784.4000      7.9035      2.6399      0.0464      0.6138     58.0158     23.4003
   784.5000      7.9004      2.6710      0.0351     -1.2698     58.1667     22.8338
   784.6000      7.9004      2.7093      0.1007     -3.5917     59.3799     22.4876
   784.7000      7.9004      2.7226      0.1585     -4.4000     58.9145     22.5685
   784.8000      7.8982      2.6960      0.1028     -2.7902     59.1540     22.6723
   784.9000      7.8982      2.6598      0.0843     -0.5913     60.2088     22.4099
   785.0000      7.8976      2.6433      0.0569      0.4069     58.1549     22.0391
   785.1000      7.8976      2.6477      0.0704      0.1413     53.3011     21.9972
   785.2000      7.8976      2.6496      0.1042      0.0215     49.4030     22.1601
   785.3000      7.8974      2.6386      0.0339      0.6896     47.5781     22.1436
   785.4000      7.8974      2.6326      0.0244      1.0560     47.4724     21.9626
   785.5000      7.8952      2.6430      0.0406      0.4237     49.6359     21.9981
   785.6000      7.8952      2.6660      0.0063     -0.9688     52.9885     22.3749
   785.7000      7.8952      2.6907      0.1229     -2.4657     54.4758     22.6211
   785.8000      7.8858      2.6968      0.1604     -2.8351     52.1919     22.4010
   785.9000      7.8858      2.6835      0.1002     -2.0290     48.8974     22.1529
   786.0000      7.8717      2.6742      0.1293     -1.4681     50.2738     22.1608
   786.1000      7.8717      2.6821      0.1211     -1.9450     55.5590     21.9873
   786.2000      7.8717      2.7059      0.1802     -3.3896     58.8192     21.4753
   786.3000      7.8657      2.7317      0.1939     -4.9495     56.6519     21.0954
   786.4000      7.8657      2.7443      0.1726     -5.7178     51.9501     21.1677
   786.5000      7.8710      2.7443      0.1587     -5.7145     51.4305     21.5167
   786.6000      7.8710      2.7302      0.1554     -4.8583     59.1568     21.7994
   786.7000      7.8710      2.6980      0.1373     -2.9090     69.1096     21.7211
   786.8000      7.8787      2.6646      0.0795     -0.8826     73.6210     21.1187
   786.9000      7.8787      2.6532      0.0441     -0.1944     72.6846     20.4677
   787.0000      7.8827      2.6605      0.0621     -0.6366     68.4394     20.2935
   787.1000      7.8827      2.6669      0.0874     -1.0268     66.1745     20.3349
   787.2000      7.8827      2.6707      0.1120     -1.2575     70.1864     20.3714
   787.3000      7.8833      2.6805      0.1253     -1.8465     77.3427     20.6006
   787.4000      7.8833      2.6940      0.0957     -2.6673     83.1223     20.8507
   787.5000      7.8830      2.7025      0.1047     -3.1846     86.0023     20.8427
   787.6000      7.8830      2.6906      0.1481     -2.4620     89.4868     20.7131
   787.7000      7.8830      2.6548      0.0670     -0.2914    100.6671     20.7673
   787.8000      7.8856      2.6161      0.0772      2.0547    114.1796     20.9747
   787.9000      7.8856      2.5941      0.0287      3.3876    116.2216     21.0213
   788.0000      7.8917      2.5975      0.0428      3.1805    107.5584     20.8328
   788.1000      7.8917      2.6194      0.0713      1.8568     99.1903     20.5215
   788.2000      7.8917      2.6342      0.0827      0.9592     92.7523     20.1796
   788.3000      7.8963      2.6265     -0.0109      1.4249     83.0469     20.0605
   788.4000      7.8963      2.6064      0.0817      2.6454     72.7021     20.1631
   788.5000      7.8978      2.5906      0.0294      3.6007     67.5447     20.2330
   788.6000      7.8978      2.5926      0.0446      3.4787     67.9313     20.2395
   788.7000      7.8978      2.6021      0.1208      2.9016     71.0485     20.0906
   788.8000      7.8963      2.5934      0.1541      3.4289     72.2978     19.7826
   788.9000      7.8963      2.5699      0.0725      4.8546     70.6629     19.5626
   789.0000      7.8948      2.5556      0.1015      5.7191     68.8178     19.4922
   789.1000      7.8948      2.5527      0.0472      5.8940     68.0872     19.4432
   789.2000      7.8948      2.5480      0.0573      6.1807     70.1991     19.3958
   789.3000      7.8948      2.5359      0.0421      6.9149     73.7059     19.4160
   789.4000      7.8948      2.5212      0.0474      7.8077     72.8259     19.6361
   789.5000      7.8940      2.5107      0.0019      8.4440     65.5386     20.0154
   789.6000      7.8940      2.5135      0.0728      8.2703     59.5171     20.4303
   789.7000      7.8940      2.5387      0.0720      6.7483     61.1194     20.7452
   789.8000      7.8925      2.5804      0.0960      4.2184     66.3402     20.9035
   789.9000      7.8925      2.6102      0.1398      2.4098     71.9625     21.1239
   790.0000      7.8936      2.6096      0.0843      2.4500     80.2647     21.2982
   790.1000      7.8936      2.5981      0.0696      3.1427     86.8267     21.0622
   790.2000      7.8936      2.5964      0.1157      3.2472     86.5350     20.6468
   790.3000      7.8978      2.6012      0.0965      2.9590     82.1739     20.5906
   790.4000      7.8978      2.6021      0.1211      2.9015     77.1753     21.0016
   790.5000      7.9009      2.5898      0.1133      3.6484     74.3615     21.4705
   790.6000      7.9009      2.5701      0.0501      4.8407     74.4566     21.6155
   790.7000      7.9009      2.5658      0.0243      5.1051     76.2125     21.5535
   790.8000      7.9031      2.5754      0.0947      4.5199     79.1031     21.4649
   790.9000      7.9031      2.5764      0.0642      4.4588     81.4646     21.4065
   791.0000      7.9070      2.5693      0.0469      4.8938     80.9240     21.2587
   791.1000      7.9070      2.5619      0.0346      5.3370     76.7324     20.9010
   791.2000      7.9070      2.5484      0.0256      6.1552     70.4093     20.5701
   791.3000      7.9100      2.5253      0.0374      7.5559     65.1636     20.3588
   791.4000      7.9100      2.5004      0.0291      9.0667     65.2736     20.2529
   791.5000      7.9075      2.4889      0.0457      9.7610     72.5071     20.4103
   791.6000      7.9075      2.4957      0.0852      9.3493     80.3061     20.6035
   791.7000      7.9075      2.5128      0.0606      8.3156     81.6719     20.5806
   791.8000      7.9010      2.5370      0.0365      6.8499     78.7613     20.5427
   791.9000      7.9010      2.5612      0.0701      5.3827     78.4942     20.6459
   792.0000      7.8972      2.5727      0.1097      4.6855     81.6657     20.8178
   792.1000      7.8972      2.5721      0.0953      4.7216     83.2697     21.0499
   792.2000      7.8972      2.5695      0.0634      4.8774     83.5840     21.3966
   792.3000      7.8984      2.5674      0.1010      5.0090     84.2045     21.5585
   792.4000      7.8984      2.5637      0.0933      5.2279     84.1650     21.2045
   792.5000      7.9008      2.5616      0.0868      5.3597     85.5976     20.6306
   792.6000      7.9008      2.5640      0.0809      5.2098     86.6835     20.1372
   792.7000      7.9008      2.5722      0.1019      4.7141     83.5565     19.8063
   792.8000      7.9014      2.5839      0.0707      4.0088     79.6464     19.8079
   792.9000      7.9014      2.5905      0.1419      3.6087     80.4793     19.9468
   793.0000      7.9016      2.5835      0.1023      4.0317     86.5389     20.0327
   793.1000      7.9016      2.5707      0.0660      4.8059     91.2803     20.2731
   793.2000      7.9016      2.5668      0.1010      5.0433     89.6653     20.6536
   793.3000      7.9023      2.5738      0.0563      4.6171     84.2077     20.7817
   793.4000      7.9023      2.5877      0.0421      3.7742     78.4561     20.3042
   793.5000      7.9014      2.5955      0.1414      3.3038     74.3887     19.5478
