~Version Information
VERS.                      2.0: CWLS Log ASCII Standard - VERSION 2.0
WRAP.                       NO: One line per depth step
~Well Information Block
STRT.FT               577.0000: 
STOP.FT              2643.2000: 
STEP.FT                 0.1000: 
NULL.                -999.2500: 
COMP.          Petrogulf Corporation: COMPANY
WELL.           Montoya 12-41V: WELL
FLD.           Purgatorie River: FIELD
LOC.           1081' FNL & 605' FEL: LOCATION
CNTY.               Las Animas: COUNTY
SRVC.                         : SERVICE COMPANY
DATE.          Tue Aug 10 14:17:12 2004: LOG DATE
UWI.           05 071 08094 00: UNIQUE WELL ID
STAT.                 Colorado: STATE
~Curve Information Block
DEPT.FT            0 000 00 00: Depth
DCAL.in                       : CDL Caliper
RHOB.g/cc                     : CDL Bulk Density
RHOC.g/cc                     : CDL Density Correction
DPOR.pu                       : CDL Density Porosity
GR.GAPI                       : Gamma Ray
NPOR.pu                       : Neutron Porosity
~Parameter Information Block
~A  Depth       DCAL        RHOB        RHOC        DPOR         GR         NPOR    
# ...
  1815.4000      7.6731      2.6687      0.1664     -1.1311    130.9778     27.2012
  1815.5000      7.6691      2.6808      0.1708     -1.8640    138.8609     26.5003
  1815.6000      7.6691      2.6689      0.1749     -1.1480    145.2137     26.0692
  1815.7000      7.6691      2.6357      0.1467      0.8645    144.9045     26.1733
  1815.8000      7.6508      2.6008      0.0946      2.9848    138.4272     27.2514
  1815.9000      7.6508      2.5823      0.0789      4.1048    131.4522     28.5091
  1816.0000      7.6616      2.5821      0.0425      4.1123    126.9606     28.7946
  1816.1000      7.6616      2.5882      0.0960      3.7454    123.7662     28.3158
  1816.2000      7.6616      2.5868      0.0706      3.8285    120.6675     27.7905
  1816.3000      7.6764      2.5798      0.0702      4.2554    114.3094     27.6450
  1816.4000      7.6764      2.5717      0.0849      4.7454    105.9568     28.0029
  1816.5000      7.6825      2.5663      0.0530      5.0712    105.7535     28.5895
  1816.6000      7.6825      2.5722      0.0853      4.7174    117.0821     29.0386
  1816.7000      7.6825      2.5791      0.0898      4.2941    126.6957     29.2043
  1816.8000      7.6611      2.5710      0.0877      4.7853    124.7917     28.9494
  1816.9000      7.6611      2.5562      0.0796      5.6876    120.8896     28.2786
  1817.0000      7.6419      2.5512      0.0660      5.9863    124.2522     27.4707
  1817.1000      7.6419      2.5567      0.0954      5.6535    128.5072     27.0812
  1817.2000      7.6419      2.5659      0.0480      5.0989    127.4519     27.3860
  1817.3000      7.6696      2.5799      0.0478      4.2474    126.5022     27.8598
  1817.4000      7.6696      2.5902      0.1233      3.6272    124.7793     28.0211
  1817.5000      7.6941      2.5850      0.0934      3.9420    114.7698     27.8316
  1817.6000      7.6941      2.5757      0.1205      4.5030    105.4427     27.3993
  1817.7000      7.6941      2.5727      0.1223      4.6863    111.0671     27.1600
  1817.8000      7.6788      2.5717      0.0950      4.7443    126.7593     27.4541
  1817.9000      7.6788      2.5708      0.1404      4.8026    139.8422     28.0745
  1818.0000      7.6021      2.5722      0.1142      4.7141    144.1200     28.3157
  1818.1000      7.6021      2.5865      0.0595      3.8467    142.0057     27.9838
  1818.2000      7.6021      2.6162      0.1416      2.0487    139.9743     27.5465
  1818.3000      7.6259      2.6362      0.2141      0.8349    137.4831     27.3715
  1818.4000      7.6259      2.6251      0.1711      1.5091    132.0534     27.5929
  1818.5000      7.6739      2.5882      0.1732      3.7426    128.4985     27.8518
  1818.6000      7.6739      2.5355      0.1634      6.9386    127.0192     27.9363
  1818.7000      7.6739      2.4697      0.1211     10.9249    122.2273     28.2690
  1818.8000      7.6561      2.4060      0.0295     14.7895    117.0776     28.8614
  1818.9000      7.6561      2.3666      0.0428     17.1746    116.5583     29.4005
  1819.0000      7.5737      2.3543      0.0481     17.9223    119.7366     29.7938
  1819.1000      7.5737      2.3615      0.0268     17.4866    122.7585     30.0607
  1819.2000      7.5737      2.3864      0.0612     15.9783    124.5629     30.0224
  1819.3000      7.6001      2.4164      0.1495     14.1563    126.1302     29.6502
  1819.4000      7.6001      2.4336      0.1365     13.1181    123.9351     29.4587
  1819.5000      7.6586      2.4357      0.1374     12.9862    120.1415     29.6862
  1819.6000      7.6586      2.4295      0.0860     13.3637    122.1568     29.9485
  1819.7000      7.6586      2.4265      0.1044     13.5448    128.6711     30.0850
  1819.8000      7.6660      2.4400      0.0667     12.7271    132.5426     30.0851
  1819.9000      7.6660      2.4674      0.0735     11.0695    126.5986     29.6966
  1820.0000      7.6435      2.4939      0.0984      9.4580    113.9989     28.9331
  1820.1000      7.6435      2.5175      0.0529      8.0292    111.2147     28.1070
  1820.2000      7.6435      2.5399      0.1249      6.6721    121.4948     27.7277
  1820.3000      7.6419      2.5499      0.0983      6.0658    127.4098     28.1937
  1820.4000      7.6419      2.5441      0.1062      6.4168    121.2421     28.9510
  1820.5000      7.6592      2.5340      0.0658      7.0282    113.0758     29.0346
  1820.6000      7.6592      2.5308      0.0914      7.2250    110.1034     27.9754
  1820.7000      7.6592      2.5339      0.0824      7.0344    110.1526     26.2990
  1820.8000      7.6585      2.5383      0.0683      6.7681    110.2566     25.1130
  1820.9000      7.6585      2.5390      0.0698      6.7246    112.0406     24.6004
  1821.0000      7.6390      2.5357      0.0578      6.9259    116.7247     24.3819
  1821.1000      7.6390      2.5340      0.0626      7.0311    117.3752     24.5934
  1821.2000      7.6390      2.5380      0.0829      6.7899    109.4460     24.9851
  1821.3000      7.6594      2.5504      0.0668      6.0363     99.9697     24.9610
  1821.4000      7.6594      2.5717      0.1094      4.7469     98.0763     24.7749
  1821.5000      7.6803      2.5920      0.1096      3.5167    101.4682     24.6644
  1821.6000      7.6803      2.5932      0.1307      3.4408    102.6424     24.2055
  1821.7000      7.6803      2.5731      0.0920      4.6592    102.5946     23.4231
  1821.8000      7.7073      2.5572      0.0383      5.6248    104.4735     22.8855
  1821.9000      7.7073      2.5627      0.0949      5.2895    107.1621     22.6382
  1822.0000      7.6784      2.5779      0.1019      4.3681    107.2264     22.2812
  1822.1000      7.6784      2.5869      0.0923      3.8243    102.1530     21.7094
  1822.2000      7.6784      2.5865      0.1083      3.8469     93.0444     20.9204
  1822.3000      7.6620      2.5844      0.0629      3.9775     83.8334     20.0684
  1822.4000      7.6620      2.5842      0.0970      3.9886     81.2869     19.7591
  1822.5000      7.6682      2.5792      0.0748      4.2885     88.0070     20.1235
  1822.6000      7.6682      2.5674      0.0769      5.0033     96.5442     20.8081
  1822.7000      7.6682      2.5569      0.0509      5.6405     98.6869     21.1873
  1822.8000      7.6899      2.5559      0.0197      5.7041     95.2438     20.7391
  1822.9000      7.6899      2.5660      0.0697      5.0885     91.7999     20.0738
  1823.0000      7.6849      2.5785      0.1022      4.3325     90.8085     19.9611
  1823.1000      7.6849      2.5778      0.0797      4.3735     90.1026     20.1067
  1823.2000      7.6849      2.5615      0.0594      5.3664     87.6390     19.9944
  1823.3000      7.6709      2.5503      0.0405      6.0427     85.0493     19.4998
  1823.4000      7.6709      2.5631      0.0783      5.2693     83.4050     18.5496
  1823.5000      7.6618      2.5881      0.1313      3.7536     80.5363     17.3500
  1823.6000      7.6618      2.6074      0.0964      2.5794     78.3639     16.4666
  1823.7000      7.6618      2.6253      0.1261      1.4953     80.8063     15.9027
  1823.8000      7.6283      2.6448      0.1276      0.3172     86.3955     15.2767
  1823.9000      7.6283      2.6554      0.1449     -0.3266     90.6035     14.5675
  1824.0000      7.6278      2.6487      0.1453      0.0803     88.8334     14.0710
  1824.1000      7.6278      2.6316      0.0795      1.1149     84.1942     13.8725
  1824.2000      7.6278      2.6257      0.0484      1.4734     85.8073     13.7253
  1824.3000      7.6232      2.6357      0.0866      0.8665     90.5807     13.5823
  1824.4000      7.6232      2.6439      0.0756      0.3685     90.1872     13.4643
  1824.5000      7.6202      2.6361      0.1093      0.8411     88.8896     13.3238
  1824.6000      7.6202      2.6074      0.1105      2.5809     91.9522     13.7241
  1824.7000      7.6202      2.5735      0.0433      4.6384     93.4438     14.7722
  1824.8000      7.6349      2.5574      0.0742      5.6127     86.5665     15.4815
  1824.9000      7.6349      2.5535      0.0844      5.8467     77.4406     15.6532
