~Version Information
VERS.                      2.0: CWLS Log ASCII Standard - VERSION 2.0
WRAP.                       NO: One line per depth step
~Well Information Block
STRT.FT               294.0000: 
STOP.FT              1961.5000: 
STEP.FT                 0.2500: 
NULL.                -999.2500: 
COMP.          Pioneer Natural Resources: COMPANY
WELL.          Commander 43-26 Tr: WELL
FLD.           Purgatoire River: FIELD
LOC.           2439' FSL & 446' FEL: LOCATION
PROV.                 Colorado: PROVINCE
CNTY.               Las Animas: COUNTRY
SRVC.                Patterson: SERVICE COMPANY
DATE.          Thu Apr 14 18:26:07 2005: LOG DATE
UWI.           05 071 08341 00: UNIQUE WELL ID
~Curve Information Block
DEPT.FT            0 000 00 00: Depth
SN.Ohm-m                      : IEL Short Normal
SP.mV                         : IEL Spontaneous Potential
DIR.Ohm-m                     : IEL Induction Resistivity
GR.GAPI                       : Gamma Ray
~Parameter Information Block
~A  Depth        SN          SP         DIR          GR     
# ...
  1399.5000     13.3041     16.5862     11.7586    110.9930
  1399.7500     13.6702     16.4399     12.1434    111.1498
  1400.0000     14.1796     16.2807     12.6451    111.9480
  1400.2500     14.7197     16.1351     13.2753    112.0221
  1400.5000     15.2161     16.0224     14.0090    110.6342
  1400.7500     15.7208     15.9566     14.7780    108.8698
  1401.0000     16.3480     15.9494     15.4912    105.4474
  1401.2500     17.1761     16.0014     16.0703    102.6156
  1401.5000     18.2790     16.0914     16.4737     97.2619
  1401.7500     19.7653     16.1760     16.6914     93.0097
  1402.0000     21.6926     16.2071     16.7256     86.0126
  1402.2500     24.0646     16.1608     16.5843     81.2131
  1402.5000     26.9079     16.0575     16.2894     74.7293
  1402.7500     30.0238     15.9530     15.8829     71.9040
  1403.0000     32.5058     15.9042     15.4173     71.8993
  1403.2500     32.9248     15.9364     14.9350     75.3429
  1403.5000     30.5222     16.0361     14.4538     85.1538
  1403.7500     26.1314     16.1657     13.9676     93.6961
  1404.0000     21.5319     16.2840     13.4604    107.1076
  1404.2500     18.0566     16.3595     12.9217    115.2218
  1404.5000     16.0141     16.3783     12.3537    124.7382
  1404.7500     15.0328     16.3421     11.7689    128.7920
  1405.0000     14.5837     16.2602     11.1864    131.1736
  1405.2500     14.2762     16.1374     10.6295    130.9115
  1405.5000     13.9537     15.9728     10.1248    130.2081
  1405.7500     13.6844     15.7701      9.6979    130.9779
  1406.0000     13.5616     15.5512      9.3674    134.6786
  1406.2500     13.4922     15.3549      9.1408    138.0511
  1406.5000     13.3545     15.2183      9.0126    142.2707
  1406.7500     13.1797     15.1569      8.9654    143.4002
  1407.0000     12.9463     15.1548      8.9729    141.4587
  1407.2500     12.5527     15.1725      9.0055    137.7570
  1407.5000     12.1089     15.1629      9.0376    129.8913
  1407.7500     11.8168     15.0912      9.0536    124.3049
  1408.0000     11.6309     14.9511      9.0503    117.2028
  1408.2500     11.3792     14.7723      9.0353    113.9012
  1408.5000     11.0266     14.6093      9.0222    111.4968
  1408.7500     10.7072     14.5127      9.0229    111.7109
  1409.0000     10.6601     14.5035      9.0414    114.8340
  1409.2500     11.0107     14.5682      9.0711    118.5415
  1409.5000     11.5631     14.6732      9.0995    125.3615
  1409.7500     11.9940     14.7814      9.1175    129.8594
  1410.0000     12.1613     14.8617      9.1247    135.4834
  1410.2500     12.1158     14.8979      9.1271    138.2858
  1410.5000     11.9560     14.8967      9.1307    141.0393
  1410.7500     11.6993     14.8836      9.1375    141.8561
  1411.0000     11.2914     14.8848      9.1461    141.3577
  1411.2500     10.7723     14.9093      9.1554    139.7919
  1411.5000     10.3439     14.9478      9.1668    135.6637
  1411.7500     10.2385     14.9848      9.1839    131.9269
  1412.0000     10.5378     15.0087      9.2100    125.4991
  1412.2500     11.1091     15.0142      9.2462    121.2607
  1412.5000     11.7170     14.9985      9.2915    116.0738
  1412.7500     12.1628     14.9574      9.3456    113.7389
  1413.0000     12.3151     14.8800      9.4096    111.8005
  1413.2500     12.1497     14.7484      9.4850    111.3355
  1413.5000     11.8562     14.5462      9.5714    111.6534
  1413.7500     11.7284     14.2720      9.6661    112.5038
  1414.0000     11.8198     13.9479      9.7653    114.8423
  1414.2500     11.8823     13.6157      9.8647    117.2085
  1414.5000     11.7171     13.3229      9.9585    121.6820
  1414.7500     11.4339     13.1051     10.0375    124.6711
  1415.0000     11.2654     12.9736     10.0904    127.8101
  1415.2500     11.2321     12.9147     10.1097    128.4693
  1415.5000     11.1693     12.8964     10.0990    127.3149
  1415.7500     11.0374     12.8811     10.0734    125.6482
  1416.0000     10.9839     12.8438     10.0526    123.1586
  1416.2500     11.0849     12.7836     10.0515    122.1753
  1416.5000     11.2183     12.7187     10.0774    122.0529
  1416.7500     11.2610     12.6702     10.1324    122.4767
  1417.0000     11.2585     12.6492     10.2166    122.5480
  1417.2500     11.3117     12.6557     10.3284    121.5375
  1417.5000     11.4254     12.6796     10.4629    118.1094
  1417.7500     11.5781     12.7008     10.6116    114.7768
  1418.0000     11.8174     12.6915     10.7623    108.8113
  1418.2500     12.1238     12.6287     10.8991    104.6216
  1418.5000     12.3914     12.5105     11.0021     98.9611
  1418.7500     12.6432     12.3631     11.0530     96.0047
  1419.0000     12.9487     12.2274     11.0427     92.6977
  1419.2500     13.2232     12.1359     10.9752     90.9422
  1419.5000     13.3339     12.0991     10.8626     89.0922
  1419.7500     13.2535     12.1107     10.7174     89.0648
  1420.0000     13.0438     12.1570     10.5470     92.2753
  1420.2500     12.7550     12.2176     10.3560     96.8473
  1420.5000     12.3955     12.2656     10.1500    106.1354
  1420.7500     11.9948     12.2786      9.9380    112.6215
  1421.0000     11.5764     12.2515      9.7299    120.7924
  1421.2500     11.1359     12.1953      9.5312    124.6734
  1421.5000     10.7174     12.1180      9.3388    128.3903
  1421.7500     10.3751     12.0068      9.1419    129.9895
  1422.0000     10.1071     11.8357      8.9282    131.8732
  1422.2500      9.9076     11.5958      8.6918    132.9210
  1422.5000      9.7992     11.3141      8.4374    133.9344
  1422.7500      9.7851     11.0416      8.1779    134.0734
  1423.0000      9.8163     10.8258      7.9295    133.5190
  1423.2500      9.8485     10.6926      7.7057    132.9653
  1423.5000      9.9034     10.6394      7.5144    132.9320
  1423.7500      9.9865     10.6371      7.3578    134.0691
  1424.0000      9.9874     10.6438      7.2347    137.7848
  1424.2500      9.7877     10.6278      7.1427    141.0986
  1424.5000      9.4251     10.5834      7.0791    145.7083
  1424.7500      9.0772     10.5288      7.0404    147.6477
  1425.0000      8.8737     10.4943      7.0220    148.4719
  1425.2500      8.8173     10.5087      7.0191    148.2097
  1425.5000      8.8849     10.5900      7.0283    147.8071
  1425.7500      9.0474     10.7356      7.0488    147.6045
  1426.0000      9.2311     10.9178      7.0825    146.4026
  1426.2500      9.3725     11.0918      7.1313    144.4876
  1426.5000      9.4434     11.2154      7.1940    140.4798
  1426.7500      9.4444     11.2699      7.2646    138.1250
  1427.0000      9.4683     11.2665      7.3337    136.5668
  1427.2500      9.6299     11.2355      7.3913    136.6726
  1427.5000      9.8902     11.2066      7.4307    136.8579
  1427.7500     10.1542     11.1944      7.4494    136.2903
  1428.0000     10.4093     11.1966      7.4497    134.8892
  1428.2500     10.5618     11.2011      7.4371    134.3397
  1428.5000     10.4257     11.1945      7.4184    134.4556
  1428.7500     10.0226     11.1696      7.3999    134.6013
  1429.0000      9.5809     11.1268      7.3870    133.5506
  1429.2500      9.2139     11.0680      7.3831    131.5117
  1429.5000      8.8767     10.9885      7.3881    126.5691
  1429.7500      8.6135     10.8753      7.3962    122.6256
  1430.0000      8.5554     10.7175      7.3957    117.3442
  1430.2500      8.7092     10.5197      7.3732    115.1782
  1430.5000      8.9783     10.3041      7.3189    114.8989
  1430.7500      9.2906     10.0994      7.2318    116.6974
  1431.0000      9.5705      9.9267      7.1219    121.6740
  1431.2500      9.7238      9.7945      7.0083    125.8386
  1431.5000      9.7268      9.7028      6.9139    131.8257
  1431.7500      9.6461      9.6452      6.8588    134.7172
  1432.0000      9.5265      9.6118      6.8555    136.5429
  1432.2500      9.3455      9.5929      6.9067    136.2629
  1432.5000      9.1138      9.5833      7.0059    134.5331
  1432.7500      8.9128      9.5822      7.1395    132.8462
