~Version Information
 VERS.                                  2.0 : CWLS LAS VERSION
 WRAP.                                   NO : WRAPING MODE
 SWARE .                 MController 2.5.0E : SOFTWARE VERSION
~Well Information
 WELL.                        Labrador 34-30: WELL
 COMP.             Pioneer Natural Resources: COMPANY
 FLD.                       Purgatoire River: FIELD
 LOC.                SW/SE Sec 30 T34S R65W : LOCATION
 DATE.                            12/05/2004: DATE(S) LOGGED
 SRVC.       Blanco Geological Services LLC : SERVICE COMPANY
 STAT.                                    CO: STATE
 CNTY.                            Las Animas: COUNTY
 CTRY.                                   USA: COUNTRY
 API.                           05-071-08202: API NUMBER
 STRT.FT                             302.00 : START DEPTH
 STOP.FT                            1765.00 : STOP DEPTH
 STEP.FT                               1.00 : DEPTH INCREMENT
 NULL.                                -9999 : NULL VALUE
~Curve information
 DEPTH.FT                                   :
 ROP.MIN/FT                                 :
 GAS.UNITS                                  :
~ASCII Log data
# ...
     1502.00        0.300        164.5 
     1503.00        0.300        156.0 
     1504.00        0.267        159.6 
     1505.00        0.267        162.5 
     1506.00        0.333        166.1 
     1507.00        0.317        177.2 
     1508.00        0.267        188.5 
     1509.00        0.333        188.3 
     1510.00        0.300        164.7 
     1511.00        0.300        136.2 
     1512.00        0.300        112.5 
     1513.00        0.300         98.7 
     1514.00        0.300         99.4 
     1515.00        0.367         97.1 
     1516.00        0.333         83.9 
     1517.00        0.233         71.5 
     1518.00        0.283         65.3 
     1519.00        0.267         61.1 
     1520.00        0.233         59.2 
     1521.00        0.267         57.5 
     1522.00        0.233         54.7 
     1523.00        0.267         51.3 
     1524.00        0.300         47.5 
     1525.00        0.300         45.4 
     1526.00        1.917        209.4 
     1527.00        0.567        231.1 
     1528.00        0.400        224.6 
     1529.00        0.400        197.7 
     1530.00        0.200        176.4 
     1531.00        0.267        172.8 
     1532.00        0.333        170.0 
     1533.00        0.233        168.7 
     1534.00        0.267        162.4 
     1535.00        0.250        146.8 
     1536.00        0.200        131.9 
     1537.00        0.267        121.5 
     1538.00        0.300        108.6 
     1539.00        0.333         98.2 
     1540.00        0.333         92.0 
     1541.00        0.300         78.6 
     1542.00        0.400         67.9 
     1543.00        0.300         58.0 
     1544.00        0.267         66.8 
     1545.00        0.267         72.9 
     1546.00        0.300         83.3 
     1547.00        0.317         83.5 
     1548.00        0.300         81.2 
     1549.00        0.267         78.6 
     1550.00        0.233         79.7 
     1551.00        0.233         83.7 
     1552.00        0.300         90.2 
     1553.00        0.300         95.3 
     1554.00        0.267         96.8 
     1555.00        0.600         98.2 
     1556.00        2.383        284.5 
     1557.00        0.367        282.5 
     1558.00        0.400        247.6 
     1559.00        0.300        208.9 
     1560.00        0.267        189.9 
     1561.00        0.317        170.2 
     1562.00        0.267        152.8 
     1563.00        0.300        141.4 
     1564.00        0.267        130.0 
     1565.00        0.233        117.2 
     1566.00        0.200        110.4 
     1567.00        0.200        107.3 
     1568.00        0.233        103.6 
     1569.00        0.267         99.3 
     1570.00        0.233         95.9 
     1571.00        0.233         95.5 
     1572.00        0.267         96.5 
     1573.00        0.333        100.9 
     1574.00        0.350         99.8 
     1575.00        0.333         98.1 
     1576.00        0.367         93.9 
     1577.00        0.333         89.8 
     1578.00        0.333         80.9 
     1579.00        0.333         71.7 
     1580.00        0.300         64.3 
     1581.00        0.300         60.1 
     1582.00        0.267         58.3 
     1583.00        0.200         57.7 
     1584.00        0.233         58.9 
     1585.00        0.250         60.7 
     1586.00        2.200        259.1 
     1587.00        0.333        271.0 
     1588.00        0.433        272.9 
     1589.00        0.317        264.8 
     1590.00        0.233        243.7 
     1591.00        0.200        224.5 
     1592.00        0.133        208.2 
     1593.00        0.200        199.8 
     1594.00        0.300        190.5 
     1595.00        0.267        181.6 
     1596.00        0.233        178.2 
     1597.00        0.300        177.2 
     1598.00        0.233        175.4 
     1599.00        0.267        172.8 
     1600.00        0.233        168.8 
     1601.00        0.233        161.0 
     1602.00        0.233        179.8 
     1603.00        0.250        186.4 
     1604.00        0.233        181.1 
     1605.00        0.233        168.3 
     1606.00        0.233        144.3 
     1607.00        0.233        122.9 
     1608.00        0.233        107.7 
     1609.00        0.233         95.1 
     1610.00        0.200         85.1 
     1611.00        0.233         78.6 
     1612.00        0.233         74.0 
     1613.00        0.200         69.7 
     1614.00        0.233         65.1 
     1615.00        0.267         60.5 
     1616.00        3.117        292.0 
     1617.00        0.433        244.2 
     1618.00        0.350        206.7 
     1619.00        0.367        178.7 
     1620.00        0.333        155.9 
     1621.00        0.300        142.9 
     1622.00        0.300        139.6 
     1623.00        0.267        134.7 
     1624.00        0.300        132.3 
     1625.00        0.233        127.6 
     1626.00        0.300        124.9 
     1627.00        0.233        120.4 
     1628.00        0.233        118.1 
     1629.00        0.233        116.6 
     1630.00        0.250        114.2 
     1631.00        0.200        114.9 
     1632.00        0.233        129.3 
     1633.00        0.233        140.9 
     1634.00        0.233        141.4 
     1635.00        0.300        137.9 
     1636.00        0.200        117.3 
     1637.00        0.233        105.9 
     1638.00        0.233         92.0 
     1639.00        0.267         80.1 
     1640.00        0.200         68.9 
     1641.00        0.267         59.7 
     1642.00        0.233         50.5 
     1643.00        0.267         43.7 
     1644.00        0.283         39.3 
     1645.00        0.333         35.0 
     1646.00        3.017        248.4 
     1647.00        0.433        250.3 
     1648.00        0.333        232.8 
     1649.00        0.300        210.8 
     1650.00        0.333        186.3 
     1651.00        0.267        159.4 
     1652.00        0.267        165.2 
     1653.00        0.267        163.1 
     1654.00        0.267        158.5 
     1655.00        0.267        142.9 
     1656.00        0.233        128.1 
     1657.00        0.250        128.5 
     1658.00        0.200        118.5 
     1659.00        0.233        119.2 
     1660.00        0.200        113.9 
     1661.00        0.200        111.1 
     1662.00        0.233        110.5 
     1663.00        0.200        116.3 
     1664.00        0.200        118.5 
     1665.00        0.100        119.6 
     1666.00        0.500        119.8 
     1667.00        0.133        114.0 
     1668.00        0.333        107.4 
     1669.00        0.233         98.9 
     1670.00        0.267         93.9 
     1671.00        0.483        115.2 
     1672.00        0.433        120.0 
     1673.00        0.367        117.2 
     1674.00        0.133        104.5 
     1675.00        0.133        102.7 
     1676.00        6.267        119.9 
     1677.00        0.367         73.5 
     1678.00        0.400         43.5 
     1679.00        0.400         12.9 
     1680.00        0.333          2.9 
     1681.00        0.233          1.3 
     1682.00        0.167          0.6 
     1683.00        0.200          0.4 
     1684.00        0.300          0.1 
     1685.00        0.250          0.2 
     1686.00        0.267          0.0 
     1687.00        0.233          0.1 
     1688.00        0.267          0.3 
     1689.00        0.267          0.1 
     1690.00        0.400          0.0 
     1691.00        0.400          0.1 
     1692.00        0.300          0.0 
     1693.00        0.333          0.0 
     1694.00        0.300          0.1 
     1695.00        0.200          0.3 
     1696.00        0.217          0.3 
     1697.00        0.200          0.1 
     1698.00        0.200          0.4 
     1699.00        0.200          0.0 
     1700.00        0.200          0.1 
     1701.00        0.200          0.1 
