~Version Information
VERS.                      2.0: CWLS Log ASCII Standard - VERSION 2.0
WRAP.                       NO: One line per depth step
~Well Information Block
STRT.FT               260.0000: 
STOP.FT              2272.0000: 
STEP.FT                 0.2500: 
NULL.                -999.2500: 
COMP.          Pioneer Natural Resources: COMPANY
WELL.            Moo Moo 31-36: WELL
FLD.           Purgatoire River: FIELD
LOC.           612' FNL & 2326' FEL: LOCATION
PROV.                 Colorado: PROVINCE
CNTY.               Las Animas: COUNTRY
SRVC.                Patterson: SERVICE COMPANY
DATE.          Fri Jun 17 07:45:39 2005: LOG DATE
UWI.           05 071 08395 00: UNIQUE WELL ID
~Curve Information Block
DEPT.FT            0 000 00 00: Depth
DIR.Ohm-m                     : IEL Induction Resistivity
SN.Ohm-m                      : IEL Short Normal
SP.mV                         : IEL Spontaneous Potential
GR.GAPI                       : Gamma Ray
~Parameter Information Block
~A  Depth       DIR          SN          SP          GR     
# ...
   394.0000     25.7450   2000.0000   2000.0000    124.2692
   394.2500     26.4243   2000.0000   2000.0000    122.9281
   394.5000     27.2347   2000.0000   2000.0000    120.2012
   394.7500     28.0590   2000.0000   2000.0000    117.4646
   395.0000     28.7428   2000.0000   2000.0000    111.5941
   395.2500     29.1605   2000.0000   2000.0000    106.8744
   395.5000     29.2639   2000.0000   2000.0000    100.3093
   395.7500     29.0814   2000.0000   2000.0000     97.4713
   396.0000     28.6791   2000.0000   2000.0000     96.6777
   396.2500     28.1261   2000.0000   2000.0000     98.2613
   396.5000     27.4833   2000.0000   2000.0000    102.5676
   396.7500     26.8036   2000.0000   2000.0000    106.2050
   397.0000     26.1300   2000.0000   2000.0000    112.7883
   397.2500     25.4883   2000.0000   2000.0000    117.8745
   397.5000     24.8865   2000.0000   2000.0000    125.3386
   397.7500     24.3229   2000.0000   2000.0000    129.2316
   398.0000     23.7946   2000.0000   2000.0000    133.0064
   398.2500     23.3005   2000.0000   2000.0000    134.7833
   398.5000     22.8391   2000.0000   2000.0000    137.3479
   398.7500     22.4016   2000.0000   2000.0000    138.7711
   399.0000     21.9684   2000.0000   2000.0000    139.1402
   399.2500     21.5106   2000.0000   2000.0000    137.6511
   399.5000     21.0015   2000.0000   2000.0000    132.9463
   399.7500     20.4311   2000.0000   2000.0000    128.7274
   400.0000     19.8142   2000.0000   2000.0000    122.2541
   400.2500     19.1854   2000.0000   2000.0000    118.9859
   400.5000     18.5833   2000.0000   2000.0000    117.7949
   400.7500     18.0371   2000.0000   2000.0000    120.3165
   401.0000     17.5628   2000.0000   2000.0000    128.7802
   401.2500     17.1680   2000.0000   2000.0000    136.2372
   401.5000     16.8575   2000.0000   2000.0000    147.0356
   401.7500     16.6349   2000.0000   2000.0000    152.5551
   402.0000     16.4998   2000.0000   2000.0000    157.5820
   402.2500     16.4443   2000.0000   2000.0000    159.2000
   402.5000     16.4507   2000.0000   2000.0000    160.1877
   402.7500     16.4925   2000.0000   2000.0000    160.2079
   403.0000     16.5409   2000.0000   2000.0000    158.9101
   403.2500     16.5743   2000.0000   2000.0000    156.8069
   403.5000     16.5841   2000.0000   2000.0000    152.0763
   403.7500     16.5729   2000.0000   2000.0000    148.6854
   404.0000     16.5491   2000.0000   2000.0000    144.6210
   404.2500     16.5276   2000.0000   2000.0000    142.6811
   404.5000     16.5324   2000.0000   2000.0000    139.9950
   404.7500     16.5957   2000.0000   2000.0000    137.9448
   405.0000     16.7443   2000.0000   2000.0000    134.9063
   405.2500     16.9821   2000.0000   2000.0000    133.5274
   405.5000     17.2846   2000.0000   2000.0000    133.0174
   405.7500     17.6160   2000.0000   2000.0000    133.5149
   406.0000     17.9634   2000.0000   2000.0000    134.6543
   406.2500     18.3564   2000.0000   2000.0000    135.2520
   406.5000     18.8474   2000.0000   2000.0000    135.5079
   406.7500     19.4638   2000.0000   2000.0000    135.0073
   407.0000     20.1705   2000.0000   2000.0000    132.6738
   407.2500     20.8732   2000.0000   2000.0000    129.8864
   407.5000     21.4666   2000.0000   2000.0000    124.1818
   407.7500     21.8894   2000.0000   2000.0000    119.6910
   408.0000     22.1422   2000.0000   2000.0000    112.2294
   408.2500     22.2628   2000.0000   2000.0000    107.0686
   408.5000     22.2973   2000.0000   2000.0000    100.6154
   408.7500     22.2902   2000.0000   2000.0000     98.5108
   409.0000     22.2866   2000.0000   2000.0000    100.1364
   409.2500     22.3321   2000.0000   2000.0000    104.2861
   409.5000     22.4649   2000.0000   2000.0000    113.7605
   409.7500     22.7077   2000.0000   2000.0000    121.3403
   410.0000     23.0586   2000.0000   2000.0000    133.0387
   410.2500     23.4844   2000.0000   2000.0000    139.9163
   410.5000     23.9178   2000.0000   2000.0000    146.6806
   410.7500     24.2704   2000.0000   2000.0000    148.0415
   411.0000     24.4626   2000.0000   2000.0000    145.8874
   411.2500     24.4583   2000.0000   2000.0000    142.9850
   411.5000     24.2744   2000.0000   2000.0000    139.1546
   411.7500     23.9597   2000.0000   2000.0000    137.9969
   412.0000     23.5679   2000.0000   2000.0000    138.5017
   412.2500     23.1464   2000.0000   2000.0000    139.6219
   412.5000     22.7360   2000.0000   2000.0000    140.8384
   412.7500     22.3655   2000.0000   2000.0000    140.6553
   413.0000     22.0393   2000.0000   2000.0000    138.6515
   413.2500     21.7361   2000.0000   2000.0000    136.5074
   413.5000     21.4253   2000.0000   2000.0000    133.1071
   413.7500     21.0934   2000.0000   2000.0000    131.3886
   414.0000     20.7584   2000.0000   2000.0000    130.6306
   414.2500     20.4598   2000.0000   2000.0000    131.6609
   414.5000     20.2349   2000.0000   2000.0000    135.3982
   414.7500     20.0991   2000.0000   2000.0000    139.0087
   415.0000     20.0413   2000.0000   2000.0000    145.5529
   415.2500     20.0321   2000.0000   2000.0000    150.3931
   415.5000     20.0358   2000.0000   2000.0000    157.3624
   415.7500     20.0204   2000.0000   2000.0000    160.7264
   416.0000     19.9668   2000.0000   2000.0000    161.8771
   416.2500     19.8787   2000.0000   2000.0000    159.4813
   416.5000     19.7862   2000.0000   2000.0000    151.6781
   416.7500     19.7361   2000.0000   2000.0000    144.7219
   417.0000     19.7740   2000.0000   2000.0000    134.1246
   417.2500     19.9309   2000.0000   2000.0000    128.3375
   417.5000     20.2242   2000.0000   2000.0000    122.8996
   417.7500     20.6648   2000.0000   2000.0000    121.2735
   418.0000     21.2607   2000.0000   2000.0000    120.3127
   418.2500     22.0115   2000.0000   2000.0000    119.6935
   418.5000     22.8998   2000.0000   2000.0000    118.0711
   418.7500     23.8855   2000.0000   2000.0000    116.7406
   419.0000     24.9013   2000.0000   2000.0000    115.2836
   419.2500     25.8482   2000.0000   2000.0000    115.0714
   419.5000     26.5979   2000.0000   2000.0000    115.5862
   419.7500     27.0130   2000.0000   2000.0000    115.6536
   420.0000     26.9898   2000.0000   2000.0000    113.6873
   420.2500     26.5101   2000.0000   2000.0000    110.7118
   420.5000     25.6655   2000.0000   2000.0000    105.4055
   420.7500     24.6278   2000.0000   2000.0000    103.1822
   421.0000     23.5802   2000.0000   2000.0000    104.4804
   421.2500     22.6578   2000.0000   2000.0000    108.6717
   421.5000     21.9254   2000.0000   2000.0000    118.3132
   421.7500     21.3841   2000.0000   2000.0000    125.6954
   422.0000     20.9891   2000.0000   2000.0000    136.3836
   422.2500     20.6696   2000.0000   2000.0000    142.2969
   422.5000     20.3530   2000.0000   2000.0000    147.8005
   422.7500     19.9873   2000.0000   2000.0000    148.6838
   423.0000     19.5532   2000.0000   2000.0000    145.9371
   423.2500     19.0588   2000.0000   2000.0000    141.8964
   423.5000     18.5237   2000.0000   2000.0000    133.5813
   423.7500     17.9699   2000.0000   2000.0000    127.0703
   424.0000     17.4238   2000.0000   2000.0000    116.6766
   424.2500     16.9221   2000.0000   2000.0000    110.0343
   424.5000     16.5066   2000.0000   2000.0000    102.5869
   424.7500     16.2065   2000.0000   2000.0000    100.8049
   425.0000     16.0223   2000.0000   2000.0000    104.4689
   425.2500     15.9251   2000.0000   2000.0000    110.6664
   425.5000     15.8714   2000.0000   2000.0000    122.5043
   425.7500     15.8246   2000.0000   2000.0000    129.8728
   426.0000     15.7662   2000.0000   2000.0000    137.7130
   426.2500     15.6909   2000.0000   2000.0000    140.8280
   426.5000     15.5931   2000.0000   2000.0000    144.3908
   426.7500     15.4606   2000.0000   2000.0000    147.2645
   427.0000     15.2801   2000.0000   2000.0000    152.3666
   427.2500     15.0507   2000.0000   2000.0000    155.0522
