~Version Information
VERS.                      2.0: CWLS Log ASCII Standard - VERSION 2.0
WRAP.                       NO: One line per depth step
~Well Information Block
STRT.FT               583.0000: 
STOP.FT              1701.5000: 
STEP.FT                 0.2500: 
NULL.                -999.2500: 
COMP.          Pioneer Natural Resources: COMPANY
WELL.          Scott Canyon 11-18 Tr: WELL
FLD.           Purgatoire River: FIELD
LOC.           411' FNL & 580' FWL: LOCATION
PROV.                 Colorado: PROVINCE
CNTY.               Las Animas: COUNTRY
SRVC.                Patterson: SERVICE COMPANY
DATE.          Thu Feb 17 02:07:21 2005: LOG DATE
UWI.           05 071 08286 00: UNIQUE WELL ID
~Curve Information Block
DEPT.FT            0 000 00 00: Depth
SN.Ohm-m                      : IEL Short Normal
SP.mV                         : IEL Spontaneous Potential
DIR.Ohm-m                     : IEL Induction Resistivity
GR.GAPI                       : Gamma Ray
~Parameter Information Block
~A  Depth        SN          SP         DIR          GR     
# ...
   650.0000   2000.0000   2000.0000     11.4978    153.3148
   650.2500   2000.0000   2000.0000     11.3856    152.3814
   650.5000   2000.0000   2000.0000     11.2705    150.9347
   650.7500   2000.0000   2000.0000     11.1550    150.3571
   651.0000   2000.0000   2000.0000     11.0409    151.1780
   651.2500   2000.0000   2000.0000     10.9263    152.9820
   651.5000   2000.0000   2000.0000     10.8071    155.8927
   651.7500   2000.0000   2000.0000     10.6801    156.4429
   652.0000   2000.0000   2000.0000     10.5451    154.0554
   652.2500   2000.0000   2000.0000     10.4042    151.3079
   652.5000   2000.0000   2000.0000     10.2596    148.6973
   652.7500   2000.0000   2000.0000     10.1129    149.1422
   653.0000   2000.0000   2000.0000      9.9664    152.2423
   653.2500   2000.0000   2000.0000      9.8231    154.5596
   653.5000   2000.0000   2000.0000      9.6845    157.1724
   653.7500   2000.0000   2000.0000      9.5492    158.6787
   654.0000   2000.0000   2000.0000      9.4125    161.4676
   654.2500   2000.0000   2000.0000      9.2699    163.5135
   654.5000   2000.0000   2000.0000      9.1212    165.6194
   654.7500   2000.0000   2000.0000      8.9721    165.8578
   655.0000   2000.0000   2000.0000      8.8325    164.7233
   655.2500   2000.0000   2000.0000      8.7116    163.5589
   655.5000   2000.0000   2000.0000      8.6151    162.0729
   655.7500   2000.0000   2000.0000      8.5445    161.4131
   656.0000   2000.0000   2000.0000      8.4994    160.7088
   656.2500   2000.0000   2000.0000      8.4793    160.3572
   656.5000   2000.0000   2000.0000      8.4838    160.3330
   656.7500   2000.0000   2000.0000      8.5102    160.7841
   657.0000   2000.0000   2000.0000      8.5500    161.4619
   657.2500   2000.0000   2000.0000      8.5888    161.1428
   657.5000   2000.0000   2000.0000      8.6117    159.0725
   657.7500   2000.0000   2000.0000      8.6104    157.3325
   658.0000   2000.0000   2000.0000      8.5881    156.0110
   658.2500   2000.0000   2000.0000      8.5564    156.5172
   658.5000   2000.0000   2000.0000      8.5289    158.7936
   658.7500   2000.0000   2000.0000      8.5167    160.5396
   659.0000   2000.0000   2000.0000      8.5288    162.3573
   659.2500   2000.0000   2000.0000      8.5739    162.7630
   659.5000   2000.0000   2000.0000      8.6590    162.4203
   659.7500   2000.0000   2000.0000      8.7854    161.9974
   660.0000   2000.0000   2000.0000      8.9448    162.0122
   660.2500   2000.0000   2000.0000      9.1195    162.9009
   660.5000   2000.0000   2000.0000      9.2919    165.7056
   660.7500   2000.0000   2000.0000      9.4553    168.1844
   661.0000   2000.0000   2000.0000      9.6199    171.7791
   661.2500   2000.0000   2000.0000      9.8063    173.5849
   661.5000   2000.0000   2000.0000     10.0358    174.7828
   661.7500   2000.0000   2000.0000     10.3261    174.2526
   662.0000   2000.0000   2000.0000     10.6925    171.1621
   662.2500   2000.0000   2000.0000     11.1508    167.6189
   662.5000   2000.0000   2000.0000     11.7142    160.1013
   662.7500   2000.0000   2000.0000     12.3866    153.4571
   663.0000   2000.0000   2000.0000     13.1574    141.1420
   663.2500   2000.0000   2000.0000     14.0031    132.0940
   663.5000   2000.0000   2000.0000     14.9001    119.4893
   663.7500   2000.0000   2000.0000     15.8388    112.9268
   664.0000   2000.0000   2000.0000     16.8288    106.4529
   664.2500   2000.0000   2000.0000     17.8877    103.7956
   664.5000   2000.0000   2000.0000     19.0251    100.8446
   664.7500   2000.0000   2000.0000     20.2372     99.1928
   665.0000   2000.0000   2000.0000     21.5164     97.3879
   665.2500   2000.0000   2000.0000     22.8582     96.6609
   665.5000   2000.0000   2000.0000     24.2507     95.6574
   665.7500   2000.0000   2000.0000     25.6513     94.6138
   666.0000   2000.0000   2000.0000     26.9760     92.3008
   666.2500   2000.0000   2000.0000     28.1205     90.4515
   666.5000   2000.0000   2000.0000     29.0020     87.8258
   666.7500   2000.0000   2000.0000     29.5939     86.6889
   667.0000   2000.0000   2000.0000     29.9323     86.7906
   667.2500   2000.0000   2000.0000     30.0993     88.1989
   667.5000   2000.0000   2000.0000     30.1998     91.5209
   667.7500   2000.0000   2000.0000     30.3412     93.7872
   668.0000   2000.0000   2000.0000     30.6100     96.3012
   668.2500   2000.0000   2000.0000     31.0447     97.0721
   668.5000   2000.0000   2000.0000     31.6146     96.4063
   668.7500   2000.0000   2000.0000     32.2291     94.6099
   669.0000   2000.0000   2000.0000     32.7853     90.4373
   669.2500   2000.0000   2000.0000     33.2231     87.4287
   669.5000   2000.0000   2000.0000     33.5474     83.7456
   669.7500   2000.0000   2000.0000     33.8113     82.0584
   670.0000   2000.0000   2000.0000     34.0939     80.3555
   670.2500   2000.0000   2000.0000     34.4794     79.4698
   670.5000   2000.0000   2000.0000     35.0242     78.1948
   670.7500   2000.0000   2000.0000     35.7153     77.4018
   671.0000   2000.0000   2000.0000     36.4545     76.5554
   671.2500   2000.0000   2000.0000     37.0931     76.2805
   671.5000   2000.0000   2000.0000     37.4985     76.1817
   671.7500   2000.0000   2000.0000     37.6038     76.3661
   672.0000   2000.0000   2000.0000     37.4137     77.3952
   672.2500   2000.0000   2000.0000     36.9844     78.6204
   672.5000   2000.0000   2000.0000     36.4045     80.7003
   672.7500   2000.0000   2000.0000     35.7784     81.9046
   673.0000   2000.0000   2000.0000     35.2041     83.3107
   673.2500   2000.0000   2000.0000     34.7534     83.8759
   673.5000   2000.0000   2000.0000     34.4624     83.5037
   673.7500   2000.0000   2000.0000     34.3355     82.1825
   674.0000   2000.0000   2000.0000     34.3550     79.3008
   674.2500   2000.0000   2000.0000     34.4879     77.6681
   674.5000   2000.0000   2000.0000     34.6963     76.6022
   674.7500   2000.0000   2000.0000     34.9500     76.5451
   675.0000   2000.0000   2000.0000     35.2335     76.1461
   675.2500   2000.0000   2000.0000     35.5358     75.2022
   675.5000   2000.0000   2000.0000     35.8301     73.1886
   675.7500   2000.0000   2000.0000     36.0633     72.0258
   676.0000   2000.0000   2000.0000     36.1741     70.8776
   676.2500   2000.0000   2000.0000     36.1291     70.2055
   676.5000   2000.0000   2000.0000     35.9465     68.9506
   676.7500   2000.0000   2000.0000     35.6855     68.1872
   677.0000   2000.0000   2000.0000     35.4212     67.7280
   677.2500   2000.0000   2000.0000     35.2275     67.7786
   677.5000   2000.0000   2000.0000     35.1600     67.5456
   677.7500   2000.0000   2000.0000     35.2226     66.8110
   678.0000   2000.0000   2000.0000     35.3317     64.9214
   678.2500   2000.0000   2000.0000     35.3212     63.4803
   678.5000   2000.0000   2000.0000     35.0162     61.8106
   678.7500   2000.0000   2000.0000     34.3227     61.5019
   679.0000   2000.0000   2000.0000     33.2463     62.8330
   679.2500   2000.0000   2000.0000     31.8325     64.8732
   679.5000   2000.0000   2000.0000     30.1223     68.7239
   679.7500   2000.0000   2000.0000     28.1799     70.9513
   680.0000   2000.0000   2000.0000     26.1447     72.5539
   680.2500   2000.0000   2000.0000     24.2215     72.3611
   680.5000   2000.0000   2000.0000     22.6050     71.3907
   680.7500   2000.0000   2000.0000     21.4058     71.5093
   681.0000   2000.0000   2000.0000     20.6285     74.7258
   681.2500   2000.0000   2000.0000     20.1958     79.4149
   681.5000   2000.0000   2000.0000     19.9934     89.8164
   681.7500   2000.0000   2000.0000     19.9143     97.9545
   682.0000   2000.0000   2000.0000     19.8814    109.1902
   682.2500   2000.0000   2000.0000     19.8396    114.3317
   682.5000   2000.0000   2000.0000     19.7398    116.5860
   682.7500   2000.0000   2000.0000     19.5383    114.2308
   683.0000   2000.0000   2000.0000     19.2116    106.0473
   683.2500   2000.0000   2000.0000     18.7689     98.8119
