~Version Information
 VERS.                                  2.0 : CWLS LAS VERSION
 WRAP.                                   NO : WRAPING MODE
 SWARE .                 MController 2.5.0J : SOFTWARE VERSION
~Well Information
 WELL.                          GETEM 21-21 : WELL
 COMP.    PIONEER NATURAL RESOURCES USA INC : COMPANY
 FLD.                      PURGATOIRE RIVER : FIELD
 LOC.                NE/NW SEC 23 T32S R67W : LOCATION
 DATE.                             06/18/05 : DATE(S) LOGGED
 SRVC.       BLANCO GEOLOGICAL SERVICES LLC : SERVICE COMPANY
 STAT.                             COLORADO : STATE
 CNTY.                           LAS ANIMAS : COUNTY
 CTRY.                                  USA : COUNTRY
 API.                       05-071-08411-00 : API NUMBER
 STRT.FT                             321.00 : START DEPTH
 STOP.FT                            2815.00 : STOP DEPTH
 STEP.FT                               1.00 : DEPTH INCREMENT
 NULL.                                -9999 : NULL VALUE
~Curve information
 DEPTH.FT                                   :
 ROP.MIN/FT                                 :
 GAS.UNITS                                  :
~ASCII Log data
# ...
      1921.0         0.42        223.6 
      1922.0         0.30        219.1 
      1923.0         0.27        205.9 
      1924.0         0.40        178.2 
      1925.0         0.37        162.9 
      1926.0         0.27        153.1 
      1927.0         0.33        142.4 
      1928.0         0.37        138.3 
      1929.0         0.40        145.1 
      1930.0         0.43        146.2 
      1931.0         0.28        143.3 
      1932.0         0.23        141.1 
      1933.0         0.20        139.1 
      1934.0         0.27        135.9 
      1935.0         0.27        131.7 
      1936.0         0.13        129.6 
      1937.0         0.30        127.2 
      1938.0         0.23        125.8 
      1939.0         0.40        119.2 
      1940.0         0.30        112.6 
      1941.0         0.30        115.9 
      1942.0         0.27        113.2 
      1943.0         0.35        112.7 
      1944.0         0.47        114.7 
      1945.0         0.37        114.3 
      1946.0         1.97         87.4 
      1947.0         0.37        105.3 
      1948.0         0.32        126.2 
      1949.0         0.27        147.1 
      1950.0         0.23        164.9 
      1951.0         0.27        184.7 
      1952.0         0.30        203.9 
      1953.0         0.30        209.6 
      1954.0         0.30        200.2 
      1955.0         0.23        187.9 
      1956.0         0.30        172.8 
      1957.0         0.20        163.3 
      1958.0         0.13        157.8 
      1959.0         0.20        149.2 
      1960.0         0.30        131.3 
      1961.0         0.38        118.1 
      1962.0         0.50        129.5 
      1963.0         0.40        136.8 
      1964.0         0.43        142.9 
      1965.0         0.43        134.7 
      1966.0         0.30        128.8 
      1967.0         0.23        127.1 
      1968.0         0.17        126.0 
      1969.0         0.30        122.9 
      1970.0         0.25        121.1 
      1971.0         0.20        120.2 
      1972.0         0.23        119.0 
      1973.0         0.27        116.6 
      1974.0         0.23        115.2 
      1975.0         0.40        118.3 
      1976.0         1.83         83.7 
      1977.0         0.42         94.8 
      1978.0         0.50        119.3 
      1979.0         0.23        133.9 
      1980.0         0.27        152.5 
      1981.0         0.27        185.1 
      1982.0         0.23        223.3 
      1983.0         0.20        248.5 
      1984.0         0.20        257.8 
      1985.0         0.20        250.5 
      1986.0         0.17        238.6 
      1987.0         0.17        231.0 
      1988.0         0.20        226.3 
      1989.0         0.27        212.1 
      1990.0         0.28        190.8 
      1991.0         0.27        171.4 
      1992.0         0.27        157.2 
      1993.0         0.30        145.4 
      1994.0         0.23        139.4 
      1995.0         0.27        137.9 
      1996.0         0.27        140.7 
      1997.0         0.23        142.7 
      1998.0         0.27        142.7 
      1999.0         0.23        142.7 
      2000.0         0.37        140.7 
      2001.0         0.27        137.3 
      2002.0         0.32        134.2 
      2003.0         0.23        131.3 
      2004.0         0.23        129.4 
      2005.0         0.20        127.7 
      2006.0         2.95         94.7 
      2007.0         0.43        118.3 
      2008.0         0.30        136.6 
      2009.0         0.23        148.3 
      2010.0         0.23        164.2 
      2011.0         0.23        190.7 
      2012.0         0.20        222.7 
      2013.0         0.20        251.8 
      2014.0         0.27        266.3 
      2015.0         0.23        253.6 
      2016.0         0.20        234.6 
      2017.0         0.23        210.0 
      2018.0         0.20        190.1 
      2019.0         0.22        172.7 
      2020.0         0.20        159.3 
      2021.0         0.27        149.0 
      2022.0         0.27        142.2 
      2023.0         0.23        134.3 
      2024.0         0.27        117.9 
      2025.0         0.17        109.2 
      2026.0         0.20        109.6 
      2027.0         0.20        119.2 
      2028.0         0.40        137.1 
      2029.0         0.43        140.1 
      2030.0         0.37        218.4 
      2031.0         0.42        331.4 
      2032.0         0.23        334.5 
      2033.0         0.20        332.3 
      2034.0         0.30        320.4 
      2035.0         0.17        312.8 
      2036.0         1.93        219.7 
      2037.0         0.48        212.4 
      2038.0         0.40        243.6 
      2039.0         0.33        274.7 
      2040.0         0.30        307.5 
      2041.0         0.27        355.8 
      2042.0         0.23        424.8 
      2043.0         0.23       1116.4 
      2044.0         0.37       1135.4 
      2045.0         0.23       1056.2 
      2046.0         0.27        967.9 
      2047.0         0.30        898.2 
      2048.0         0.38        828.8 
      2049.0         0.30        800.4 
      2050.0         0.30        762.7 
      2051.0         0.30        746.4 
      2052.0         0.27        734.3 
      2053.0         0.27        741.1 
      2054.0         0.23        751.3 
      2055.0         0.13        756.5 
      2056.0         0.27        763.1 
      2057.0         0.30        764.7 
      2058.0         0.37        745.7 
      2059.0         0.20        730.7 
      2060.0         0.28        713.3 
      2061.0         0.23        703.5 
      2062.0         0.33        698.0 
      2063.0         0.23        690.8 
      2064.0         0.33        684.2 
      2065.0         0.23        684.6 
      2066.0         2.15        543.2 
      2067.0         0.77        621.4 
      2068.0         0.80        850.1 
      2069.0         0.73        986.5 
      2070.0         0.88        710.4 
      2071.0         0.60        570.4 
      2072.0         0.67        635.5 
      2073.0         0.67        690.8 
      2074.0         0.63        686.2 
      2075.0         0.63        657.7 
      2076.0         0.62        644.6 
      2077.0         0.60        630.9 
      2078.0         0.63        629.9 
      2079.0         0.60        620.1 
      2080.0         0.73        613.2 
      2081.0         0.85        602.8 
      2082.0         0.87        594.6 
      2083.0         0.60        594.6 
      2084.0         0.40        590.0 
      2085.0         0.37        593.6 
      2086.0         0.37        584.4 
      2087.0         0.32        584.8 
      2088.0         0.27        583.5 
      2089.0         0.30        579.5 
      2090.0         0.30        593.3 
      2091.0         0.30        586.4 
      2092.0         0.30        560.2 
      2093.0         0.27        584.4 
      2094.0         0.30        538.6 
      2095.0         0.27        586.7 
      2096.0         4.77        849.1 
      2097.0         0.33        922.1 
      2098.0         0.37       1052.9 
      2099.0         0.37       1207.7 
      2100.0         0.33       1233.2 
      2101.0         0.27       1132.4 
      2102.0         0.23       1068.3 
      2103.0         0.27       1016.6 
      2104.0         0.27        958.4 
      2105.0         0.23        878.9 
      2106.0         0.32        830.1 
      2107.0         0.30        756.2 
      2108.0         0.30        691.4 
      2109.0         0.27        655.1 
      2110.0         0.30        623.4 
      2111.0         0.23        613.6 
      2112.0         0.30        645.0 
      2113.0         0.40        671.8 
      2114.0         0.30        620.4 
      2115.0         0.37        647.3 
      2116.0         0.23        642.3 
      2117.0         0.32        626.6 
      2118.0         0.30        636.8 
      2119.0         0.30        623.4 
      2120.0         0.33        615.9 
