~Version Information
VERS.                      2.0: CWLS Log ASCII Standard - VERSION 2.0
WRAP.                       NO: One line per depth step
~Well Information Block
STRT.FT               491.0000: 
STOP.FT              1055.5000: 
STEP.FT                 0.1000: 
NULL.                -999.2500: 
COMP.          Evergreen Operating Corporation: COMPANY
WELL.              Sunset 24-3: WELL
FLD.           Purgatorie River: FIELD
LOC.           467' FSL & 2262' FWL: LOCATION
PROV.                 Colorado: PROVINCE
CNTY.               Las Animas: COUNTRY
SRVC.                         : SERVICE COMPANY
DATE.          Wed Sep 22 14:05:09 2004: LOG DATE
UWI.           05 071 08158 00: UNIQUE WELL ID
~Curve Information Block
DEPT.FT            0 000 00 00: Depth
DCAL.in                       : CDL Caliper
RHOB.g/cc                     : CDL Bulk Density
RHOC.g/cc                     : CDL Density Correction
DPOR.pu                       : CDL Density Porosity
GR.GAPI                       : Gamma Ray
NPOR.pu                       : Neutron Porosity
~Parameter Information Block
~A  Depth       DCAL        RHOB        RHOC        DPOR         GR         NPOR    
# ...
   567.8000      7.9796      3.0555      0.1789    -24.5764     77.5644     23.6484
   567.9000      7.9796      3.1860      0.2550    -32.4844     71.3903     24.0252
   568.0000      7.9664      3.2661      0.2760    -37.3406     69.3938     23.7229
   568.1000      7.9664      3.3031      0.2777    -39.5797     68.9161     23.1145
   568.2000      7.9664      3.3149      0.2169    -40.2955     65.6879     22.4877
   568.3000      7.9721      3.3035      0.1507    -39.6084     62.2718     21.8560
   568.4000      7.9721      3.2523     -0.0106    -36.5004     59.6348     21.5756
   568.5000      7.9814      3.1482     -0.0317    -30.1947     56.3684     21.6679
   568.6000      7.9814      3.0130     -0.1350    -21.9973     53.9828     22.1090
   568.7000      7.9814      2.8901     -0.1606    -14.5543     53.5740     22.9321
   568.8000      7.9951      2.7941     -0.1655     -8.7346     55.1963     23.3017
   568.9000      7.9951      2.7065     -0.1157     -3.4258     59.8693     22.6971
   569.0000      8.0103      2.6185     -0.1527      1.9098     66.9653     21.9292
   569.1000      8.0103      2.5485     -0.1427      6.1520     73.5304     21.8234
   569.2000      8.0103      2.5130     -0.1129      8.3001     79.5963     22.2499
   569.3000      8.0224      2.5027     -0.0220      8.9263     86.5070     22.7654
   569.4000      8.0224      2.5012      0.0014      9.0171     94.0131     23.2079
   569.5000      8.0220      2.5046      0.0349      8.8140    104.4481     23.8111
   569.6000      8.0220      2.5074      0.0331      8.6434    116.6025     24.8696
   569.7000      8.0220      2.4968      0.0823      9.2855    126.6364     25.9271
   569.8000      8.0268      2.4698      0.0649     10.9183    136.1402     26.6755
   569.9000      8.0268      2.4444      0.0501     12.4588    145.2408     27.4738
   570.0000      8.0399      2.4376      0.0720     12.8698    149.9162     28.2133
   570.1000      8.0399      2.4462      0.0735     12.3543    148.0466     28.3773
   570.2000      8.0399      2.4565      0.0613     11.7284    145.9196     27.9265
   570.3000      8.1009      2.4589      0.0683     11.5818    149.3872     27.5766
   570.4000      8.1009      2.4582      0.0657     11.6233    154.1614     27.7982
   570.5000      8.1081      2.4677      0.0498     11.0501    155.8918     27.9625
   570.6000      8.1081      2.4865      0.0773      9.9100    157.7647     27.4343
   570.7000      8.1081      2.4978      0.0790      9.2231    162.7228     27.0136
   570.8000      8.1676      2.4928      0.0824      9.5296    164.9176     27.7613
   570.9000      8.1676      2.4843      0.0428     10.0404    161.5085     28.9700
   571.0000      8.2108      2.4926      0.0224      9.5405    159.1541     29.3378
   571.1000      8.2108      2.5146      0.0699      8.2058    160.5200     28.7607
   571.2000      8.2108      2.5308      0.0317      7.2234    163.0072     27.6601
   571.3000      8.0950      2.5355      0.0509      6.9367    166.2436     26.7232
   571.4000      8.0950      2.5338      0.0542      7.0435    167.7744     26.5654
   571.5000      8.0713      2.5275      0.0538      7.4226    160.4112     27.2657
   571.6000      8.0713      2.5167      0.0470      8.0782    149.1155     28.4877
   571.7000      8.0713      2.5087      0.0029      8.5658    144.9840     29.2476
   571.8000      8.0476      2.5158      0.0409      8.1355    149.3835     29.1569
   571.9000      8.0476      2.5359      0.0438      6.9165    160.4288     29.1531
   572.0000      8.0411      2.5542      0.0544      5.8083    169.2416     29.6110
   572.1000      8.0411      2.5566      0.0597      5.6587    166.7636     30.0630
   572.2000      8.0411      2.5392      0.0450      6.7135    156.9363     30.1887
   572.3000      8.0616      2.5142      0.0318      8.2277    145.1403     29.8435
   572.4000      8.0616      2.4988      0.0096      9.1632    135.3642     29.0126
   572.5000      8.0679      2.4973      0.0040      9.2576    135.6710     27.9455
   572.6000      8.0679      2.5003      0.0296      9.0754    145.9112     27.3527
   572.7000      8.0679      2.4973      0.0123      9.2524    156.2612     27.4024
   572.8000      8.0687      2.4870      0.0149      9.8788    160.3829     27.7530
   572.9000      8.0687      2.4762     -0.0341     10.5317    159.3124     28.3466
   573.0000      8.0691      2.4732      0.0004     10.7165    157.9651     28.8775
   573.1000      8.0691      2.4767      0.0313     10.5056    160.0777     29.0424
   573.2000      8.0691      2.4873      0.0110      9.8578    163.1757     29.1283
   573.3000      8.0775      2.5074      0.0861      8.6438    164.3416     29.2431
   573.4000      8.0775      2.5260      0.0898      7.5128    163.9486     29.0842
   573.5000      8.0799      2.5409      0.0395      6.6145    159.2840     28.9242
   573.6000      8.0799      2.5599      0.0882      5.4624    147.5318     29.2610
   573.7000      8.0799      2.5724      0.0846      4.7024    136.4404     29.8174
   573.8000      8.0801      2.5625      0.0845      5.3057    135.6312     30.1272
   573.9000      8.0801      2.5392      0.0283      6.7147    139.3493     30.2552
   574.0000      8.0704      2.5246      0.0088      7.5975    136.0908     29.8272
   574.1000      8.0704      2.5217      0.0320      7.7771    127.7735     28.5432
   574.2000      8.0704      2.5182      0.0020      7.9872    126.6027     27.5739
   574.3000      8.0732      2.5173     -0.0078      8.0454    133.7451     27.7785
   574.4000      8.0732      2.5308      0.0117      7.2218    138.8674     28.2580
   574.5000      8.0895      2.5563      0.0463      5.6807    138.6255     28.0868
   574.6000      8.0895      2.5755      0.0791      4.5180    134.9781     27.9476
   574.7000      8.0895      2.5740      0.0743      4.6073    132.2570     28.6989
   574.8000      8.0797      2.5553      0.0633      5.7410    137.5950     29.5124
   574.9000      8.0797      2.5292      0.0608      7.3224    146.7951     29.4344
   575.0000      8.0820      2.5008      0.0395      9.0398    150.7025     28.7639
   575.1000      8.0820      2.4752     -0.0076     10.5938    150.7188     28.2362
   575.2000      8.0820      2.4546      0.0297     11.8429    151.7723     28.5740
   575.3000      8.0925      2.4374     -0.0075     12.8873    155.9327     29.6643
   575.4000      8.0925      2.4262     -0.0010     13.5633    163.0131     30.3486
   575.5000      8.1025      2.4219      0.0155     13.8213    168.4370     30.0943
   575.6000      8.1025      2.4194      0.0024     13.9752    168.8189     29.5417
   575.7000      8.1025      2.4179      0.0343     14.0684    165.5993     29.2664
   575.8000      8.0939      2.4207      0.0348     13.8957    162.1563     29.1415
   575.9000      8.0939      2.4297      0.0351     13.3508    157.5166     29.0743
   576.0000      8.1060      2.4414      0.0529     12.6422    147.9108     29.2793
   576.1000      8.1060      2.4485      0.0191     12.2096    138.7646     30.1187
   576.2000      8.1060      2.4482      0.0187     12.2291    137.8408     31.4014
   576.3000      8.1102      2.4488      0.0035     12.1918    146.8462     31.9194
   576.4000      8.1102      2.4572      0.0349     11.6827    158.7932     31.0973
   576.5000      8.1008      2.4668      0.0105     11.1003    164.1352     29.7992
   576.6000      8.1008      2.4712      0.0021     10.8335    162.8373     29.1594
   576.7000      8.1008      2.4681      0.0193     11.0227    154.6806     29.4585
   576.8000      8.1035      2.4543     -0.0139     11.8593    137.9980     30.0273
   576.9000      8.1035      2.4324      0.0164     13.1877    122.0836     30.3271
   577.0000      8.1076      2.4127      0.0143     14.3802    116.3661     30.5571
   577.1000      8.1076      2.4044      0.0289     14.8823    120.3470     31.1191
   577.2000      8.1076      2.4049      0.0561     14.8561    129.7959     31.6992
   577.3000      8.1409      2.4051      0.0314     14.8417    140.3740     31.6290
