~Version Information
 VERS.                                  2.0 : CWLS LAS VERSION
 WRAP.                                   NO : WRAPING MODE
 SWARE .                 MController 2.5.0J : SOFTWARE VERSION
~Well Information
 WELL.                      Oink Oink 14-36 : WELL
 COMP.    Pioneer Natural Resources USA Ink : COMPANY
 FLD.                      Purgatoire River : FIELD
 LOC.                SW/SW Sec 36 T32S R37W : LOCATION
 DATE.                         6/07-08/2005 : DATE(S) LOGGED
 SRVC.       Blanco Geological Services LLC : SERVICE COMPANY
 STAT.                                   CO : STATE
 CNTY.                           Las Animas : COUNTY
 CTRY.                                  USA : COUNTRY
 API.                       05-071-08394-00 : API NUMBER
 STRT.FT                             514.00 : START DEPTH
 STOP.FT                            2457.00 : STOP DEPTH
 STEP.FT                               1.00 : DEPTH INCREMENT
 NULL.                                -9999 : NULL VALUE
~Curve information
 DEPTH.FT                                   :
 ROP.MIN/FT                                 :
 GAS.UNITS                                  :
~ASCII Log data
# ...
      1514.0         0.30        880.8 
      1515.0         0.27        843.2 
      1516.0         0.27        809.5 
      1517.0         0.27        780.4 
      1518.0         0.27        759.1 
      1519.0         0.27        752.6 
      1520.0         0.25        748.0 
      1521.0         0.23        744.4 
      1522.0         0.23        731.3 
      1523.0         0.27        728.1 
      1524.0         0.27        731.3 
      1525.0         0.33        751.0 
      1526.0         1.78        913.9 
      1527.0         0.40       1397.4 
      1528.0         0.30       1823.0 
      1529.0         0.30       2075.3 
      1530.0         0.23       2154.4 
      1531.0         0.23       2146.6 
      1532.0         0.20       2058.6 
      1533.0         0.23       1905.5 
      1534.0         0.17       1708.5 
      1535.0         0.13       1600.6 
      1536.0         0.20       1511.3 
      1537.0         0.13       1393.8 
      1538.0         0.17       1321.2 
      1539.0         0.17       1245.9 
      1540.0         0.17       1184.8 
      1541.0         0.32       1125.5 
      1542.0         0.27       1022.8 
      1543.0         0.47        974.4 
      1544.0         0.33        951.2 
      1545.0         0.30        975.4 
      1546.0         0.33        995.3 
      1547.0         0.30        997.3 
      1548.0         0.30        978.3 
      1549.0         0.23        936.5 
      1550.0         0.20        909.6 
      1551.0         0.20        882.5 
      1552.0         0.20        857.0 
      1553.0         0.28        822.9 
      1554.0         0.27        771.2 
      1555.0         0.23        749.3 
      1556.0         2.30       1163.8 
      1557.0         0.52       1819.4 
      1558.0         0.50       2035.7 
      1559.0         0.47       2034.4 
      1560.0         0.33       1895.7 
      1561.0         0.23       1702.0 
      1562.0         0.27       1549.5 
      1563.0         0.27       1386.6 
      1564.0         0.37       1229.6 
      1565.0         0.40       1050.0 
      1566.0         0.42        986.8 
      1567.0         0.40       1016.9 
      1568.0         0.37       1015.6 
      1569.0         0.27        967.9 
      1570.0         0.23        929.9 
      1571.0         0.27        905.0 
      1572.0         0.20        902.4 
      1573.0         0.20        919.1 
      1574.0         0.60        921.1 
      1575.0         0.68        829.8 
      1576.0         0.50        728.7 
      1577.0         0.40        802.0 
      1578.0         0.60        823.3 
      1579.0         0.43        820.0 
      1580.0         0.30        812.5 
      1581.0         0.27        801.0 
      1582.0         0.27        796.8 
      1583.0         0.20        799.4 
      1584.0         0.25        799.1 
      1585.0         0.17        803.6 
      1586.0         2.73       1378.8 
      1587.0         0.32       1781.8 
      1588.0         0.33       2136.8 
      1589.0         0.37       2255.5 
      1590.0         0.40       2215.6 
      1591.0         0.37       1793.6 
      1592.0         0.43       1437.0 
      1593.0         0.53       1197.2 
      1594.0         0.37        942.7 
      1595.0         0.30        947.9 
      1596.0         0.28       1014.0 
      1597.0         0.27       1065.7 
      1598.0         0.27       1079.4 
      1599.0         0.30       1075.8 
      1600.0         0.40       1034.6 
      1601.0         0.30        967.9 
      1602.0         0.37        918.5 
      1603.0         0.47        895.6 
      1604.0         0.57        878.6 
      1605.0         0.48        832.4 
      1606.0         0.40        814.1 
      1607.0         0.23        808.2 
      1608.0         0.30        801.3 
      1609.0         0.33        797.1 
      1610.0         0.33        803.3 
      1611.0         0.23        821.6 
      1612.0         0.30        849.1 
      1613.0         0.33        851.1 
      1614.0         0.23        842.9 
      1615.0         0.32        836.0 
      1616.0         0.37        835.0 
      1617.0         1.93       1472.0 
      1618.0         0.37       1882.9 
      1619.0         0.33       2104.4 
      1620.0         0.42       2147.2 
      1621.0         0.30       2075.6 
      1622.0         0.23       1881.3 
      1623.0         0.20       1689.2 
      1624.0         0.30       1552.5 
      1625.0         0.33       1383.7 
      1626.0         0.30       1204.1 
      1627.0         0.33       1060.8 
      1628.0         0.37        974.4 
      1629.0         0.23        976.4 
      1630.0         0.30        991.1 
      1631.0         0.25        999.9 
      1632.0         0.27        994.0 
      1633.0         0.23        977.3 
      1634.0         0.20        951.2 
      1635.0         0.27        925.3 
      1636.0         0.33        882.8 
      1637.0         0.33        831.1 
      1638.0         0.27        769.3 
      1639.0         0.27        738.9 
      1640.0         0.33        755.5 
      1641.0         0.23        760.1 
      1642.0         0.30        765.0 
      1643.0         0.32        791.2 
      1644.0         0.23        804.6 
      1645.0         0.30        811.8 
      1646.0         3.32       1868.8 
      1647.0         0.40       2048.8 
      1648.0         0.37       2051.4 
      1649.0         0.30       1950.6 
      1650.0         0.20       1849.2 
      1651.0         0.20       1758.3 
      1652.0         0.23       1649.6 
      1653.0         0.27       1512.9 
      1654.0         0.30       1369.6 
      1655.0         0.25       1213.9 
      1656.0         0.27       1136.7 
      1657.0         0.30       1040.2 
      1658.0         0.27       1004.5 
      1659.0         0.27       1008.4 
      1660.0         0.27       1019.6 
      1661.0         0.17       1016.3 
      1662.0         0.17       1006.1 
      1663.0         0.33        996.0 
      1664.0         0.27        964.6 
      1665.0         0.27        937.1 
      1666.0         0.30        905.4 
      1667.0         0.23        875.0 
      1668.0         0.22        862.2 
      1669.0         0.23        852.7 
      1670.0         0.23        833.1 
      1671.0         0.27        826.2 
      1672.0         0.23        822.6 
      1673.0         0.23        822.6 
      1674.0         0.27        818.7 
      1675.0         0.37        816.1 
      1676.0         2.88       2205.5 
      1677.0         0.33       2456.4 
      1678.0         0.43       2509.1 
      1679.0         0.27       2416.1 
      1680.0         0.23       2181.6 
      1681.0         0.23       1953.9 
      1682.0         0.28       1754.3 
      1683.0         0.33       1554.4 
      1684.0         0.30       1349.3 
      1685.0         0.33       1183.8 
      1686.0         0.33       1047.4 
      1687.0         0.27        996.3 
      1688.0         0.27       1002.5 
      1689.0         0.30       1003.8 
      1690.0         0.33        997.3 
      1691.0         0.27        977.7 
      1692.0         0.30        958.0 
      1693.0         0.28        946.6 
      1694.0         0.23        935.8 
      1695.0         0.27        923.4 
      1696.0         0.23        899.8 
      1697.0         0.27        870.7 
      1698.0         0.23        847.1 
      1699.0         0.27        831.8 
      1700.0         0.27        812.1 
      1701.0         0.23        796.1 
      1702.0         0.23        784.0 
      1703.0         0.27        778.8 
      1704.0         0.23        776.2 
      1705.0         0.23        775.5 
      1706.0         2.75        807.9 
      1707.0         0.23        971.1 
      1708.0         0.33       1206.7 
      1709.0         0.28       1387.3 
      1710.0         0.30       1539.4 
      1711.0         0.23       1603.8 
      1712.0         0.33       1613.3 
      1713.0         0.33       1567.9 
