~Version Information
VERS.                      2.0: CWLS Log ASCII Standard - VERSION 2.0
WRAP.                       NO: One line per depth step
~Well Information Block
STRT.FT               500.0000: 
STOP.FT              2732.5000: 
STEP.FT                 0.2500: 
NULL.                -999.2500: 
COMP.          Pioneer Natural Resources: COMPANY
WELL.          Dude Canyon 22-32: WELL
FLD.           Purgatoire River: FIELD
LOC.           1662' FNL & 2446' FWL----: LOCATION
PROV.                 Colorado: PROVINCE
CNTY.               Las Animas: COUNTRY
SRVC.                Patterson: SERVICE COMPANY
DATE.          Thu Mar 10 07:15:42 2005: LOG DATE
UWI.           05 071 08257 00: UNIQUE WELL ID
~Curve Information Block
DEPT.FT            0 000 00 00: Depth
DIR.Ohm-m                     : IEL Induction Resistivity
GR.GAPI                       : Gamma Ray
SN.Ohm-m                      : IEL Short Normal
SP.mV                         : IEL Spontaneous Potential
~Parameter Information Block
~A  Depth       DIR          GR          SN          SP     
# ...
  1672.5000      1.9140     90.2686   2000.0000   2000.0000
  1672.7500      2.1765     96.4746   2000.0000   2000.0000
  1673.0000      2.5377    105.7269   2000.0000   2000.0000
  1673.2500      3.0146    110.4217   2000.0000   2000.0000
  1673.5000      3.6156    113.0500   2000.0000   2000.0000
  1673.7500      4.3760    111.4125   2000.0000   2000.0000
  1674.0000      5.4399    104.5382   2000.0000   2000.0000
  1674.2500      7.2137     97.9766   2000.0000   2000.0000
  1674.5000 100000.0000     87.8713   2000.0000   2000.0000
  1674.7500 100000.0000     83.0615   2000.0000   2000.0000
  1675.0000 100000.0000     81.9271   2000.0000   2000.0000
  1675.2500 100000.0000     85.9404   2000.0000   2000.0000
  1675.5000 100000.0000     98.0770   2000.0000   2000.0000
  1675.7500 100000.0000    108.8428     -0.5363   2000.0000
  1676.0000 100000.0000    126.1117      0.3724   2000.0000
  1676.2500 100000.0000    136.6265      1.7495    -58.9429
  1676.5000 100000.0000    148.4390      3.4944    -65.3900
  1676.7500 100000.0000    152.9595      5.3666    -72.0467
  1677.0000 100000.0000    154.9336      7.0988    -78.3051
  1677.2500 100000.0000    153.9321      8.5080    -83.6982
  1677.5000 100000.0000    151.3667      9.5344    -87.9616
  1677.7500 100000.0000    150.1340     10.2186    -91.0196
  1678.0000     37.5786    148.8113     10.6567    -92.9254
  1678.2500     38.4296    146.9480     10.9558    -93.7996
  1678.5000     45.3802    141.0403     11.2005    -93.7906
  1678.7500     50.1191    135.5696     11.4359    -93.0671
  1679.0000     45.2214    127.5248     11.6681    -91.8306
  1679.2500     35.0863    123.4376     11.8769    -90.3340
  1679.5000     26.4806    120.1118     12.0318    -88.8844
  1679.7500     20.7642    119.8588     12.1076    -87.8192
  1680.0000     17.1795    121.8709     12.0948    -87.4437
  1680.2500     14.9357    124.0063     12.0033    -87.9479
  1680.5000     13.5053    126.9606     11.8592    -89.3366
  1680.7500     12.5547    128.5014     11.6936    -91.4128
  1681.0000     11.8724    130.8410     11.5256    -93.8313
  1681.2500     11.3248    132.8019     11.3481    -96.2066
  1681.5000     10.8285    135.7247     11.1322    -98.2263
  1681.7500     10.3349    136.7581     10.8517    -99.7248
  1682.0000      9.8295    136.0910     10.5076   -100.6926
  1682.2500      9.3340    134.5774     10.1301   -101.2338
  1682.5000      8.8951    132.1642      9.7537   -101.5008
  1682.7500      8.5588    131.1084      9.3923   -101.6383
  1683.0000      8.3467    130.7833      9.0384   -101.7528
  1683.2500      8.2436    131.3445      8.6840   -101.9071
  1683.5000      8.1994    132.7683      8.3400   -102.1302
  1683.7500      8.1483    133.5980      8.0316   -102.4288
  1684.0000      8.0403    134.1465      7.7776   -102.7959
  1684.2500      7.8650    134.2192      7.5755   -103.2155
  1684.5000      7.6482    134.7865      7.4074   -103.6647
  1684.7500      7.4279    135.9737      7.2550   -104.1177
  1685.0000      7.2329    139.2927      7.1099   -104.5491
  1685.2500      7.0760    142.2856      6.9747   -104.9360
  1685.5000      6.9568    146.8376      6.8569   -105.2611
  1685.7500      6.8680    149.1130      6.7590   -105.5132
  1686.0000      6.8005    150.6172      6.6731   -105.6897
  1686.2500      6.7478    150.5638      6.5882   -105.7970
  1686.5000      6.7067    149.9712      6.5024   -105.8490
  1686.7500      6.6766    149.7308      6.4268   -105.8640
  1687.0000      6.6577    149.7235      6.3768   -105.8596
  1687.2500      6.6500    149.6200      6.3581   -105.8495
  1687.5000      6.6522    148.4075      6.3612   -105.8426
  1687.7500      6.6615    146.6665      6.3671   -105.8448
  1688.0000      6.6738    143.4765      6.3608   -105.8609
  1688.2500      6.6856    141.7336      6.3407   -105.8976
  1688.5000      6.6949    140.2459      6.3147   -105.9661
  1688.7500      6.7011    139.9179      6.2902   -106.0845
  1689.0000      6.7046    140.4632      6.2690   -106.2808
  1689.2500      6.7060    141.7980      6.2509   -106.5947
  1689.5000      6.7068    145.7848      6.2395   -107.0744
  1689.7500      6.7099    149.8366      6.2444   -107.7653
  1690.0000      6.7201    157.2137      6.2793   -108.6918
  1690.2500      6.7433    161.9249      6.3547   -109.8386
  1690.5000      6.7858    166.3769      6.4718   -111.1419
  1690.7500      6.8525    166.5136      6.6209   -112.5007
  1691.0000      6.9453    161.9404      6.7826   -113.8052
  1691.2500      7.0625    156.3595      6.9324   -114.9694
  1691.5000      7.1986    146.6723      7.0509   -115.9519
  1691.7500      7.3473    141.0206      7.1373   -116.7545
  1692.0000      7.5025    135.5401      7.2131   -117.4055
  1692.2500      7.6601    133.7919      7.3090   -117.9385
  1692.5000      7.8167    132.9021      7.4460   -118.3784
  1692.7500      7.9680    133.2319      7.6223   -118.7384
  1693.0000      8.1080    135.6740      7.8156   -119.0233
  1693.2500      8.2301    138.5743      7.9957   -119.2343
  1693.5000      8.3294    142.9219      8.1402   -119.3714
  1693.7500      8.4046    144.1486      8.2427   -119.4328
  1694.0000      8.4594    141.9433      8.3122   -119.4136
  1694.2500      8.5023    138.3219      8.3668   -119.3066
  1694.5000      8.5453    132.2722      8.4261   -119.1062
  1694.7500      8.6024    129.3448      8.5059   -118.8163
  1695.0000      8.6879    127.6620      8.6141   -118.4574
  1695.2500      8.8147    127.8135      8.7500   -118.0695
  1695.5000      8.9931    128.0374      8.9068   -117.7073
  1695.7500      9.2291    127.3947      9.0741   -117.4278
  1696.0000      9.5242    125.5315      9.2414   -117.2769
  1696.2500      9.8755    124.6177      9.4034   -117.2783
  1696.5000     10.2778    124.9391      9.5687   -117.4326
  1696.7500     10.7252    125.9376      9.7727   -117.7211
  1697.0000     11.2130    126.6945     10.0875   -118.1144
  1697.2500     11.7402    126.0065     10.6155   -118.5781
  1697.5000     12.3099    124.0069     11.4588   -119.0768
  1697.7500     12.9292    123.0773     12.6839   -119.5759
  1698.0000     13.6057    122.9397     14.3043   -120.0437
  1698.2500     14.3435    122.8528     16.2853   -120.4530
  1698.5000     15.1391    120.2420     18.5511   -120.7811
  1698.7500     15.9810    115.9778     20.9916   -121.0073
  1699.0000     16.8521    106.5952     23.4859   -121.1083
  1699.2500     17.7348     99.6450     25.9355   -121.0533
  1699.5000     18.6149     89.6546     28.2711   -120.8035
  1699.7500     19.4780     83.1394     30.4181   -120.3170
  1700.0000     20.2986     72.8130     32.2645   -119.5578
  1700.2500     21.0304     65.9217     33.6699   -118.5076
  1700.5000     21.6062     57.8776     34.5058   -117.1765
  1700.7500     21.9547     55.3833     34.7016   -115.6079
  1701.0000     22.0261     56.6444     34.2844   -113.8739
  1701.2500     21.8149     60.3312     33.3934   -112.0603
  1701.5000     21.3650     68.7051     32.2329   -110.2457
  1701.7500     20.7487     75.5312     30.9665   -108.4825
  1702.0000     20.0323     87.2266     29.6240   -106.7908
  1702.2500     19.2502     95.8081     28.1024   -105.1640
  1702.5000     18.4031    108.6558     26.2637   -103.5849
  1702.7500     17.4820    115.9424     24.0557   -102.0404
  1703.0000     16.4969    122.5625     21.5758   -100.5289
  1703.2500     15.4891    123.1264     19.0468    -99.0595
  1703.5000     14.5184    118.5963     16.7345    -97.6461
  1703.7500     13.6366    113.8896     14.8457    -96.3031
  1704.0000     12.8689    109.3664     13.4530    -95.0434
  1704.2500     12.2112    110.5572     12.4793    -93.8788
  1704.5000     11.6375    119.4187     11.7560    -92.8205
  1704.7500     11.1145    127.9572     11.1220    -91.8778
  1705.0000     10.6151    138.8678     10.5002    -91.0555
  1705.2500     10.1274    142.2522      9.9053    -90.3519
  1705.5000      9.6565    141.0277      9.3922    -89.7578
  1705.7500      9.2181    137.7694      8.9937    -89.2584
