~Version Information
VERS.                      2.0: CWLS Log ASCII Standard - VERSION 2.0
WRAP.                       NO: One line per depth step
~Well Information Block
STRT.FT               523.0000: 
STOP.FT              1709.0000: 
STEP.FT                 0.1000: 
NULL.                -999.2500: 
COMP.          Evergreen Operating Corporation: COMPANY
WELL.            Rimrock 14-29: WELL
FLD.           Purgatorie River: FIELD
LOC.           945' FSL & 604' FWL: LOCATION
PROV.                 Colorado: PROVINCE
CNTY.               Las Animas: COUNTRY
SRVC.                         : SERVICE COMPANY
DATE.          Tue Sep 21 04:15:40 2004: LOG DATE
UWI.           05 071 08136 00: UNIQUE WELL ID
~Curve Information Block
DEPT.FT            0 000 00 00: Depth
DCAL.in                       : CDL Caliper
RHOB.g/cc                     : CDL Bulk Density
RHOC.g/cc                     : CDL Density Correction
DPOR.pu                       : CDL Density Porosity
GR.GAPI                       : Gamma Ray
NPOR.pu                       : Neutron Porosity
~Parameter Information Block
~A  Depth       DCAL        RHOB        RHOC        DPOR         GR         NPOR    
# ...
   599.8000      7.9007      2.5001      0.0401      9.0866     46.6495     17.5722
   599.9000      7.9007      2.5070      0.0398      8.6647     46.1192     17.6948
   600.0000      7.9220      2.5120      0.0436      8.3607     44.8852     18.1193
   600.1000      7.9220      2.5156      0.0458      8.1428     43.4517     19.0532
   600.2000      7.9220      2.5246      0.0532      7.6005     42.0486     19.9266
   600.3000      7.9269      2.5332      0.0702      7.0775     42.0786     20.3789
   600.4000      7.9269      2.5307      0.0647      7.2283     44.2804     20.7587
   600.5000      7.9258      2.5213      0.0251      7.8020     47.4221     21.1987
   600.6000      7.9258      2.5208      0.0319      7.8315     49.8013     21.4536
   600.7000      7.9258      2.5312      0.0454      7.1995     52.0321     21.7728
   600.8000      7.9264      2.5421      0.0321      6.5374     56.2122     22.4194
   600.9000      7.9264      2.5541      0.0381      5.8151     61.4725     22.8098
   601.0000      7.9240      2.5729      0.0541      4.6738     65.5047     22.4874
   601.1000      7.9240      2.5936      0.0480      3.4157     68.5721     22.0962
   601.2000      7.9240      2.6083      0.0298      2.5298     70.2147     22.1605
   601.3000      7.9241      2.6166      0.0674      2.0267     68.8346     21.9708
   601.4000      7.9241      2.6153      0.0755      2.1045     66.8576     20.9905
   601.5000      7.9220      2.5997      0.0700      3.0467     67.5929     19.9092
   601.6000      7.9220      2.5752      0.0592      4.5352     72.7642     19.5971
   601.7000      7.9220      2.5484      0.0294      6.1555     82.1277     20.1043
   601.8000      7.9252      2.5200      0.0333      7.8814     93.0210     20.8267
   601.9000      7.9252      2.4867      0.0183      9.8974    101.7834     21.3623
   602.0000      7.9281      2.4571     -0.0162     11.6888    106.5477     21.8961
   602.1000      7.9281      2.4469      0.0349     12.3094    109.5074     22.5061
   602.2000      7.9281      2.4526      0.0690     11.9608    114.3997     22.8204
   602.3000      7.9402      2.4604      0.0634     11.4939    123.7369     22.6811
   602.4000      7.9402      2.4579      0.1093     11.6448    133.6842     22.4392
   602.5000      7.9516      2.4321      0.1186     13.2036    141.3854     22.4656
   602.6000      7.9516      2.3911      0.0586     15.6897    147.4088     22.5757
   602.7000      7.9516      2.3662      0.0049     17.2026    148.3648     22.5745
   602.8000      7.9296      2.3679      0.0420     17.0947    146.4398     22.8930
   602.9000      7.9296      2.3747      0.0640     16.6832    144.3387     23.7892
   603.0000      7.9256      2.3720      0.0452     16.8500    138.3663     24.7789
   603.1000      7.9256      2.3707      0.0413     16.9275    132.6032     25.3560
   603.2000      7.9256      2.3834      0.0386     16.1599    132.0829     25.8079
   603.3000      7.9227      2.4101      0.0736     14.5388    133.9158     26.6504
   603.4000      7.9227      2.4428      0.1094     12.5591    137.1888     27.6265
   603.5000      7.9222      2.4716      0.0914     10.8106    138.9731     28.2018
   603.6000      7.9222      2.4957      0.0774      9.3542    135.7593     28.3558
   603.7000      7.9222      2.5175      0.1441      8.0324    133.0664     28.3112
   603.8000      7.9101      2.5339      0.1247      7.0392    133.0541     28.2482
   603.9000      7.9101      2.5425      0.1347      6.5176    132.2866     28.1305
   604.0000      7.9077      2.5420      0.0985      6.5453    131.0374     27.8018
   604.1000      7.9077      2.5324      0.0562      7.1259    128.5654     27.3989
   604.2000      7.9077      2.5187      0.0592      7.9548    123.8288     27.1445
   604.3000      7.8983      2.5104      0.0276      8.4612    121.0798     26.9570
   604.4000      7.8983      2.5115      0.0500      8.3926    123.8279     26.8760
   604.5000      7.9224      2.5124      0.0732      8.3400    128.2057     27.0362
   604.6000      7.9224      2.5146      0.0011      8.2065    128.4886     27.1399
   604.7000      7.9224      2.5379      0.0367      6.7930    124.3649     26.9673
   604.8000      7.9026      2.5804      0.0753      4.2182    120.1263     26.8115
   604.9000      7.9026      2.6181      0.0637      1.9323    117.7289     26.6290
   605.0000      7.9056      2.6371      0.1067      0.7824    115.6025     25.9948
   605.1000      7.9056      2.6364      0.1230      0.8239    110.5511     25.2228
   605.2000      7.9056      2.6241      0.0800      1.5722    103.6739     24.9394
   605.3000      7.9023      2.6087      0.0592      2.5048    101.4234     24.9373
   605.4000      7.9023      2.5875     -0.0084      3.7886    106.6771     24.7784
   605.5000      7.9288      2.5496      0.0075      6.0831    114.7965     24.5376
   605.6000      7.9288      2.4985     -0.0231      9.1807    119.3102     24.4874
   605.7000      7.9288      2.4632      0.0027     11.3208    117.4542     24.4639
   605.8000      7.9040      2.4633      0.0286     11.3157    112.5795     24.1802
   605.9000      7.9040      2.4876      0.0642      9.8450    110.4541     23.9673
   606.0000      7.9216      2.5186      0.0620      7.9653    112.3898     24.1239
   606.1000      7.9216      2.5512      0.1106      5.9855    116.7793     24.2399
   606.2000      7.9216      2.5860      0.1571      3.8768    123.3952     24.0743
   606.3000      7.9232      2.6191      0.2004      1.8712    128.7979     23.9746
   606.4000      7.9232      2.6380      0.2000      0.7297    130.0376     24.2035
   606.5000      7.8833      2.6374      0.1419      0.7629    129.5158     24.6285
   606.6000      7.8833      2.6243      0.1654      1.5579    129.6304     25.0236
   606.7000      7.8833      2.6042      0.1420      2.7767    129.5231     25.4098
   606.8000      7.8620      2.5904      0.0713      3.6137    125.8330     25.6542
   606.9000      7.8620      2.5940      0.0787      3.3954    117.5916     25.5012
   607.0000      7.8952      2.6071      0.0725      2.6006    107.5961     25.1811
   607.1000      7.8952      2.6224      0.1075      1.6708     98.7971     25.0840
   607.2000      7.8952      2.6413      0.1098      0.5253     93.4914     25.0608
   607.3000      7.9192      2.6659      0.0709     -0.9621     91.7763     24.7329
   607.4000      7.9192      2.6939      0.0751     -2.6596     88.8212     24.1146
   607.5000      7.9262      2.7129      0.1252     -3.8097     83.3891     23.5543
   607.6000      7.9262      2.7131      0.0587     -3.8272     80.7250     23.1115
   607.7000      7.9262      2.7040      0.0542     -3.2756     82.4065     22.4814
   607.8000      7.9047      2.6919      0.0615     -2.5366     84.1189     21.6378
   607.9000      7.9047      2.6717      0.0623     -1.3142     83.8587     21.0957
   608.0000      7.9219      2.6463     -0.0145      0.2215     83.1592     21.2290
   608.1000      7.9219      2.6238     -0.0152      1.5909     81.1674     21.6948
   608.2000      7.9219      2.6035      0.0051      2.8195     78.0226     21.9619
   608.3000      7.9128      2.5851     -0.0099      3.9312     75.1405     21.9311
   608.4000      7.9128      2.5730      0.0107      4.6665     72.4011     21.6242
   608.5000      7.9073      2.5611      0.0362      5.3864     72.3403     20.9884
   608.6000      7.9073      2.5419      0.0429      6.5521     77.0224     20.3779
   608.7000      7.9073      2.5289     -0.0121      7.3397     83.6116     20.3020
   608.8000      7.9220      2.5391      0.0113      6.7194     89.0337     20.6870
   608.9000      7.9220      2.5641      0.0173      5.2069     92.5795     21.1742
   609.0000      7.9220      2.5860      0.0352      3.8763     95.9939     21.4792
   609.1000      7.9220      2.5954      0.0375      3.3119     98.9748     21.6541
   609.2000      7.9220      2.5908      0.0218      3.5884     99.0027     21.8429
   609.3000      7.9029      2.5801      0.0324      4.2358     98.1588     21.7786
