~Version Information
VERS.                      2.0: CWLS Log ASCII Standard - VERSION 2.0
WRAP.                       NO: One line per depth step
~Well Information Block
STRT.FT               964.0000: 
STOP.FT              2440.0000: 
STEP.FT                 0.2500: 
NULL.                -999.2500: 
COMP.          Petrogulf Corporation: COMPANY
WELL.              Hand 8-44 V: WELL
FLD.           Purgatorie River: FIELD
LOC.           1076' FEL & 820' FSL: LOCATION
CNTY.               Las Animas: COUNTY
SRVC.                         : SERVICE COMPANY
DATE.          Fri Nov 21 11:54:17 2003: LOG DATE
UWI.                          : UNIQUE WELL ID
STAT.                 Colorado: STATE
~Curve Information Block
DEPT.FT            0 000 00 00: Depth
SP.mV                         : IEL Spontaneous Potential
DIR.Ohm-m                     : IEL Induction Resistivity
GR.GAPI                       : Gamma Ray
~Parameter Information Block
~A  Depth        SP         DIR          GR     
# ...
  2091.2500   -181.6169      9.5730    115.6112
  2091.5000   -180.9462      9.5351    119.1607
  2091.7500   -180.5057      9.4539    120.1895
  2092.0000   -180.1629      9.3429    120.1432
  2092.2500   -179.7198      9.2343    119.6504
  2092.5000   -179.0461      9.1622    119.6431
  2092.7500   -178.1428      9.1461    120.6466
  2093.0000   -177.0944      9.1836    122.9511
  2093.2500   -176.0016      9.2520    123.8978
  2093.5000   -174.9629      9.3170    123.1954
  2093.7500   -174.0668      9.3466    121.7022
  2094.0000   -173.3576      9.3213    119.8431
  2094.2500   -172.8155      9.2377    119.6907
  2094.5000   -172.3873      9.1042    120.9073
  2094.7500   -172.0283      8.9362    121.9243
  2095.0000   -171.7113      8.7521    122.6545
  2095.2500   -171.4146      8.5699    122.4630
  2095.5000   -171.1184      8.4050    121.5230
  2095.7500   -170.8152      8.2680    120.8283
  2096.0000   -170.5231      8.1635    120.3415
  2096.2500   -170.2925      8.0903    120.5116
  2096.5000   -170.1972      8.0427    120.7477
  2096.7500   -170.3117      8.0122    120.0992
  2097.0000   -170.6874      7.9902    117.2985
  2097.2500   -171.3374      7.9700    114.6879
  2097.5000   -172.2402      7.9489    111.1295
  2097.7500   -173.3566      7.9294    109.5538
  2098.0000   -174.6412      7.9188    108.4771
  2098.2500   -176.0314      7.9273    108.3779
  2098.5000   -177.4173      7.9651    108.6116
  2098.7500   -178.6325      8.0399    108.7442
  2099.0000   -179.5051      8.1536    108.6698
  2099.2500   -179.9517      8.3010    108.4436
  2099.5000   -180.0304      8.4704    107.8861
  2099.7500   -179.8974      8.6464    107.2736
  2100.0000   -179.7200      8.8142    105.6062
  2100.2500   -179.6176      8.9620    103.8422
  2100.5000   -179.6358      9.0813    100.3963
  2100.7500   -179.7354      9.1685     97.8433
  2101.0000   -179.8069      9.2264     94.2186
  2101.2500   -179.7227      9.2662     92.3994
  2101.5000   -179.4015      9.3051     91.3042
  2101.7500   -178.8485      9.3600     91.6650
  2102.0000   -178.1526      9.4406     92.8306
  2102.2500   -177.4488      9.5441     93.2915
  2102.5000   -176.8835      9.6545     93.1546
  2102.7500   -176.5901      9.7458     93.0546
  2103.0000   -176.6622      9.7913     94.3990
  2103.2500   -177.1212      9.7726     96.7110
  2103.5000   -177.9115      9.6879    101.2413
  2103.7500   -178.9359      9.5512    103.7229
  2104.0000   -180.1009      9.3872    105.2737
  2104.2500   -181.3392      9.2221    104.9335
  2104.5000   -182.6051      9.0775    103.2116
  2104.7500   -183.8478      8.9649    101.7546
  2105.0000   -184.9845      8.8825    100.0144
  2105.2500   -185.9037      8.8155     99.7391
  2105.5000   -186.5181      8.7413    101.3363
  2105.7500   -186.8292      8.6388    103.6554
  2106.0000   -186.9415      8.4973    108.0138
  2106.2500   -187.0064      8.3212    110.8151
  2106.5000   -187.1412      8.1284    114.2248
  2106.7500   -187.3812      7.9463    115.9142
  2107.0000   -187.6813      7.8039    117.6864
  2107.2500   -187.9488      7.7246    118.6587
  2107.5000   -188.0886      7.7203    120.7277
  2107.7500   -188.0462      7.7912    122.8347
  2108.0000   -187.8334      7.9293    126.5916
  2108.2500   -187.5247      8.1245    128.8532
  2108.5000   -187.2249      8.3695    130.8508
  2108.7500   -187.0209      8.6609    130.7110
  2109.0000   -186.9399      8.9986    127.4233
  2109.2500   -186.9329      9.3834    122.9473
  2109.5000   -186.8927      9.8145    113.3419
  2109.7500   -186.7001     10.2914    105.8336
  2110.0000   -186.2757     10.8192     94.5838
  2110.2500   -185.6095     11.4187     87.8070
  2110.5000   -184.7596     12.1324     79.0315
  2110.7500   -183.8264     13.0143     73.7100
  2111.0000   -182.9168     14.1054     65.2834
  2111.2500   -182.1178     15.4084     58.8604
  2111.5000   -181.4819     16.8797     48.5442
  2111.7500   -181.0175     18.4505     42.3194
  2112.0000   -180.6828     20.0608     35.9184
  2112.2500   -180.3959     21.6767     34.0490
  2112.5000   -180.0720     23.2834     34.1764
  2112.7500   -179.6671     24.8742     35.3947
  2113.0000   -179.1982     26.4484     37.5208
  2113.2500   -178.7323     28.0065     38.5324
  2113.5000   -178.3603     29.5382     38.9298
  2113.7500   -178.1687     31.0123     38.4745
  2114.0000   -178.2071     32.3930     37.2013
  2114.2500   -178.4624     33.6718     36.3537
  2114.5000   -178.8735     34.8951     35.5587
  2114.7500   -179.3882     36.1613     35.3381
  2115.0000   -180.0053     37.5779     35.0958
  2115.2500   -180.7512     39.1866     34.8387
  2115.5000   -181.6196     40.8742     34.4975
  2115.7500   -182.5382     42.3351     34.4949
  2116.0000   -183.3877     43.1865     34.6657
  2116.2500   -184.0524     43.2289     34.5021
  2116.5000   -184.4616     42.6062     33.4336
  2116.7500   -184.6047     41.6693     32.3815
  2117.0000   -184.5268     40.7149     30.9470
  2117.2500   -184.3102     39.8657     30.2460
  2117.5000   -184.0407     39.1168     29.5435
  2117.7500   -183.7685     38.4285     29.4052
  2118.0000   -183.4843     37.7765     30.1052
  2118.2500   -183.1235     37.1504     31.3284
  2118.5000   -182.5967     36.5375     34.2291
  2118.7500   -181.8308     35.9183     36.6597
  2119.0000   -180.7994     35.2750     40.2043
  2119.2500   -179.5311     34.5942     41.7723
  2119.5000   -178.0982     33.8614     42.1638
  2119.7500   -176.5961     33.0553     41.3675
  2120.0000   -175.1122     32.1592     39.7321
  2120.2500   -173.6864     31.1878     38.8132
  2120.5000   -172.2806     30.1957     37.7160
  2120.7500   -170.7898     29.2481     37.0277
  2121.0000   -169.0984     28.3727     36.1450
  2121.2500   -167.1527     27.5386     35.8381
  2121.5000   -165.0046     26.6840     35.8099
  2121.7500   -162.8015     25.7694     35.8816
  2122.0000   -160.7330     24.8087     36.1554
  2122.2500   -158.9592     23.8527     36.8996
  2122.5000   -157.5628     22.9475     39.5561
  2122.7500   -156.5514     22.1043     42.1021
  2123.0000   -155.8952     21.3006     45.7485
  2123.2500   -155.5589     20.5025     47.5736
  2123.5000   -155.5056     19.6908     49.8744
  2123.7500   -155.6965     18.8715     51.6863
  2124.0000   -156.1057     18.0676     54.9786
  2124.2500   -156.7318     17.3023     57.0161
  2124.5000   -157.5639     16.5906     58.6064
  2124.7500   -158.5159     15.9418     58.3642
  2125.0000   -159.4140     15.3649     56.9023
  2125.2500   -160.0951     14.8686     56.4709
  2125.5000   -160.5400     14.4566     58.9282
  2125.7500   -160.9045     14.1223     63.1851
  2126.0000   -161.4143     13.8482     72.4336
  2126.2500   -162.2259     13.6111     79.1268
  2126.5000   -163.3536     13.3910     87.7204
  2126.7500   -164.6779     13.1783     91.7757
  2127.0000   -166.0069     12.9765     95.1572
  2127.2500   -167.1556     12.7970     95.8797
  2127.5000   -168.0070     12.6511     95.5861
  2127.7500   -168.5302     12.5441     95.1593
  2128.0000   -168.7616     12.4737     95.0683
  2128.2500   -168.7757     12.4326     95.4416
  2128.5000   -168.6622     12.4123     95.9476
  2128.7500   -168.5054     12.4055     95.6572
  2129.0000   -168.3622     12.4077     93.7707
  2129.2500   -168.2522     12.4156     91.8015
  2129.5000   -168.1707     12.4244     88.9761
  2129.7500   -168.1085     12.4256     87.9762
  2130.0000   -168.0536     12.4081     88.5916
  2130.2500   -167.9893     12.3634     90.2862
  2130.5000   -167.9084     12.2901     93.7696
  2130.7500   -167.8301     12.1946     96.1432
  2131.0000   -167.7879     12.0872     99.4198
  2131.2500   -167.7952     11.9779    101.4829
  2131.5000   -167.8365     11.8760    104.3937
  2131.7500   -167.9021     11.7927    106.0414
  2132.0000   -168.0233     11.7427    108.0302
  2132.2500   -168.2567     11.7413    109.3638
  2132.5000   -168.6324     11.7978    111.9134
  2132.7500   -169.1201     11.9123    113.8151
