~Version Information
VERS.                      2.0: CWLS Log ASCII Standard - VERSION 2.0
WRAP.                       NO: One line per depth step
~Well Information Block
STRT.FT               -13.5000: 
STOP.FT              2474.2500: 
STEP.FT                 0.2500: 
NULL.                -999.2500: 
COMP.          Pioneer Natural Resources: COMPANY
WELL.              Tiaga 23-14: WELL
FLD.           Purgatorie River: FIELD
LOC.           2168' FSL & 2030' FWL--: LOCATION
PROV.                       CO: PROVINCE
CNTY.               Las Animas: COUNTRY
SRVC.                         : SERVICE COMPANY
DATE.          Thu May 12 17:01:37 2005: LOG DATE
UWI.                          : UNIQUE WELL ID
~Curve Information Block
DEPT.FT            0 000 00 00: Depth
TT3.usec                      : CBL 3' Travel Time
AMP3.mV                       : CBL 3' Amplitude
GR.GAPI                       : Gamma Ray
CCL.                          : Casing Collar Locator
~Parameter Information Block
~A  Depth       TT3         AMP3         GR         CCL     
# ...
   321.5000    779.4034      6.9012     72.6093      0.0000
   321.7500    788.5806      6.8986     70.6885      0.0000
   322.0000    779.5278      6.9295     67.5335      0.0000
   322.2500    759.4852      6.9963     64.0107      0.0000
   322.5000    741.6094      7.0680     60.7509      0.0000
   322.7500    732.1819      7.1126     57.9023      0.0000
   323.0000    729.1005      7.1224     55.4986      0.0000
   323.2500    728.6561      7.1082     53.7606      0.0000
   323.5000    729.0143      7.0867     52.8478      0.0000
   323.7500    729.4413      7.0682     52.4677      0.0000
   324.0000    729.5545      7.0479     52.0093      0.0000
   324.2500    729.8599      7.0139     51.1235      0.0000
   324.5000    732.8378      6.9684     50.1856      0.0000
   324.7500    743.3599      6.9255     50.3031      0.0000
   325.0000    764.7771      6.8901     52.6926      0.0000
   325.2500    790.9261      6.8573     57.6217      0.0000
   325.5000    808.5764      6.8248     63.8689      0.0000
   325.7500    815.4815      6.7952     69.4858      0.0000
   326.0000    824.6569      6.7710     73.1987      0.0000
   326.2500    839.7188      6.7549     74.9430      0.0000
   326.5000    843.3135      6.7566     75.2025      0.0000
   326.7500    824.2925      6.7857     74.3195      0.0000
   327.0000    799.0172      6.8301     72.5349      0.0000
   327.2500    791.1846      6.8573     70.2758      0.0000
   327.5000    801.9844      6.8473     68.1737      0.0000
   327.7500    816.3179      6.8106     66.8391      0.0000
   328.0000    828.2044      6.7755     66.5910      0.0000
   328.2500    839.6403      6.7718     67.3523      0.0000
   328.5000    842.5214      6.8196     68.7809      0.0000
   328.7500    823.4445      6.9125     70.4660      0.0000
   329.0000    786.5688      7.0181     72.1576      0.0000
   329.2500    752.5831      7.1146     73.8944      0.0000
   329.5000    733.9847      7.2080     75.8239      0.0000
   329.7500    727.3651      7.3044     77.9051      0.0000
   330.0000    725.5516      7.3866     79.8799      0.0000
   330.2500    725.0891      7.4262     81.3823      0.0000
   330.5000    725.1267      7.4109     81.9924      0.0000
   330.7500    725.3966      7.3563     81.4776      0.0000
   331.0000    725.7239      7.2994     80.1620      0.0000
   331.2500    726.0710      7.2819     78.7698      0.0000
   331.5000    726.3865      7.3236     77.6143      0.0000
   331.7500    726.4984      7.4067     76.1897      0.0000
   332.0000    726.3677      7.4940     73.9311      0.0000
   332.2500    726.2656      7.5612     71.1169      0.0000
   332.5000    726.4664      7.6033     68.5199      0.0000
   332.7500    726.8738      7.6164     66.4549      0.0000
   333.0000    727.1487      7.5880     64.7764      0.0000
   333.2500    727.1516      7.5142     63.6611      0.0000
   333.5000    727.0665      7.4175     63.8620      0.0000
   333.7500    727.1412      7.3275     65.9697      0.0000
   334.0000    727.3771      7.2551     69.4306      0.0000
   334.2500    727.4817      7.2014     72.3708      0.0000
   334.5000    727.2293      7.1696     72.8061      0.0000
   334.7500    726.7828      7.1532     70.4020      0.0000
   335.0000    726.4819      7.1384     66.9798      0.0000
   335.2500    726.4360      7.1228     65.1445      0.0000
   335.5000    726.5161      7.1156     66.3543      0.0000
   335.7500    726.6163      7.1231     70.0734      0.0000
   336.0000    726.7347      7.1391     74.3179      0.0000
   336.2500    726.8840      7.1514     76.8786      0.0000
   336.5000    727.0632      7.1518     76.5802      0.0000
   336.7500    727.2661      7.1410     74.0531      0.0000
   337.0000    727.4596      7.1271     71.2777      0.0000
   337.2500    727.5986      7.1165     69.9648      0.0000
   337.5000    727.6736      7.1033     70.2293      0.0000
   337.7500    727.7476      7.0769     70.9376      0.0000
   338.0000    728.1393      7.0411     71.1448      0.0000
   338.2500    730.0691      7.0190     70.7859      0.0000
   338.5000    736.1004      7.0363     70.0146      0.0000
   338.7500    747.5891      7.0891     68.4297      0.0000
   339.0000    759.4089      7.1436     65.4122      0.0000
   339.2500    761.8303      7.1772     61.2151      0.0000
   339.5000    752.5923      7.1923     57.2233      0.0000
   339.7500    740.7031      7.1953     54.6606      0.0000
   340.0000    735.4191      7.1860     53.2556      0.0000
   340.2500    739.0020      7.1593     51.7658      0.0000
   340.5000    747.3026      7.1115     49.7140      0.0000
   340.7500    751.5972      7.0499     48.0092      0.0000
   341.0000    746.7191      7.0007     47.7633      0.0000
   341.2500    737.5058      7.0028     48.9040      0.0000
   341.5000    730.9960      7.0705     50.1851      0.0000
   341.7500    728.4766      7.1678     50.4426      0.0000
   342.0000    727.9330      7.2472     49.5676      0.0000
   342.2500    727.7761      7.2935     48.1683      0.0000
   342.5000    726.8327      7.3045     46.7048      0.0000
   342.7500    722.7029      7.2500     45.2706      0.0000
   343.0000    711.7745      7.1165     43.8320      0.0000
   343.2500    695.7785      6.9872     42.3656      0.0000
   343.5000    688.8448      6.9302     41.0274      0.0000
   343.7500    704.8885      6.8409     40.3008      0.0000
   344.0000    735.6580      6.6312     40.6768      0.0000
   344.2500    759.3055      6.4192     42.1656      0.0000
   344.5000    767.9615      6.3162     44.3621      0.0000
   344.7500    771.5839      6.2914     46.8441      0.0000
   345.0000    781.1432      6.2970     49.2707      2.0000
   345.2500    796.6638      6.3198     51.2953      2.0000
   345.5000    811.1489      6.3416     52.7016     -2.0000
   345.7500    816.8505      6.3705     53.5706      0.0000
   346.0000    806.0306      6.5195     54.0890      0.0000
   346.2500    780.4162      6.8805     54.1537      0.0000
   346.5000    753.9521      7.2595     53.3971      0.0000
   346.7500    737.6133      7.3554     51.6578      0.0000
   347.0000    731.1338      7.1765     49.2519      0.0000
   347.2500    729.4148      6.9345     46.8144      0.0000
   347.5000    729.0540      6.7358     45.0052      0.0000
   347.7500    729.0206      6.5703     44.1957      0.0000
   348.0000    729.1389      6.4089     44.2635      0.0000
   348.2500    729.2932      6.2464     44.7594      0.0000
   348.5000    729.3872      6.1004     45.3055      0.0000
   348.7500    729.4053      5.9898     45.8612      0.0000
   349.0000    729.3704      5.9172     46.6683      0.0000
   349.2500    729.2944      5.8651     47.7422      0.0000
   349.5000    729.1965      5.8079     48.3126      0.0000
   349.7500    729.1509      5.7308     47.2114      0.0000
   350.0000    729.2236      5.6473     44.1647      0.0000
   350.2500    729.3836      5.5831     40.3675      0.0000
   350.5000    729.5515      5.5442     37.5419      0.0000
   350.7500    729.6611      5.5233     36.7029      0.0000
   351.0000    729.6823      5.5166     37.8643      0.0000
   351.2500    729.6638      5.5217     40.4826      0.0000
   351.5000    729.7004      5.5411     43.9048      0.0000
   351.7500    729.8511      5.5905     47.3752      0.0000
   352.0000    730.1260      5.6843     49.8629      0.0000
   352.2500    730.4891      5.8141     50.5112      0.0000
   352.5000    730.8276      5.9560     49.6399      0.0000
   352.7500    730.9694      6.0854     48.9191      0.0000
   353.0000    730.7698      6.1863     50.0204      0.0000
   353.2500    730.2375      6.2622     53.0104      0.0000
   353.5000    729.5768      6.3253     56.1424      0.0000
   353.7500    729.0134      6.3782     57.2537      0.0000
   354.0000    728.6446      6.4033     55.4946      0.0000
   354.2500    728.4977      6.3722     51.8871      0.0000
   354.5000    728.5512      6.2890     48.4068      0.0000
   354.7500    728.7057      6.2040     46.6016      0.0000
