~Version Information
VERS.                      2.0: CWLS Log ASCII Standard - VERSION 2.0
WRAP.                       NO: One line per depth step
~Well Information Block
STRT.FT               275.0000: 
STOP.FT               811.2000: 
STEP.FT                 0.1000: 
NULL.                -999.2500: 
COMP.          Pioneer Natural Resources: COMPANY
WELL.          Barrelman 41-27: WELL
FLD.           Purgatoire River: FIELD
LOC.           371' FNL & 493' FEL--: LOCATION
PROV.                 Colorado: PROVINCE
CNTY.               Las Animas: COUNTRY
SRVC.                Patterson: SERVICE COMPANY
DATE.          Fri May 20 11:50:01 2005: LOG DATE
UWI.           05 071 08334 00: UNIQUE WELL ID
~Curve Information Block
DEPT.FT            0 000 00 00: Depth
DCAL.in                       : CDL Caliper
RHOB.g/cc                     : CDL Bulk Density
RHOC.g/cc                     : CDL Density Correction
DPOR.pu                       : CDL Density Porosity
NPOR.pu                       : Neutron Porosity
GR.GAPI                       : Gamma Ray
~Parameter Information Block
~A  Depth       DCAL        RHOB        RHOC        DPOR        NPOR         GR     
# ...
   380.6000      8.1136      2.5010      0.0516      9.0329     16.9335     45.7484
   380.7000      8.1136      2.4614      0.0118     11.4282     17.1005     44.9316
   380.8000      8.1129      2.4287      0.0035     13.4114     16.6409     46.7761
   380.9000      8.1129      2.4177      0.0200     14.0801     15.7147     48.6151
   381.0000      8.1105      2.4232      0.0426     13.7470     15.1000     49.9374
   381.1000      8.1105      2.4346      0.0528     13.0532     15.1625     49.8786
   381.2000      8.1105      2.4471      0.0939     12.2962     15.3551     47.5401
   381.3000      8.1109      2.4573      0.0562     11.6806     15.2265     44.5864
   381.4000      8.1109      2.4634      0.0696     11.3120     14.9070     43.1366
   381.5000      8.1134      2.4666      0.0696     11.1166     14.6605     43.5489
   381.6000      8.1134      2.4662      0.0782     11.1390     14.5894     44.9962
   381.7000      8.1134      2.4567      0.0806     11.7134     14.7087     46.5313
   381.8000      8.1143      2.4397      0.0648     12.7471     14.8260     48.6995
   381.9000      8.1143      2.4257      0.0457     13.5930     14.9554     51.2254
   382.0000      8.1137      2.4267      0.0572     13.5344     15.7352     52.2460
   382.1000      8.1137      2.4512      0.0814     12.0482     17.1811     52.1300
   382.2000      8.1137      2.4853      0.1560      9.9845     18.4650     52.5995
   382.3000      8.1128      2.4922      0.1495      9.5652     19.3428     53.2001
   382.4000      8.1128      2.4627      0.0805     11.3526     20.0281     53.0710
   382.5000      8.1121      2.4305      0.0409     13.3036     20.4238     51.9805
   382.6000      8.1121      2.4203      0.0615     13.9208     20.5790     49.5864
   382.7000      8.1121      2.4179      0.1139     14.0653     20.7015     47.2586
   382.8000      8.1131      2.3996      0.0830     15.1757     20.8198     47.1427
   382.9000      8.1131      2.3702      0.0444     16.9579     20.7083     48.4705
   383.0000      8.1134      2.3553      0.0421     17.8633     20.1339     48.6257
   383.1000      8.1134      2.3663      0.0696     17.1941     19.2353     48.2858
   383.2000      8.1134      2.3844      0.1173     16.0988     18.2416     49.1576
   383.3000      8.1129      2.3903      0.0893     15.7407     17.2399     50.3450
   383.4000      8.1129      2.3934      0.0943     15.5545     16.4056     51.0790
   383.5000      8.1173      2.4092      0.1192     14.5954     15.8737     50.7242
   383.6000      8.1173      2.4356      0.1292     12.9920     15.7210     49.4873
   383.7000      8.1173      2.4570      0.1555     11.6970     16.0426     49.3316
   383.8000      8.1272      2.4644      0.1105     11.2456     16.4454     49.2444
   383.9000      8.1272      2.4668      0.1196     11.1050     16.2434     48.0699
   384.0000      8.1338      2.4722      0.0936     10.7755     15.6639     48.6672
   384.1000      8.1338      2.4815      0.0746     10.2130     15.5973     51.6635
   384.2000      8.1338      2.4856      0.1295      9.9646     16.4888     52.3868
   384.3000      8.1360      2.4736      0.0787     10.6924     17.8395     47.8561
   384.4000      8.1360      2.4559      0.0674     11.7631     18.9173     41.0569
   384.5000      8.1368      2.4430      0.0317     12.5463     19.6577     38.3223
   384.6000      8.1368      2.4098      0.1057     14.5556     20.0216     43.0679
   384.7000      8.1368      2.3299      0.0067     19.4016     19.7923     51.5402
   384.8000      8.1405      2.2209     -0.0221     26.0054     19.1595     56.9488
   384.9000      8.1405      2.1087     -0.0103     32.8033     18.3160     57.2237
   385.0000      8.1499      1.9945     -0.0840     39.7301     17.1739     56.2419
   385.1000      8.1499      1.8799     -0.1066     46.6726     15.8419     58.7375
   385.2000      8.1499      1.7819     -0.1680     52.6117     14.4385     64.0056
   385.3000      8.1594      1.7049     -0.0946     57.2802     13.0007     68.3774
   385.4000      8.1594      1.6255     -0.0699     62.0916     11.6866     68.9811
   385.5000      8.1781      1.5340     -0.1447     67.6363     10.4753     65.9629
   385.6000      8.1781      1.4583     -0.1207     72.2220      9.2165     62.7264
   385.7000      8.1781      1.4262     -0.0288     74.1691      8.0598     61.4159
   385.8000      8.2546      1.4314      0.1079     73.8534      7.2212     60.5064
   385.9000      8.2546      1.4445      0.1478     73.0630      6.5847     57.9686
   386.0000      8.4001      1.4443      0.1537     73.0734      5.9756     56.5571
   386.1000      8.4001      1.4276      0.1369     74.0837      5.4050     60.0157
   386.2000      8.4001      1.4004      0.1117     75.7311      4.9670     63.4432
   386.3000      8.5212      1.3699      0.0963     77.5829      4.7734     60.9722
   386.4000      8.5212      1.3426      0.0610     79.2334      4.7655     56.0427
   386.5000      8.5657      1.3227      0.0911     80.4396      4.7367     53.3449
   386.6000      8.5657      1.3093      0.0747     81.2557      4.6645     52.7261
   386.7000      8.5657      1.3064      0.0651     81.4286      4.5766     53.1051
   386.8000      8.5734      1.3199      0.0770     80.6138      4.4116     54.6553
   386.9000      8.5734      1.3459      0.1044     79.0388      4.3321     56.0247
   387.0000      8.5753      1.3790      0.1030     77.0283      4.4299     54.7071
   387.1000      8.5753      1.4206      0.1226     74.5119      4.4793     51.9043
   387.2000      8.5753      1.4690      0.1726     71.5746      4.4261     50.7889
   387.3000      8.5734      1.5136      0.2158     68.8697      4.5120     52.2846
   387.4000      8.5734      1.5430      0.2390     67.0900      4.8117     55.7583
   387.5000      8.5683      1.5529      0.2463     66.4912      5.1670     58.8040
   387.6000      8.5683      1.5472      0.2398     66.8371      5.5001     61.0405
   387.7000      8.5683      1.5398      0.1984     67.2855      5.7670     65.2424
   387.8000      8.5550      1.5495      0.1755     66.6943      5.8645     70.3027
   387.9000      8.5550      1.5880      0.1404     64.3643      5.8149     73.4262
   388.0000      8.5311      1.6500      0.1622     60.6058      5.7575     75.2639
   388.1000      8.5311      1.7126      0.2060     56.8145      5.7265     77.5691
   388.2000      8.5311      1.7488      0.2400     54.6200      5.7013     80.4601
   388.3000      8.4994      1.7514      0.2078     54.4596      5.8433     83.5030
   388.4000      8.4994      1.7493      0.1381     54.5879      6.3230     86.8223
   388.5000      8.4499      1.7810      0.1703     52.6653      7.1465     89.0902
   388.6000      8.4499      1.8526      0.2029     48.3251      8.1211     88.9155
   388.7000      8.4499      1.9407      0.2522     42.9858      8.9560     87.5654
   388.8000      8.3608      2.0240      0.2230     37.9413      9.6485     87.9004
   388.9000      8.3608      2.0930      0.2447     33.7585     10.3660     90.4346
   389.0000      8.2402      2.1342      0.2730     31.2617     11.0322     93.4679
   389.1000      8.2402      2.1466      0.2067     30.5109     11.5018     95.9359
   389.2000      8.2402      2.1629      0.2102     29.5212     11.9405     96.5990
   389.3000      8.1594      2.2120      0.2518     26.5440     12.5054     94.4718
   389.4000      8.1594      2.2824      0.2838     22.2788     13.1319     93.1271
   389.5000      8.1138      2.3431      0.2346     18.5981     13.8792     96.3423
   389.6000      8.1138      2.3823      0.1741     16.2243     14.8939    102.6064
   389.7000      8.1138      2.4071      0.1771     14.7216     15.9598    109.1988
   389.8000      8.0781      2.4218      0.1549     13.8286     16.8464    116.2624
   389.9000      8.0781      2.4248      0.1095     13.6496     17.5543    123.9724
   390.0000      8.0583      2.4173      0.0963     14.1010     17.9631    130.1853
   390.1000      8.0583      2.4110      0.0834     14.4842     17.9986    132.7537
