~Version Information
VERS.                      2.0: CWLS Log ASCII Standard - VERSION 2.0
WRAP.                       NO: One line per depth step
~Well Information Block
STRT.FT               750.0000: 
STOP.FT              2431.5000: 
STEP.FT                 0.1000: 
NULL.                -999.2500: 
COMP.          Petrogulf Corporation: COMPANY
WELL.           McDaniel 9-34V: WELL
FLD.           Purgatorie River: FIELD
LOC.           620' FSL & 1800' FEL: LOCATION
PROV.                 Colorado: PROVINCE
CNTY.               Las Animas: COUNTRY
SRVC.                Patterson: SERVICE COMPANY
DATE.          Wed Sep 28 07:18:04 2005: LOG DATE
UWI.                          : UNIQUE WELL ID
~Curve Information Block
DEPT.FT            0 000 00 00: Depth
DCAL.in                       : CDL Caliper
RHOB.g/cc                     : CDL Bulk Density
RHOC.g/cc                     : CDL Density Correction
DPOR.pu                       : CDL Density Porosity
GR.GAPI                       : Gamma Ray
NPOR.pu                       : Neutron Porosity
~Parameter Information Block
~A  Depth       DCAL        RHOB        RHOC        DPOR         GR         NPOR    
# ...
  2074.8000      7.8554      2.8543      0.0023    -12.3838     50.2841     22.1427
  2074.9000      7.8554      2.7743     -0.0351     -7.5350     55.2124     21.5306
  2075.0000      7.9175      2.6908     -0.1057     -2.4707     62.1299     21.2426
  2075.1000      7.9175      2.6244     -0.0238      1.5520     68.9139     20.8068
  2075.2000      7.9175      2.5862     -0.0220      3.8687     74.6496     20.1149
  2075.3000      7.9291      2.5769     -0.0027      4.4280     79.8366     19.6749
  2075.4000      7.9291      2.5799      0.0436      4.2459     83.3074     19.6795
  2075.5000      7.9215      2.5700      0.0773      4.8458     83.6446     20.0261
  2075.6000      7.9215      2.5463      0.0235      6.2826     82.1298     20.9365
  2075.7000      7.9215      2.5265      0.0297      7.4824     80.8048     22.3859
  2075.8000      7.9348      2.5175      0.0070      8.0278     80.6322     23.7694
  2075.9000      7.9348      2.5129      0.0183      8.3074     82.3467     24.7267
  2076.0000      7.9370      2.5060      0.0453      8.7250     84.1835     25.3247
  2076.1000      7.9370      2.4995      0.0098      9.1211     84.3133     25.5384
  2076.2000      7.9370      2.4972      0.0406      9.2625     84.7884     25.3731
  2076.3000      7.9232      2.4933      0.0196      9.4983     86.9416     25.1419
  2076.4000      7.9232      2.4866      0.0313      9.9014     89.9815     25.1260
  2076.5000      7.9162      2.4916      0.0028      9.6017     93.2726     25.3680
  2076.6000      7.9162      2.5182      0.0334      7.9863     94.6467     25.7376
  2076.7000      7.9162      2.5482      0.0940      6.1689     92.1681     26.0032
  2076.8000      7.9165      2.5593      0.0923      5.4994     87.6660     26.0548
  2076.9000      7.9165      2.5598      0.0447      5.4670     83.6758     26.0132
  2077.0000      7.9268      2.5641      0.0900      5.2087     80.5306     26.0296
  2077.1000      7.9268      2.5625      0.0602      5.3051     78.1748     26.1434
  2077.2000      7.9268      2.5487      0.0341      6.1408     77.9109     26.1777
  2077.3000      7.9515      2.5299      0.0488      7.2760     80.5381     25.8505
  2077.4000      7.9515      2.5136      0.0252      8.2691     82.3005     25.1761
  2077.5000      7.9600      2.5077      0.0317      8.6217     79.3577     24.6087
  2077.6000      7.9600      2.5155      0.0015      8.1497     74.7405     24.3912
  2077.7000      7.9600      2.5305      0.0317      7.2434     72.8634     24.3298
  2077.8000      7.9485      2.5411      0.0360      6.5981     73.4665     24.1927
  2077.9000      7.9485      2.5465      0.0017      6.2729     73.8951     23.8640
  2078.0000      7.9532      2.5565      0.0513      5.6644     72.1287     23.5939
  2078.1000      7.9532      2.5714      0.0591      4.7616     69.2921     23.8246
  2078.2000      7.9532      2.5848      0.0574      3.9538     67.3278     24.4199
  2078.3000      7.9460      2.5942      0.0970      3.3823     64.9926     24.6324
  2078.4000      7.9460      2.5939      0.0674      3.4019     61.6957     24.2428
  2078.5000      7.9231      2.5808      0.0482      4.1937     60.4251     23.6932
  2078.6000      7.9231      2.5603      0.0330      5.4348     61.1595     23.1069
  2078.7000      7.9231      2.5376     -0.0226      6.8134     61.0713     22.4074
  2078.8000      7.9247      2.5253     -0.0567      7.5592     60.7425     21.8446
  2078.9000      7.9247      2.5353     -0.0157      6.9518     62.0029     21.6122
  2079.0000      7.9309      2.5490      0.0548      6.1231     63.6976     21.5686
  2079.1000      7.9309      2.5473      0.0053      6.2272     63.7131     21.3466
  2079.2000      7.9309      2.5476     -0.0009      6.2058     61.9070     20.7482
  2079.3000      7.9430      2.5646      0.0131      5.1731     59.2641     19.9643
  2079.4000      7.9430      2.5876      0.0205      3.7807     57.1065     19.2187
  2079.5000      7.9463      2.6065      0.0527      2.6384     57.3066     18.5474
  2079.6000      7.9463      2.6211      0.0631      1.7515     59.4356     18.3570
  2079.7000      7.9463      2.6300      0.1160      1.2149     60.7497     19.0970
  2079.8000      7.9520      2.6280      0.0722      1.3317     59.0966     20.3048
  2079.9000      7.9520      2.6195      0.0448      1.8499     55.7461     21.1556
  2080.0000      7.9564      2.6092      0.0387      2.4730     53.9943     21.3463
  2080.1000      7.9564      2.5926      0.0202      3.4817     54.5539     21.0512
  2080.2000      7.9564      2.5662      0.0074      5.0777     55.8154     20.5864
  2080.3000      7.9607      2.5252      0.0039      7.5643     57.7105     20.5211
  2080.4000      7.9607      2.4648     -0.0192     11.2260     60.4995     21.0179
  2080.5000      7.9594      2.4037     -0.0814     14.9260     61.2836     21.6182
  2080.6000      7.9594      2.3551     -0.0464     17.8718     58.4172     22.1634
  2080.7000      7.9594      2.2838     -0.0194     22.1909     54.5685     22.8060
  2080.8000      7.9609      2.1520     -0.0577     30.1842     51.0417     23.4429
  2080.9000      7.9609      1.9780     -0.1082     40.7257     48.7141     23.9384
  2081.0000      7.9588      1.8204     -0.1785     50.2771     49.0015     24.6193
  2081.1000      7.9588      1.7126     -0.1573     56.8143     50.2753     25.8008
  2081.2000      7.9588      1.6307     -0.1659     61.7760     49.4475     27.1303
  2081.3000      7.9765      1.5459     -0.1757     66.9147     46.7956     28.1537
  2081.4000      7.9765      1.4801     -0.1291     70.9001     45.1599     28.9630
  2081.5000      8.1359      1.4685     -0.0244     71.6050     45.4746     29.7748
  2081.6000      8.1359      1.5044      0.0008     69.4327     46.1342     30.5198
  2081.7000      8.1359      1.5657      0.0497     65.7149     46.1106     31.1447
  2081.8000      8.1747      1.6519      0.0436     60.4890     46.3096     31.6264
  2081.9000      8.1747      1.7685      0.0694     53.4225     46.8131     31.9821
  2082.0000      8.1106      1.8983      0.1181     45.5597     48.1503     32.1918
  2082.1000      8.1106      2.0143      0.1482     38.5253     54.3196     32.0124
  2082.2000      8.1106      2.1220      0.1385     32.0017     65.5914     31.6420
  2082.3000      8.0965      2.2494      0.1734     24.2781     74.4284     31.6227
  2082.4000      8.0965      2.3787      0.2579     16.4415     77.6009     31.9229
  2082.5000      8.0393      2.4512      0.1751     12.0471     80.6207     32.1447
  2082.6000      8.0393      2.4635      0.0301     11.3012     85.1695     31.9329
  2082.7000      8.0393      2.4715      0.0147     10.8188     87.5930     31.2367
  2082.8000      8.0395      2.4999      0.0680      9.0997     88.5752     30.4407
  2082.9000      8.0395      2.5242      0.0785      7.6226     91.8144     29.6878
  2083.0000      8.0230      2.5270      0.0501      7.4571     96.7118     28.8669
  2083.1000      8.0230      2.5162      0.0506      8.1093     98.8045     28.1374
  2083.2000      8.0230      2.5054      0.0035      8.7621     96.5820     27.6503
  2083.3000      7.9977      2.5035     -0.0065      8.8782     94.3927     27.3361
  2083.4000      7.9977      2.5071      0.0251      8.6611     95.8538     27.0708
  2083.5000      7.9530      2.5042      0.0416      8.8346     97.5815     27.1538
  2083.6000      7.9530      2.4999     -0.0029      9.0950     96.4426     27.6234
  2083.7000      7.9530      2.5094      0.0341      8.5237     96.2508     27.8696
  2083.8000      7.9403      2.5224      0.0997      7.7343     98.4275     27.7024
  2083.9000      7.9403      2.5229      0.0654      7.7010     99.6386     27.4491
  2084.0000      7.9409      2.5145      0.0682      8.2130     99.9110     27.2525
  2084.1000      7.9409      2.4999      0.0588      9.0949    100.8283     27.0023
  2084.2000      7.9409      2.4748      0.0463     10.6195    101.7472     26.4940
  2084.3000      7.9463      2.4474      0.0119     12.2801    101.7221     25.9202
