~Version Information
VERS.                      2.0: CWLS Log ASCII Standard - VERSION 2.0
WRAP.                       NO: One line per depth step
~Well Information Block
STRT.FT                -5.2500: 
STOP.FT               769.5000: 
STEP.FT                 0.2500: 
NULL.                -999.2500: 
COMP.          Pioneer Natural Resources: COMPANY
WELL.          HG Duran 34-27 Tr: WELL
FLD.           Purgatorie River: FIELD
LOC.           1076' FSL & 1465' FEL: LOCATION
PROV.                 Colorado: PROVINCE
CNTY.               Las Animas: COUNTRY
SRVC.          Patterson Wireline: SERVICE COMPANY
DATE.          Mon Apr 18 09:19:17 2005: LOG DATE
UWI.           05-071-08218-00: UNIQUE WELL ID
~Curve Information Block
DEPT.FT            0 000 00 00: Depth
CCL.                          : Casing Collar Locator
TT3.usec                      : CBL 3' Travel Time
AMP3.mV                       : CBL 3' Amplitude
GR.GAPI                       : Gamma Ray
~Parameter Information Block
~A  Depth       CCL         TT3         AMP3         GR     
# ...
   631.2500      0.0000    898.2526      6.7307    124.5379
   631.5000      0.0000    933.6227      6.2486    118.3727
   631.7500      0.0000    967.5385      5.8343    113.3550
   632.0000      0.0000    992.7791      5.6048    110.7752
   632.2500      0.0000   1005.5214      5.6831    111.8542
   632.5000      0.0000   1003.6146      6.1427    117.0303
   632.7500      0.0000    983.9013      6.9554    125.0059
   633.0000      0.0000    946.1371      7.9841    132.8342
   633.2500      0.0000    898.2164      9.0182    137.2435
   633.5000      0.0000    853.0020      9.8167    136.4610
   633.7500      0.0000    819.6124     10.1582    131.1072
   634.0000      0.0000    799.5115      9.9129    123.3075
   634.2500      0.0000    789.7634      9.1150    115.0002
   634.5000      0.0000    787.5586      7.9856    107.0677
   634.7500      0.0000    791.5992      6.8653     99.7418
   635.0000      0.0000    800.9296      6.0791     93.5303
   635.2500      0.0000    814.1225      5.8192     89.4449
   635.5000      0.0000    830.8331      6.1092     88.1125
   635.7500      0.0000    853.8455      6.8402     88.9353
   636.0000      0.0000    887.5565      7.8331     90.5246
   636.2500      0.0000    932.3833      8.9033     91.7963
   636.5000      0.0000    980.7538      9.9028     92.3826
   636.7500      0.0000   1020.3642     10.7230     92.3397
   637.0000      0.0000   1042.3698     11.2894     91.9867
   637.2500      0.0000   1046.5096     11.5774     91.8252
   637.5000      0.0000   1039.1271     11.6239     92.0044
   637.7500      0.0000   1027.1460     11.4996     91.9126
   638.0000      0.0000   1012.9694     11.2697     90.9817
   638.2500      0.0000    993.3221     10.9852     90.0469
   638.5000      0.0000    962.8996     10.6950     91.1843
   638.7500      0.0000    920.8331     10.4374     95.7079
   639.0000      0.0000    874.4297     10.2182    102.6930
   639.2500      0.0000    835.2363     10.0170    109.8417
   639.5000      0.0000    810.2922      9.8273    115.4851
   639.7500      0.0000    797.5165      9.6800    119.4219
   640.0000      0.0000    789.4493      9.6151    122.2407
   640.2500      0.0000    780.3082      9.6333    124.5780
   640.5000      0.0000    769.2998      9.6857    127.0603
   640.7500      0.0000    758.8000      9.7209    130.2474
   641.0000      0.0000    751.2376      9.7517    134.1562
   641.2500      0.0000    747.9500      9.8689    138.0468
   641.5000      0.0000    749.3843     10.1640    141.0147
   641.7500      0.0000    754.8895     10.6252    142.8647
   642.0000      0.0000    762.4566     11.1244    144.2253
   642.2500      0.0000    769.5573     11.5175    145.6805
   642.5000      0.0000    774.4623     11.7489    147.0840
   642.7500      0.0000    776.7490     11.8574    148.2285
   643.0000      0.0000    776.8205     11.9050    149.9208
   643.2500      0.0000    775.1689     11.9309    153.3760
   643.5000      0.0000    772.2145     11.9625    158.2374
   643.7500      0.0000    768.6633     12.0326    162.0085
   644.0000      0.0000    765.4144     12.1523    162.0787
   644.2500      0.0000    763.0541     12.2615    157.9955
   644.5000      0.0000    761.9343     12.2272    151.3699
   644.7500      0.0000    762.4567     11.9282    144.0060
   645.0000      0.0000    764.4623     11.3686    136.7600
   645.2500      0.0000    766.6038     10.7036    130.0377
   645.5000      0.0000    767.2414     10.1431    124.5826
   645.7500      0.0000    765.8744      9.8240    121.3788
   646.0000      0.0000    763.1974      9.7621    121.0170
   646.2500      0.0000    760.5933      9.8950    123.2412
   646.5000      0.0000    761.3782     10.1481    126.8341
   646.7500      0.0000    772.3492     10.4650    130.0402
   647.0000      0.0000    800.6910     10.7962    131.6079
   647.2500      0.0000    845.2693     11.0757    131.5405
   647.5000      0.0000    890.9752     11.2210    130.6233
   647.7500      0.0000    916.3657     11.1618    129.4559
   648.0000      0.0000    910.9503     10.8743    128.3194
   648.2500      0.0000    885.3623     10.3802    127.7420
   648.5000      0.0000    864.6671      9.7060    128.5343
   648.7500      0.0000    872.6768      8.8639    131.0274
   649.0000      0.0000    918.9805      7.9152    134.4818
   649.2500      0.0000    992.9391      7.0404    137.3086
   649.5000      0.0000   1067.3798      6.4576    137.8017
   649.7500      0.0000   1114.3787      6.2343    134.9111
   650.0000      0.0000   1123.5562      6.2379    128.8925
   650.2500      0.0000   1104.9225      6.2971    121.5416
   650.5000     -5.0000   1074.7555      6.3633    115.5173
   650.7500      5.0000   1043.1976      6.4904    112.9689
   651.0000      0.0000   1014.6147      6.7156    114.3792
   651.2500      0.0000    990.9933      7.0126    118.2506
   651.5000      0.0000    970.0197      7.3378    121.9108
   651.7500      0.0000    944.8417      7.6682    123.2316
   652.0000      0.0000    911.1131      7.9872    121.9854
   652.2500      0.0000    872.6332      8.2599    119.5956
   652.5000      0.0000    837.7945      8.4418    117.6697
   652.7500      0.0000    812.4985      8.5223    117.0381
   653.0000      0.0000    797.4469      8.5662    118.0839
   653.2500      0.0000    789.8230      8.6777    121.2767
   653.5000      0.0000    785.9375      8.9037    126.7034
   653.7500      0.0000    783.2513      9.1898    133.2610
   654.0000      0.0000    781.2711      9.4422    138.9236
   654.2500      0.0000    780.9243      9.6093    141.9788
   654.5000      0.0000    783.1399      9.7055    141.8404
   654.7500      0.0000    788.0239      9.7861    138.8022
   655.0000      0.0000    795.0757      9.9224    133.3640
   655.2500      0.0000    803.4813     10.1816    125.9104
   655.5000      0.0000    811.9950     10.5869    116.9026
   655.7500      0.0000    819.1205     11.0671    107.2204
   656.0000      0.0000    823.9014     11.4639     98.2638
   656.2500      0.0000    826.4223     11.6240     91.5570
   656.5000      0.0000    827.4618     11.4983     87.7973
   656.7500      0.0000    827.8168     11.1520     86.0586
   657.0000      0.0000    827.9509     10.7009     84.3294
   657.2500      0.0000    827.9576     10.2474     81.2556
   657.5000      0.0000    827.5254      9.8522     77.2535
   657.7500      0.0000    825.7219      9.5333     73.7966
   658.0000      0.0000    820.9163      9.2844     71.8940
   658.2500      0.0000    811.5023      9.0990     71.4765
   658.5000      0.0000    797.4247      8.9733     71.9733
   658.7500      0.0000    781.0619      8.8878     72.9925
   659.0000      0.0000    766.0174      8.7925     74.2990
   659.2500      0.0000    754.8446      8.6208     75.4402
   659.5000      0.0000    748.3092      8.3284     75.8749
   659.7500      0.0000    746.6058      7.9327     75.5812
   660.0000      0.0000    750.1329      7.5193     75.1375
   660.2500      0.0000    758.4256      7.2023     74.8626
   660.5000      0.0000    769.0701      7.0654     74.2341
   660.7500      0.0000    778.6924      7.1246     72.7323
   661.0000      0.0000    785.0945      7.3350     71.0460
   661.2500      0.0000    788.1478      7.6319     70.7857
   661.5000      0.0000    788.9698      7.9645     72.9180
   661.7500      0.0000    788.7346      8.2957     76.8389
   662.0000      0.0000    788.1546      8.5831     80.9455
   662.2500      0.0000    787.5659      8.7715     83.7749
   662.5000      0.0000    787.1505      8.8116     84.6101
   662.7500      0.0000    787.0510      8.6888     83.4863
   663.0000      0.0000    787.4302      8.4404     81.0171
   663.2500      0.0000    788.6373      8.1537     78.0670
   663.5000      0.0000    791.3530      7.9460     75.3375
   663.7500      0.0000    796.3204      7.9240     73.1771
   664.0000      0.0000    803.6299      8.1312     71.6499
   664.2500      0.0000    812.3394      8.5167     70.6831
   664.5000      0.0000    821.0419      8.9571     70.1031
