~Version Information
VERS.                      2.0: CWLS Log ASCII Standard - VERSION 2.0
WRAP.                       NO: One line per depth step
~Well Information Block
STRT.FT                 3.0000: 
STOP.FT              1884.7500: 
STEP.FT                 0.2500: 
NULL.                -999.2500: 
COMP.          Pioneer Natural Resources: COMPANY
WELL.          Blackjack 32-11 Tr: WELL
FLD.           Purgatoire River: FIELD
LOC.           2066' FNL & 1453' FEL: LOCATION
PROV.                 Colorado: PROVINCE
CNTY.               Las Animas: COUNTRY
SRVC.                Patterson: SERVICE COMPANY
DATE.          Fri Aug 19 11:07:11 2005: LOG DATE
UWI.           05 071 08310 00: UNIQUE WELL ID
~Curve Information Block
DEPT.FT            0 000 00 00: Depth
CCL.                          : Casing Collar Locator
TT3.usec                      : CBL 3' Travel Time
AMP3.mV                       : CBL 3' Amplitude
GR.GAPI                       : Gamma Ray
~Parameter Information Block
~A  Depth       CCL         TT3         AMP3         GR     
# ...
  1477.0000      0.0000    694.9975     29.9964    117.2116
  1477.2500      0.0000    672.7352     30.5192    115.7567
  1477.5000      0.0000    631.0125     31.0994    116.1462
  1477.7500      0.0000    570.6023     31.7712    116.5023
  1478.0000      0.0000    498.1465     32.5121    114.2052
  1478.2500      0.0000    427.5407     33.1785    108.6406
  1478.5000      0.0000    373.7902     33.5702    102.2319
  1478.7500      0.0000    346.2943     33.5614     98.2943
  1479.0000      0.0000    346.6170     33.1907     97.9274
  1479.2500      0.0000    370.2320     32.6392     99.4825
  1479.5000      0.0000    408.7784     32.0883    100.8299
  1479.7500      0.0000    451.1647     31.5589    101.3050
  1480.0000      0.0000    484.9666     30.8986    101.3994
  1480.2500      0.0000    500.1694     29.9450    101.5300
  1480.5000      0.0000    494.4077     28.6892    101.6634
  1480.7500      0.0000    476.6035     27.2660    101.7020
  1481.0000      0.0000    464.4659     25.8101    101.7414
  1481.2500      0.0000    474.3776     24.3499    102.0481
  1481.5000      0.0000    511.2763     22.8203    103.0803
  1481.7500      0.0000    568.6120     21.1388    105.5096
  1482.0000      0.0000    636.4452     19.2763    110.0079
  1482.2500      0.0000    706.1614     17.2872    116.6989
  1482.5000      0.0000    769.3683     15.2813    124.4599
  1482.7500      0.0000    818.7021     13.3573    130.7386
  1483.0000      0.0000    851.5665     11.5547    132.5213
  1483.2500      0.0000    869.2515      9.8669    128.0204
  1483.5000      0.0000    872.1443      8.2911    117.7846
  1483.7500      0.0000    859.6306      6.8600    104.4336
  1484.0000      0.0000    835.3477      5.6279     91.2416
  1484.2500      0.0000    808.1934      4.6294     80.5542
  1484.5000      0.0000    785.7908      3.8590     73.0812
  1484.7500      0.0000    769.2930      3.2894     68.3766
  1485.0000      0.0000    755.8126      2.9059     65.7930
  1485.2500      0.0000    744.1835      2.7126     64.9153
  1485.5000      0.0000    737.1000      2.7009     65.2164
  1485.7500      0.0000    739.0205      2.8147     65.6508
  1486.0000      0.0000    753.1499      2.9590     65.0463
  1486.2500      0.0000    778.4223      3.0523     63.0230
  1486.5000      0.0000    806.5210      3.0716     60.3295
  1486.7500      0.0000    823.2515      3.0500     58.2658
  1487.0000      0.0000    818.0239      3.0411     58.0415
  1487.2500      0.0000    794.3262      3.0894     60.5931
  1487.5000      0.0000    768.3060      3.2184     66.3543
  1487.7500      0.0000    755.0288      3.4273     74.6692
  1488.0000      0.0000    756.6482      3.6876     83.5259
  1488.2500      0.0000    763.6528      3.9413     90.2378
  1488.5000      0.0000    765.6523      4.1153     92.8135
  1488.7500      0.0000    759.7955      4.1527     91.0944
  1489.0000      0.0000    749.9558      4.0386     86.6556
  1489.2500      0.0000    740.6329      3.8003     81.4677
  1489.5000      0.0000    733.1591      3.4889     76.6675
  1489.7500      0.0000    726.4457      3.1552     72.5001
  1490.0000      0.0000    719.6103      2.8292     69.0112
  1490.2500      0.0000    713.6927      2.5180     66.5124
  1490.5000      0.0000    711.5504      2.2252     65.4355
  1490.7500      0.0000    715.9012      1.9708     65.7678
  1491.0000      0.0000    726.3271      1.7869     66.7920
  1491.2500      0.0000    737.8198      1.6986     67.7626
  1491.5000      0.0000    743.7339      1.7150     68.8620
  1491.7500      0.0000    741.6136      1.8360     71.0832
  1492.0000      0.0000    735.4129      2.0578     74.9978
  1492.2500      0.0000    731.4025      2.3778     79.8046
  1492.5000      0.0000    733.1957      2.8051     83.7059
  1492.7500      0.0000    740.8375      3.3689     85.2812
  1493.0000      0.0000    752.1581      4.1069     84.5946
  1493.2500      0.0000    763.6138      5.0330     83.0070
  1493.5000      0.0000    771.5994      6.1183     82.0576
  1493.7500      0.0000    774.8837      7.3120     82.7594
  1494.0000      0.0000    775.5544      8.5820     85.8034
  1494.2500      0.0000    776.8272      9.9132     91.7995
  1494.5000      0.0000    780.4668     11.2580    100.8377
  1494.7500      0.0000    786.6501     12.5143    111.8832
  1495.0000      0.0000    795.1732     13.5927    122.8593
  1495.2500      0.0000    805.5568     14.5119    131.4561
  1495.5000      0.0000    816.3290     15.3928    136.2191
  1495.7500      0.0000    825.3658     16.3374    137.3525
  1496.0000      0.0000    831.2463     17.3383    136.3336
  1496.2500      0.0000    833.8604     18.3366    134.2772
  1496.5000      0.0000    833.5858     19.3472    130.9821
  1496.7500      0.0000    830.3573     20.4608    126.0693
  1497.0000      0.0000    823.8442     21.6934    120.5566
  1497.2500      0.0000    814.3111     22.8734    116.5006
  1497.5000      0.0000    802.8407     23.7331    115.1587
  1497.7500      0.0000    790.7338     24.1239    115.9564
  1498.0000      0.0000    779.2061     24.1363    117.2024
  1498.2500      0.0000    769.5912     24.0217    117.6718
  1498.5000      0.0000    763.1018     24.0068    117.6055
  1498.7500      0.0000    760.0596     24.1735    118.1931
  1499.0000      0.0000    759.6047     24.4744    119.9923
  1499.2500      0.0000    760.4141     24.8212    122.1183
  1499.5000      0.0000    761.9825     25.1358    123.2309
  1499.7500      0.0000    765.1284     25.3431    122.9440
  1500.0000      0.0000    770.5707     25.3802    121.9263
  1500.2500      0.0000    776.8238     25.2546    120.9761
  1500.5000      0.0000    780.2390     25.0572    120.4547
  1500.7500      0.0000    777.8540     24.8810    120.4650
  1501.0000      0.0000    770.2686     24.7514    121.1149
  1501.2500      0.0000    761.3865     24.6640    122.3861
  1501.5000      0.0000    754.8624     24.6497    123.8687
  1501.7500      0.0000    750.1964     24.7559    124.8449
  1502.0000      0.0000    742.3295     24.9691    124.8991
  1502.2500      0.0000    725.7084     25.1822    124.4475
  1502.5000      0.0000    699.8743     25.2535    124.2900
  1502.7500      0.0000    671.1832     25.1241    124.3974
  1503.0000      0.0000    647.8028     24.9066    123.4523
  1503.2500      0.0000    632.3183     24.8488    119.9972
  1503.5000      0.0000    620.0631     25.1638    113.9215
  1503.7500      0.0000    605.1898     25.8588    106.6525
  1504.0000      0.0000    586.9495     26.7066    100.2027
  1504.2500      0.0000    568.5815     27.3824     96.1821
  1504.5000      0.0000    552.4374     27.6586     95.3121
  1504.7500      0.0000    540.3311     27.5158     97.3314
  1505.0000      0.0000    536.5746     27.1103    101.1201
  1505.2500      0.0000    544.2662     26.6537    104.9962
  1505.5000      0.0000    557.8782     26.3014    107.3741
  1505.7500      0.0000    565.1498     26.0884    107.8422
  1506.0000      0.0000    559.9769     25.9248    107.7442
  1506.2500      0.0000    549.9802     25.6767    109.0364
  1506.5000      0.0000    547.7024     25.2754    112.2206
  1506.7500      0.0000    556.2698     24.7386    115.7571
  1507.0000      0.0000    567.3122     24.1027    117.5158
  1507.2500      0.0000    572.3368     23.3750    116.1683
  1507.5000      0.0000    572.3936     22.5559    111.2356
  1507.7500      0.0000    575.4640     21.6617    102.8128
  1508.0000      0.0000    588.3399     20.6728     91.8283
  1508.2500      0.0000    614.3422     19.4640     80.2971
  1508.5000      0.0000    654.3677     17.8815     70.9389
  1508.7500      0.0000    703.1151     15.9758     66.0955
  1509.0000      0.0000    746.6398     14.0917     66.4761
  1509.2500      0.0000    771.5677     12.6349     70.7619
  1509.5000     -2.6910    776.8425     11.7789     76.5977
  1509.7500      0.0000    771.9972     11.4338     82.1207
  1510.0000      3.0000    764.4222     11.4130     86.7597
  1510.2500      0.0000    750.8356     11.5892     90.9026
