~Version Information
VERS.                      2.0: CWLS Log ASCII Standard - VERSION 2.0
WRAP.                       NO: One line per depth step
~Well Information Block
STRT.FT               430.0000: 
STOP.FT              2827.0000: 
STEP.FT                 0.1000: 
NULL.                -999.2500: 
COMP.          Pioneer Natural Resources: COMPANY
WELL.           Ei-ei-oh 31-24: WELL
FLD.           Purgatoire River: FIELD
LOC.           235' FNL & 2001' FEL--: LOCATION
PROV.                 Colorado: PROVINCE
CNTY.               Las Animas: COUNTRY
SRVC.                Patterson: SERVICE COMPANY
DATE.          Thu Jun 16 07:14:41 2005: LOG DATE
UWI.           05 071 08403 00: UNIQUE WELL ID
~Curve Information Block
DEPT.FT            0 000 00 00: Depth
DCAL.in                       : CDL Caliper
DPOR.pu                       : CDL Density Porosity
NPOR.pu                       : Neutron Porosity
RHOB.g/cc                     : CDL Bulk Density
RHOC.g/cc                     : CDL Density Correction
GR.GAPI                       : Gamma Ray
~Parameter Information Block
~A  Depth       DCAL        DPOR        NPOR        RHOB        RHOC         GR     
# ...
  1495.6000      8.4525     79.8014     38.2327      1.3333      0.0501     78.6971
  1495.7000      8.4525     80.8742     38.5325      1.3156      0.0566     75.4549
  1495.8000      8.5537     82.0531     38.3192      1.2961     -0.0005     70.2417
  1495.9000      8.5537     82.2399     37.7487      1.2930      0.0168     68.0732
  1496.0000      8.6262     80.3183     37.1079      1.3247      0.0242     69.6898
  1496.1000      8.6262     76.1607     36.5005      1.3933      0.0853     73.5097
  1496.2000      8.6262     70.7675     36.2540      1.4823      0.1491     77.9774
  1496.3000      8.6931     65.2285     36.5276      1.5737      0.1838     81.5015
  1496.4000      8.6931     59.7407     36.8834      1.6643      0.1832     83.0314
  1496.5000      8.6417     54.3240     36.8962      1.7537      0.2487     83.2998
  1496.6000      8.6417     49.4937     36.4089      1.8334      0.2462     86.2805
  1496.7000      8.6417     45.1032     35.6775      1.9058      0.2304     93.7840
  1496.8000      8.4179     40.2595     35.1976      1.9857      0.2389    100.9942
  1496.9000      8.4179     34.9282     35.1122      2.0737      0.2314    101.8885
  1497.0000      8.2027     30.1732     35.2557      2.1521      0.2384     99.0189
  1497.1000      8.2027     26.8147     35.2949      2.2076      0.1725    101.3461
  1497.2000      8.2027     24.7849     34.8163      2.2410      0.1675    110.1949
  1497.3000      8.1142     23.8385     33.9278      2.2567      0.1492    118.1511
  1497.4000      8.1142     23.8943     33.1710      2.2557      0.1199    120.4736
  1497.5000      8.0985     24.5937     32.8236      2.2442      0.0895    118.6718
  1497.6000      8.0985     25.2826     33.0304      2.2328      0.0861    117.4197
  1497.7000      8.0985     25.7419     33.7108      2.2253      0.0452    121.0830
  1497.8000      8.0977     26.4798     34.3246      2.2131      0.0652    125.9621
  1497.9000      8.0977     27.8151     34.4410      2.1911      0.0219    126.6169
  1498.0000      8.0958     28.7629     34.0968      2.1754      0.0131    125.7347
  1498.1000      8.0958     27.9531     33.5293      2.1888      0.0168    128.5737
  1498.2000      8.0958     25.4470     32.9946      2.2301      0.0663    131.8297
  1498.3000      8.0856     22.6411     32.8956      2.2764      0.1033    130.1667
  1498.4000      8.0856     20.0757     33.2706      2.3188      0.0847    126.9128
  1498.5000      8.0601     16.9170     33.4679      2.3709      0.1114    125.7755
  1498.6000      8.0601     13.0185     33.1270      2.4352      0.1613    126.7962
  1498.7000      8.0601      9.9410     32.4160      2.4860      0.2463    129.1135
  1498.8000      8.0226      8.8570     31.8530      2.5039      0.1275    132.1859
  1498.9000      8.0226      8.5521     31.8740      2.5089      0.1302    139.1923
  1499.0000      7.9801      7.4963     32.2729      2.5263      0.1455    148.3256
  1499.1000      7.9801      5.9989     32.8004      2.5510      0.1700    150.5305
  1499.2000      7.9801      5.3047     33.1929      2.5625      0.1288    147.3185
  1499.3000      7.9339      5.5422     32.9520      2.5586      0.0803    146.9427
  1499.4000      7.9339      6.1422     32.0998      2.5487      0.1094    149.2485
  1499.5000      7.8947      6.9557     31.2240      2.5352      0.0575    150.4415
  1499.6000      7.8947      7.3073     30.7509      2.5294      0.0516    148.3627
  1499.7000      7.8947      6.6982     30.7378      2.5395      0.0676    144.8999
  1499.8000      7.8730      6.0387     30.8545      2.5504      0.1201    144.4277
  1499.9000      7.8730      5.8068     30.7830      2.5542      0.0536    143.8316
  1500.0000      7.8655      4.9302     30.3606      2.5687      0.0745    140.4858
  1500.1000      7.8655      3.3462     29.5382      2.5948      0.1007    137.9062
  1500.2000      7.8655      2.5031     28.7316      2.6087      0.1030    136.5788
  1500.3000      7.8647      2.8947     27.8745      2.6022      0.1082    134.7556
  1500.4000      7.8647      3.6161     26.5213      2.5903      0.0704    127.8348
  1500.5000      7.8647      3.8223     25.1549      2.5869      0.0901    116.5673
  1500.6000      7.8647      3.6055     24.4340      2.5905      0.0818    109.3138
  1500.7000      7.8647      3.2770     24.5135      2.5959      0.0594    106.4850
  1500.8000      7.8634      2.9289     24.9248      2.6017      0.1078    103.1081
  1500.9000      7.8634      2.6205     24.8561      2.6068      0.0716    101.7180
  1501.0000      7.8619      2.2632     24.3963      2.6127      0.0475    102.2210
  1501.1000      7.8619      1.9681     24.3690      2.6175      0.1024     99.8950
  1501.2000      7.8619      1.8718     24.8422      2.6191      0.0506     97.9579
  1501.3000      7.8630      1.8465     24.9633      2.6195      0.0466     99.4286
  1501.4000      7.8630      2.1156     24.2699      2.6151      0.0626     98.4164
  1501.5000      7.8660      2.7776     23.5795      2.6042      0.0273     92.6984
  1501.6000      7.8660      3.0837     23.8281      2.5991      0.0039     87.3530
  1501.7000      7.8660      2.3367     24.8056      2.6114      0.0521     87.2072
  1501.8000      7.8705      1.0115     25.5396      2.6333      0.0855     93.5942
  1501.9000      7.8705      0.0967     25.7556      2.6484      0.0539    100.5800
  1502.0000      7.8742      0.0932     26.2135      2.6485      0.0560    102.2744
  1502.1000      7.8742      0.7717     27.0804      2.6373      0.0203    103.4831
  1502.2000      7.8742      1.4097     27.3157      2.6267      0.0422    109.7472
  1502.3000      7.8648      1.9550     26.8511      2.6177      0.0646    117.9409
  1502.4000      7.8648      2.6518     26.7026      2.6062      0.0270    120.6751
  1502.5000      7.8445      3.2122     26.8883      2.5970      0.0428    117.9735
  1502.6000      7.8445      3.8117     27.0156      2.5871      0.0544    116.7686
  1502.7000      7.8445      4.8316     27.3343      2.5703      0.0485    119.5951
  1502.8000      7.8319      6.0724     28.1516      2.5498      0.0340    125.4226
  1502.9000      7.8319      7.0529     29.0219      2.5336      0.0226    131.8585
  1503.0000      7.8284      7.3384     28.9933      2.5289      0.0408    137.8649
  1503.1000      7.8284      6.7810     28.2657      2.5381      0.0563    142.9803
  1503.2000      7.8284      5.8142     27.8013      2.5541      0.0649    140.2332
  1503.3000      7.8238      5.1934     27.7520      2.5643      0.0534    128.7618
  1503.4000      7.8238      5.0876     27.9818      2.5661      0.0870    120.9090
  1503.5000      7.8153      4.9566     28.4537      2.5682      0.0670    122.5565
  1503.6000      7.8153      4.2885     29.0542      2.5792      0.0897    126.0585
  1503.7000      7.8153      3.4507     29.4711      2.5931      0.1036    123.9543
  1503.8000      7.8085      3.0565     28.9118      2.5996      0.0764    121.1171
  1503.9000      7.8085      2.8403     27.5431      2.6031      0.0651    126.8337
  1504.0000      7.8058      2.3913     26.6530      2.6105      0.1104    135.6293
  1504.1000      7.8058      2.2059     26.4924      2.6136      0.1073    136.6538
  1504.2000      7.8058      2.7098     26.5123      2.6053      0.0704    131.3121
  1504.3000      7.8049      3.4810     26.5980      2.5926      0.0272    124.8304
  1504.4000      7.8049      4.1560     26.9924      2.5814      0.0582    119.7520
  1504.5000      7.8044      4.5845     27.5654      2.5744      0.0377    116.3437
  1504.6000      7.8044      4.6081     27.7422      2.5740      0.0481    112.6049
  1504.7000      7.8044      4.8422     27.3298      2.5701      0.0639    109.2308
  1504.8000      7.8040      5.6815     26.5830      2.5563      0.0295    109.6234
  1504.9000      7.8040      6.3647     25.7270      2.5450      0.0353    111.6588
  1505.0000      7.8037      6.1890     25.1063      2.5479      0.0235    110.9706
  1505.1000      7.8037      5.5338     24.7257      2.5587      0.0827    111.3402
