~Version Information
VERS.                      2.0: CWLS Log ASCII Standard - VERSION 2.0
WRAP.                       NO: One line per depth step
~Well Information Block
STRT.FT               890.0000: 
STOP.FT              1588.2000: 
STEP.FT                 0.1000: 
NULL.                -999.2500: 
COMP.          Evergreen Operating Corporation: COMPANY
WELL.            Tomahawk 44-9: WELL
FLD.           Purgatorie River: FIELD
LOC.           434' FSL & 491' FEL: LOCATION
PROV.                 Colorado: PROVINCE
CNTY.               Las Animas: COUNTRY
SRVC.                         : SERVICE COMPANY
DATE.          Mon Sep 13 10:07:57 2004: LOG DATE
UWI.           05 071 08133 00: UNIQUE WELL ID
~Curve Information Block
DEPT.FT            0 000 00 00: Depth
LTEN.lb                       : Surface Line Tension
DCAL.in                       : CDL Caliper
RHOB.g/cc                     : CDL Bulk Density
RHOC.g/cc                     : CDL Density Correction
DPOR.pu                       : CDL Density Porosity
GR.GAPI                       : Gamma Ray
NPOR.pu                       : Neutron Porosity
~Parameter Information Block
~A  Depth       LTEN        DCAL        RHOB        RHOC        DPOR         GR         NPOR    
# ...
  1259.6000   1079.3810      8.1481      1.4589      0.0672     72.1907     60.2057     31.1890
  1259.7000   1079.3810      8.1481      1.4694      0.0444     71.5518     65.8075     31.5952
  1259.8000   1081.7083      8.2445      1.5209      0.0216     68.4312     67.9484     31.9204
  1259.9000   1081.7083      8.2445      1.6165      0.0867     62.6376     69.5941     32.7338
  1260.0000   1075.5291      8.2365      1.7343      0.1594     55.4945     74.8606     33.6190
  1260.1000   1075.5291      8.2365      1.8494      0.1658     48.5225     82.2690     33.5115
  1260.2000   1075.5291      8.2365      1.9649      0.1896     41.5183     88.0841     32.6533
  1260.3000   1072.1652      8.2326      2.1011      0.1824     33.2666     91.6258     32.0788
  1260.4000   1072.1652      8.2326      2.2473      0.2476     24.4084     95.6973     31.4441
  1260.5000   1073.8079      8.2182      2.3556      0.2439     17.8447    101.3678     30.1456
  1260.6000   1073.8079      8.2182      2.4078      0.1344     14.6804    105.8499     28.8564
  1260.7000   1073.8079      8.2182      2.4357      0.1089     12.9895    109.7920     28.0313
  1260.8000   1098.3322      8.1509      2.4610      0.0836     11.4553    112.9191     27.4132
  1260.9000   1098.3322      8.1509      2.4805      0.0569     10.2723    111.5798     27.0106
  1261.0000   1059.2389      8.1363      2.4931      0.0700      9.5086    109.9243     27.0199
  1261.1000   1059.2389      8.1363      2.5002      0.0681      9.0815    115.4337     27.3241
  1261.2000   1059.2389      8.1363      2.5043      0.0645      8.8288    125.7580     27.2039
  1261.3000   1090.6697      8.1385      2.5137      0.0454      8.2613    132.3306     26.0257
  1261.4000   1090.6697      8.1385      2.5301      0.0723      7.2641    129.5637     24.5147
  1261.5000   1057.2327      8.1384      2.5422      0.0644      6.5350    119.2316     23.7312
  1261.6000   1057.2327      8.1384      2.5415      0.0765      6.5761    110.7064     23.8108
  1261.7000   1057.2327      8.1384      2.5339      0.0514      7.0357    110.6830     24.5708
  1261.8000   1051.9031      8.1271      2.5289      0.0708      7.3383    115.7893     25.2791
  1261.9000   1051.9031      8.1271      2.5286      0.0505      7.3555    118.7179     24.8301
  1262.0000   1014.7325      8.1254      2.5284      0.0691      7.3696    117.7223     23.8252
  1262.1000   1014.7325      8.1254      2.5233      0.0596      7.6791    117.6901     23.6030
  1262.2000   1014.7325      8.1254      2.5114      0.0802      8.4024    120.6613     23.9621
  1262.3000   1029.9691      8.1251      2.4983      0.0218      9.1934    120.6233     24.1842
  1262.4000   1029.9691      8.1251      2.4977      0.0307      9.2274    112.7644     24.1770
  1262.5000    983.0176      8.1251      2.5160      0.0379      8.1241    103.3217     24.1061
  1262.6000    983.0176      8.1251      2.5429      0.0528      6.4925    102.2920     24.1385
  1262.7000    983.0176      8.1251      2.5532      0.1090      5.8646    107.8970     24.3744
  1262.8000   1022.9308      8.1257      2.5374      0.0501      6.8246    112.6661     24.6720
  1262.9000   1022.9308      8.1257      2.5181      0.0589      7.9919    114.8292     24.7311
  1263.0000   1024.6310      8.1244      2.5074      0.0643      8.6449    117.1504     24.7953
  1263.1000   1024.6310      8.1244      2.4950      0.0468      9.3914    120.1628     25.3880
  1263.2000   1024.6310      8.1244      2.4852      0.0021      9.9905    122.0165     25.9970
  1263.3000    994.2784      8.1245      2.4890      0.0455      9.7548    120.3915     25.8941
  1263.4000    994.2784      8.1245      2.4984      0.0464      9.1880    114.5074     25.2520
  1263.5000   1070.5612      8.1243      2.5013      0.0450      9.0137    108.9638     24.8294
  1263.6000   1070.5612      8.1243      2.5015      0.0792      8.9983    107.2474     24.9637
  1263.7000   1070.5612      8.1243      2.5122      0.0501      8.3497    108.1434     25.1125
  1263.8000    990.6351      8.1249      2.5389      0.1183      6.7307    110.7973     24.9103
  1263.9000    990.6351      8.1249      2.5701      0.1084      4.8397    114.6000     24.6163
  1264.0000   1051.5186      8.1247      2.5966      0.0956      3.2336    117.2117     24.5949
  1264.1000   1051.5186      8.1247      2.6190      0.1028      1.8779    114.2586     24.6153
  1264.2000   1051.5186      8.1247      2.6355      0.1220      0.8801    105.2569     24.6290
  1264.3000   1026.2018      8.1249      2.6474      0.0902      0.1592     95.8242     24.8611
  1264.4000   1026.2018      8.1249      2.6601      0.1298     -0.6117     89.7990     24.8943
  1264.5000    988.5364      8.1246      2.6682      0.1583     -1.1053     86.2989     24.4628
  1264.6000    988.5364      8.1246      2.6678      0.0783     -1.0774     85.8727     23.7262
  1264.7000    988.5364      8.1246      2.6586      0.1197     -0.5222     88.9359     22.8289
  1264.8000   1038.8173      8.1246      2.6307      0.0761      1.1711     93.7211     22.2077
  1264.9000   1038.8173      8.1246      2.5942      0.0074      3.3795     98.7769     22.2048
  1265.0000   1010.5703      8.1247      2.5756      0.0341      4.5072    103.4016     22.5386
  1265.1000   1010.5703      8.1247      2.5739      0.0158      4.6135    107.0486     22.7176
  1265.2000   1010.5703      8.1247      2.5706     -0.0063      4.8105    107.2847     22.5777
  1265.3000   1003.2229      8.1265      2.5605      0.0391      5.4266    106.0838     22.6828
  1265.4000   1003.2229      8.1265      2.5534     -0.0022      5.8570    109.5896     23.3720
  1265.5000   1056.7180      8.1353      2.5548      0.0405      5.7669    115.3104     23.9551
  1265.6000   1056.7180      8.1353      2.5524      0.0347      5.9177    116.9897     24.1999
  1265.7000   1056.7180      8.1353      2.5408      0.0006      6.6173    115.1919     24.7802
  1265.8000   1000.8944      8.1395      2.5293      0.0341      7.3172    109.7504     25.5769
  1265.9000   1000.8944      8.1395      2.5169      0.0461      8.0654    103.8617     25.7534
  1266.0000   1065.0554      8.1383      2.5033      0.0191      8.8886    106.8000     25.2063
  1266.1000   1065.0554      8.1383      2.4980      0.0466      9.2128    118.4960     24.8380
  1266.2000   1065.0554      8.1383      2.5009      0.0482      9.0364    127.7401     25.2146
  1266.3000   1031.9697      8.1371      2.5055      0.0184      8.7552    128.5840     25.7833
  1266.4000   1031.9697      8.1371      2.5116      0.0664      8.3867    126.2679     25.6412
  1266.5000   1051.6425      8.1355      2.5198      0.0471      7.8913    124.5888     24.8949
  1266.6000   1051.6425      8.1355      2.5257      0.0747      7.5355    123.5643     24.5584
  1266.7000   1051.6425      8.1355      2.5261      0.0653      7.5094    123.7955     24.8755
  1266.8000   1080.3462      8.1223      2.5322      0.0480      7.1410    122.7528     25.1410
  1266.9000   1080.3462      8.1223      2.5505      0.0899      6.0296    118.4004     24.6948
  1267.0000   1052.6030      8.1207      2.5637      0.0932      5.2282    115.0726     23.8470
  1267.1000   1052.6030      8.1207      2.5619      0.0471      5.3369    116.6258     23.4437
  1267.2000   1052.6030      8.1207      2.5574      0.0378      5.6121    116.8858     23.4954
  1267.3000   1110.1243      8.1198      2.5555      0.0731      5.7256    111.7072     23.8549
  1267.4000   1110.1243      8.1198      2.5497      0.0840      6.0767    106.7107     24.3112
  1267.5000   1028.7952      8.1232      2.5406      0.0296      6.6296    107.6471     24.6160
  1267.6000   1028.7952      8.1232      2.5312      0.0553      7.1980    111.9918     24.9213
  1267.7000   1028.7952      8.1232      2.5198      0.0262      7.8900    110.4647     25.0685
  1267.8000   1074.5555      8.1212      2.5148     -0.0317      8.1954    105.5322     24.8994
  1267.9000   1074.5555      8.1212      2.5214      0.0072      7.7925    107.6979     24.6548
