~Version Information
VERS.                      2.0: CWLS Log ASCII Standard - VERSION 2.0
WRAP.                       NO: One line per depth step
~Well Information Block
STRT.FT               720.0000: 
STOP.FT              2730.2000: 
STEP.FT                 0.1000: 
NULL.                -999.2500: 
COMP.          Evergreen Operating Corporation: COMPANY
WELL.            Rangely 22-28: WELL
FLD.           Purgatoire River: FIELD
LOC.           1741' FNL & 2335' FWL: LOCATION
PROV.                 Colorado: PROVINCE
CNTY.               Las Animas: COUNTRY
SRVC.                Patterson: SERVICE COMPANY
DATE.          Thu Sep 16 15:10:36 2004: LOG DATE
UWI.           05 071 08044 00: UNIQUE WELL ID
~Curve Information Block
DEPT.FT            0 000 00 00: Depth
DCAL.in                       : CDL Caliper
DPOR.pu                       : CDL Density Porosity
NPOR.pu                       : Neutron Porosity
RHOB.g/cc                     : CDL Bulk Density
RHOC.g/cc                     : CDL Density Correction
GR.GAPI                       : Gamma Ray
~Parameter Information Block
~A  Depth       DCAL        DPOR        NPOR        RHOB        RHOC         GR     
# ...
  1958.4000      8.1264     13.7342     14.5984      2.4234     -0.0223    166.6114
  1958.5000      8.1173     14.5066     16.0237      2.4106      0.0232    171.2636
  1958.6000      8.1173     13.0333     18.3838      2.4350      0.0239    166.7228
  1958.7000      8.1173     10.4230     19.5214      2.4780      0.0758    158.7586
  1958.8000      8.1173      8.4362     19.0020      2.5108      0.0899    153.5301
  1958.9000      8.1173      8.1983     17.8666      2.5147      0.0784    148.6835
  1959.0000      8.1193      9.2354     16.2675      2.4976      0.0761    144.2531
  1959.1000      8.1193     10.5050     14.8468      2.4767      0.0479    144.3655
  1959.2000      8.1193     11.2231     15.0390      2.4648      0.0484    147.9186
  1959.3000      8.1265     10.8656     17.5009      2.4707      0.0838    152.0777
  1959.4000      8.1265      9.8155     21.1325      2.4880      0.1508    156.5074
  1959.5000      8.1350      9.3641     22.8427      2.4955      0.1346    159.9611
  1959.6000      8.1350     10.0690     22.3549      2.4839      0.1194    159.3318
  1959.7000      8.1350     11.4470     20.4914      2.4611      0.0703    155.4398
  1959.8000      8.1274     13.0887     18.2735      2.4340      0.0657    151.9860
  1959.9000      8.1274     14.5716     17.6002      2.4096      0.0132    151.2146
  1960.0000      8.1121     15.0296     19.1334      2.4020      0.0321    156.7512
  1960.1000      8.1121     14.3821     20.9280      2.4127      0.0584    167.4334
  1960.2000      8.1121     13.5037     20.1652      2.4272      0.0670    174.4822
  1960.3000      8.1391     12.8585     18.6762      2.4378      0.1177    171.9558
  1960.4000      8.1391     11.6374     18.3650      2.4580      0.0724    162.2515
  1960.5000      8.2078      9.0888     18.9601      2.5000      0.1691    155.7989
  1960.6000      8.2078      6.4359     19.7085      2.5438      0.2267    160.0341
  1960.7000      8.2078      4.5600     19.1666      2.5748      0.1770    167.2845
  1960.8000      8.2174      2.4958     17.8246      2.6088      0.1839    165.9741
  1960.9000      8.2174      0.4593     17.6033      2.6424      0.2196    160.8634
  1961.0000      8.1335      0.3704     18.3879      2.6439      0.2152    159.0591
  1961.1000      8.1335      2.2672     18.4679      2.6126      0.1066    160.1423
  1961.2000      8.1335      3.4391     17.9852      2.5933      0.0628    161.6040
  1961.3000      8.0775      2.6787     18.5278      2.6058      0.1386    158.9577
  1961.4000      8.0775      1.9773     20.0672      2.6174      0.1714    154.4579
  1961.5000      8.0781      3.0787     21.2985      2.5992      0.0887    153.0377
  1961.6000      8.0781      5.4208     20.9983      2.5606      0.0516    151.8200
  1961.7000      8.0781      7.9543     19.4237      2.5188      0.0111    149.3982
  1961.8000      8.0893     10.4330     18.0666      2.4779      0.0086    150.0444
  1961.9000      8.0893     12.4920     17.3290      2.4439     -0.0605    153.1256
  1962.0000      8.1156     13.4512     16.7312      2.4281     -0.0335    152.8783
  1962.1000      8.1156     13.0356     16.8147      2.4349     -0.0289    150.3988
  1962.2000      8.1156     11.3159     18.5360      2.4633     -0.0069    154.0897
  1962.3000      8.2114      8.9951     20.5125      2.5016      0.0679    161.8367
  1962.4000      8.2114      7.4623     19.9119      2.5269      0.1187    166.4013
  1962.5000      8.3779      7.5946     18.4458      2.5247      0.1225    165.3650
  1962.6000      8.3779      8.7766     18.2063      2.5052      0.1052    156.1565
  1962.7000      8.3779     10.2582     18.9188      2.4807      0.1510    144.1060
  1962.8000      8.4431     12.8394     19.9617      2.4381      0.1397    141.9713
  1962.9000      8.4431     17.2093     20.9017      2.3660      0.0431    149.7763
  1963.0000      8.3185     22.2504     21.2132      2.2829      0.0141    155.5650
  1963.1000      8.3185     27.0184     20.7522      2.2042      0.0313    155.6943
  1963.2000      8.3185     32.0494     20.6058      2.1212     -0.0813    155.1951
  1963.3000      8.1959     38.9293     22.1490      2.0077     -0.0815    156.2298
  1963.4000      8.1959     48.9188     24.4938      1.8428     -0.1569    158.2661
  1963.5000      8.1831     60.0865     25.2580      1.6586     -0.1950    160.7385
  1963.6000      8.1831     68.3752     24.1339      1.5218     -0.1589    165.0371
  1963.7000      8.1831     71.6762     22.1250      1.4673     -0.0438    170.9125
  1963.8000      8.3093     69.3466     20.2600      1.5058     -0.0050    171.7567
  1963.9000      8.3093     60.5573     19.5061      1.6508      0.1066    165.6210
  1964.0000      8.6432     47.8761     19.9933      1.8600      0.4013    160.1900
  1964.1000      8.6432     36.7330     21.1484      2.0439      0.4422    159.2209
  1964.2000      8.6432     28.2615     22.2526      2.1837      0.4486    157.4247
  1964.3000      9.0775     19.9093     21.9808      2.3215      0.5091    152.6511
  1964.4000      9.0775     12.0086     20.0040      2.4519      0.5732    151.8039
  1964.5000      9.2759      7.0879     17.8753      2.5331      0.5240    158.8272
  1964.6000      9.2759      4.6580     16.8031      2.5731      0.4014    167.0166
  1964.7000      9.2759      2.0074     17.2174      2.6169      0.3594    166.0841
  1964.8000      9.0549     -0.8732     18.8655      2.6644      0.3825    156.4791
  1964.9000      9.0549     -1.2672     19.8609      2.6709      0.2893    148.4249
  1965.0000      8.6241      1.6954     19.4671      2.6220      0.1674    147.7820
  1965.1000      8.6241      5.6370     18.6446      2.5570      0.0653    151.0860
  1965.2000      8.6241      8.3235     17.4826      2.5127      0.0658    151.0273
  1965.3000      8.2924      9.7623     17.1381      2.4889     -0.0222    149.7043
  1965.4000      8.2924     10.7552     18.4830      2.4725      0.0328    155.5156
  1965.5000      8.1458     11.5117     20.2241      2.4601     -0.0209    168.2297
  1965.6000      8.1458     11.7725     20.9521      2.4558      0.0147    180.4236
  1965.7000      8.1458     11.5142     21.4251      2.4600     -0.0089    184.6487
  1965.8000      8.1038     11.4535     21.0290      2.4610      0.0431    181.0630
  1965.9000      8.1038     13.0073     19.4571      2.4354      0.0387    176.1835
  1966.0000      8.0866     16.9415     18.7471      2.3705      0.0289    173.2697
  1966.1000      8.0866     22.4029     19.6619      2.2804     -0.0347    171.0083
  1966.2000      8.0866     27.4509     20.6975      2.1971     -0.0857    166.1871
  1966.3000      8.0745     30.8384     20.7476      2.1412     -0.0418    158.6582
  1966.4000      8.0745     33.3601     20.4047      2.0996     -0.0300    153.4373
  1966.5000      8.0975     37.0229     20.1724      2.0391      0.0188    154.0924
  1966.6000      8.0975     42.6985     20.3199      1.9455     -0.0286    158.8849
  1966.7000      8.0975     48.7754     21.0469      1.8452     -0.0873    161.5810
  1966.8000      8.2419     53.3546     22.5949      1.7696     -0.0541    158.5632
  1966.9000      8.2419     56.3914     24.1341      1.7195     -0.0214    154.5827
  1967.0000      8.5798     57.8727     24.7281      1.6951      0.0054    154.2888
  1967.1000      8.5798     56.7456     25.1063      1.7137      0.1532    155.0595
  1967.2000      8.5798     53.0211     25.3412      1.7752      0.2992    155.9466
  1967.3000      9.0927     47.9158     24.3318      1.8594      0.2974    160.4353
  1967.4000      9.0927     41.4731     22.2993      1.9657      0.3134    165.1619
  1967.5000      9.6836     32.8760     21.4224      2.1075      0.3451    163.4109
  1967.6000      9.6836     23.1557     21.9327      2.2679      0.4480    158.5114
  1967.7000      9.6836     15.7435     21.2354      2.3902      0.5332    157.3504
  1967.8000     10.0494     12.8113     19.5582      2.4386      0.5005    162.9284
  1967.9000     10.0494     12.4870     18.6605      2.4440      0.4279    173.1169
