~Version Information
VERS.                      2.0: CWLS Log ASCII Standard - VERSION 2.0
WRAP.                       NO: One line per depth step
~Well Information Block
STRT.FT               801.5000: 
STOP.FT              2513.0000: 
STEP.FT                 0.2500: 
NULL.                -999.2500: 
COMP.          Petrogulf Corporation: COMPANY
WELL.               YWAM 7-32V: WELL
FLD.           Purgatoire River: FIELD
LOC.           2423' FNL & 2412' FEL: LOCATION
PROV.                 Colorado: PROVINCE
CNTY.               Las Animas: COUNTRY
SRVC.                Patterson: SERVICE COMPANY
DATE.          Sun Dec 14 06:58:17 2003: LOG DATE
UWI.                          : UNIQUE WELL ID
~Curve Information Block
DEPT.FT            0 000 00 00: Depth
SP.mV                         : DIL Spontaneous Potential
RILD.Ohm-m                    : DIL Deep Resistivity
RILM.Ohm-m                    : DIL Medium Resistivity
RLL3.Ohm-m                    : DIL Shallow Resistivity
GR.GAPI                       : Gamma Ray
~Parameter Information Block
~A  Depth        SP         RILD        RILM        RLL3         GR     
# ...
  1501.5000   -402.2863     10.7658     11.4720     13.4673    153.7019
  1501.7500   -401.7487     10.6220     11.3110     13.3371    157.4971
  1502.0000   -401.2407     10.4921     11.1279     13.2040    161.7932
  1502.2500   -400.8432     10.3738     10.9195     13.0014    162.6616
  1502.5000   -400.5890     10.2690     10.6909     12.7001    161.5836
  1502.7500   -400.4581     10.1857     10.4562     12.3164    160.9169
  1503.0000   -400.3887     10.1357     10.2352     11.9183    162.1349
  1503.2500   -400.2973     10.1283     10.0476     11.5990    163.9149
  1503.5000   -400.1041     10.1625      9.9087     11.4163    165.1237
  1503.7500   -399.7571     10.2233      9.8275     11.3573    163.8868
  1504.0000   -399.2613     10.2893      9.8093     11.3670    159.9170
  1504.2500   -398.6985     10.3461      9.8580     11.4153    157.3243
  1504.5000   -398.2059     10.3973      9.9769     11.5513    155.3034
  1504.7500   -397.9087     10.4629     10.1656     11.9112    155.2534
  1505.0000   -397.8601     10.5685     10.4147     12.6514    156.1011
  1505.2500   -398.0273     10.7348     10.7048     13.8062    156.7077
  1505.5000   -398.3099     10.9748     11.0133     15.1500    157.1760
  1505.7500   -398.5819     11.2958     11.3279     16.2358    156.8933
  1506.0000   -398.7619     11.7028     11.6599     16.7039    154.8305
  1506.2500   -398.8730     12.2008     12.0455     16.6658    152.2061
  1506.5000   -399.0314     12.7956     12.5340     16.8019    147.1086
  1506.7500   -399.3641     13.4919     13.1705     18.0193    143.5290
  1507.0000   -399.9242     14.2899     13.9809     20.8757    137.8897
  1507.2500   -400.6612     15.1815     14.9663     25.1718    133.1254
  1507.5000   -401.4552     16.1495     16.1046     30.0501    122.7315
  1507.7500   -402.1842     17.1743     17.3591     34.5947    113.4440
  1508.0000   -402.7855     18.2450     18.6889     38.4599     97.9011
  1508.2500   -403.2815     19.3690     20.0575     42.0246     88.2464
  1508.5000   -403.7596     20.5693     21.4352     46.0267     76.8316
  1508.7500   -404.3164     21.8694     22.7983     50.9709     71.2982
  1509.0000   -404.9991     23.2753     24.1282     56.5818     65.0017
  1509.2500   -405.7729     24.7672     25.4044     61.6262     61.5367
  1509.5000   -406.5341     26.3091     26.5899     64.4445     57.2483
  1509.7500   -407.1592     27.8711     27.6212     64.0024     55.3414
  1510.0000   -407.5653     29.4452     28.4340     60.6279     54.4927
  1510.2500   -407.7489     31.0351     29.0243     55.7877     55.1283
  1510.5000   -407.7876     32.6198     29.4877     51.1800     56.8257
  1510.7500   -407.8120     34.1218     29.9763     47.9350     57.8298
  1511.0000   -407.9608     35.4144     30.6001     46.3683     58.7632
  1511.2500   -408.3334     36.3895     31.3562     46.1728     59.1753
  1511.5000   -408.9523     37.0439     32.1409     46.7589     60.0889
  1511.7500   -409.7518     37.5063     32.8356     47.5524     61.2516
  1512.0000   -410.6017     37.9675     33.4002     48.1887     64.0577
  1512.2500   -411.3530     38.5717     33.8965     48.5821     66.4157
  1512.5000   -411.8821     39.3475     34.4254     48.8799     70.0460
  1512.7500   -412.1180     40.2219     35.0349     49.3321     72.4405
  1513.0000   -412.0490     41.0913     35.6689     50.1244     76.3295
  1513.2500   -411.7158     41.8916     36.1968     51.2371     78.9934
  1513.5000   -411.1915     42.6083     36.5056     52.4078     81.7268
  1513.7500   -410.5465     43.2251     36.5823     53.2662     81.8683
  1514.0000   -409.8047     43.6552     36.5132     53.6155     79.6293
  1514.2500   -408.9201     43.7225     36.4100     53.7227     77.4465
  1514.5000   -407.8069     43.2161     36.3326     54.4213     74.8998
  1514.7500   -406.4055     42.0076     36.2460     56.8840     74.0817
  1515.0000   -404.7255     40.1564     36.0148     61.9682     73.6793
  1515.2500   -402.8354     37.9197     35.4432     69.1928     73.5363
  1515.5000   -400.8290     35.6467     34.3719     75.9855     73.5882
  1515.7500   -398.8048     33.6305     32.7880     78.4045     74.3745
  1516.0000   -396.8622     32.0051     30.8545     73.6383     77.8168
  1516.2500   -395.0958     30.7250     28.8281     62.3609     81.9361
  1516.5000   -393.5807     29.6137     26.9376     48.4850     90.6926
  1516.7500   -392.3587     28.4636     25.3117     36.4448     97.9340
  1517.0000   -391.4414     27.1479     23.9707     28.6523    109.9893
  1517.2500   -390.8235     25.6751     22.8540     25.0435    117.9226
  1517.5000   -390.4893     24.1526     21.8612     24.1844    127.8310
  1517.7500   -390.4030     22.7029     20.8977     24.4539    132.3936
  1518.0000   -390.4946     21.4056     19.9140     24.6413    136.1302
  1518.2500   -390.6608     20.2895     18.9199     24.1418    137.1171
  1518.5000   -390.7901     19.3550     17.9674     22.9468    137.9017
  1518.7500   -390.8013     18.5978     17.1165     21.4355    138.9511
  1519.0000   -390.6727     18.0200     16.4101     20.0390    142.4902
  1519.2500   -390.4386     17.6262     15.8689     18.9816    146.2739
  1519.5000   -390.1610     17.4126     15.4976     18.2307    153.1821
  1519.7500   -389.9020     17.3606     15.2937     17.6275    157.5572
  1520.0000   -389.7157     17.4422     15.2492     17.0832    161.7196
  1520.2500   -389.6494     17.6310     15.3508     16.7083    162.2273
  1520.5000   -389.7263     17.9129     15.5829     16.7973    160.1597
  1520.7500   -389.9146     18.2877     15.9329     17.7048    157.7567
  1521.0000   -390.1258     18.7651     16.3931     19.6874    153.2353
  1521.2500   -390.2755     19.3586     16.9528     22.7200    149.2198
  1521.5000   -390.3513     20.0797     17.5892     26.3518    140.8728
  1521.7500   -390.4132     20.9333     18.2691     29.8234    133.7781
  1522.0000   -390.5438     21.9193     18.9653     32.5193    121.8771
  1522.2500   -390.8270     23.0395     19.6777     34.3584    114.1267
  1522.5000   -391.3635     24.3071     20.4408     35.6811    104.5782
  1522.7500   -392.2535     25.7440     21.3116     36.8029    100.0980
  1523.0000   -393.5220     27.3635     22.3419     37.7778     95.5965
  1523.2500   -395.0613     29.1437     23.5455     38.5229     93.2904
  1523.5000   -396.6706     31.0117     24.8771     39.0056     89.9621
  1523.7500   -398.1603     32.8452     26.2385     39.2881     87.7163
  1524.0000   -399.4318     34.4959     27.5201     39.5001     84.3891
  1524.2500   -400.4861     35.8231     28.6504     39.8301     82.2287
  1524.5000   -401.3875     36.7289     29.6131     40.5101     79.1069
  1524.7500   -402.2254     37.1925     30.4224     41.7653     77.1695
  1525.0000   -403.0890     37.2999     31.0871     43.7508     74.7461
  1525.2500   -404.0455     37.2492     31.5955     46.4637     73.6808
  1525.5000   -405.1217     37.3026     31.9260     49.6144     73.3111
  1525.7500   -406.3064     37.6943     32.0720     52.5687     73.9934
  1526.0000   -407.5773     38.5414     32.0582     54.5352     76.0519
  1526.2500   -408.9236     39.7946     31.9413     54.9693     77.4811
  1526.5000   -410.3361     41.2479     31.7908     53.8789     78.3135
  1526.7500   -411.7709     42.6009     31.6634     51.7723     77.5413
  1527.0000   -413.1220     43.5653     31.5858     49.3316     75.0798
  1527.2500   -414.2472     43.9678     31.5553     47.1158     73.6294
  1527.5000   -415.0476     43.8025     31.5575     45.4659     73.0356
  1527.7500   -415.5334     43.2152     31.5884     44.5481     73.3505
  1528.0000   -415.7955     42.4493     31.6649     44.3958     72.8933
  1528.2500   -415.9122     41.7905     31.8148     44.9150     71.0925
  1528.5000   -415.9066     41.5155     32.0562     45.8975     66.6162
  1528.7500   -415.7940     41.8283     32.3828     47.0772     63.6806
  1529.0000   -415.6284     42.7893     32.7707     48.2337     61.5878
  1529.2500   -415.4692     44.2639     33.2028     49.3210     62.3499
