~Version Information
VERS.                      2.0: CWLS Log ASCII Standard - VERSION 2.0
WRAP.                       NO: One line per depth step
~Well Information Block
STRT.FT               860.0000: 
STOP.FT              1907.0000: 
STEP.FT                 0.1000: 
NULL.                -999.2500: 
COMP.          Pioneer Natural Resources: COMPANY
WELL.          Victory 12-14 Tr: WELL
FLD.           Purgatoire River: FIELD
LOC.           2522' FNL & 276' FWL: LOCATION
PROV.                 Colorado: PROVINCE
CNTY.               Las Animas: COUNTRY
SRVC.                Patterson: SERVICE COMPANY
DATE.          Mon Jul 18 06:52:40 2005: LOG DATE
UWI.           05 071 08433 00: UNIQUE WELL ID
~Curve Information Block
DEPT.FT            0 000 00 00: Depth
DCAL.in                       : CDL Caliper
RHOB.g/cc                     : CDL Bulk Density
RHOC.g/cc                     : CDL Density Correction
DPOR.pu                       : CDL Density Porosity
GR.GAPI                       : Gamma Ray
NPOR.pu                       : Neutron Porosity
~Parameter Information Block
~A  Depth       DCAL        RHOB        RHOC        DPOR         GR         NPOR    
# ...
   927.2000      8.0430      2.4724      0.0802     10.7617     89.5771     19.5859
   927.3000      8.0424      2.4532      0.0458     11.9267     86.5227     19.6639
   927.4000      8.0424      2.4478     -0.0004     12.2555     86.8005     19.8041
   927.5000      8.0563      2.4647      0.0677     11.2322     89.7481     20.2168
   927.6000      8.0563      2.4880      0.0717      9.8163     94.2206     20.6393
   927.7000      8.0563      2.5006      0.0560      9.0518     96.5726     20.8115
   927.8000      8.0670      2.5062      0.0610      8.7163     98.2350     20.8903
   927.9000      8.0670      2.5216      0.0876      7.7831     99.7490     21.2071
   928.0000      8.0767      2.5510      0.1252      6.0005     97.1081     21.4239
   928.1000      8.0767      2.5775      0.1555      4.3934     91.0828     21.1723
   928.2000      8.0767      2.5854      0.1524      3.9142     84.9651     20.9486
   928.3000      8.0854      2.5799      0.1219      4.2489     80.8852     21.0662
   928.4000      8.0854      2.5756      0.1383      4.5063     81.0922     21.3352
   928.5000      8.0596      2.5752      0.1316      4.5305     85.6780     21.5957
   928.6000      8.0596      2.5796      0.0630      4.2690     92.1571     21.7401
   928.7000      8.0596      2.5890      0.1084      3.6963     97.8250     21.6194
   928.8000      8.0417      2.5865      0.1110      3.8501    100.2720     21.2717
   928.9000      8.0417      2.5688      0.0307      4.9211     98.6593     21.0189
   929.0000      8.0440      2.5652     -0.0379      5.1420     96.3286     20.9147
   929.1000      8.0440      2.5905      0.0133      3.6078     95.6479     20.7447
   929.2000      8.0440      2.6195      0.0658      1.8491     96.0491     20.5963
   929.3000      8.0451      2.6285      0.0889      1.3021     96.2197     20.6001
   929.4000      8.0451      2.6332      0.0537      1.0197     93.9410     20.6828
   929.5000      8.0451      2.6530      0.0441     -0.1815     89.2744     20.7945
   929.6000      8.0451      2.6688      0.1207     -1.1414     86.6521     20.7021
   929.7000      8.0451      2.6523      0.0953     -0.1368     89.4412     20.2306
   929.8000      8.0382      2.6101      0.0358      2.4154     93.2177     19.9013
   929.9000      8.0382      2.5771     -0.0145      4.4191     89.3248     20.2610
   930.0000      8.0445      2.5771      0.0262      4.4170     79.0935     21.0049
   930.1000      8.0445      2.5936      0.0737      3.4188     73.9594     21.4871
   930.2000      8.0445      2.5953      0.0296      3.3181     78.0632     21.5104
   930.3000      8.0467      2.5816      0.0173      4.1470     83.3355     21.1948
   930.4000      8.0467      2.5792      0.0059      4.2881     82.8409     20.8543
   930.5000      8.0619      2.6064      0.0250      2.6411     77.4490     20.8899
   930.6000      8.0619      2.6553      0.0513     -0.3231     71.5874     21.2941
   930.7000      8.0619      2.7023      0.0779     -3.1684     67.4258     21.5391
   930.8000      8.0633      2.7245      0.0780     -4.5131     64.9087     21.2634
   930.9000      8.0633      2.7105      0.1031     -3.6689     64.6187     20.7626
   931.0000      8.0578      2.6749      0.0735     -1.5101     64.1808     20.3158
   931.1000      8.0578      2.6504      0.0908     -0.0266     60.9659     19.8448
   931.2000      8.0578      2.6474      0.1456      0.1581     55.9277     19.6888
   931.3000      8.0026      2.6554      0.1086     -0.3256     51.4687     19.9345
   931.4000      8.0026      2.6787      0.0908     -1.7387     49.8680     19.7827
   931.5000      7.9565      2.7184      0.1980     -4.1451     52.0469     18.9299
   931.6000      7.9565      2.7462      0.2536     -5.8330     56.0788     17.9998
   931.7000      7.9565      2.7411      0.2550     -5.5183     59.6121     17.4281
   931.8000      7.9685      2.7164      0.1928     -4.0230     62.2043     17.0799
   931.9000      7.9685      2.6976      0.2027     -2.8843     64.0631     16.9173
   932.0000      7.9744      2.6826      0.1912     -1.9761     64.7656     17.0633
   932.1000      7.9744      2.6482      0.1385      0.1094     64.2422     17.3597
   932.2000      7.9744      2.6011      0.0670      2.9641     63.9790     17.6039
   932.3000      7.9844      2.5686      0.0906      4.9350     64.7866     17.7570
   932.4000      7.9844      2.5462      0.0607      6.2886     65.3936     17.6859
   932.5000      8.0017      2.5299      0.0208      7.2813     65.8516     17.4794
   932.6000      8.0017      2.5383      0.0214      6.7702     67.8893     17.5728
   932.7000      8.0017      2.5587      0.1249      5.5341     71.6924     17.8086
   932.8000      8.0783      2.5516      0.0946      5.9648     75.2018     17.6999
   932.9000      8.0783      2.5211      0.0646      7.8137     75.8571     17.4035
   933.0000      8.0812      2.5032      0.0546      8.8940     74.9177     17.2305
   933.1000      8.0812      2.5039      0.1017      8.8559     75.9487     17.1724
   933.2000      8.0812      2.5008      0.1181      9.0454     77.8160     17.1881
   933.3000      8.0801      2.4840      0.0826     10.0616     76.6864     17.2528
   933.4000      8.0801      2.4634      0.0592     11.3112     73.7459     17.3792
   933.5000      8.0487      2.4514      0.0409     12.0389     71.8616     17.5270
   933.6000      8.0487      2.4555      0.0204     11.7861     72.7999     17.4972
   933.7000      8.0487      2.4784      0.0572     10.3993     75.2491     17.3479
   933.8000      8.0222      2.5160      0.1097      8.1200     74.6141     17.2881
   933.9000      8.0222      2.5510      0.1259      6.0024     70.4893     17.1958
   934.0000      8.0314      2.5644      0.1500      5.1891     67.3915     17.1317
   934.1000      8.0314      2.5651      0.1115      5.1480     68.3916     17.5798
   934.2000      8.0314      2.5750      0.1095      4.5454     69.5556     18.4618
   934.3000      8.0521      2.5851      0.1648      3.9349     66.5313     18.9995
   934.4000      8.0521      2.5713      0.1109      4.7676     62.7971     19.0374
   934.5000      8.0558      2.5450      0.0721      6.3657     63.9029     19.2204
   934.6000      8.0558      2.5332      0.0738      7.0772     70.7957     20.0055
   934.7000      8.0558      2.5373      0.0191      6.8276     76.4191     21.2076
   934.8000      8.0595      2.5460      0.0431      6.3037     75.5242     22.1525
   934.9000      8.0595      2.5585      0.0189      5.5451     73.2748     22.5684
   935.0000      8.0539      2.5750      0.0615      4.5454     73.0940     22.9498
   935.1000      8.0539      2.5891      0.0505      3.6889     74.3668     23.5196
   935.2000      8.0539      2.6009      0.0651      2.9770     76.8479     23.9993
   935.3000      8.0695      2.6086      0.0770      2.5108     78.3390     23.9644
   935.4000      8.0695      2.6106      0.0553      2.3908     78.3525     23.3225
   935.5000      8.1016      2.6207      0.0075      1.7729     78.3023     22.5116
   935.6000      8.1016      2.6436     -0.0055      0.3852     77.8020     21.9263
   935.7000      8.1016      2.6569      0.0420     -0.4208     75.9252     21.6459
   935.8000      8.1091      2.6400      0.0671      0.6071     73.0274     21.4611
   935.9000      8.1091      2.5991      0.0172      3.0834     70.4246     21.0020
   936.0000      8.1174      2.5617      0.0035      5.3540     69.6836     20.2207
   936.1000      8.1174      2.5422      0.0243      6.5356     70.3743     19.4916
   936.2000      8.1174      2.5293      0.0211      7.3133     67.8657     19.0558
   936.3000      8.1148      2.5162     -0.0060      8.1119     62.9104     19.0401
   936.4000      8.1148      2.5115      0.0078      8.3969     62.6955     19.4700
   936.5000      8.1150      2.5167      0.0177      8.0787     67.8694     20.1636
   936.6000      8.1150      2.5226      0.0403      7.7225     74.1805     20.8557
   936.7000      8.1150      2.5257      0.0627      7.5311     79.1461     21.2098
