~Version Information
VERS.                      2.0: CWLS Log ASCII Standard - VERSION 2.0
WRAP.                       NO: One line per depth step
~Well Information Block
STRT.FT               765.6000: 
STOP.FT              2431.0000: 
STEP.FT                 0.1000: 
NULL.                -999.2500: 
COMP.          Petrogulf Corporation: COMPANY
WELL.             Norton 9-14V: WELL
FLD.           Purgatorie River: FIELD
LOC.           230' FSL & 225' FWL: LOCATION
CNTY.               Las Animas: COUNTY
SRVC.                         : SERVICE COMPANY
DATE.          Thu Oct 28 06:20:25 2004: LOG DATE
UWI.           05 071 07891 00: UNIQUE WELL ID
STAT.                 Colorado: STATE
~Curve Information Block
DEPT.FT            0 000 00 00: Depth
DCAL.in                       : CDL Caliper
RHOB.g/cc                     : CDL Bulk Density
RHOC.g/cc                     : CDL Density Correction
DPOR.pu                       : CDL Density Porosity
GR.GAPI                       : Gamma Ray
NPOR.pu                       : Neutron Porosity
~Parameter Information Block
~A  Depth       DCAL        RHOB        RHOC        DPOR         GR         NPOR    
# ...
  1543.2000      7.9615      2.5454     -0.0167      6.3406    124.3725     23.4563
  1543.3000      7.9684      2.5324      0.0607      7.1283    127.1107     23.3158
  1543.4000      7.9684      2.5293      0.0159      7.3155    127.4200     23.6670
  1543.5000      7.9342      2.5378      0.0106      6.8021    130.2198     24.3237
  1543.6000      7.9342      2.5678      0.0642      4.9848    137.1140     24.7347
  1543.7000      7.9342      2.6106      0.1564      2.3855    145.1646     24.5903
  1543.8000      7.9365      2.6409      0.2221      0.5523    149.4978     23.8841
  1543.9000      7.9365      2.6482      0.1490      0.1116    146.3467     23.0827
  1544.0000      7.9607      2.6408      0.1528      0.5574    139.9250     22.8112
  1544.1000      7.9607      2.6182      0.1292      1.9282    137.2595     22.7915
  1544.2000      7.9607      2.5791      0.0678      4.2985    138.2957     22.3941
  1544.3000      7.9788      2.5503     -0.0142      6.0425    138.8734     22.0129
  1544.4000      7.9788      2.5554      0.0173      5.7348    136.8833     22.4058
  1544.5000      7.9853      2.5734      0.0848      4.6406    133.3300     23.5148
  1544.6000      7.9853      2.5729      0.0323      4.6739    132.3891     24.5657
  1544.7000      7.9853      2.5508      0.0482      6.0102    138.1474     25.0611
  1544.8000      8.0115      2.5225      0.0367      7.7301    147.0048     25.0710
  1544.9000      8.0115      2.5085      0.0029      8.5765    152.3478     24.6883
  1545.0000      8.0645      2.5195      0.0416      7.9091    153.4739     24.2773
  1545.1000      8.0645      2.5379      0.0872      6.7953    153.1057     24.3861
  1545.2000      8.0645      2.5429      0.0632      6.4925    151.1516     24.7628
  1545.3000      8.0785      2.5370      0.0325      6.8511    149.9625     24.9136
  1545.4000      8.0785      2.5380      0.0371      6.7867    152.7715     25.0539
  1545.5000      8.0810      2.5585      0.0564      5.5483    155.0943     25.2772
  1545.6000      8.0810      2.5812      0.1420      4.1682    154.7158     25.4716
  1545.7000      8.0810      2.5802      0.1243      4.2307    159.9736     25.8686
  1545.8000      8.0860      2.5674      0.0419      5.0085    173.4989     26.1868
  1545.9000      8.0860      2.5650      0.0440      5.1490    181.5724     25.8275
  1546.0000      8.0897      2.5639      0.0622      5.2181    174.7952     25.3653
  1546.1000      8.0897      2.5458      0.0609      6.3174    164.0524     25.5312
  1546.2000      8.0897      2.5167      0.0651      8.0791    160.6815     25.7107
  1546.3000      8.0849      2.4996     -0.0091      9.1176    161.1213     25.3527
  1546.4000      8.0849      2.5014      0.0362      9.0038    159.7447     24.8109
  1546.5000      8.0886      2.5079      0.0305      8.6129    158.9069     24.3912
  1546.6000      8.0886      2.5086      0.0298      8.5699    160.8372     24.1576
  1546.7000      8.0886      2.5017      0.0766      8.9898    164.7516     24.2824
  1546.8000      8.0949      2.4889     -0.0008      9.7656    167.9354     24.7206
  1546.9000      8.0949      2.4783      0.0421     10.4072    170.6667     25.1836
  1547.0000      8.1117      2.4776      0.0662     10.4481    175.2144     25.3495
  1547.1000      8.1117      2.4935      0.1087      9.4819    178.5434     25.3721
  1547.2000      8.1117      2.5250      0.1016      7.5758    179.1691     25.8716
  1547.3000      8.1567      2.5580      0.1251      5.5739    177.6967     26.8105
  1547.4000      8.1567      2.5738      0.1492      4.6194    172.2274     27.5361
  1547.5000      8.2026      2.5739      0.0320      4.6101    163.7825     27.9895
  1547.6000      8.2026      2.5749      0.1190      4.5495    157.6303     28.3876
  1547.7000      8.2026      2.5724      0.0903      4.7030    157.6678     28.4483
  1547.8000      8.2028      2.5662      0.0792      5.0815    162.9213     28.1200
  1547.9000      8.2028      2.5754      0.0916      4.5191    167.1754     27.8852
  1548.0000      8.1932      2.5901      0.1382      3.6325    165.3540     27.6844
  1548.1000      8.1932      2.5749      0.0881      4.5503    160.5703     27.1948
  1548.2000      8.1932      2.5161      0.0697      8.1137    160.8763     26.6288
  1548.3000      8.2003      2.4214      0.0431     13.8519    167.9444     26.0284
  1548.4000      8.2003      2.3062     -0.0176     20.8366    175.0485     25.2313
  1548.5000      8.1632      2.1776     -0.0164     28.6320    177.5175     24.4355
  1548.6000      8.1632      2.0429     -0.1026     36.7945    178.9532     23.6934
  1548.7000      8.1632      1.9344     -0.1368     43.3676    183.6921     22.7513
  1548.8000      8.1587      1.8801     -0.0670     46.6621    186.9808     21.7794
  1548.9000      8.1587      1.8749     -0.0725     46.9734    183.7083     21.2531
  1549.0000      8.1399      1.9079      0.0351     44.9740    177.3684     20.8936
  1549.1000      8.1399      1.9879      0.1487     40.1264    174.2860     20.2033
  1549.2000      8.1399      2.1238      0.4156     31.8892    172.2556     19.5468
  1549.3000      8.1423      2.2769      0.6188     22.6146    167.3931     19.3870
  1549.4000      8.1423      2.3827      0.6125     16.2007    164.9778     19.4745
  1549.5000      8.2371      2.4057      0.6137     14.8059    169.4984     19.4367
  1549.6000      8.2371      2.3391      0.5637     18.8400    178.8504     19.5225
  1549.7000      8.2371      2.2185      0.4039     26.1534    184.6521     20.3075
  1549.8000      8.6955      2.1085      0.4105     32.8158    180.2762     21.7396
  1549.9000      8.6955      2.0457      0.3181     36.6271    169.9181     23.1082
  1550.0000      8.8687      2.0484      0.3271     36.4588    162.2945     24.0765
  1550.1000      8.8687      2.1444      0.2923     30.6415    161.1579     24.6832
  1550.2000      8.8687      2.3352      0.4486     19.0799    162.2586     24.8784
  1550.3000      8.8938      2.5643      0.6234      5.1928    161.4231     24.9492
  1550.4000      8.8938      2.7619      0.7767     -6.7845    160.3540     25.4955
  1550.5000      8.9671      2.8940      0.7949    -14.7884    157.2612     26.4870
  1550.6000      8.9671      2.9570      0.8099    -18.6056    149.9723     27.1490
  1550.7000      8.9671      2.9591      0.6875    -18.7330    141.9447     27.3748
  1550.8000      8.8137      2.9150      0.5197    -16.0624    134.6000     27.6139
  1550.9000      8.8137      2.8467      0.3321    -11.9188    123.2611     27.6864
  1551.0000      8.3381      2.7785      0.2282     -7.7872    106.7707     27.4590
  1551.1000      8.3381      2.7259      0.1182     -4.5976     93.9355     27.2827
  1551.2000      8.3381      2.6914      0.0297     -2.5081     93.6676     27.1821
  1551.3000      8.0333      2.6660      0.0591     -0.9688    102.7837     26.7540
  1551.4000      8.0333      2.6423      0.0211      0.4647    110.8237     25.7769
  1551.5000      8.0051      2.6235      0.0391      1.6047    114.7110     24.5461
  1551.6000      8.0051      2.6048      0.0621      2.7386    118.4193     23.6110
  1551.7000      8.0051      2.5793      0.0148      4.2828    122.7785     23.1794
  1551.8000      8.0370      2.5534      0.0149      5.8564    125.8478     22.9412
  1551.9000      8.0370      2.5300      0.0242      7.2756    124.5627     22.7627
  1552.0000      8.0595      2.5085     -0.0121      8.5765    118.8385     22.6047
  1552.1000      8.0595      2.4951     -0.0199      9.3876    114.7933     22.2847
  1552.2000      8.0595      2.4976     -0.0043      9.2345    117.2880     22.0251
  1552.3000      8.0364      2.5163      0.0074      8.1034    124.7254     21.9686
  1552.4000      8.0364      2.5383      0.0473      6.7711    133.0985     21.9921
  1552.5000      8.0572      2.5524      0.0657      5.9158    141.9133     22.1969
  1552.6000      8.0572      2.5545      0.0553      5.7883    149.6475     22.4920
  1552.7000      8.0572      2.5396      0.0934      6.6939    154.7211     22.6646
