~Version Information
VERS.                      2.0: CWLS Log ASCII Standard - VERSION 2.0
WRAP.                       NO: One line per depth step
~Well Information Block
STRT.FT               425.0000: 
STOP.FT              2461.0000: 
STEP.FT                 0.1000: 
NULL.                -999.2500: 
COMP.          Evergreen Operating Corporation: COMPANY
WELL.              Nomad 32-10: WELL
FLD.           Purgatorie River: FIELD
LOC.           2281' FNL & 1585' FEL: LOCATION
PROV.                 Colorado: PROVINCE
CNTY.               Las Animas: COUNTRY
SRVC.                Patterson: SERVICE COMPANY
DATE.          Thu Aug 12 11:13:52 2004: LOG DATE
UWI.           05 071 08127 00: UNIQUE WELL ID
~Curve Information Block
DEPT.FT            0 000 00 00: Depth
DCAL.in                       : CDL Caliper
RHOB.g/cc                     : CDL Bulk Density
RHOC.g/cc                     : CDL Density Correction
DPOR.pu                       : CDL Density Porosity
NPOR.pu                       : Neutron Porosity
GR.GAPI                       : Gamma Ray
~Parameter Information Block
~A  Depth       DCAL        RHOB        RHOC        DPOR        NPOR         GR     
# ...
   559.4000      8.0741      2.4686      0.0950     10.9956     19.1967     85.8133
   559.5000      8.0809      2.4836      0.1094     10.0843     19.1282     84.2474
   559.6000      8.0809      2.5041      0.1060      8.8454     18.9259     85.3167
   559.7000      8.0809      2.5110      0.1404      8.4268     18.9401     86.0514
   559.8000      8.0751      2.4889      0.0848      9.7648     19.2664     84.6620
   559.9000      8.0751      2.4536      0.0623     11.9035     19.8573     81.1852
   560.0000      8.0778      2.4243      0.0485     13.6811     20.5351     79.3209
   560.1000      8.0778      2.4012      0.0472     15.0765     20.9442     82.0821
   560.2000      8.0778      2.3861      0.0061     15.9945     20.9669     85.0497
   560.3000      8.0783      2.3879      0.0003     15.8826     20.7424     83.7541
   560.4000      8.0783      2.3949      0.0465     15.4621     20.3144     82.8229
   560.5000      8.0781      2.3830      0.0214     16.1793     19.7687     85.1064
   560.6000      8.0781      2.3611     -0.0355     17.5083     19.3508     86.8251
   560.7000      8.0781      2.3497      0.0553     18.1999     19.1273     86.9132
   560.8000      8.0766      2.3465      0.0308     18.3947     19.0105     85.2257
   560.9000      8.0766      2.3540      0.0450     17.9409     18.8486     83.3144
   561.0000      8.0790      2.3819      0.0898     16.2495     18.6304     82.6740
   561.1000      8.0790      2.4178      0.1303     14.0706     18.5004     79.7784
   561.2000      8.0790      2.4318      0.1564     13.2219     18.3760     73.0599
   561.3000      8.0772      2.4070      0.1180     14.7275     18.2864     68.3292
   561.4000      8.0772      2.3580      0.0991     17.6990     18.2311     69.8680
   561.5000      8.0673      2.3142      0.0685     20.3495     17.9843     73.0838
   561.6000      8.0673      2.2952      0.0437     21.5013     17.6701     74.6474
   561.7000      8.0673      2.3009      0.0346     21.1590     17.5018     77.0490
   561.8000      8.0636      2.3122      0.0990     20.4726     17.4280     79.2302
   561.9000      8.0636      2.3102      0.0921     20.5934     17.4091     79.7744
   562.0000      8.0643      2.2989      0.0922     21.2807     17.3243     80.6147
   562.1000      8.0643      2.2936      0.0740     21.6011     17.0695     79.3623
   562.2000      8.0643      2.2987      0.0698     21.2916     16.8222     74.3564
   562.3000      8.0542      2.3043      0.0952     20.9491     16.6054     71.1978
   562.4000      8.0542      2.2987      0.0723     21.2897     16.3915     72.5800
   562.5000      8.0646      2.2824      0.0600     22.2792     16.3928     74.1186
   562.6000      8.0646      2.2709      0.0298     22.9776     16.5616     71.0669
   562.7000      8.0646      2.2758      0.0856     22.6817     16.4980     66.1371
   562.8000      8.0648      2.2869      0.0775     22.0069     16.0353     66.5320
   562.9000      8.0648      2.2902      0.0790     21.8043     15.5086     70.8032
   563.0000      8.0612      2.2871      0.0766     21.9945     15.3177     72.5947
   563.1000      8.0612      2.2891      0.0863     21.8740     15.4275     71.3860
   563.2000      8.0612      2.3038      0.1066     20.9837     15.4593     68.9565
   563.3000      8.0629      2.3265      0.1164     19.6078     15.2861     67.5253
   563.4000      8.0629      2.3448      0.1428     18.4996     15.0315     69.6460
   563.5000      8.0655      2.3500      0.1236     18.1794     14.7585     72.8870
   563.6000      8.0655      2.3429      0.1355     18.6117     14.5528     74.3298
   563.7000      8.0655      2.3295      0.0860     19.4266     14.6045     74.0900
   563.8000      8.0611      2.3177      0.0932     20.1422     15.0415     72.0612
   563.9000      8.0611      2.3087      0.0979     20.6870     15.5465     69.7048
   564.0000      8.0542      2.3040      0.0901     20.9691     15.6047     69.3335
   564.1000      8.0542      2.3073      0.1013     20.7684     15.4095     70.4474
   564.2000      8.0542      2.3179      0.0987     20.1303     15.4645     69.7861
   564.3000      8.0615      2.3336      0.1076     19.1727     15.7487     68.5363
   564.4000      8.0615      2.3491      0.1337     18.2342     15.9868     71.5720
   564.5000      8.0617      2.3597      0.0801     17.5963     15.9958     75.0678
   564.6000      8.0617      2.3685      0.1146     17.0631     15.7907     72.9706
   564.7000      8.0617      2.3745      0.1200     16.6989     15.6997     68.2258
   564.8000      8.0627      2.3745      0.1008     16.6955     15.8249     66.5728
   564.9000      8.0627      2.3739      0.0805     16.7344     16.0211     67.7009
   565.0000      8.0715      2.3734      0.0761     16.7640     16.4392     70.0374
   565.1000      8.0715      2.3679      0.0578     17.0997     16.8252     75.6183
   565.2000      8.0715      2.3640      0.0153     17.3360     16.7990     82.1458
   565.3000      8.0750      2.3654      0.0897     17.2492     16.7844     84.6629
   565.4000      8.0750      2.3583      0.0686     17.6762     17.0555     82.9427
   565.5000      8.0789      2.3422      0.0061     18.6546     17.4195     80.0295
   565.6000      8.0789      2.3327      0.0254     19.2331     17.7762     78.6116
   565.7000      8.0789      2.3382      0.0154     18.8978     18.1275     75.9798
   565.8000      8.0785      2.3572      0.0385     17.7435     18.5018     69.6925
   565.9000      8.0785      2.3816      0.0613     16.2651     18.7870     63.9707
   566.0000      8.0782      2.4025      0.0404     14.9986     18.8139     62.2314
   566.1000      8.0782      2.4148      0.0647     14.2547     18.7227     64.2462
   566.2000      8.0782      2.4156      0.0422     14.2047     18.9054     68.8594
   566.3000      8.0752      2.4101      0.0626     14.5405     19.5344     73.0932
   566.4000      8.0752      2.4043      0.0425     14.8910     20.0375     74.8720
   566.5000      8.0590      2.3943      0.0594     15.4958     19.8102     76.1716
   566.6000      8.0590      2.3786      0.0153     16.4501     19.2714     77.6273
   566.7000      8.0590      2.3603      0.0667     17.5583     19.0806     77.8915
   566.8000      8.0500      2.3388      0.0279     18.8625     19.0505     76.9167
   566.9000      8.0500      2.3207      0.0144     19.9550     18.5884     74.0562
   567.0000      8.0527      2.3169      0.0127     20.1889     17.7889     71.0877
   567.1000      8.0527      2.3256      0.0613     19.6602     17.0718     70.7866
   567.2000      8.0527      2.3305      0.0846     19.3634     16.5381     71.0147
   567.3000      8.0530      2.3214      0.0770     19.9130     16.3531     68.8677
   567.4000      8.0530      2.3104      0.0153     20.5842     16.5732     66.1401
   567.5000      8.0514      2.3131      0.0611     20.4171     16.8457     66.7476
   567.6000      8.0514      2.3280      0.0334     19.5164     16.9199     70.7790
   567.7000      8.0514      2.3430      0.0648     18.6068     16.9310     73.9211
   567.8000      8.0531      2.3444      0.0702     18.5211     16.9565     73.2903
   567.9000      8.0531      2.3292      0.0717     19.4415     16.9037     70.1045
   568.0000      8.0538      2.3142      0.0582     20.3488     16.8558     67.6880
   568.1000      8.0538      2.3159      0.0690     20.2504     16.9086     69.1891
   568.2000      8.0538      2.3291      0.0925     19.4500     16.9191     73.3749
   568.3000      8.0505      2.3369      0.1067     18.9785     16.7310     75.0553
   568.4000      8.0505      2.3315      0.0907     19.3028     16.3983     74.0675
   568.5000      8.0528      2.3266      0.0548     19.5980     16.1348     73.6447
   568.6000      8.0528      2.3336      0.1077     19.1742     16.0896     74.2179
   568.7000      8.0528      2.3351      0.1329     19.0867     16.2161     73.6800
   568.8000      8.0527      2.3176      0.0943     20.1435     16.4138     70.9120
   568.9000      8.0527      2.3003      0.0740     21.1963     16.4397     68.1507
