~Version Information
VERS.                      2.0: CWLS Log ASCII Standard - VERSION 2.0
WRAP.                       NO: One line per depth step
~Well Information Block
STRT.FT                -8.0000: 
STOP.FT               973.2500: 
STEP.FT                 0.2500: 
NULL.                -999.2500: 
COMP.          Pioneer Natural Resources: COMPANY
WELL.              Oscar 41-31: WELL
FLD.           Purgatorie River: FIELD
LOC.           412' FNL & 1216' FEL--: LOCATION
PROV.                       CO: PROVINCE
CNTY.               Las Animas: COUNTRY
SRVC.          Patterson Wireline: SERVICE COMPANY
DATE.          Wed Mar 02 12:29:08 2005: LOG DATE
UWI.           05 071 08290 00: UNIQUE WELL ID
~Curve Information Block
DEPT.FT            0 000 00 00: Depth
CCL.                          : Casing Collar Locator
TT5.usec                      : CBL 5' Travel Time
AMP3.mV                       : CBL 3' Amplitude
GR.GAPI                       : Gamma Ray
~Parameter Information Block
~A  Depth       CCL         TT5         AMP3         GR     
# ...
   226.5000      0.0000   1200.0000      6.9697     63.7180
   226.7500      0.0000   1200.0000      6.9094     60.3057
   227.0000      0.0000   1200.0000      6.8520     55.8259
   227.2500      0.0000   1200.0000      6.8028     51.1563
   227.5000      0.0000   1200.0000      6.7642     47.5050
   227.7500      0.0000   1200.0000      6.7327     46.2681
   228.0000      0.0000   1200.0000      6.7027     48.3935
   228.2500      0.0000   1200.0000      6.6688     53.6952
   228.5000      0.0000   1200.0000      6.6240     61.0388
   228.7500      0.0000   1200.0000      6.5598     69.2074
   229.0000      0.0000   1200.0000      6.4759     77.1261
   229.2500      0.0000   1200.0000      6.3834     83.4231
   229.5000      0.0000   1200.0000      6.2934     86.8383
   229.7500      0.0000   1200.0000      6.2072     87.5562
   230.0000      0.0000   1200.0000      6.1242     87.3480
   230.2500      0.0000   1200.0000      6.0534     87.7822
   230.5000      0.0000   1200.0000      6.0050     88.7468
   230.7500      0.0000   1200.0000      5.9737     89.2099
   231.0000      0.0000   1200.0000      5.9387     89.0243
   231.2500      0.0000   1200.0000      5.8843     89.2600
   231.5000      0.0000   1200.0000      5.8143     90.7583
   231.7500      0.0000   1200.0000      5.7470     93.0482
   232.0000      0.0000   1200.0000      5.6996     95.0252
   232.2500      0.0000   1200.0000      5.6781     96.1922
   232.5000      0.0000   1200.0000      5.6761     96.7797
   232.7500      0.0000   1200.0000      5.6827     96.9916
   233.0000      0.0000   1200.0000      5.6926     96.6198
   233.2500      0.0000   1200.0000      5.7081     95.4013
   233.5000      0.0000   1200.0000      5.7321     93.5896
   233.7500      0.0000   1200.0000      5.7623     92.0225
   234.0000      0.0000   1200.0000      5.7913     91.3423
   234.2500      0.0000   1200.0000      5.8107     91.1648
   234.5000      0.0000   1200.0000      5.8149     90.3991
   234.7500      0.0000   1200.0000      5.8052     88.5509
   235.0000      0.0000   1200.0000      5.7894     86.5190
   235.2500      0.0000   1200.0000      5.7761     85.9735
   235.5000      0.0000   1200.0000      5.7669     88.0191
   235.7500      0.0000   1200.0000      5.7566     92.4103
   236.0000      0.0000   1200.0000      5.7391     97.7368
   236.2500      0.0000   1200.0000      5.7134    102.1241
   236.5000      0.0000   1200.0000      5.6848    104.0710
   236.7500      0.0000   1200.0000      5.6603    103.3089
   237.0000      0.0000   1200.0000      5.6417    101.0380
   237.2500      0.0000   1200.0000      5.6213     99.0672
   237.5000      0.0000   1200.0000      5.5863     98.6078
   237.7500      0.0000   1200.0000      5.5322     99.8232
   238.0000      0.0000   1200.0000      5.4736    102.1408
   238.2500      0.0000   1200.0000      5.4385    104.6955
   238.5000      0.0000   1200.0000      5.4434    106.6240
   238.7500      0.0000   1200.0000      5.4781    107.2720
   239.0000      0.0000   1200.0000      5.5161    106.3583
   239.2500      0.0000   1200.0000      5.5358    104.0968
   239.5000      0.0000   1200.0000      5.5266    101.2274
   239.7500      0.0000   1200.0000      5.4867     98.7714
   240.0000      0.0000   1200.0000      5.4265     97.3298
   240.2500      0.0000   1200.0000      5.3714     96.2566
   240.5000      0.0000   1200.0000      5.3482     93.7369
   240.7500      0.0000   1200.0000      5.3667     88.2768
   241.0000      0.0000   1200.0000      5.4183     80.1828
   241.2500      0.0000   1200.0000      5.4874     71.2958
   241.5000      0.0000   1200.0000      5.5590     63.4872
   241.7500      0.0000   1200.0000      5.6194     57.7748
   242.0000      0.0000   1200.0000      5.6596     54.4830
   242.2500      0.0000   1200.0000      5.6792     53.5799
   242.5000      0.0000   1200.0000      5.6841     54.8262
   242.7500      0.0000   1200.0000      5.6836     57.9658
   243.0000      0.0000   1200.0000      5.6897     62.9056
   243.2500      0.0000   1200.0000      5.7136     69.6556
   243.5000      0.0000   1200.0000      5.7580     78.0044
   243.7500      0.0000   1200.0000      5.8145     87.1512
   244.0000      0.0000   1200.0000      5.8682     95.5726
   244.2500      0.0000   1200.0000      5.9071    101.4114
   244.5000      0.0000   1200.0000      5.9271    103.4746
   244.7500      0.0000   1200.0000      5.9306    102.1641
   245.0000      0.0000   1200.0000      5.9232     99.2911
   245.2500      0.0000   1200.0000      5.9086     96.8400
   245.5000      0.0000   1200.0000      5.8862     95.7220
   245.7500      0.0000   1200.0000      5.8503     95.3321
   246.0000      0.0000   1200.0000      5.7987     94.1894
   246.2500      0.0000   1200.0000      5.7396     91.3344
   246.5000      0.0000   1200.0000      5.6871     87.2298
   246.7500      0.0000   1200.0000      5.6488     83.1676
   247.0000      0.0000   1200.0000      5.6211     79.9919
   247.2500      0.0000   1200.0000      5.5997     77.6478
   247.5000      0.0000   1200.0000      5.5894     75.6740
   247.7500      0.0000   1200.0000      5.6016     73.7481
   248.0000      0.0000   1200.0000      5.6445     71.8971
   248.2500      0.0000   1200.0000      5.7145     70.4219
   248.5000      0.0000   1200.0000      5.7989     69.6211
   248.7500      0.0000   1200.0000      5.8851     69.5588
   249.0000      0.0000   1200.0000      5.9662     70.0694
   249.2500      0.0000   1200.0000      6.0411     70.9513
   249.5000      0.0000   1200.0000      6.1113     72.1741
   249.7500      0.0000   1200.0000      6.1772     73.9075
   250.0000      0.0000   1130.3551      6.2331     76.2442
   250.2500      0.0000   1200.0000      6.2692     78.8683
   250.5000      0.0000    583.7661      6.2820     81.1198
   250.7500      0.0000    581.0314      6.2797     82.4612
   251.0000      0.0000    816.6706      6.2711     82.6271
   251.2500      0.0000   1200.0000      6.2532     81.1908
   251.5000      0.0000   1200.0000      6.2134     77.5719
   251.7500      0.0000   1200.0000      6.1445     72.0782
   252.0000      0.0000   1200.0000      6.0507     66.5941
   252.2500      0.0000   1200.0000      5.9426     63.4079
   252.5000      0.0000   1200.0000      5.8298     63.2414
   252.7500      0.0000   1200.0000      5.7200     64.8644
   253.0000      0.0000   1200.0000      5.6195     66.6203
   253.2500      0.0000   1200.0000      5.5354     67.8180
   253.5000      0.0000   1200.0000      5.4727     68.5966
   253.7500      0.0000   1200.0000      5.4294     69.1047
   254.0000      0.0000   1200.0000      5.3984     69.2504
   254.2500      0.0000   1200.0000      5.3774     69.0497
   254.5000      0.0000   1200.0000      5.3745     68.9309
   254.7500      0.0000   1200.0000      5.3993     69.6723
   255.0000      0.0000   1200.0000      5.4505     72.0513
   255.2500      0.0000   1200.0000      5.5150     76.3181
   255.5000      0.0000   1200.0000      5.5774     81.6872
   255.7500      0.0000   1200.0000      5.6287     86.4877
   256.0000      0.0000   1200.0000      5.6681     89.2668
   256.2500      0.0000   1200.0000      5.7025     89.7639
   256.5000      0.0000    773.9454      5.7427     88.5577
   256.7500      0.0000    731.9608      5.7926     86.1951
   257.0000      0.0000    775.5000      5.8428     83.2831
   257.2500      0.0000    734.4000      5.8746     80.9134
   257.5000      0.0000    731.3060      5.8720     79.9820
   257.7500      0.0000    728.1273      5.8302     80.2099
   258.0000      0.0000   1200.0000      5.7525     80.5703
   258.2500      0.0000   1102.6500      5.6408     80.5328
   258.5000      0.0000   1064.0233      5.4933     80.3565
   258.7500      0.0000   1194.8473      5.3176     80.5037
   259.0000      0.0000   1091.1127      5.1378     81.2569
   259.2500      0.0000   1200.0000      4.9775     82.6029
   259.5000      0.0000   1200.0000      4.8421     84.1159
   259.7500      0.0000   1090.7788      4.7299     85.0890
