~Version Information
VERS.                      2.0: CWLS Log ASCII Standard - VERSION 2.0
WRAP.                       NO: One line per depth step
~Well Information Block
STRT.FT               440.0000: 
STOP.FT              1001.5000: 
STEP.FT                 0.1000: 
NULL.                -999.2500: 
COMP.          Pioneer Natural Resources: COMPANY
WELL.              Dylan 42-25: WELL
FLD.           Purgatoire River: FIELD
LOC.           2160' FNL & 855' FEL: LOCATION
PROV.                 Colorado: PROVINCE
CNTY.               Las Animas: COUNTRY
SRVC.                Patterson: SERVICE COMPANY
DATE.          Mon Apr 25 09:31:16 2005: LOG DATE
UWI.           05 071 08229 00: UNIQUE WELL ID
~Curve Information Block
DEPT.FT            0 000 00 00: Depth
DCAL.in                       : CDL Caliper
RHOB.g/cc                     : CDL Bulk Density
RHOC.g/cc                     : CDL Density Correction
DPOR.pu                       : CDL Density Porosity
GR.GAPI                       : Gamma Ray
NPOR.pu                       : Neutron Porosity
~Parameter Information Block
~A  Depth       DCAL        RHOB        RHOC        DPOR         GR         NPOR    
# ...
   728.0000      7.9543      2.4345      0.0860     13.0635     93.1833     25.1368
   728.1000      7.9543      2.4621      0.0576     11.3869    100.6984     25.0183
   728.2000      7.9543      2.4701      0.1602     10.9032    100.7976     25.3008
   728.3000      7.9598      2.4681      0.0701     11.0254     95.1973     25.6077
   728.4000      7.9598      2.4731      0.0831     10.7206     91.8487     25.5751
   728.5000      7.9261      2.4865      0.0748      9.9108     94.2271     25.1779
   728.6000      7.9261      2.4934      0.0640      9.4884     99.3392     24.9406
   728.7000      7.9261      2.4938      0.0753      9.4676    100.9657     25.4328
   728.8000      7.9231      2.5029      0.0210      8.9176     98.4413     26.6024
   728.9000      7.9231      2.5245      0.0534      7.6060     97.6958     28.1181
   729.0000      7.9212      2.5491      0.0700      6.1158    100.3397     29.1765
   729.1000      7.9212      2.5675      0.0988      4.9993    102.9436     29.0646
   729.2000      7.9212      2.5689      0.0796      4.9124    103.7337     28.3802
   729.3000      7.9359      2.5481      0.0798      6.1739    100.4585     27.7522
   729.4000      7.9359      2.5138      0.0287      8.2562     93.2551     26.3329
   729.5000      7.9412      2.4853      0.0064      9.9818     88.9765     23.6928
   729.6000      7.9412      2.4782     -0.0186     10.4100     90.7545     21.5976
   729.7000      7.9412      2.4861      0.0227      9.9325     94.9666     21.5383
   729.8000      7.9499      2.4944     -0.0437      9.4331     98.8882     23.0060
   729.9000      7.9499      2.5121     -0.0453      8.3595    100.0723     24.5175
   730.0000      7.9419      2.5401      0.0769      6.6634     97.6401     24.8267
   730.1000      7.9419      2.5469      0.0447      6.2497     96.5705     24.2919
   730.2000      7.9419      2.5266      0.0089      7.4794    100.0676     24.2898
   730.3000      7.9448      2.5114      0.0358      8.4015    105.8264     25.3591
   730.4000      7.9448      2.5191      0.0455      7.9317    113.1781     26.6510
   730.5000      7.9490      2.5387      0.0956      6.7434    119.7476     27.0145
   730.6000      7.9490      2.5568      0.0475      5.6494    120.9091     26.3580
   730.7000      7.9490      2.5719      0.0437      4.7321    118.9645     25.5412
   730.8000      7.9531      2.5823      0.0718      4.1057    117.0001     25.2067
   730.9000      7.9531      2.5819      0.0575      4.1248    113.1041     25.4543
   731.0000      7.9553      2.5678      0.0684      4.9799    107.2031     26.0155
   731.1000      7.9553      2.5371      0.0765      6.8396    103.6985     26.5231
   731.2000      7.9553      2.5020     -0.0181      8.9681    105.9605     27.0889
   731.3000      7.9487      2.4833      0.0431     10.1053    110.3150     27.2913
   731.4000      7.9487      2.4796      0.0164     10.3271    110.8748     26.4211
   731.5000      7.9561      2.4846      0.0239     10.0226    109.6429     25.2075
   731.6000      7.9561      2.4999      0.0253      9.0980    111.4910     25.1989
   731.7000      7.9561      2.5174      0.0732      8.0349    112.5471     26.3457
   731.8000      7.9371      2.5317      0.0860      7.1714    109.1889     27.2791
   731.9000      7.9371      2.5520      0.0706      5.9403    105.4725     27.5839
   732.0000      7.9299      2.5710      0.1242      4.7894    104.4383     27.5710
   732.1000      7.9299      2.5707      0.0924      4.8062    104.3039     26.9231
   732.2000      7.9299      2.5617      0.0696      5.3490    103.5080     25.4546
   732.3000      7.9169      2.5598      0.0911      5.4644    102.9036     24.1060
   732.4000      7.9169      2.5539      0.1134      5.8235    101.2794     24.1583
   732.5000      7.9099      2.5338      0.0149      7.0418     97.1222     25.6864
   732.6000      7.9099      2.5111      0.0294      8.4190     93.1494     27.2392
   732.7000      7.9099      2.4963      0.0015      9.3162     94.6045     27.9914
   732.8000      7.9182      2.4888      0.0423      9.7699     99.9989     28.6554
   732.9000      7.9182      2.4799      0.0374     10.3112    103.7127     29.4128
   733.0000      7.9240      2.4622      0.0601     11.3845    103.8591     29.2009
   733.1000      7.9240      2.4351      0.0452     13.0239    101.6553     27.7321
   733.2000      7.9240      2.4085      0.0107     14.6390    101.3943     26.6099
   733.3000      7.9253      2.3958      0.0562     15.4063    105.2039     26.9556
   733.4000      7.9253      2.3908      0.0725     15.7112    110.5438     27.8750
   733.5000      7.9583      2.3795      0.0235     16.3931    112.4925     28.1910
   733.6000      7.9583      2.3665      0.0138     17.1797    109.4031     27.9419
   733.7000      7.9583      2.3593      0.0250     17.6186    103.9473     27.7615
   733.8000      7.9728      2.3515      0.0534     18.0934     98.2928     28.0050
   733.9000      7.9728      2.3354      0.0337     19.0685     96.0903     28.5488
   734.0000      7.9869      2.3169     -0.0042     20.1858    100.8392     29.0319
   734.1000      7.9869      2.3048     -0.0032     20.9235    110.5348     29.1439
   734.2000      7.9869      2.2979     -0.0015     21.3376    119.9957     28.9362
   734.3000      7.9682      2.2937     -0.0274     21.5919    124.6339     28.6975
   734.4000      7.9682      2.2971      0.0083     21.3896    122.1996     28.7709
   734.5000      7.9689      2.3115      0.0165     20.5165    115.4415     29.1576
   734.6000      7.9689      2.3318      0.0542     19.2874    111.5238     29.0602
   734.7000      7.9689      2.3470      0.0274     18.3644    113.9031     28.6878
   734.8000      7.9601      2.3482      0.0594     18.2924    119.5491     29.2223
   734.9000      7.9601      2.3334      0.0669     19.1863    122.1083     29.9268
   735.0000      7.9716      2.3045      0.0506     20.9420    116.4961     29.5322
   735.1000      7.9716      2.2618      0.0359     23.5283    107.2570     28.7390
   735.2000      7.9716      2.2127      0.0082     26.5031    103.6075     28.4657
   735.3000      7.9729      2.1716     -0.0476     28.9941    105.3170     28.3397
   735.4000      7.9729      2.1425     -0.0069     30.7563    105.4133     28.3951
   735.5000      7.9750      2.1138      0.0192     32.4990    101.3350     29.3036
   735.6000      7.9750      2.0868     -0.0733     34.1362     97.1521     30.3803
   735.7000      7.9750      2.0842     -0.0193     34.2919     96.8516     30.9197
   735.8000      7.9641      2.1059      0.0484     32.9781     97.2606     31.4937
   735.9000      7.9641      2.1292      0.0811     31.5650     94.5637     31.6936
   736.0000      7.9648      2.1394      0.0916     30.9432     92.6333     30.9224
   736.1000      7.9648      2.1285      0.0990     31.6035     94.2474     30.1289
   736.2000      7.9648      2.1013      0.0450     33.2571     94.6110     30.1264
   736.3000      7.9625      2.0801      0.0062     34.5422     91.1973     30.6360
   736.4000      7.9625      2.0784      0.0345     34.6399     88.0773     30.7657
   736.5000      7.9776      2.0893      0.0546     33.9844     86.2156     30.3611
   736.6000      7.9776      2.1050     -0.0012     33.0278     83.7206     30.0769
   736.7000      7.9776      2.1268      0.0502     31.7069     82.3614     30.1355
   736.8000      8.0051      2.1551      0.0429     29.9923     82.2646     30.8698
   736.9000      8.0051      2.1916      0.0965     27.7845     82.3773     32.4755
   737.0000      7.9885      2.2382      0.1164     24.9603     83.0777     33.7956
   737.1000      7.9885      2.2909      0.1424     21.7622     81.3515     33.7844
   737.2000      7.9885      2.3373      0.1061     18.9521     76.6190     32.8348
   737.3000      7.9834      2.3705      0.1198     16.9403     74.6429     31.8641
   737.4000      7.9834      2.4016      0.1090     15.0543     77.7984     31.5083
   737.5000      8.0093      2.4367      0.0968     12.9303     84.1532     31.5787
