~Version Information
VERS.                      2.0: CWLS Log ASCII Standard - VERSION 2.0
WRAP.                       NO: One line per depth step
~Well Information Block
STRT.FT               630.0000: 
STOP.FT              1155.5000: 
STEP.FT                 0.1000: 
NULL.                -999.2500: 
COMP.          Pioneer Natural Resources: COMPANY
WELL.          Drewmeister 34-34: WELL
FLD.           Purgatoire River: FIELD
LOC.           958' FSL & 1857' FEL: LOCATION
STAT.                 Colorado: State
CNTY.               Las Animas: COUNTY
CTRY. USA : Country
SECT. 34 : Section
TOWN. 32S : Township
RANG. 65W : Range
SRVC.                Patterson: SERVICE COMPANY
DATE.          Tue Oct 04 08:23:16 2005: LOG DATE
API.           05 071 08131 00: UNIQUE WELL ID
~Curve Information Block
DEPT.FT            0 000 00 00: Depth
DCAL.in                       : CDL Caliper
RHOB.g/cc                     : CDL Bulk Density
RHOC.g/cc                     : CDL Density Correction
DPOR.pu                       : CDL Density Porosity
GR.GAPI                       : Gamma Ray
NPOR.pu                       : Neutron Porosity
~Parameter Information Block
~A  Depth       DCAL        RHOB        RHOC        DPOR         GR         NPOR    
# ...
   668.4000      8.0902      2.5977      0.0356      3.1724     95.1902     24.2381
   668.5000      8.0894      2.5601      0.0246      5.4459     98.2794     23.7072
   668.6000      8.0894      2.5534      0.0225      5.8537    102.0192     23.7549
   668.7000      8.0894      2.5707      0.0860      4.8081    110.4513     24.2602
   668.8000      8.0888      2.5870      0.0895      3.8205    122.5950     24.6160
   668.9000      8.0888      2.5904      0.0522      3.6106    133.9608     24.7196
   669.0000      8.0887      2.5897      0.0644      3.6530    140.0504     25.1574
   669.1000      8.0887      2.5857      0.0836      3.8965    139.7443     25.9088
   669.2000      8.0887      2.5677      0.0980      4.9854    137.3651     26.3650
   669.3000      8.0898      2.5433      0.0003      6.4651    132.4184     26.3915
   669.4000      8.0898      2.5381      0.0149      6.7840    123.9218     26.5914
   669.5000      8.0912      2.5538      0.0198      5.8292    117.5302     27.3592
   669.6000      8.0912      2.5660      0.0767      5.0928    113.6640     28.2374
   669.7000      8.0912      2.5602      0.0406      5.4402    109.8977     28.8092
   669.8000      8.0912      2.5510      0.0126      5.9987    110.6531     29.2709
   669.9000      8.0912      2.5553      0.0278      5.7409    117.1226     29.7196
   670.0000      8.0902      2.5626      0.0438      5.2957    123.8277     30.1932
   670.1000      8.0902      2.5469      0.0819      6.2513    125.6658     30.7493
   670.2000      8.0902      2.5079      0.0024      8.6125    120.5000     31.2014
   670.3000      8.0890      2.4814     -0.0100     10.2193    111.0865     31.3600
   670.4000      8.0890      2.4906     -0.0066      9.6635    103.8263     31.0917
   670.5000      8.0877      2.5230      0.0136      7.6950    102.3574     30.6671
   670.6000      8.0877      2.5543      0.0261      5.8000    108.2197     30.4264
   670.7000      8.0877      2.5717      0.0732      4.7463    118.7304     30.0817
   670.8000      8.0854      2.5854      0.0609      3.9167    128.1129     29.4085
   670.9000      8.0854      2.6103      0.1203      2.4035    133.3320     28.8353
   671.0000      8.0805      2.6396      0.1291      0.6294    132.6727     28.6111
   671.1000      8.0805      2.6479      0.1732      0.1298    129.1630     28.3897
   671.2000      8.0805      2.6192      0.1202      1.8666    127.8594     28.0083
   671.3000      8.0794      2.5725      0.0697      4.6967    129.4396     27.5127
   671.4000      8.0794      2.5382      0.0813      6.7745    133.8872     26.9717
   671.5000      8.0904      2.5208      0.0834      7.8313    139.1888     26.6711
   671.6000      8.0904      2.5080      0.0954      8.6073    140.9367     26.4545
   671.7000      8.0904      2.5021      0.0504      8.9614    137.7002     26.2110
   671.8000      8.1052      2.5163      0.0610      8.1004    135.2408     26.3369
   671.9000      8.1052      2.5499      0.0655      6.0647    136.0570     26.8405
   672.0000      8.1153      2.5847      0.0801      3.9557    132.0033     27.2996
   672.1000      8.1153      2.6000      0.1333      3.0295    122.4596     27.2039
   672.2000      8.1153      2.5910      0.1213      3.5776    118.6906     26.7028
   672.3000      8.1203      2.5699      0.1111      4.8534    120.6584     26.6314
   672.4000      8.1203      2.5500      0.0494      6.0621    121.1302     27.0209
   672.5000      8.1214      2.5443      0.0355      6.4031    123.5078     27.1453
   672.6000      8.1214      2.5541      0.1040      5.8117    127.8855     26.6507
   672.7000      8.1214      2.5581      0.1180      5.5691    128.0031     25.7841
   672.8000      8.1204      2.5528      0.0479      5.8894    125.6970     25.3111
   672.9000      8.1204      2.5574      0.0993      5.6110    125.3200     25.5336
   673.0000      8.1178      2.5667      0.1510      5.0461    126.4569     25.6770
   673.1000      8.1178      2.5618      0.1436      5.3483    129.4503     25.2446
   673.2000      8.1178      2.5431      0.1259      6.4762    134.1854     24.6433
   673.3000      8.1177      2.5276      0.1096      7.4175    134.3447     24.4642
   673.4000      8.1177      2.5264      0.1299      7.4911    126.3819     24.6750
   673.5000      8.1243      2.5358      0.0749      6.9200    117.9245     24.8033
   673.6000      8.1243      2.5485      0.0888      6.1513    116.7932     24.5158
   673.7000      8.1243      2.5523      0.0647      5.9188    122.5844     23.9380
   673.8000      8.1311      2.5381      0.0666      6.7844    128.6914     23.4884
   673.9000      8.1311      2.5218      0.0102      7.7674    128.6830     23.0408
   674.0000      8.1336      2.5250      0.0655      7.5771    124.1074     22.6780
   674.1000      8.1336      2.5326      0.0874      7.1159    120.5369     23.0938
   674.2000      8.1336      2.5214      0.0272      7.7967    122.4995     23.9772
   674.3000      8.1323      2.5018      0.0024      8.9826    128.3624     24.2015
   674.4000      8.1323      2.4901      0.0048      9.6918    131.9320     23.7680
   674.5000      8.1305      2.4787      0.0227     10.3844    135.1813     23.6569
   674.6000      8.1305      2.4586      0.0163     11.6023    141.2493     24.0186
   674.7000      8.1305      2.4402     -0.0077     12.7156    143.1167     24.0419
   674.8000      8.1303      2.4340      0.0188     13.0894    139.5938     23.6180
   674.9000      8.1303      2.4278      0.0458     13.4686    140.5941     23.3010
   675.0000      8.1308      2.4096      0.0225     14.5718    146.5237     23.2817
   675.1000      8.1308      2.3977     -0.0245     15.2919    148.3555     23.5557
   675.2000      8.1308      2.4132     -0.0177     14.3488    147.5668     24.1155
   675.3000      8.1314      2.4500      0.0024     12.1205    151.9949     24.4938
   675.4000      8.1314      2.4892      0.0370      9.7447    161.2289     24.3479
   675.5000      8.1321      2.5186      0.0511      7.9648    169.1173     24.1729
   675.6000      8.1321      2.5350      0.0835      6.9673    168.9457     24.7264
   675.7000      8.1321      2.5428      0.0989      6.4959    160.6389     25.7187
   675.8000      8.1336      2.5427      0.1308      6.5018    153.1139     26.1503
   675.9000      8.1336      2.5308      0.1363      7.2215    150.1871     25.7320
   676.0000      8.1354      2.5103      0.1100      8.4654    147.1181     24.9421
   676.1000      8.1354      2.4863      0.0908      9.9240    143.6744     24.6050
   676.2000      8.1354      2.4645      0.0485     11.2426    144.7830     25.3065
   676.3000      8.1353      2.4587     -0.0266     11.5941    150.7821     26.7082
   676.4000      8.1353      2.4697      0.0603     10.9258    159.4290     27.8719
   676.5000      8.1329      2.4693      0.0833     10.9537    165.9553     28.3250
   676.6000      8.1329      2.4413      0.0517     12.6480    166.7175     28.3897
   676.7000      8.1329      2.4114     -0.0019     14.4615    162.6819     28.4847
   676.8000      8.1310      2.4075      0.0453     14.6952    154.9926     28.5226
   676.9000      8.1310      2.4282      0.0162     13.4422    147.8494     28.4806
   677.0000      8.1303      2.4626      0.0594     11.3582    144.6883     28.7127
   677.1000      8.1303      2.5036      0.0780      8.8711    143.1243     29.3626
   677.2000      8.1303      2.5401      0.1046      6.6596    143.1748     30.2837
   677.3000      8.1300      2.5588      0.1158      5.5255    145.2629     30.8968
   677.4000      8.1300      2.5583      0.1046      5.5564    144.0271     30.6182
   677.5000      8.1317      2.5478      0.0996      6.1945    139.4057     30.1010
   677.6000      8.1317      2.5328      0.0659      7.1026    137.4006     30.0505
   677.7000      8.1317      2.5143      0.0695      8.2259    136.4501     29.8561
   677.8000      8.1341      2.4956      0.0832      9.3591    133.3872     28.9267
   677.9000      8.1341      2.4892      0.0436      9.7433    132.2762     28.0673
