~Version Information
VERS.                      2.0: CWLS Log ASCII Standard - VERSION 2.0
WRAP.                       NO: One line per depth step
~Well Information Block
STRT.FT               -19.0000: 
STOP.FT              1343.5000: 
STEP.FT                 0.5000: 
NULL.                -999.2500: 
COMP.          Evergreen Operating Corporation: COMPANY
WELL.            Trigger 13-35: WELL
FLD.           Purgatorie River: FIELD
LOC.           2245' FSL & 594' FWL: LOCATION
PROV.                 Colorado: PROVINCE
CNTY.               Las Animas: COUNTRY
SRVC.                         : SERVICE COMPANY
DATE.          Mon Jun 23 12:06:52 2003: LOG DATE
UWI.           05-071-07838-00: UNIQUE WELL ID
~Curve Information Block
DEPT.FT            0 000 00 00: Depth
TT3.usec                      : CBL 3' Travel Time
AMP3.mV                       : CBL 3' Amplitude
GR.GAPI                       : Gamma Ray
CCL.                          : Casing Collar Locator
~Parameter Information Block
~A  Depth       TT3         AMP3         GR         CCL     
# ...
   986.0000    780.3057      1.9432    101.1073      0.0000
   986.5000    781.8154      1.9627    115.4772      0.0000
   987.0000    774.6168      1.9411    124.9129      0.0000
   987.5000    774.6663      2.0592    137.3990      0.0000
   988.0000    779.2465      2.1172    146.0015      0.0000
   988.5000    771.8123      1.9263    146.5745      0.0000
   989.0000    775.0443      1.7839    143.9462      0.0000
   989.5000    777.1951      1.7201    127.4998      0.0000
   990.0000    773.5183      1.7061     97.8775      0.0000
   990.5000    764.3718      1.7431     73.2964      0.0000
   991.0000    760.0701      1.6865     60.7786      0.0000
   991.5000    760.3673      1.6129     60.5643      0.0000
   992.0000    765.1118      1.6655     73.1395      0.0000
   992.5000    769.7728      1.7089    100.4108      0.0000
   993.0000    757.9186      1.7137    133.6640      0.0000
   993.5000    706.4370      1.8061    150.6085      0.0000
   994.0000    599.4550      1.8377    143.7400      0.0000
   994.5000    543.0314      1.8820    128.3331      0.0000
   995.0000    590.4699      1.8335    112.9102      0.0000
   995.5000    657.6558      1.6879    101.5107      0.0000
   996.0000    695.7629      1.7463     96.6847      0.0000
   996.5000    762.1083      1.6166     91.4717      0.0000
   997.0000    785.4551      1.5765     87.6491      0.0000
   997.5000    792.2745      1.6569     83.5950      0.0000
   998.0000    802.0298      1.6316     81.0765      0.0000
   998.5000    798.2840      1.6311     82.1649      0.0000
   999.0000    760.8836      1.6117     83.0734      0.0000
   999.5000    732.8488      1.7440     81.4338      0.0000
  1000.0000    730.2104      1.9673     74.9740      0.0000
  1000.5000    730.3810      2.0193     70.7052      0.0000
  1001.0000    726.9697      1.8876     74.4859      0.0000
  1001.5000    720.4973      1.8487     79.2509      0.0000
  1002.0000    716.9504      1.9581     81.2870      0.0000
  1002.5000    715.2654      2.0135     83.3896      0.0000
  1003.0000    708.2341      2.0642     85.3671      0.0000
  1003.5000    706.8624      1.9810     85.1534      0.0000
  1004.0000    711.6892      1.7994     84.0855      0.0000
  1004.5000    712.2963      1.8138     78.3719      0.0000
  1005.0000    705.1249      1.8121     67.3667      0.0000
  1005.5000    638.6185      1.8337     60.6953      0.0000
  1006.0000    590.0223      1.9697     57.7058      0.0000
  1006.5000    593.2495      2.0256     55.9532      0.0000
  1007.0000    493.3725      1.9908     58.1651      0.0000
  1007.5000    475.1907      1.9663     69.5501      0.0000
  1008.0000    549.3533      2.0473     82.3969      0.0000
  1008.5000    658.2803      2.0142     87.7095      0.0000
  1009.0000    711.9868      1.9256     90.3719      0.0000
  1009.5000    680.0790      1.9759     88.5867      0.0000
  1010.0000    667.4368      2.0061     83.0488      0.0000
  1010.5000    711.9799      2.0492     79.0287      0.0000
  1011.0000    684.9055      2.0701     76.8037      0.0000
  1011.5000    595.2307      2.1419     76.5649     -5.0000
  1012.0000    508.1535      2.0703     78.6961      0.0000
  1012.5000    580.3467      2.0795     74.0826      0.0000
  1013.0000    632.6968      2.2126     63.2773      0.0000
  1013.5000    527.3343      2.0009     60.0351      0.0000
  1014.0000    449.3013      1.8147     65.5306      0.0000
  1014.5000    441.8918      1.8634     64.0457      0.0000
  1015.0000    487.1144      1.9217     57.8920      0.0000
  1015.5000    630.7297      1.9255     57.9872      0.0000
  1016.0000    711.0731      1.9472     63.7759      0.0000
  1016.5000    688.8613      1.9029     73.4289      0.0000
  1017.0000    687.8367      1.9028     92.6425      0.0000
  1017.5000    735.5574      1.9428    117.5594      0.0000
  1018.0000    747.5555      1.8798    138.1572      0.0000
  1018.5000    747.7737      1.8010    147.5434      0.0000
  1019.0000    749.5535      1.8227    141.6107      0.0000
  1019.5000    757.0221      1.8990    127.5960      0.0000
  1020.0000    760.3130      1.8403    118.2191      0.0000
  1020.5000    765.4012      1.7900    115.2781      0.0000
  1021.0000    791.3757      1.8895    120.2752      0.0000
  1021.5000    787.7413      1.9403    134.0276      0.0000
  1022.0000    764.5914      1.8717    146.7283      0.0000
  1022.5000    757.2041      1.8977    147.0618      0.0000
  1023.0000    755.7590      1.9825    142.4423      0.0000
  1023.5000    755.7850      1.9582    141.9919      0.0000
  1024.0000    754.0129      1.9568    142.6031      0.0000
  1024.5000    717.4227      2.0173    142.1386      0.0000
  1025.0000    648.8538      1.9387    142.6183      0.0000
  1025.5000    641.2950      1.8937    147.2142      0.0000
  1026.0000    697.3232      2.0436    149.9004      0.0000
  1026.5000    715.6015      2.0844    151.9294      0.0000
  1027.0000    737.7932      2.0707    156.6408      0.0000
  1027.5000    753.0468      2.0684    160.1745      0.0000
  1028.0000    754.6612      1.9971    159.8521      0.0000
  1028.5000    755.4801      1.9600    157.3091      0.0000
  1029.0000    753.5424      1.9184    154.6508      0.0000
  1029.5000    734.3667      1.8285    152.6936      0.0000
  1030.0000    704.0958      1.8804    152.1298      0.0000
  1030.5000    682.6498      1.9446    152.1492      0.0000
  1031.0000    610.2599      1.8757    147.4163      0.0000
  1031.5000    508.1469      1.8808    139.1495      0.0000
  1032.0000    500.0720      2.0200    137.2099      0.0000
  1032.5000    544.9417      1.9958    144.2367      0.0000
  1033.0000    531.9445      1.9971    150.4221      0.0000
  1033.5000    517.8729      2.0302    159.1899      0.0000
  1034.0000    518.4994      1.9645    170.8785      0.0000
  1034.5000    522.2917      2.0205    171.1414      0.0000
  1035.0000    537.9651      2.0581    162.5325      0.0000
  1035.5000    545.8841      2.0064    154.2567      0.0000
  1036.0000    535.2305      2.0533    145.3663      0.0000
  1036.5000    582.8783      2.0752    138.9603      0.0000
  1037.0000    627.4296      2.0018    137.6456      0.0000
  1037.5000    597.1942      2.0073    131.3700      0.0000
  1038.0000    604.8100      2.0206    121.9298      0.0000
  1038.5000    588.6733      1.9434    117.8110      0.0000
  1039.0000    617.3322      1.9734    113.3917      0.0000
  1039.5000    595.9964      2.0562    106.9592      0.0000
  1040.0000    582.0843      1.9870    101.3546      0.0000
  1040.5000    578.7866      2.0085     96.9825      0.0000
  1041.0000    580.9215      2.0094     94.2235      0.0000
  1041.5000    675.7547      2.0049     88.4796      0.0000
  1042.0000    740.4177      2.0963     84.9749      0.0000
  1042.5000    719.4329      2.1119     88.9422      0.0000
  1043.0000    630.1204      2.0907     93.5016      0.0000
  1043.5000    625.7305      2.1340     92.2232      0.0000
  1044.0000    695.5006      2.0924     88.4212      0.0000
  1044.5000    680.8912      2.1023     84.7410      0.0000
  1045.0000    571.5469      2.2076     80.0952      0.0000
  1045.5000    479.0800      2.1496     76.2083      0.0000
  1046.0000    451.4769      2.1404     76.4292      0.0000
  1046.5000    446.1007      2.2569     81.2323      0.0000
  1047.0000    443.9506      2.2472     84.6906      0.0000
  1047.5000    440.8079      2.2374     79.3946      0.0000
  1048.0000    437.1257      2.3133     70.2976      0.0000
  1048.5000    434.6273      2.2729     63.1115      0.0000
  1049.0000    437.9745      2.2333     60.0499      0.0000
  1049.5000    494.2105      2.2371     62.4369      0.0000
  1050.0000    645.9490      2.1837     79.1592      0.0000
  1050.5000    711.3726      2.2609    110.3638      0.0000
  1051.0000    668.8019      2.3545    136.1910      0.0000
  1051.5000    641.1874      2.2661    153.5580      0.0000
  1052.0000    652.8911      2.1458    165.6450      0.0000
  1052.5000    694.5178      2.0820    164.7829      0.0000
