~Version Information
VERS.                      2.0: CWLS Log ASCII Standard - VERSION 2.0
WRAP.                       NO: One line per depth step
~Well Information Block
STRT.FT               698.9000: 
STOP.FT              2460.4000: 
STEP.FT                 0.1000: 
NULL.                -999.2500: 
COMP.          Petrogulf Corporation: COMPANY
WELL.             State 16-23V: WELL
FLD.           Purgatorie River: FIELD
LOC.           2414' FSL & 2215' FWL: LOCATION
PROV.                 Colorado: PROVINCE
CNTY.               Las Animas: COUNTRY
SRVC.                         : SERVICE COMPANY
DATE.          Mon Jun 09 14:24:56 2003: LOG DATE
UWI.           05 071 07865 00: UNIQUE WELL ID
~Curve Information Block
DEPT.FT            0 000 00 00: Depth
DCAL.in                       : CDL Caliper
RHOB.g/cc                     : CDL Bulk Density
RHOC.g/cc                     : CDL Density Correction
DPOR.pu                       : CDL Density Porosity
GR.GAPI                       : Gamma Ray
NPOR.pu                       : Neutron Porosity
~Parameter Information Block
~A  Depth       DCAL        RHOB        RHOC        DPOR         GR         NPOR    
# ...
  1764.5000      8.1391      2.5318      0.0663      7.1618     91.8562     19.6264
  1764.6000      8.1391      2.5243      0.0625      7.6152     86.2647     18.8649
  1764.7000      8.1391      2.5161      0.0588      8.1155     80.5863     18.1507
  1764.8000      8.1376      2.5073      0.0552      8.6505     74.9102     17.4942
  1764.9000      8.1376      2.4981      0.0521      9.2064     69.3367     16.9022
  1765.0000      8.1370      2.4888      0.0494      9.7689     63.9758     16.3771
  1765.1000      8.1370      2.4797      0.0474     10.3238     58.9345     15.9172
  1765.2000      8.1370      2.4708      0.0459     10.8581     54.3119     15.5177
  1765.3000      8.1259      2.4626      0.0450     11.3603     50.1848     15.1707
  1765.4000      8.1259      2.4550      0.0447     11.8210     46.6023     14.8668
  1765.5000      8.1178      2.4481      0.0449     12.2338     43.5839     14.5958
  1765.6000      8.1178      2.4422      0.0454     12.5949     41.1164     14.3480
  1765.7000      8.1178      2.4371      0.0462     12.9037     39.1618     14.1150
  1765.8000      8.1250      2.4328      0.0471     13.1623     37.6625     13.8905
  1765.9000      8.1250      2.4293      0.0481     13.3751     36.5497     13.6707
  1766.0000      8.1405      2.4264      0.0491     13.5487     35.7490     13.4546
  1766.1000      8.1405      2.4241      0.0500     13.6911     35.1868     13.2435
  1766.2000      8.1405      2.4221      0.0507     13.8107     34.7967     13.0407
  1766.3000      8.1441      2.4204      0.0513     13.9163     34.5125     12.8508
  1766.4000      8.1441      2.4187      0.0517     14.0162     34.2754     12.6791
  1766.5000      8.1368      2.4171      0.0519     14.1172     34.0335     12.5307
  1766.6000      8.1368      2.4153      0.0519     14.2251     33.7408     12.4098
  1766.7000      8.1368      2.4133      0.0519     14.3436     33.3612     12.3196
  1766.8000      8.1328      2.4112      0.0518     14.4746     32.8701     12.2615
  1766.9000      8.1328      2.4088      0.0517     14.6182     32.2593     12.2355
  1767.0000      8.1349      2.4063      0.0517     14.7726     31.5362     12.2398
  1767.1000      8.1349      2.4036      0.0518     14.9345     30.7233     12.2710
  1767.2000      8.1349      2.4009      0.0520     15.0995     29.8566     12.3245
  1767.3000      8.1264      2.3982      0.0522     15.2623     28.9786     12.3949
  1767.4000      8.1264      2.3956      0.0525     15.4172     28.1321     12.4758
  1767.5000      8.1046      2.3933      0.0527     15.5583     27.3555     12.5609
  1767.6000      8.1046      2.3913      0.0530     15.6803     26.6785     12.6440
  1767.7000      8.1046      2.3897      0.0532     15.7784     26.1182     12.7193
  1767.8000      8.0807      2.3885      0.0535     15.8488     25.6790     12.7819
  1767.9000      8.0807      2.3878      0.0538     15.8889     25.3537     12.8279
  1768.0000      8.0523      2.3877      0.0543     15.8976     25.1244     12.8547
  1768.1000      8.0523      2.3881      0.0550     15.8752     24.9650     12.8611
  1768.2000      8.0523      2.3889      0.0560     15.8236     24.8451     12.8476
  1768.3000      8.0213      2.3902      0.0571     15.7457     24.7310     12.8162
  1768.4000      8.0213      2.3918      0.0583     15.6456     24.5919     12.7703
  1768.5000      7.9975      2.3938      0.0595     15.5283     24.4013     12.7142
  1768.6000      7.9975      2.3959      0.0604     15.3989     24.1431     12.6525
  1768.7000      7.9975      2.3982      0.0609     15.2628     23.8143     12.5893
  1768.8000      7.9857      2.4004      0.0611     15.1252     23.4258     12.5277
  1768.9000      7.9857      2.4027      0.0608     14.9904     23.0026     12.4692
  1769.0000      7.9851      2.4048      0.0603     14.8625     22.5806     12.4138
  1769.1000      7.9851      2.4067      0.0595     14.7445     22.2026     12.3599
  1769.2000      7.9851      2.4085      0.0585     14.6387     21.9120     12.3054
  1769.3000      7.9947      2.4100      0.0575     14.5469     21.7469     12.2476
  1769.4000      7.9947      2.4112      0.0566     14.4697     21.7368     12.1843
  1769.5000      8.0128      2.4123      0.0556     14.4076     21.8971     12.1140
  1769.6000      8.0128      2.4131      0.0546     14.3601     22.2286     12.0365
  1769.7000      8.0128      2.4136      0.0536     14.3264     22.7173     11.9525
  1769.8000      8.0284      2.4140      0.0525     14.3052     23.3351     11.8636
  1769.9000      8.0284      2.4141      0.0514     14.2946     24.0419     11.7716
  1770.0000      8.0377      2.4142      0.0502     14.2923     24.7891     11.6787
  1770.1000      8.0377      2.4141      0.0489     14.2957     25.5248     11.5868
  1770.2000      8.0377      2.4140      0.0477     14.3018     26.1985     11.4976
  1770.3000      8.0431      2.4139      0.0465     14.3074     26.7650     11.4130
  1770.4000      8.0431      2.4139      0.0454     14.3094     27.1927     11.3347
  1770.5000      8.0450      2.4140      0.0444     14.3049     27.4628     11.2649
  1770.6000      8.0450      2.4142      0.0434     14.2914     27.5747     11.2059
  1770.7000      8.0450      2.4146      0.0424     14.2668     27.5425     11.1603
  1770.8000      8.0496      2.4152      0.0415     14.2299     27.3920     11.1306
  1770.9000      8.0496      2.4160      0.0406     14.1804     27.1577     11.1186
  1771.0000      8.0643      2.4170      0.0396     14.1188     26.8768     11.1255
  1771.1000      8.0643      2.4182      0.0385     14.0464     26.5858     11.1509
  1771.2000      8.0643      2.4196      0.0374     13.9655     26.3158     11.1935
  1771.3000      8.0812      2.4210      0.0360     13.8786     26.0917     11.2509
  1771.4000      8.0812      2.4225      0.0344     13.7890     25.9319     11.3207
  1771.5000      8.0958      2.4240      0.0326     13.6997     25.8472     11.4012
  1771.6000      8.0958      2.4254      0.0307     13.6140     25.8422     11.4921
  1771.7000      8.0958      2.4267      0.0286     13.5350     25.9172     11.5956
  1771.8000      8.1046      2.4278      0.0265     13.4652     26.0722     11.7164
  1771.9000      8.1046      2.4288      0.0247     13.4072     26.3051     11.8615
  1772.0000      8.0948      2.4295      0.0231     13.3628     26.6177     12.0401
  1772.1000      8.0948      2.4300      0.0220     13.3335     27.0155     12.2629
  1772.2000      8.0948      2.4302      0.0215     13.3206     27.5092     12.5403
  1772.3000      8.0753      2.4301      0.0216     13.3243     28.1125     12.8826
  1772.4000      8.0753      2.4298      0.0224     13.3446     28.8454     13.2984
  1772.5000      8.0704      2.4292      0.0238     13.3803     29.7306     13.7942
  1772.6000      8.0704      2.4284      0.0259     13.4290     30.7976     14.3736
  1772.7000      8.0704      2.4275      0.0286     13.4872     32.0775     15.0375
  1772.8000      8.0796      2.4264      0.0319     13.5496     33.6108     15.7828
  1772.9000      8.0796      2.4254      0.0357     13.6096     35.4433     16.6019
  1773.0000      8.0852      2.4246      0.0402     13.6592     37.6255     17.4822
  1773.1000      8.0852      2.4241      0.0452     13.6894     40.2095     18.4077
  1773.2000      8.0852      2.4241      0.0509     13.6907     43.2411     19.3587
  1773.3000      8.0772      2.4247      0.0572     13.6539     46.7517     20.3134
  1773.4000      8.0772      2.4261      0.0642     13.5705     50.7530     21.2491
  1773.5000      8.0544      2.4283      0.0716     13.4339     55.2276     22.1430
  1773.6000      8.0544      2.4315      0.0793     13.2398     60.1295     22.9746
  1773.7000      8.0544      2.4357      0.0871     12.9868     65.3828     23.7260
  1773.8000      8.0209      2.4408      0.0946     12.6768     70.8865     24.3835
  1773.9000      8.0209      2.4468      0.1015     12.3148     76.5209     24.9382
  1774.0000      7.9883      2.4535      0.1073     11.9089     82.1549     25.3858
