~Version Information
VERS.                      2.0: CWLS Log ASCII Standard - VERSION 2.0
WRAP.                       NO: One line per depth step
~Well Information Block
STRT.FT                -7.0000: 
STOP.FT              2730.2500: 
STEP.FT                 0.2500: 
NULL.                -999.2500: 
COMP.          Pioneer Natural Resources: COMPANY
WELL.             Squeal 11-26: WELL
FLD.           Purgatorie River: FIELD
LOC.           1186' FNL & 152' FWL--: LOCATION
PROV.                       CO: PROVINCE
CNTY.               Las Animas: COUNTRY
SRVC.          Patterson Wireline: SERVICE COMPANY
DATE.          Tue Jul 26 11:59:46 2005: LOG DATE
UWI.           05 071 08404 00: UNIQUE WELL ID
~Curve Information Block
DEPT.FT            0 000 00 00: Depth
CCL.                          : Casing Collar Locator
TT3.usec                      : CBL 3' Travel Time
AMP3.mV                       : CBL 3' Amplitude
GR.GAPI                       : Gamma Ray
~Parameter Information Block
~A  Depth       CCL         TT3         AMP3         GR     
    -7.0000   -999.2500   -999.2500   -999.2500     78.0732
    -6.7500   -999.2500   -999.2500   -999.2500     77.4134
    -6.5000   -999.2500   -999.2500   -999.2500     77.1314
    -6.2500   -999.2500   -999.2500   -999.2500     77.2783
    -6.0000   -999.2500   -999.2500   -999.2500     77.3449
    -5.7500   -999.2500   -999.2500   -999.2500     76.7347
    -5.5000   -999.2500   -999.2500   -999.2500     75.2872
    -5.2500   -999.2500   -999.2500   -999.2500     73.4434
    -5.0000   -999.2500   -999.2500   -999.2500     71.8807
    -4.7500   -999.2500   -999.2500   -999.2500     70.9766
    -4.5000   -999.2500   -999.2500   -999.2500     70.6404
    -4.2500   -999.2500   -999.2500   -999.2500     70.4727
    -4.0000   -999.2500   -999.2500   -999.2500     69.9634
    -3.7500   -999.2500   -999.2500   -999.2500     68.9481
    -3.5000   -999.2500   -999.2500   -999.2500     68.2147
    -3.2500   -999.2500   -999.2500   -999.2500     69.1244
    -3.0000   -999.2500   -999.2500   -999.2500     72.0765
    -2.7500   -999.2500   -999.2500   -999.2500     75.6793
    -2.5000   -999.2500   -999.2500   -999.2500     78.0241
    -2.2500   -999.2500   1149.0000      2.0170     78.7192
    -2.0000   -999.2500   1149.0000      2.0350     79.1355
    -1.7500   -999.2500   1149.0000      2.0415     80.5463
    -1.5000   -999.2500   1149.0000      2.0371     82.4805
    -1.2500   -999.2500   1149.0000      2.0265     83.1012
    -1.0000   -999.2500   1149.0000      2.0156     80.8391
    -0.7500   -999.2500   1149.0000      2.0085     75.4543
    -0.5000   -999.2500   1149.0000      2.0054     67.8590
    -0.2500   -999.2500   1149.0000      2.0043     59.3165
     0.0000   -999.2500   1149.0000      2.0028     43.0629
     0.2500   -999.2500   1149.0000      2.0048     36.2781
     0.5000   -999.2500   1149.0000      2.0101     30.7844
     0.7500   -999.2500   1149.0000      2.0176     27.0193
     1.0000   -999.2500   1149.0000      2.0243     25.2368
     1.2500   -999.2500   1149.0000      2.0270     25.0345
     1.5000   -999.2500   1149.0000      2.0243     25.4987
     1.7500   -999.2500   1149.0000      2.0175     25.9314
     2.0000   -999.2500   1149.0000      2.0094     26.3777
     2.2500   -999.2500   1149.0000      2.0026     27.4939
     2.5000   -999.2500   1149.0000      1.9977     29.9138
     2.7500      0.0000   1149.0000      1.9938     33.5835
     3.0000      0.0000   1149.0000      1.9901     37.7107
     3.2500      0.0000   1149.0000      1.9872     41.5291
     3.5000      0.0000   1149.0000      1.9860     44.9809
     3.7500      0.0000   1149.0000      1.9865     48.4426
     4.0000      0.0000   1149.0000      1.9878     52.0306
     4.2500      0.0000   1149.0000      1.9882     55.4880
     4.5000      0.0000   1149.0000      1.9871     58.5305
     4.7500      0.0000   1149.0000      1.9867     60.9835
     5.0000      0.0000   1149.0000      1.9896     62.6981
     5.2500      0.0000   1149.0000      1.9952     63.5559
     5.5000      0.0000   1149.0000      1.9984     63.6008
     5.7500      0.0000   1149.0000      1.9936     63.2947
     6.0000      0.0000   1149.0000      1.9803     63.6103
     6.2500      0.0000   1149.0000      1.9645     65.3646
     6.5000      0.0000   1149.0000      1.9547     68.1825
     6.7500      2.0000   1149.0000      1.9552     70.5176
     7.0000      0.0000   1149.0000      1.9635     71.0079
     7.2500      0.0000   1149.0000      1.9741     69.6242
     7.5000      0.0000   1149.0000      1.9836     67.5686
     7.7500      0.0000   1149.0000      1.9915     66.4377
     8.0000      0.0000   1149.0000      1.9972     67.1543
     8.2500      0.0000   1149.0000      1.9991     69.0883
     8.5000      0.0000   1149.0000      1.9962     70.5313
     8.7500      2.0000   1149.0000      1.9899     70.6320
     9.0000      0.0000   1149.0000      1.9840     70.4700
     9.2500      0.0000   1149.0000      1.9820     71.6915
     9.5000      0.0000   1149.0000      1.9854     74.4808
     9.7500      0.0000   1149.0000      1.9922     77.3365
    10.0000      0.0000   1149.0000      1.9984     78.4954
    10.2500      0.0000   1149.0000      2.0021     77.2920
    10.5000      0.0000   1149.0000      2.0043     74.5858
    10.7500      0.0000   1149.0000      2.0062     72.3171
    11.0000      0.0000   1149.0000      2.0063     72.2800
    11.2500      0.0000   1149.0000      2.0018     74.5413
    11.5000      0.0000   1149.0000      1.9928     76.9411
    11.7500      0.0000   1149.0000      1.9840     76.6993
    12.0000      0.0000   1149.0000      1.9821     72.8883
    12.2500      0.0000   1149.0000      1.9901     67.2579
    12.5000      0.0000   1149.0000      2.0049     62.5850
    12.7500      0.0000   1149.0000      2.0201     60.4207
    13.0000      0.0000   1149.0000      2.0312     60.3633
    13.2500      0.0000   1149.0000      2.0370     60.9608
    13.5000      0.0000   1149.0000      2.0372     60.9243
    13.7500      0.0000   1149.0000      2.0314     59.7757
    14.0000      0.0000   1149.0000      2.0210     57.9100
    14.2500      0.0000   1149.0000      2.0100     56.2881
    14.5000      0.0000   1149.0000      2.0040     55.8725
    14.7500      0.0000   1149.0000      2.0050     57.1322
    15.0000      0.0000   1149.0000      2.0096     59.9771
    15.2500      0.0000   1149.0000      2.0128     63.9156
    15.5000      0.0000   1149.0000      2.0122     68.0630
    15.7500      0.0000   1149.0000      2.0095     71.2438
    16.0000      0.0000   1149.0000      2.0083     72.4793
    16.2500      0.0000   1149.0000      2.0109     71.4273
    16.5000      0.0000   1149.0000      2.0166     68.4305
    16.7500      0.0000   1149.0000      2.0230     64.3137
    17.0000      0.0000   1149.0000      2.0277     60.0930
    17.2500      0.0000   1149.0000      2.0286     56.6351
    17.5000      0.0000   1149.0000      2.0247     54.3484
    17.7500      0.0000   1149.0000      2.0171     53.0908
    18.0000      0.0000   1149.0000      2.0082     52.5285
    18.2500      0.0000   1149.0000      2.0008     52.6435
    18.5000      0.0000   1149.0000      1.9971     53.6759
    18.7500      0.0000   1149.0000      1.9993     55.5528
    19.0000      0.0000   1149.0000      2.0078     57.6491
    19.2500      0.0000   1149.0000      2.0197     59.1023
    19.5000      0.0000   1149.0000      2.0298     59.1574
    19.7500      0.0000   1149.0000      2.0344     57.4452
    20.0000      0.0000   1149.0000      2.0342     54.5331
    20.2500      0.0000   1149.0000      2.0334     52.1369
    20.5000      0.0000   1149.0000      2.0361     51.9780
    20.7500      0.0000   1149.0000      2.0442     54.0409
    21.0000      0.0000   1149.0000      2.0563     56.5104
    21.2500      0.0000   1149.0000      2.0669     57.7319
    21.5000      0.0000   1149.0000      2.0695     57.6049
    21.7500      0.0000   1149.0000      2.0599     56.8466
    22.0000      0.0000   1149.0000      2.0403     55.8572
    22.2500      0.0000   1149.0000      2.0176     54.7770
    22.5000      0.0000   1149.0000      2.0001     53.9426
    22.7500      0.0000   1149.0000      1.9926     53.7449
    23.0000      0.0000   1149.0000      1.9939     54.3279
    23.2500      0.0000   1149.0000      1.9995     55.7513
    23.5000      0.0000   1149.0000      2.0053     58.2915
    23.7500      0.0000   1149.0000      2.0093     62.1865
    24.0000      0.0000   1149.0000      2.0121     66.9929
    24.2500      0.0000   1149.0000      2.0150     71.5035
    24.5000      0.0000   1149.0000      2.0184     74.5658
    24.7500      0.0000   1149.0000      2.0219     75.7579
    25.0000      0.0000   1149.0000      2.0250     75.0794
    25.2500      0.0000   1149.0000      2.0273     72.5201
    25.5000      0.0000   1149.0000      2.0278     68.4316
    25.7500      0.0000   1149.0000      2.0247     63.9341
    26.0000      0.0000   1149.0000      2.0178     60.3692
    26.2500      0.0000   1149.0000      2.0107     58.3649
