~Version Information
VERS.                      2.0: CWLS Log ASCII Standard - VERSION 2.0
WRAP.                       NO: One line per depth step
~Well Information Block
STRT.FT                -4.7500: 
STOP.FT              2809.5000: 
STEP.FT                 0.2500: 
NULL.                -999.2500: 
COMP.          Pioneer Natural Resources: COMPANY
WELL.              Lynch 43-30: WELL
FLD.           Purgatorie River: FIELD
LOC.           1438' FSL & 429' FEL--: LOCATION
PROV.                       CO: PROVINCE
CNTY.               Las Animas: COUNTRY
SRVC.                         : SERVICE COMPANY
DATE.          Sat Oct 30 09:52:34 2004: LOG DATE
UWI.          005 071 08170   : UNIQUE WELL ID
~Curve Information Block
DEPT.FT            0 000 00 00: Depth
GR.GAPI                       : Gamma Ray
CCL.                          : Casing Collar Locator
TT3.usec                      : CBL 3' Travel Time
AMP3.mV                       : CBL 3' Amplitude
~Parameter Information Block
~A  Depth        GR         CCL         TT3         AMP3    
# ...
  2407.2500    111.9170      0.0000    566.5429      3.4269
  2407.5000    110.5648      0.0000    520.2103      3.5613
  2407.7500    108.5715      0.0000    478.8991      3.6580
  2408.0000    106.4037      0.0000    449.0412      3.7213
  2408.2500    104.3445      0.0000    431.6579      3.7630
  2408.5000    103.0172      0.0000    423.3342      3.7845
  2408.7500    103.0288      0.0000    419.7509      3.7829
  2409.0000    104.0979      0.0000    418.0022      3.7619
  2409.2500    104.9005      0.0000    416.7838      3.7341
  2409.5000    104.1137      0.0000    415.7009      3.7142
  2409.7500    101.8286      0.0000    414.6988      3.7079
  2410.0000     99.7934      0.0000    413.7890      3.7104
  2410.2500     99.9631      0.0000    412.9615      3.7146
  2410.5000    102.6694      0.0000    412.1907      3.7158
  2410.7500    106.1007      0.0000    411.5226      3.7111
  2411.0000    107.5357      0.0000    411.3217      3.6975
  2411.2500    105.4537      0.0000    412.6073      3.6791
  2411.5000    100.8281      0.0000    417.2559      3.6693
  2411.7500     96.4134      0.0000    427.2283      3.6816
  2412.0000     94.7302      0.0000    442.1762      3.7172
  2412.2500     96.5278      0.0000    457.2331      3.7654
  2412.5000    100.5697      0.0000    464.9765      3.8130
  2412.7500    104.4733      0.0000    461.6204      3.8478
  2413.0000    106.1894      0.0000    450.6398      3.8595
  2413.2500    105.4760      0.0000    439.1161      3.8452
  2413.5000    104.1586      0.0000    431.5932      3.8135
  2413.7500    104.6352      0.0000    428.2419      3.7783
  2414.0000    107.7250      0.0000    427.1716      3.7478
  2414.2500    111.8822      0.0000    426.7946      3.7204
  2414.5000    114.6547      0.0000    426.4420      3.6923
  2414.7500    114.8798      0.0000    426.0023      3.6658
  2415.0000    113.2922      0.0000    425.5332      3.6471
  2415.2500    111.2990      0.0000    425.0723      3.6372
  2415.5000    109.6279      0.0000    424.6295      3.6283
  2415.7500    108.0336      0.0000    424.1991      3.6116
  2416.0000    105.8212      0.0000    423.7814      3.5866
  2416.2500    102.4246      0.0000    423.4009      3.5628
  2416.5000     97.6570      0.0000    423.0991      3.5519
  2416.7500     91.9889      0.0000    422.8906      3.5600
  2417.0000     86.8301      0.0000    422.7236      3.5857
  2417.2500     83.8992      0.0000    422.5057      3.6224
  2417.5000     83.8261      0.0000    422.1790      3.6596
  2417.7500     85.6770      0.0000    421.7643      3.6844
  2418.0000     87.9562      0.0000    421.3263      3.6873
  2418.2500     89.7238      0.0000    420.9109      3.6676
  2418.5000     90.7574      0.0000    420.5287      3.6326
  2418.7500     91.0944      0.0000    420.1829      3.5912
  2419.0000     90.7360      0.0000    419.8832      3.5502
  2419.2500     89.8118      0.0000    419.6302      3.5129
  2419.5000     88.8504      0.0000    419.4039      3.4784
  2419.7500     88.5231      0.0000    419.1909      3.4410
  2420.0000     88.9069      0.0000    419.0363      3.3954
  2420.2500     89.1582      0.0000    419.2296      3.3460
  2420.5000     88.0999      0.0000    420.7883      3.3111
  2420.7500     85.2341      0.0000    426.0897      3.3117
  2421.0000     81.3501      0.0000    438.6331      3.3564
  2421.2500     77.9918      0.0000    460.2477      3.4336
  2421.5000     76.0320      0.0000    486.6317      3.5194
  2421.7500     74.9581      0.0000    506.6744      3.5922
  2422.0000     73.7705      0.0000    509.5264      3.6455
  2422.2500     72.1852      0.0000    493.5268      3.6882
  2422.5000     70.6001      0.0000    467.1533      3.7307
  2422.7500     69.2029      0.0000    442.1447      3.7722
  2423.0000     67.5149      0.0000    427.5052      3.8025
  2423.2500     64.7726      0.0000    428.1324      3.8156
  2423.5000     60.6837      0.0000    444.2325      3.8150
  2423.7500     55.9659      0.0000    469.4991      3.8076
  2424.0000     52.1520      0.0000    492.6700      3.7959
  2424.2500     50.6486      0.0000    505.8272      3.7836
  2424.5000     51.7488      0.0000    511.6253      3.7833
  2424.7500     54.3206      0.0000    519.1556      3.8120
  2425.0000     56.3095      0.0000    533.5616      3.8743
  2425.2500     55.8457      0.0000    553.7246      3.9553
  2425.5000     52.5084      0.0000    578.2545      4.0273
  2425.7500     47.8254      0.0000    607.5034      4.0653
  2426.0000     44.1917      0.0000    639.3879      4.0589
  2426.2500     43.0095      0.0000    667.9528      4.0177
  2426.5000     44.1401      0.0000    687.6014      3.9674
  2426.7500     47.0917      0.0000    697.1323      3.9365
  2427.0000     52.0671      0.0000    699.4590      3.9359
  2427.2500     59.6076      0.0000    698.4985      3.9501
  2427.5000     69.6290      0.0000    696.5236      3.9514
  2427.7500     80.9747      0.0000    693.4930      3.9278
  2428.0000     91.7011      0.0000    687.7639      3.8903
  2428.2500     99.8405      0.0000    676.7633      3.8537
  2428.5000    104.2656      0.0000    657.1210      3.8171
  2428.7500    105.3332      0.0000    625.7086      3.7673
  2429.0000    104.7895      0.0000    583.0344      3.6984
  2429.2500    104.6174      0.0000    536.5947      3.6194
  2429.5000    105.6644      0.0000    499.3888      3.5413
  2429.7500    107.4210      0.0000    483.5120      3.4655
  2430.0000    108.7726      0.0000    494.1205      3.3894
  2430.2500    108.6179      0.0000    527.3188      3.3223
  2430.5000    106.3226      0.0000    572.0813      3.2864
  2430.7500    102.4273      0.0000    615.6430      3.2979
  2431.0000     98.6486      0.0000    649.5809      3.3493
  2431.2500     96.3372      0.0000    671.9631      3.4152
  2431.5000     94.8886      0.0000    684.8553      3.4710
  2431.7500     92.2226      0.0000    690.9090      3.5038
  2432.0000     86.9619      0.0000    691.8004      3.5102
  2432.2500     79.8822      0.0000    688.2479      3.4917
  2432.5000     73.1687      0.0000    680.6639      3.4544
  2432.7500     68.5365      0.0000    669.4899      3.4116
  2433.0000     66.2527      0.0000    654.8586      3.3843
  2433.2500     65.6862      0.0000    636.3482      3.3897
  2433.5000     66.3363      0.0000    613.6157      3.4264
  2433.7500     68.2400      0.0000    587.2599      3.4716
  2434.0000     71.6172      0.0000    559.5385      3.4959
  2434.2500     76.1262      0.0000    535.6312      3.4802
  2434.5000     80.3936      0.0000    523.7589      3.4249
  2434.7500     82.5719      0.0000    530.9439      3.3494
  2435.0000     81.8198      0.0000    556.4800      3.2865
  2435.2500     79.2669      0.0000    590.4556      3.2696
  2435.5000     77.2215      0.0000    620.1186      3.3162
  2435.7500     77.3806      0.0000    637.7378      3.4202
  2436.0000     79.9391      0.0000    642.7750      3.5552
  2436.2500     84.1965      0.0000    638.5236      3.6823
  2436.5000     89.4301      0.0000    628.5732      3.7633
  2436.7500     95.0437      0.0000    616.1580      3.7807
  2437.0000    100.4252      0.0000    605.3159      3.7438
  2437.2500    105.1314      0.0000    600.9210      3.6732
  2437.5000    109.1079      0.0000    606.6034      3.5837
  2437.7500    112.3366      0.0000    622.4308      3.4872
  2438.0000    114.2375      0.0000    644.3738      3.4033
  2438.2500    113.9164      0.0000    666.1566      3.3551
  2438.5000    111.3960      0.0000    682.6498      3.3541
  2438.7500    108.2495      0.0000    692.3274      3.3905
  2439.0000    106.6150      0.0000    696.7415      3.4373
  2439.2500    107.5825      0.0000    698.1514      3.4648
  2439.5000    110.4972      0.0000    697.8083      3.4520
  2439.7500    113.4809      0.0000    695.8745      3.3849
  2440.0000    114.6946      0.0000    692.5429      3.2495
  2440.2500    113.5731      0.0000    689.3762      3.0381
  2440.5000    110.8791      0.0000    689.5856      2.7623
