~Version Information
VERS.                      2.0: CWLS Log ASCII Standard - VERSION 2.0
WRAP.                       NO: One line per depth step
~Well Information Block
STRT.FT               954.0000: 
STOP.FT              2517.0000: 
STEP.FT                 0.2500: 
NULL.                -999.2500: 
COMP.          Petrogulf Corporation: COMPANY
WELL.             Royal 8-33 V: WELL
FLD.           Purgatoire River: FIELD
LOC.           2365' FSL & 2336' FEL: LOCATION
PROV.                 Colorado: PROVINCE
CNTY.               Las Animas: COUNTRY
SRVC.                Patterson: SERVICE COMPANY
DATE.          Fri Dec 05 04:39:41 2003: LOG DATE
UWI.                          : UNIQUE WELL ID
~Curve Information Block
DEPT.FT            0 000 00 00: Depth
SP.mV                         : DIL Spontaneous Potential
RILD.Ohm-m                    : DIL Deep Resistivity
RILM.Ohm-m                    : DIL Medium Resistivity
RLL3.Ohm-m                    : DIL Shallow Resistivity
GR.GAPI                       : Gamma Ray
~Parameter Information Block
~A  Depth        SP         RILD        RILM        RLL3         GR     
# ...
  2186.0000    -67.8008     13.0909     14.5230     15.4663    124.8487
  2186.2500    -66.9012     12.7479     14.2540     15.7885    130.0068
  2186.5000    -66.3947     12.4713     14.0723     16.3335    131.7597
  2186.7500    -66.2185     12.2680     13.9407     16.9271    129.6600
  2187.0000    -66.2181     12.1320     13.8395     17.4925    124.8524
  2187.2500    -66.2101     12.0405     13.7670     17.9793    122.5086
  2187.5000    -66.0351     11.9579     13.7336     18.3397    122.0034
  2187.7500    -65.5943     11.8476     13.7532     18.5327    123.4948
  2188.0000    -64.8709     11.6914     13.8349     18.5292    126.9509
  2188.2500    -63.9333     11.5063     13.9760     18.3304    129.0190
  2188.5000    -62.9066     11.3444     14.1612     17.9995    130.4264
  2188.7500    -61.9173     11.2700     14.3729     17.6761    129.9468
  2189.0000    -61.0411     11.3302     14.6123     17.5665    127.3993
  2189.2500    -60.2869     11.5327     14.9169     17.9276    124.7945
  2189.5000    -59.6183     11.8377     15.3526     19.0737    119.7545
  2189.7500    -58.9923     12.1654     15.9772     21.4037    115.5979
  2190.0000    -58.3893     12.4226     16.7919     25.3699    108.2662
  2190.2500    -57.8150     12.5540     17.7093     31.1876    102.9840
  2190.5000    -57.2811     12.5906     18.5643     38.2489     95.3482
  2190.7500    -56.7915     12.6549     19.1893     44.7897     90.8812
  2191.0000    -56.3527     12.9114     19.5278     48.5775     85.5551
  2191.2500    -55.9917     13.5039     19.6957     48.3539     83.2321
  2191.5000    -55.7552     14.5023     19.9342     44.5781     82.5258
  2191.7500    -55.6930     15.8400     20.4961     38.7395     84.4596
  2192.0000    -55.8479     17.2424     21.5459     32.2914     91.2214
  2192.2500    -56.2543     18.2526     23.0965     26.3155     97.8973
  2192.5000    -56.9293     18.4835     24.9770     21.6523    109.5884
  2192.7500    -57.8440     17.9043     26.8723     18.8273    117.0709
  2193.0000    -58.8992     16.7952     28.4609     17.8366    124.7710
  2193.2500    -59.9312     15.4767     29.5519     18.1585    126.0815
  2193.5000    -60.7616     14.1666     30.0991     19.0335    122.0116
  2193.7500    -61.2652     12.9932     30.1476     19.8081    116.6335
  2194.0000    -61.4144     12.0304     29.8473     20.1713    107.8678
  2194.2500    -61.2695     11.3085     29.4957     20.1813    102.8253
  2194.5000    -60.9321     10.8237     29.4943     20.1072     96.7940
  2194.7500    -60.4944     10.5515     30.2232     20.2344     93.4998
  2195.0000    -60.0047     10.4571     31.9060     20.7458     89.7328
  2195.2500    -59.4508     10.4986     34.4653     21.6382     88.5532
  2195.5000    -58.7678     10.6329     37.3416     22.6510     89.5878
  2195.7500    -57.8729     10.8384     39.5133     23.3597     91.8986
  2196.0000    -56.7096     11.1457     40.0944     23.5313     95.9271
  2196.2500    -55.2711     11.6555     39.0457     23.4466     97.5256
  2196.5000    -53.5945     12.5331     36.9393     23.7683     96.4910
  2196.7500    -51.7446     13.9964     34.1594     25.0009     93.3873
  2197.0000    -49.8116     16.3014     30.7196     27.0664     86.3832
  2197.2500    -47.9215     19.6786     26.7525     29.3731     81.2700
  2197.5000    -46.2341     24.1382     22.7929     31.2503     74.6121
  2197.7500    -44.9085     29.1394     19.4336     32.3531     71.4038
  2198.0000    -44.0509     33.5160     16.9500     32.7510     68.4805
  2198.2500    -43.6814     36.1994     15.3151     32.7270     67.4171
  2198.5000    -43.7406     37.1465     14.3766     32.5341     66.4794
  2198.7500    -44.1298     37.2640     13.9790     32.3090     66.1797
  2199.0000    -44.7492     37.6509     14.0207     32.1238     66.4147
  2199.2500    -45.5045     39.1091     14.4971     32.0629     67.0081
  2199.5000    -46.2919     42.0823     15.5531     32.2974     67.8195
  2199.7500    -47.0167     46.7831     17.5626     33.1198     67.6756
  2200.0000    -47.6467     53.3879     21.3069     34.8004     65.7169
  2200.2500    -48.2236     62.2205     28.4960     37.2640     63.1901
  2200.5000    -48.8045     73.5904     43.5034     39.9301     58.0644
  2200.7500    -49.4131     86.5192     80.7476     42.0173     54.4482
  2201.0000    -50.0594     96.3525    219.6918     43.0320     50.4134
  2201.2500    -50.7825     95.9363 100000.0000     42.8939     49.5048
  2201.5000    -51.6531     84.9338 100000.0000     41.6914     51.1677
  2201.7500    -52.7359     71.3532 100000.0000     39.5533     53.6827
  2202.0000    -54.0453     61.3951 100000.0000     36.7952     57.6994
  2202.2500    -55.5101     56.5817 100000.0000     33.9949     59.6404
  2202.5000    -56.9673     56.4962 100000.0000     31.7793     61.1335
  2202.7500    -58.2106     60.1573  12908.0518     30.5259     61.5995
  2203.0000    -59.0775     65.5660    732.8317     30.2410     62.1915
  2203.2500    -59.5123     69.0480    385.0068     30.6467     62.4407
  2203.5000    -59.5640     67.2739    307.8175     31.3736     61.8435
  2203.7500    -59.3499     60.8718    345.2619     32.1365     60.5534
  2204.0000    -59.0241     53.2688    663.9940     32.7920     57.8441
  2204.2500    -58.7434     47.0533 100000.0000     33.2810     56.1544
  2204.5000    -58.6221     43.2344 100000.0000     33.5787     54.4109
  2204.7500    -58.6968     42.1601 100000.0000     33.7192     53.7410
  2205.0000    -58.9299     44.2824 100000.0000     33.8023     53.4499
  2205.2500    -59.2548     50.6108 100000.0000     33.9058     54.0144
  2205.5000    -59.6269     62.9918 100000.0000     34.0002     56.4773
  2205.7500    -60.0415     83.4151 100000.0000     33.9945     59.0414
  2206.0000    -60.5077    108.7648   1483.0857     33.8701     63.3084
  2206.2500    -61.0021    121.3531    232.1458     33.7370     65.8045
  2206.5000    -61.4380    107.1584    123.9502     33.7246     68.2023
  2206.7500    -61.6782     82.1208     86.3690     33.7946     68.6925
  2207.0000    -61.5913     61.8296     67.7961     33.6695     68.2110
  2207.2500    -61.1209     48.4607     56.2683     33.0251     67.8010
  2207.5000    -60.3193     40.0578     47.8250     31.8705     68.2931
  2207.7500    -59.3220     34.8242     41.2005     30.7262     69.6083
  2208.0000    -58.2832     31.6777     36.1321     30.2212     72.5873
  2208.2500    -57.3200     30.0317     32.6079     30.3663     74.7769
  2208.5000    -56.5010     29.5449     30.6171     30.3820     77.9014
  2208.7500    -55.8703     29.9330     30.1340     29.4733     79.8995
  2209.0000    -55.4714     30.8449     31.1349     27.7175     82.8395
  2209.2500    -55.3510     31.8269     33.5616     25.9792     84.4758
  2209.5000    -55.5462     32.4203     37.1893     24.9636     85.4792
  2209.7500    -56.0715     32.3691     41.4443     24.5486     84.8610
  2210.0000    -56.9062     31.7674     45.3292     24.1353     82.6156
  2210.2500    -57.9811     31.0034     47.7283     23.5960     81.0484
  2210.5000    -59.1705     30.5852     48.0310     23.8575     79.5301
  2210.7500    -60.3034     31.0084     46.5213     26.5865     78.8991
  2211.0000    -61.2034     32.7383     44.0988     33.1212     77.1040
  2211.2500    -61.7420     36.2634     41.6991     43.2193     74.2930
  2211.5000    -61.8829     42.0937     39.9787     54.5207     66.6639
  2211.7500    -61.6983     50.5969     39.3822     63.5084     59.8205
  2212.0000    -61.3431     61.6793     40.3199     67.5794     49.7813
  2212.2500    -60.9911     74.7468     43.3069     66.5494     45.1611
  2212.5000    -60.7625     89.5095     48.9920     62.3788     42.7503
  2212.7500    -60.6778    106.9306     57.8833     57.6650     43.3877
  2213.0000    -60.6585    128.7502     69.1787     54.2743     45.0610
  2213.2500    -60.5680    154.5836     78.6063     52.7912     45.5834
  2213.5000    -60.2708    175.9361     79.6766     52.6208     45.5138
  2213.7500    -59.6757    175.1216     71.7862     52.4342     45.5670
