~Version Information
VERS.                      2.0: CWLS Log ASCII Standard - VERSION 2.0
WRAP.                       NO: One line per depth step
~Well Information Block
STRT.FT               548.0000: 
STOP.FT              1916.0000: 
STEP.FT                 0.2500: 
NULL.                -999.2500: 
COMP.          Pioneer Natural Resources: COMPANY
WELL.          Blackjack 32-11 Tr: WELL
FLD.           Purgatorie River: FIELD
LOC.           2066' FNL & 1453' FEL: LOCATION
PROV.                 Colorado: PROVINCE
CNTY.               Las Animas: COUNTRY
SRVC.                Patterson: SERVICE COMPANY
DATE.          Tue Aug 16 12:08:23 2005: LOG DATE
UWI.                          : UNIQUE WELL ID
~Curve Information Block
DEPT.FT            0 000 00 00: Depth
SN.Ohm-m                      : IEL Short Normal
SP.mV                         : IEL Spontaneous Potential
DIR.Ohm-m                     : IEL Induction Resistivity
GR.GAPI                       : Gamma Ray
~Parameter Information Block
~A  Depth        SN          SP         DIR          GR     
# ...
  1620.0000     24.8069    -18.6171     24.8370    104.4746
  1620.2500     24.1547    -18.8648     20.6720    107.0431
  1620.5000     24.0362    -18.6965     21.7134    106.6548
  1620.7500     23.7789    -19.0299     23.9708    105.6153
  1621.0000     23.8064    -19.2505     24.0814    104.7071
  1621.2500     23.4339    -18.8719     25.2163     99.5251
  1621.5000     23.3960    -19.3290     22.8472     98.1540
  1621.7500     23.2079    -19.5198     23.9447     97.8172
  1622.0000     23.0046    -19.7795     23.3878    101.4832
  1622.2500     22.5197    -20.1556     23.0849    109.7787
  1622.5000     22.2736    -19.8517     22.9694    112.6281
  1622.7500     21.7493    -20.0890     22.4679    104.4279
  1623.0000     21.5113    -20.3387     23.3635    104.8238
  1623.2500     21.1095    -20.2235     22.0884    108.2632
  1623.5000     21.1205    -19.9491     19.1334    114.0593
  1623.7500     21.1625    -19.7495     21.5465    116.1349
  1624.0000     21.1684    -20.0598     22.5858    106.7272
  1624.2500     21.4290    -20.2633     22.9108    111.3217
  1624.5000     21.2605    -20.2768     22.0038    113.5662
  1624.7500     21.3171    -20.4020     19.0265    101.6047
  1625.0000     21.5432    -20.8806     19.1886     97.4477
  1625.2500     21.7487    -21.7295     18.3440    103.5496
  1625.5000     21.9490    -22.7182     20.3302    105.3177
  1625.7500     22.1836    -23.5416     21.4616    103.6416
  1626.0000     22.5652    -23.1557     22.6203     96.2484
  1626.2500     22.3075    -23.7983     22.9288     86.5039
  1626.5000     22.8584    -23.6800     22.2463     93.2922
  1626.7500     23.1407    -23.4253     23.3821     95.8688
  1627.0000     23.9781    -23.1707     23.8291     97.9209
  1627.2500     24.6341    -23.0914     23.9352     86.8321
  1627.5000     25.7592    -24.0063     23.8420     80.1832
  1627.7500     26.2777    -23.4840     23.3604     76.3324
  1628.0000     26.6469    -23.7085     21.6647     83.8360
  1628.2500     26.4509    -23.5332     21.3597     88.0573
  1628.5000     25.1622    -23.6659     21.7032     85.0626
  1628.7500     24.3436    -23.0271     21.5777     87.5052
  1629.0000     23.6197    -23.3914     21.6227     90.6295
  1629.2500     23.2883    -22.9110     20.9093     99.9651
  1629.5000     22.3163    -23.2038     19.7274    103.6666
  1629.7500     21.9471    -23.2556     17.4274     95.1784
  1630.0000     20.7085    -23.2810     20.0679     96.0986
  1630.2500     20.2692    -23.4273     20.3396    104.9438
  1630.5000     19.6276    -23.6195     19.8790    103.5235
  1630.7500     19.3197    -23.2944     17.9711    112.6757
  1631.0000     18.8654    -23.0375     17.4347    110.7791
  1631.2500     18.3242    -22.9186     16.5603    117.2639
  1631.5000     17.7238    -22.2766     18.2446    106.6896
  1631.7500     17.7819    -21.9364     17.1568    110.1665
  1632.0000     17.3290    -22.3663     16.1447    117.7568
  1632.2500     17.0629    -21.7849     15.9718    118.3829
  1632.5000     16.9528    -21.7347     15.5375    112.9566
  1632.7500     16.6717    -21.2518     14.5833    115.8280
  1633.0000     15.9254    -21.0749     14.4024    112.2802
  1633.2500     15.6084    -21.0771     13.5148    109.5125
  1633.5000     14.6412    -20.4950     13.0082    109.9133
  1633.7500     14.0471    -20.2109     13.0061    118.4891
  1634.0000     13.1244    -20.1916     12.2211    131.7186
  1634.2500     12.8202    -20.0915     12.1921    132.8119
  1634.5000     11.8537    -20.3111     11.8636    139.9494
  1634.7500     11.6061    -19.8840     11.4582    144.0450
  1635.0000     11.4430    -19.4938     11.2888    133.5653
  1635.2500     11.4808    -18.9989     11.0084    139.8716
  1635.5000     11.5125    -19.5347     10.5688    140.1184
  1635.7500     11.6178    -19.8526     10.2641    134.6500
  1636.0000     11.1503    -19.9153      9.9388    123.8540
  1636.2500     11.3497    -20.2127      9.5527    126.8151
  1636.5000     11.2070    -20.7298      9.2956    134.1614
  1636.7500     11.1491    -20.2026      9.4767    145.7180
  1637.0000     11.2177    -19.9711      9.4327    133.0735
  1637.2500     11.4442    -19.8947      9.4982    131.6173
  1637.5000     11.2177    -20.3349      9.4065    146.6740
  1637.7500     11.1597    -19.5184      9.7751    140.9307
  1638.0000     11.2565    -18.6953      9.7574    145.2452
  1638.2500     11.1837    -18.6905     10.1738    148.4910
  1638.5000     11.3977    -19.6661     10.5328    144.1619
  1638.7500     11.5575    -20.0106     10.6457    139.1212
  1639.0000     11.8578    -20.4000     11.1951    143.6128
  1639.2500     12.3068    -19.9167     11.9877    148.4396
  1639.5000     12.8481    -20.3304     12.2124    143.7748
  1639.7500     14.1316    -20.3463     12.7874    146.2163
  1640.0000     13.9760    -21.1372     13.4767    131.4397
  1640.2500     14.7913    -21.2243     13.6598    133.6792
  1640.5000     15.9112    -20.7696     12.5409    124.2421
  1640.7500     16.9336    -21.0460     14.9422    118.2860
  1641.0000     18.6536    -20.3464     15.7637    111.3069
  1641.2500     19.7547    -18.9692     16.9474    118.8941
  1641.5000     21.5342    -20.0527     17.9353    114.8009
  1641.7500     22.1606    -20.0602     18.9857    109.5243
  1642.0000     23.2867    -19.9169     18.5466    108.9104
  1642.2500     23.6283    -19.2463     20.4774    103.6480
  1642.5000     24.6992    -18.7172     18.4234    103.3661
  1642.7500     25.2869    -18.1695     21.3233    106.2786
  1643.0000     25.5234    -18.3540     22.7472    101.8614
  1643.2500     25.7735    -18.4416     20.3149    100.5760
  1643.5000     25.3330    -17.3237     23.4214    109.6223
  1643.7500     25.1862    -16.1887     22.6485    113.6179
  1644.0000     25.0168    -16.6216     22.6959    112.3952
  1644.2500     25.0708    -16.8092     21.6662    101.8067
  1644.5000     24.7459    -16.4492     21.3847    106.7586
  1644.7500     24.2568    -16.3307     19.4432    101.0413
  1645.0000     23.3248    -16.3007     19.2228     97.0626
  1645.2500     22.8429    -16.7505     19.2302    101.2943
  1645.5000     22.2416    -17.1543     17.1281    101.8886
  1645.7500     21.8357    -16.4865     15.8889    111.5351
  1646.0000     20.8734    -14.9095     17.9440    123.9549
  1646.2500     20.1976    -14.0053     18.2219    133.8409
  1646.5000     19.7023    -15.1598     18.1370    129.9961
  1646.7500     20.0095    -14.7490     18.1901    144.0630
  1647.0000     19.3691    -15.4398     18.4024    155.9027
  1647.2500     19.5198    -15.1257     17.3809    157.5724
  1647.5000     20.1046    -15.0795     17.2628    145.9824
  1647.7500     20.4944    -14.9989     18.8224    135.3894
  1648.0000     21.3282    -15.3345     17.7682    130.2208
  1648.2500     21.9922    -15.8900     18.1224    120.7015
  1648.5000     23.2200    -16.8689     17.6581    124.7602
  1648.7500     23.9158    -17.5870     17.5622    120.9031
  1649.0000     24.2601    -16.7726     18.6624    106.3497
  1649.2500     24.4888    -16.6333     19.3310    111.3934
  1649.5000     24.9987    -16.5707     18.7206    120.6447
  1649.7500     25.8415    -16.4877     20.9054    116.2138
  1650.0000     27.5963    -16.6331     19.1546    113.7334
  1650.2500     28.6409    -16.7930     20.1813    120.4943
  1650.5000     30.3117    -16.9702     20.7042    124.1123
  1650.7500     30.4589    -16.2101     24.7807    121.8496
  1651.0000     31.4351    -15.3923     23.2382    118.0221
  1651.2500     32.0856    -14.4990     24.2758    106.5278
  1651.5000     31.7911    -13.7273     22.7728     99.3554
  1651.7500     31.3956    -13.3211     20.7766     84.6710
  1652.0000     30.6888    -12.0044     19.1334     77.5928
  1652.2500     29.3560    -11.1510     18.3660     71.1938
  1652.5000     26.1285    -10.6686     17.4215     92.6986
  1652.7500     23.7954    -10.6321     16.1987    105.1303
  1653.0000     20.8303     -9.8879     15.0471    133.3162
  1653.2500     18.9228     -9.8461     13.5710    146.6020
