~Version Information
VERS.                      2.0: CWLS Log ASCII Standard - VERSION 2.0
WRAP.                       NO: One line per depth step
~Well Information Block
STRT.FT               -19.5000: 
STOP.FT              2456.0000: 
STEP.FT                 0.2500: 
NULL.                -999.2500: 
COMP.          Petrogulf Corporation: COMPANY
WELL.           Montoya 12-44V: WELL
FLD.           Purgatorie River: FIELD
LOC.           698' FSL & 599' FEL: LOCATION
CNTY.               Las Animas: COUNTY
SRVC.                         : SERVICE COMPANY
DATE.          Mon Sep 13 13:44:10 2004: LOG DATE
UWI.           05-071-08094-00: UNIQUE WELL ID
STAT.                 Colorado: STATE
~Curve Information Block
DEPT.FT            0 000 00 00: Depth
TT3.usec                      : CBL 3' Travel Time
AMP3.mV                       : CBL 3' Amplitude
GR.GAPI                       : Gamma Ray
CCL.                          : Casing Collar Locator
~Parameter Information Block
~A  Depth       TT3         AMP3         GR         CCL     
# ...
   617.0000    380.0518     10.2741    112.2283      0.0000
   617.2500    380.0864     10.3719    111.2876      0.0000
   617.5000    380.0998     10.4894    113.6941      0.0000
   617.7500    380.1426     10.5764    119.4102      0.0000
   618.0000    380.4000     10.5261    126.0707      0.0000
   618.2500    380.8385     10.3027    130.1911      0.0000
   618.5000    381.1934      9.9998    129.3108      0.0000
   618.7500    381.6233      9.7336    123.6919      0.0000
   619.0000    384.8262      9.5349    116.0476      0.0000
   619.2500    400.9891      9.3819    109.2492      0.0000
   619.5000    450.3690      9.2695    104.1804      0.0000
   619.7500    546.0010      9.2208     99.9431      0.0000
   620.0000    663.9626      9.2621     95.8258      0.0000
   620.2500    755.0186      9.3839     92.3581      0.0000
   620.5000    794.1772      9.5216     90.4114      0.0000
   620.7500    788.2322      9.6043     90.0949      0.0000
   621.0000    740.5687      9.6308     90.9297      0.0000
   621.2500    648.4999      9.6716     92.5735      0.0000
   621.5000    536.0792      9.7822     94.8593      0.0000
   621.7500    449.9975      9.9387     97.2454      0.0000
   622.0000    419.2960     10.0642     98.6306      0.0000
   622.2500    449.3432     10.0911     98.0761      0.0000
   622.5000    534.8036     10.0019     95.8567      0.0000
   622.7500    646.9027      9.8434     93.5373      0.0000
   623.0000    739.2000      9.6995     92.6940      0.0000
   623.2500    788.8558      9.6251     93.6855      0.0000
   623.5000    805.7883      9.6156     95.7729      0.0000
   623.7500    805.4934      9.6482     97.9610      0.0000
   624.0000    798.6563      9.7056     99.3813      0.0000
   624.2500    795.1666      9.7437     99.2714      0.0000
   624.5000    800.3575      9.7060     97.1699      0.0000
   624.7500    810.8638      9.5719     93.3134      0.0000
   625.0000    818.9382      9.3461     88.7729      0.0000
   625.2500    819.4569      9.0359     85.2266      0.0000
   625.5000    813.1068      8.6669     84.4140      0.0000
   625.7500    806.4223      8.2998     87.0779      0.0000
   626.0000    806.8765      8.0057     91.8312      0.0000
   626.2500    814.4814      7.8091     95.3861      0.0000
   626.5000    821.6697      7.6793     94.6439      0.0000
   626.7500    821.4073      7.5809     88.9015      0.0000
   627.0000    811.9788      7.4961     80.1160      0.0000
   627.2500    796.7125      7.3928     71.3900      0.0000
   627.5000    780.3320      7.2261     65.2921      0.0000
   627.7500    765.1823      6.9959     63.0039      0.0000
   628.0000    753.8986      6.7626     64.2428      0.0000
   628.2500    751.5748      6.5990     67.6662      0.0000
   628.5000    758.3376      6.5375     71.6535      0.0000
   628.7500    762.8489      6.5687     75.1763      0.0000
   629.0000    749.8774      6.6862     78.0674      0.0000
   629.2500    718.5948      6.9054     80.4278      0.0000
   629.5000    695.1111      7.2207     81.8845      0.0000
   629.7500    711.6380      7.5776     81.6237      0.0000
   630.0000    764.0895      7.8905     79.3198      0.0000
   630.2500    815.1505      8.0582     76.0156      0.0000
   630.5000    839.7121      8.0162     73.8361      0.0000
   630.7500    842.9475      7.8299     74.5506      0.0000
   631.0000    840.6526      7.6610     78.3076      0.0000
   631.2500    836.6780      7.6201     83.6870      0.0000
   631.5000    815.9686      7.7054     88.8027      0.0000
   631.7500    760.7621      7.8503     92.3288      0.0000
   632.0000    677.3014      7.9793     93.7152      0.0000
   632.2500    593.0950      8.0213     92.9610      0.0000
   632.5000    528.7513      7.8985     90.7072      0.0000
   632.7500    485.5969      7.5712     88.5342      0.0000
   633.0000    454.6869      7.1044     88.4941      0.0000
   633.2500    431.1795      6.6380     91.6874      0.0000
   633.5000    414.2949      6.3038     97.2756      0.0000
   633.7500    400.6215      6.1595    103.1135      0.0000
   634.0000    388.0440      6.1772    107.4154      0.0000
   634.2500    378.6227      6.2929    109.9258      0.0000
   634.5000    373.7411      6.4526    111.7307      0.0000
   634.7500    371.9071      6.6168    113.9132      0.0000
   635.0000    371.2391      6.7488    116.1865      0.0000
   635.2500    371.0078      6.8140    116.9283      0.0000
   635.5000    371.0732      6.8043    114.8438      0.0000
   635.7500    371.2399      6.7573    110.4795      0.0000
   636.0000    371.2915      6.7202    105.7167      0.0000
   636.2500    371.2083      6.7115    101.9099      0.0000
   636.5000    371.1807      6.7313     98.8795      0.0000
   636.7500    371.4249      6.7553     95.6307      0.0000
   637.0000    371.9266      6.7484     91.6115      0.0000
   637.2500    372.4419      6.7155     87.0914      0.0000
   637.5000    372.7499      6.6815     82.6090      0.0000
   637.7500    372.7908      6.6410     78.5021      0.0000
   638.0000    372.6185      6.5756     75.1405      0.0000
   638.2500    372.3517      6.4833     73.3457      0.0000
   638.5000    372.1471      6.3813     74.1096      0.0000
   638.7500    372.1390      6.3019     77.6028      0.0000
   639.0000    372.3442      6.2869     82.6095      0.0000
   639.2500    372.5906      6.3772     87.3040      0.0000
   639.5000    372.6808      6.5774     90.7326      0.0000
   639.7500    372.5652      6.8340     93.4149      0.0000
   640.0000    372.2553      7.0827     96.4303      0.0000
   640.2500    371.8016      7.2926    100.0832      0.0000
   640.5000    371.3272      7.4526    103.5678      0.0000
   640.7500    370.9720      7.5631    105.8251      0.0000
   641.0000    370.8636      7.6532    106.5278      0.0000
   641.2500    371.0757      7.7601    106.1389      0.0000
   641.5000    371.5537      7.8915    105.1201      0.0000
   641.7500    372.1362      8.0344    103.3885      0.0000
   642.0000    372.6837      8.1997    100.7854      0.0000
   642.2500    373.1538      8.4170     97.7889      0.0000
   642.5000    373.5721      8.6416     95.2434      0.0000
   642.7500    373.9815      8.7409     93.5166      0.0000
   643.0000    374.4748      8.6620     92.4421      0.0000
   643.2500    375.7397      8.5018     92.0170      0.0000
   643.5000    380.1663      8.3617     92.5721      0.0000
   643.7500    391.1232      8.2648     94.1526      0.0000
   644.0000    406.4594      8.2094     96.0817      0.0000
   644.2500    414.3425      8.1984     97.2661      0.0000
   644.5000    406.6577      8.2217     96.8986      0.0000
   644.7500    391.7368      8.2322     95.0623      0.0000
   645.0000    382.3433      8.1490     92.7555      0.0000
   645.2500    382.2273      7.9293     91.1507      0.0000
   645.5000    388.3723      7.6665     90.5821      0.0000
   645.7500    394.6796      7.5826     90.1619      0.0000
   646.0000    394.9572      7.8611     88.6728      0.0000
   646.2500    388.8570      8.4084     86.1161      0.0000
   646.5000    381.5781      8.8631     84.1600      0.0000
   646.7500    376.9646      8.9921     84.7348      0.0000
   647.0000    375.1463      8.9511     88.1788      0.0000
   647.2500    375.3508      8.9919     92.7590      0.0000
   647.5000    378.6049      9.0748     95.8902      0.0000
   647.7500    390.0921      8.9419     95.9380      0.0000
   648.0000    417.9724      8.4811     93.1510      0.0000
   648.2500    462.0592      7.9174     89.2046      0.0000
   648.5000    503.3194      7.5737     86.0075      0.0000
   648.7500    519.1303      7.4467     84.7351      0.0000
   649.0000    511.9087      7.3028     85.5101      0.0000
   649.2500    507.9762      7.0498     87.6893      0.0000
   649.5000    528.3802      6.6823     90.4672      0.0000
   649.7500    570.5615      6.2551     93.3822      0.0000
   650.0000    614.8574      5.9603     96.3828      3.2593
   650.2500    639.6818      5.8684     99.4702      0.0000
