~Version Information
VERS.                      2.0: CWLS Log ASCII Standard - VERSION 2.0
WRAP.                       NO: One line per depth step
~Well Information Block
STRT.FT               265.0000: 
STOP.FT              1214.0000: 
STEP.FT                 0.2500: 
NULL.                -999.2500: 
COMP.          Pioneer Natural Resources: COMPANY
WELL.          Pacheco 33-27 Tr: WELL
FLD.           Purgatoire River: FIELD
LOC.           2251' FSL & 2342' FEL: LOCATION
PROV.                 Colorado: PROVINCE
CNTY.               Las Animas: COUNTRY
SRVC.                Patterson: SERVICE COMPANY
DATE.          Fri Jun 10 13:29:04 2005: LOG DATE
UWI.           05 071 08384 00: UNIQUE WELL ID
~Curve Information Block
DEPT.FT            0 000 00 00: Depth
SN.Ohm-m                      : IEL Short Normal
SP.mV                         : IEL Spontaneous Potential
DIR.Ohm-m                     : IEL Induction Resistivity
GR.GAPI                       : Gamma Ray
~Parameter Information Block
~A  Depth        SN          SP         DIR          GR     
# ...
  1169.5000     26.1737     31.5053     25.3767     68.0137
  1169.7500     26.3413     30.7793     25.3962     66.0305
  1170.0000     26.4284     30.1116     25.4488     63.0713
  1170.2500     26.5563     29.5310     25.5355     61.1737
  1170.5000     26.8205     29.0666     25.6390     58.4241
  1170.7500     27.2207     28.7419     25.7296     56.5993
  1171.0000     27.6788     28.5640     25.7706     53.7342
  1171.2500     28.1066     28.5166     25.7194     51.6346
  1171.5000     28.4469     28.5672     25.5274     47.9999
  1171.7500     28.6331     28.6880     25.1511     45.2379
  1172.0000     28.5838     28.8728     24.5767     41.1787
  1172.2500     28.2358     29.1345     23.8399     39.3839
  1172.5000     27.5227     29.4908     23.0198     40.0739
  1172.7500     26.4195     29.9540     22.2047     43.7847
  1173.0000     25.0382     30.5261     21.4553     54.5878
  1173.2500     23.5698     31.1941     20.7872     64.4376
  1173.5000     22.1734     31.9256     20.1783     80.4544
  1173.7500     20.9121     32.6746     19.5878     90.2957
  1174.0000     19.7216     33.3936     18.9778    101.8608
  1174.2500     18.5526     34.0492     18.3291    106.9950
  1174.5000     17.5180     34.6322     17.6488    111.0314
  1174.7500     16.7574     35.1547     16.9627    111.7379
  1175.0000     16.2169     35.6346     16.2973    110.8155
  1175.2500     15.6826     36.0815     15.6661    109.5418
  1175.5000     15.0252     36.4942     15.0692    108.0793
  1175.7500     14.3182     36.8672     14.5068    108.2609
  1176.0000     13.7260     37.1972     13.9883    110.8367
  1176.2500     13.3502     37.4845     13.5287    113.5735
  1176.5000     13.1679     37.7315     13.1380    117.5161
  1176.7500     13.0590     37.9402     12.8133    119.2925
  1177.0000     12.8980     38.1135     12.5404    120.4741
  1177.2500     12.6669     38.2619     12.3001    120.5914
  1177.5000     12.4330     38.4090     12.0754    120.5147
  1177.7500     12.2297     38.5876     11.8549    120.6928
  1178.0000     12.0478     38.8240     11.6358    121.6112
  1178.2500     11.8847     39.1236     11.4230    122.5401
  1178.5000     11.7298     39.4706     11.2265    124.0823
  1178.7500     11.5882     39.8427     11.0571    125.1451
  1179.0000     11.4969     40.2287     10.9227    126.6268
  1179.2500     11.4828     40.6348     10.8270    127.2564
  1179.5000     11.5721     41.0760     10.7706    127.2728
  1179.7500     11.7367     41.5591     10.7528    126.7506
  1180.0000     11.8475     42.0714     10.7738    125.7164
  1180.2500     11.8408     42.5864     10.8342    125.1856
  1180.5000     11.7992     43.0801     10.9335    124.9176
  1180.7500     11.7973     43.5425     11.0675    125.0313
  1181.0000     11.8204     43.9741     11.2279    125.1907
  1181.2500     11.8191     44.3772     11.4043    124.9625
  1181.5000     11.7941     44.7520     11.5885    123.7288
  1181.7500     11.8085     45.0971     11.7784    122.2611
  1182.0000     11.8821     45.4102     11.9778    119.2119
  1182.2500     11.9836     45.6892     12.1937    116.6830
  1182.5000     12.1396     45.9318     12.4319    112.2811
  1182.7500     12.3900     46.1339     12.6973    109.1404
  1183.0000     12.6994     46.2883     12.9952    104.5965
  1183.2500     13.0622     46.3877     13.3315    101.8909
  1183.5000     13.5586     46.4304     13.7097     98.4956
  1183.7500     14.1973     46.4217     14.1273     96.6743
  1184.0000     14.8476     46.3685     14.5797     94.2218
  1184.2500     15.3643     46.2750     15.0670     92.2733
  1184.5000     15.7037     46.1450     15.5990     87.9564
  1184.7500     15.9444     45.9879     16.1906     83.8782
  1185.0000     16.2302     45.8212     16.8486     76.1192
  1185.2500     16.6530     45.6690     17.5588     70.1655
  1185.5000     17.1784     45.5505     18.2842     60.7169
  1185.7500     17.7348     45.4623     18.9773     54.4584
  1186.0000     18.3386     45.3680     19.5993     45.7404
  1186.2500     19.0367     45.2145     20.1349     40.7289
  1186.5000     19.7769     44.9663     20.5912     35.0560
  1186.7500     20.4232     44.6234     20.9869     32.7805
  1187.0000     20.8865     44.2031     21.3415     31.5614
  1187.2500     21.1750     43.7146     21.6706     31.7893
  1187.5000     21.3313     43.1542     21.9826     32.6302
  1187.7500     21.3868     42.5151     22.2727     33.0073
  1188.0000     21.3506     41.7955     22.5149     32.9842
  1188.2500     21.2269     41.0034     22.6635     32.7003
  1188.5000     21.0428     40.1597     22.6755     32.3007
  1188.7500     20.8169     39.2950     22.5412     32.3015
  1189.0000     20.5576     38.4352     22.3007     32.9727
  1189.2500     20.3319     37.5882     22.0291     33.8526
  1189.5000     20.2232     36.7418     21.8058     35.5103
  1189.7500     20.1887     35.8708     21.6891     36.6079
  1190.0000     20.0916     34.9476     21.7033     37.9579
  1190.2500     19.8696     33.9499     21.8347     38.5888
  1190.5000     19.5764     32.8675     22.0363     39.1189
  1190.7500     19.3235     31.7082     22.2433     39.1701
  1191.0000     19.2131     30.5016     22.3958     38.5792
  1191.2500     19.2425     29.2961     22.4559     37.6029
  1191.5000     19.2940     28.1479     22.4133     35.4550
  1191.7500     19.2812     27.1068     22.2822     34.0571
  1192.0000     19.2458     26.2036     22.0987     33.1844
  1192.2500     19.2654     25.4417     21.9180     33.9605
  1192.5000     19.3633     24.7985     21.8065     37.3369
  1192.7500     19.5419     24.2388     21.8263     40.6003
  1193.0000     19.7946     23.7346     22.0176     45.3698
  1193.2500     20.0633     23.2769     22.3791     47.3570
  1193.5000     20.2726     22.8726     22.8562     47.3388
  1193.7500     20.4153     22.5295     23.3474     45.2818
  1194.0000     20.5434     22.2464     23.7379     39.6782
  1194.2500     20.7092     22.0121     23.9472     34.5320
  1194.5000     20.9637     21.8125     23.9643     25.1532
  1194.7500     21.3217     21.6356     23.8449     18.4612
  1195.0000     21.7099     21.4760     23.6762      9.6047
  1195.2500     21.9947     21.3381     23.5366      5.3691
  1195.5000     22.0660     21.2359     23.4719      1.7596
  1195.7500     21.9245     21.1839     23.4928      0.7041
  1196.0000     21.6873     21.1841     23.5821      0.1358
  1196.2500     21.5039     21.2219     23.7029      0.0373
  1196.5000     21.4647     21.2757     23.8032      0.0034
  1196.7500     21.5502     21.3337     23.8243      0.0000
  1197.0000     21.6669     21.4000     23.7203   -999.2500
  1197.2500     21.7381     21.4862     23.4841   -999.2500
  1197.5000     21.7452     21.5994     23.1570   -999.2500
  1197.7500     21.7095     21.7389     22.8138   -999.2500
  1198.0000     21.6823     21.9016     22.5316   -999.2500
  1198.2500     21.7083     22.0858     22.3669   -999.2500
  1198.5000     21.7699     22.2926     22.3476   -999.2500
  1198.7500     21.8341     22.5248     22.4739   -999.2500
  1199.0000     21.9325     22.7868     22.7223   -999.2500
  1199.2500     22.0920     23.0825     23.0489   -999.2500
  1199.5000     22.2723     23.4172     23.3977   -999.2500
  1199.7500     22.4797     23.7965     23.7131   -999.2500
  1200.0000     22.7767     24.2210     23.9569   -999.2500
  1200.2500     23.1307     24.6792     24.1207   -999.2500
  1200.5000     23.4447     25.1464     24.2268   -999.2500
  1200.7500     23.6967     25.5905     24.3144   -999.2500
  1201.0000     23.9409     25.9795     24.2262   -999.2500
  1201.2500     24.2566     26.2891     24.3805   -999.2500
  1201.5000     24.6802     26.5088     24.5968   -999.2500
  1201.7500     25.1233     26.6424     24.8769   -999.2500
  1202.0000     25.4081     26.7023     25.2095   -999.2500
  1202.2500     25.4172     26.7012     25.5697   -999.2500
  1202.5000     25.1983     26.6501     25.9246   -999.2500
  1202.7500     24.9255     26.5601     26.2454   -999.2500
