~Version Information
VERS.                      2.0: CWLS Log ASCII Standard - VERSION 2.0
WRAP.                       NO: One line per depth step
~Well Information Block
STRT.FT                -8.2500: 
STOP.FT              2725.7500: 
STEP.FT                 0.2500: 
NULL.                -999.2500: 
COMP.          Pioneer Natural Resources: COMPANY
WELL.          Rabbit Bush Federal 44-19: WELL
FLD.           Purgatoire River: FIELD
LOC.           826' FSL & 1127' FEL: LOCATION
CNTY.               Las Animas: COUNTY
SRVC.                Patterson: SERVICE COMPANY
DATE.          Thu Sep 14 10:51:19 2006: LOG DATE
UWI.           05 071 08149 00: UNIQUE WELL ID
STAT.                       CO: STATE
~Curve Information Block
DEPT.FT            0 000 00 00: Depth
GR.GAPI                       : Gamma Ray
CCL.                          : Casing Collar Locator
TT3.usec                      : CBL 3' Travel Time
AMP3.mV                       : CBL 3' Amplitude
~Parameter Information Block
~A  Depth        GR         CCL         TT3         AMP3    
# ...
   360.2500     89.7178      0.0000   1198.0511      2.2321
   360.5000     89.3731      0.0000   1192.2922      2.2563
   360.7500     86.0703      0.0000   1176.1997      2.2715
   361.0000     81.1175      0.0000   1142.6637      2.2787
   361.2500     76.6206      0.0000   1091.6501      2.2905
   361.5000     73.8810      0.0000   1037.4817      2.3223
   361.7500     72.8659      0.0000   1000.7822      2.3728
   362.0000     72.8756      0.0000    987.8712      2.4199
   362.2500     73.1002      0.0000    985.2820      2.4376
   362.5000     72.6253      0.0000    980.5543      2.4188
   362.7500     70.4415      0.0000    977.0556      2.3794
   363.0000     66.0021      0.0000    980.3350      2.3448
   363.2500     59.9944      0.0000    984.8171      2.3335
   363.5000     54.2945      0.0000    987.1837      2.3467
   363.7500     50.8667      0.0000   1000.0015      2.3692
   364.0000     50.6195      0.0000   1036.7926      2.3798
   364.2500     53.1439      0.0000   1091.1765      2.3630
   364.5000     57.3505      0.0000   1142.4102      2.3124
   364.7500     62.3904      0.0000   1176.0940      2.2296
   365.0000     68.1104      0.0000   1192.2579      2.1260
   365.2500     74.7596      0.0000   1198.0425      2.0221
   365.5000     82.3885      0.0000   1199.6145      1.9350
   365.7500     90.5497      0.0000   1199.9409      1.8648
   366.0000     98.3632      0.0000   1200.0000      1.7998
   366.2500    104.7975      0.0000   1200.0000      1.7321
   366.5000    109.2361      0.0000   1200.0000      1.6669
   366.7500    112.0775      0.0000   1200.0000      1.6189
   367.0000    114.5033      0.0000   1200.0000      1.6043
   367.2500    117.1807      0.0000   1200.0000      1.6262
   367.5000    119.1671      0.0000   1200.0000      1.6624
   367.7500    118.3683      0.0000   1200.0000      1.6755
   368.0000    113.3647      0.0000   1200.0000      1.6463
   368.2500    105.0408      0.0000   1200.0000      1.5946
   368.5000     96.1731      0.0000   1200.0000      1.5597
   368.7500     88.9198      0.0000   1200.0000      1.5650
   369.0000     83.0441      0.0000   1200.0000      1.6064
   369.2500     77.2150      0.0000   1200.0000      1.6662
   369.5000     71.4155      0.0000   1200.0000      1.7273
   369.7500     67.0053      0.0000   1200.0000      1.7793
   370.0000     64.7347      0.0000   1200.0000      1.8221
   370.2500     63.8725      0.0000   1200.0000      1.8643
   370.5000     63.4555      0.0000   1200.0000      1.9135
   370.7500     63.5436      0.0000   1200.0000      1.9620
   371.0000     64.7668      0.0000   1199.9408      1.9867
   371.2500     67.1518      0.0000   1199.5547      1.9704
   371.5000     69.9461      0.0000   1197.6531      1.9217
   371.7500     72.2841      0.0000   1190.2258      1.8714
   372.0000     73.4740      0.0000   1167.9186      1.8484
   372.2500     72.9768      0.0000   1116.4294      1.8625
   372.5000     70.7135      0.0000   1025.5529      1.9051
   372.7500     67.3819      0.0000    903.2800      1.9609
   373.0000     64.1039      0.0000    776.6039      2.0139
   373.2500     61.5954      0.0000    669.5612      2.0521
   373.5000     59.6802      0.0000    583.1429      2.0725
   373.7500     57.7821      0.0000    504.8807      2.0807
   374.0000     55.9136      0.0000    431.9950      2.0806
   374.2500     54.7813      0.0000    374.2523      2.0662
   374.5000     54.5552      0.0000    339.0199      2.0284
   374.7500     53.9487      0.0000    324.3096      1.9702
   375.0000     51.2133      0.0000    326.1061      1.9100
   375.2500     46.2593      0.0000    348.1559      1.8710
   375.5000     41.4574      0.0000    403.6652      1.8656
   375.7500     39.9019      0.0000    504.7874      1.8892
   376.0000     42.7747      0.0000    643.1306      1.9222
   376.2500     48.5301      0.0000    780.7064      1.9424
   376.5000     54.4722      0.0000    870.8286      1.9380
   376.7500     58.7906      0.0000    895.9253      1.9122
   377.0000     61.0646      0.0000    882.7825      1.8743
   377.2500     61.3048      0.0000    878.6257      1.8323
   377.5000     59.3057      0.0000    914.2141      1.7966
   377.7500     55.2274      0.0000    986.5505      1.7826
   378.0000     50.2423      0.0000   1069.0015      1.7969
   378.2500     46.0228      0.0000   1134.9312      1.8220
   378.5000     43.6797      0.0000   1174.0874      1.8249
   378.7500     43.4007      0.0000   1191.4299      1.7850
   379.0000     44.7993      0.0000   1195.6843      1.7094
   379.2500     47.2246      0.0000   1189.9919      1.6223
   379.5000     49.8192      0.0000   1167.9980      1.5442
   379.7500     51.6534      0.0000   1115.6853      1.4789
   380.0000     52.1598      0.0000   1022.2322      1.4207
   380.2500     51.6872      0.0000    899.1932      1.3681
   380.5000     51.5526      0.0000    789.7169      1.3294
   380.7500     53.1189      0.0000    747.4346      1.3139
   381.0000     56.5602      0.0000    795.4852      1.3235
   381.2500     60.6308      0.0000    906.0294      1.3542
   381.5000     63.7698      0.0000   1022.2159      1.4044
   381.7500     65.2963      0.0000   1097.3828      1.4771
   382.0000     65.4933      0.0000   1115.5892      1.5746
   382.2500     64.7528      0.0000   1089.3873      1.6913
   382.5000     63.0230      0.0000   1049.9851      1.8109
   382.7500     60.3277      0.0000   1032.0293      1.9086
   383.0000     57.5786      0.0000   1052.0605      1.9582
   383.2500     56.3043      0.0000   1098.3582      1.9484
   383.5000     57.3407      0.0000   1145.5950      1.8969
   383.7500     60.0186      0.0000   1177.3207      1.8391
   384.0000     62.7665      0.0000   1192.5780      1.8010
   384.2500     64.2913     -2.0000   1197.6937      1.7872
   384.5000     64.2553      0.0000   1197.2311      1.7948
   384.7500     63.2803      0.0000   1189.7979      1.8291
   385.0000     62.4238      0.0000   1166.0002      1.9060
   385.2500     62.3349      0.0000   1108.7690      2.0368
   385.5000     62.8205      0.0000   1001.8195      2.2062
   385.7500     63.3513      0.0000    846.1412      2.3639
   386.0000     63.9248      0.0000    669.6091      2.4523
   386.2500     65.2597      0.0000    513.6437      2.4509
   386.5000     68.2531      0.0000    406.2677      2.3875
   386.7500     73.2988      0.0000    348.6657      2.3057
   387.0000     79.8262      0.0000    324.6133      2.2315
   387.2500     86.1429      0.0000    316.8319      2.1693
   387.5000     89.9512      0.0000    314.9026      2.1177
   387.7500     89.8209      0.0000    314.5196      2.0785
   388.0000     86.5974      0.0000    314.4058      2.0529
   388.2500     82.9059      0.0000    314.3261      2.0357
   388.5000     80.8117      0.0000    314.2689      2.0175
   388.7500     80.1817      0.0000    314.2462      1.9938
   389.0000     79.5494      0.0000    314.2379      1.9684
   389.2500     78.0934      0.0000    314.2347      1.9477
   389.5000     76.2792      0.0000    314.2599      1.9341
   389.7500     74.8637      0.0000    314.3411      1.9286
   390.0000     73.9399      0.0000    314.4675      1.9348
   390.2500     73.0828      0.0000    314.5768      1.9544
   390.5000     71.9990      0.0000    314.5863      1.9805
   390.7500     70.7220      0.0000    314.4471      1.9977
   391.0000     69.4384      0.0000    314.1823      1.9897
   391.2500     68.3763      0.0000    313.8759      1.9500
   391.5000     67.6146      0.0000    313.6167      1.8861
   391.7500     66.8403      0.0000    313.4429      1.8141
   392.0000     65.7416      0.0000    313.3372      1.7516
   392.2500     64.8721      0.0000    313.2649      1.7140
   392.5000     65.4888      0.0000    313.2115      1.7081
   392.7500     67.8746      0.0000    313.1904      1.7256
   393.0000     70.1847      0.0000    313.2309      1.7520
   393.2500     69.8634      0.0000    313.4203      1.7799
   393.5000     66.3223      0.0000    313.9692      1.8114
