~Version Information
VERS.                      2.0: CWLS Log ASCII Standard - VERSION 2.0
WRAP.                       NO: One line per depth step
~Well Information Block
STRT.FT                -3.2500: 
STOP.FT              2202.2500: 
STEP.FT                 0.2500: 
NULL.                -999.2500: 
COMP.          Pioneer Natural Resources: COMPANY
WELL.           Parklane 43-34: WELL
FLD.           Purgatorie River: FIELD
LOC.           1704' FSL & 1119' FEL--: LOCATION
PROV.                       CO: PROVINCE
CNTY.               Las Animas: COUNTRY
SRVC.                         : SERVICE COMPANY
DATE.          Thu Oct 14 14:49:09 2004: LOG DATE
UWI.           005 071 08162  : UNIQUE WELL ID
~Curve Information Block
DEPT.FT            0 000 00 00: Depth
GR.GAPI                       : Gamma Ray
CCL.                          : Casing Collar Locator
TT3.usec                      : CBL 3' Travel Time
AMP3.mV                       : CBL 3' Amplitude
~Parameter Information Block
~A  Depth        GR         CCL         TT3         AMP3    
# ...
  1872.7500     99.0607      0.0000    725.9802      2.3665
  1873.0000    105.9505      0.0000    722.2896      2.2818
  1873.2500    106.8811      0.0000    724.1189      2.2806
  1873.5000    101.8962      0.0000    728.6602      2.3545
  1873.7500     93.2256      0.0000    732.8065      2.4556
  1874.0000     83.7651      0.0000    734.9468      2.5382
  1874.2500     75.5945      0.0000    734.7268      2.5888
  1874.5000     69.6726      0.0000    731.9525      2.6207
  1874.7500     66.2420      0.0000    726.2829      2.6446
  1875.0000     65.0327      0.0000    717.9976      2.6540
  1875.2500     65.3607      0.0000    708.6302      2.6387
  1875.5000     66.6404      0.0000    700.3633      2.6059
  1875.7500     68.9200      0.0000    694.6592      2.5821
  1876.0000     72.6355      0.0000    691.6022      2.5949
  1876.2500     77.7400      0.0000    690.3954      2.6508
  1876.5000     83.2969      0.0000    690.1419      2.7282
  1876.7500     88.0818      0.0000    690.2176      2.7949
  1877.0000     91.6224      0.0000    690.3495      2.8356
  1877.2500     94.5637      0.0000    690.6497      2.8643
  1877.5000     97.9378      0.0000    691.6207      2.9116
  1877.7500    102.1479      0.0000    693.9628      3.0018
  1878.0000    106.7175      0.0000    698.0992      3.1394
  1878.2500    110.7979      0.0000    703.6023      3.3030
  1878.5000    113.6659      0.0000    709.1446      3.4411
  1878.7500    114.9319      0.0000    713.2311      3.4828
  1879.0000    114.6832      0.0000    715.0391      3.3741
  1879.2500    113.5411      0.0000    714.6366      3.1305
  1879.5000    112.2139      0.0000    712.8990      2.8542
  1879.7500    110.7352      0.0000    711.5568      2.6739
  1880.0000    108.3876      0.0000    712.8484      2.6446
  1880.2500    104.6999      0.0000    718.0703      2.7213
  1880.5000    100.2189      0.0000    725.9806      2.8392
  1880.7500     95.9117      0.0000    732.9533      2.9814
  1881.0000     92.1510      0.0000    735.4731      3.1463
  1881.2500     88.7478      0.0000    732.9375      3.2878
  1881.5000     85.7935      2.0000    728.0545      3.3331
  1881.7500     84.1475      0.0000    724.5081      3.2445
  1882.0000     85.0433      0.0000    724.5441      3.0481
  1882.2500     88.9671      0.0000    728.4252      2.8198
  1882.5000     94.5220      0.0000    734.8196      2.6441
  1882.7500     98.8550      0.0000    741.0335      2.5515
  1883.0000     99.9474      0.0000    744.0013      2.4782
  1883.2500     98.1643      0.0000    742.1240      2.3241
  1883.5000     95.0055      0.0000    736.0264      2.0647
  1883.7500     91.1845      0.0000    727.5486      1.7797
  1884.0000     86.9101      0.0000    718.6150      1.5662
  1884.2500     83.2375      0.0000    710.7870      1.4564
  1884.5000     81.7435      0.0000    704.8132      1.4228
  1884.7500     82.9943      0.0000    700.2719      1.4262
  1885.0000     86.1062      0.0000    696.2940      1.4424
  1885.2500     89.7523      0.0000    692.7122      1.4641
  1885.5000     93.1257      0.0000    690.2195      1.4921
  1885.7500     96.0130      0.0000    689.6523      1.5261
  1886.0000     98.2559      0.0000    691.5287      1.5595
  1886.2500     99.2259      0.0000    695.8809      1.5851
  1886.5000     97.9022      0.0000    701.9598      1.5989
  1886.7500     93.7237      0.0000    708.3125      1.5988
  1887.0000     87.4474      0.0000    713.9211      1.5842
  1887.2500     81.0887      0.0000    719.3763      1.5580
  1887.5000     76.8485      0.0000    726.6190      1.5263
  1887.7500     75.9245      0.0000    737.3201      1.4962
  1888.0000     78.0506      0.0000    750.9355      1.4758
  1888.2500     81.7572      0.0000    763.7777      1.4733
  1888.5000     85.0195      0.0000    771.1616      1.4900
  1888.7500     86.1514      0.0000    772.2610      1.5172
  1889.0000     84.6803      0.0000    772.1357      1.5474
  1889.2500     81.6524      0.0000    777.0527      1.5847
  1889.5000     78.8995      0.0000    788.4128      1.6346
  1889.7500     77.6372      0.0000    802.8282      1.6871
  1890.0000     77.5746      0.0000    817.2281      1.7177
  1890.2500     77.5057      0.0000    831.7453      1.7077
  1890.5000     76.8977      0.0000    847.9093      1.6604
  1890.7500     76.6157      0.0000    865.9612      1.5969
  1891.0000     77.5453      0.0000    884.1813      1.5375
  1891.2500     78.6905      0.0000    899.8283      1.4893
  1891.5000     77.5463      0.0000    910.7822      1.4526
  1891.7500     72.7191      0.0000    916.7050      1.4361
  1892.0000     65.5382      0.0000    918.6906      1.4601
  1892.2500     58.8166      0.0000    918.0826      1.5388
  1892.5000     54.6366      0.0000    915.9188      1.6579
  1892.7500     53.6797      0.0000    913.1244      1.7754
  1893.0000     56.0124      0.0000    910.3354      1.8493
  1893.2500     61.7768      0.0000    907.2154      1.8659
  1893.5000     71.1810      0.0000    902.5936      1.8416
  1893.7500     83.9801      0.0000    895.5244      1.8065
  1894.0000     98.6377      0.0000    885.3962      1.7890
  1894.2500    111.9852      0.0000    870.9449      1.8091
  1894.5000    120.5374      0.0000    850.9979      1.8742
  1894.7500    122.8957      0.0000    826.8917      1.9776
  1895.0000    120.8470      0.0000    802.2659      2.1000
  1895.2500    117.8475      0.0000    779.8406      2.2167
  1895.5000    116.4328      0.0000    760.3097      2.3115
  1895.7500    116.9902      0.0000    744.4991      2.3946
  1896.0000    118.4845      0.0000    733.9273      2.5054
  1896.2500    119.8572      0.0000    728.4036      2.6867
  1896.5000    120.6323      0.0000    725.0477      2.9523
  1896.7500    120.5557      0.0000    720.8335      3.2845
  1897.0000    119.2820      0.0000    715.3256      3.6545
  1897.2500    116.8923      0.0000    710.5673      4.0299
  1897.5000    114.3939      0.0000    709.0153      4.3657
  1897.7500    112.9421      0.0000    711.8574      4.6041
  1898.0000    112.5666      0.0000    718.4929      4.6987
  1898.2500    112.1420      0.0000    726.8729      4.6496
  1898.5000    110.3829      0.0000    734.5402      4.5166
  1898.7500    106.6444      0.0000    739.9009      4.3888
  1899.0000    101.4730      0.0000    742.7599      4.3303
  1899.2500     96.8373      0.0000    743.7948      4.3478
  1899.5000     95.0909      0.0000    743.6974      4.4046
  1899.7500     96.8461      0.0000    742.6810      4.4513
  1900.0000     99.9624      0.0000    740.5284      4.4461
  1900.2500    101.0867      0.0000    737.0646      4.3639
  1900.5000     98.5030      0.0000    732.7235      4.2083
  1900.7500     93.6303      0.0000    728.7433      4.0167
  1901.0000     89.6944      0.0000    726.9775      3.8397
  1901.2500     88.8094      0.0000    729.8555      3.7014
  1901.5000     90.4220      0.0000    740.1279      3.5860
  1901.7500     92.6411      0.0000    758.7928      3.4809
  1902.0000     94.5557      0.0000    781.7742      3.4255
  1902.2500     96.7329      0.0000    800.0483      3.4757
  1902.5000     99.7701      0.0000    806.3082      3.6193
  1902.7500    103.0024      0.0000    802.0197      3.7832
  1903.0000    104.7846      0.0000    795.7092      3.9436
  1903.2500    103.9136      0.0000    794.2870      4.1729
  1903.5000    100.6908      0.0000    798.2956      4.5517
  1903.7500     96.5904      0.0000    804.9596      5.0683
  1904.0000     93.0744      0.0000    811.9427      5.6173
  1904.2500     90.9511      0.0000    816.7683      6.0776
  1904.5000     90.6754      0.0000    815.5610      6.4054
  1904.7500     92.6585      0.0000    805.2848      6.6736
  1905.0000     96.9249      0.0000    787.2963      6.9853
  1905.2500    102.5094      0.0000    767.2521      7.3359
  1905.5000    107.3265      0.0000    750.8546      7.6322
  1905.7500    108.9312      0.0000    740.3302      7.8710
  1906.0000    105.8066      0.0000    734.7976      8.1775
