~Version Information
VERS.                      2.0: CWLS Log ASCII Standard - VERSION 2.0
WRAP.                       NO: One line per depth step
~Well Information Block
STRT.FT               250.0000: 
STOP.FT              1573.7000: 
STEP.FT                 0.1000: 
NULL.                -999.2500: 
COMP.          Pioneer Natural Resources: COMPANY
WELL.          Big Cat Federal 44-1: WELL
FLD.           Purgatoire River: FIELD
LOC.           197' FSL & 973' FEL--: LOCATION
CNTY.               Las Animas: COUNTY
SRVC.                Patterson: SERVICE COMPANY
DATE.          Mon Apr 24 08:33:37 2006: LOG DATE
UWI.           05 071 08042 00: UNIQUE WELL ID
STAT.                 Colorado: STATE
~Curve Information Block
DEPT.FT            0 000 00 00: Depth
DCAL.in                       : CDL Caliper
RHOB.g/cc                     : CDL Bulk Density
RHOC.g/cc                     : CDL Density Correction
DPOR.pu                       : CDL Density Porosity
NPOR.pu                       : Neutron Porosity
GR.GAPI                       : Gamma Ray
~Parameter Information Block
~A  Depth       DCAL        RHOB        RHOC        DPOR        NPOR         GR     
# ...
  1546.0000      7.7607      2.5438      0.0378      6.4374     63.6320   -999.2500
  1546.1000      7.7607      2.5532      0.0446      5.8676     63.4588   -999.2500
  1546.2000      7.7607      2.5654      0.0560      5.1244     63.1982   -999.2500
  1546.3000      7.7551      2.5659      0.1186      5.0966     63.1561   -999.2500
  1546.4000      7.7551      2.5541      0.0523      5.8119     63.3413   -999.2500
  1546.5000      7.7514      2.5457      0.0754      6.3191     63.5304   -999.2500
  1546.6000      7.7514      2.5404      0.0757      6.6427     63.6562   -999.2500
  1546.7000      7.7514      2.5352      0.0423      6.9594     63.7464   -999.2500
  1546.8000      7.7486      2.5399      0.0338      6.6757     63.9118   -999.2500
  1546.9000      7.7486      2.5556      0.0642      5.7221     64.5745   -999.2500
  1547.0000      7.7492      2.5734      0.0725      4.6452     66.1936   -999.2500
  1547.1000      7.7492      2.5801      0.1223      4.2348     67.8811   -999.2500
  1547.2000      7.7492      2.5652      0.0622      5.1421     68.5581   -999.2500
  1547.3000      7.7528      2.5419      0.0223      6.5531     68.6725   -999.2500
  1547.4000      7.7528      2.5315      0.0384      7.1802     68.6851   -999.2500
  1547.5000      7.7538      2.5351      0.0386      6.9661     68.6862   -999.2500
  1547.6000      7.7538      2.5386      0.0477      6.7520     68.6863   -999.2500
  1547.7000      7.7538      2.5332      0.0188      7.0794   -999.2500   -999.2500
  1547.8000      7.7543      2.5243      0.0176      7.6163   -999.2500   -999.2500
  1547.9000      7.7543      2.5152      0.0417      8.1693   -999.2500   -999.2500
  1548.0000      7.7557      2.5006      0.0567      9.0534   -999.2500   -999.2500
  1548.1000      7.7557      2.4833      0.0051     10.1006   -999.2500   -999.2500
  1548.2000      7.7557      2.4736      0.0192     10.6911   -999.2500   -999.2500
  1548.3000      7.7566      2.4749      0.0012     10.6091   -999.2500   -999.2500
  1548.4000      7.7566      2.4818      0.0298     10.1950   -999.2500   -999.2500
  1548.5000      7.7595      2.4828      0.0425     10.1352   -999.2500   -999.2500
  1548.6000      7.7595      2.4711      0.0418     10.8426   -999.2500   -999.2500
  1548.7000      7.7595      2.4549     -0.0051     11.8213   -999.2500   -999.2500
  1548.8000      7.7655      2.4485      0.0133     12.2120   -999.2500   -999.2500
  1548.9000      7.7655      2.4562      0.0250     11.7478   -999.2500   -999.2500
  1549.0000      7.7667      2.4740      0.0173     10.6687   -999.2500   -999.2500
  1549.1000      7.7667      2.4907      0.0372      9.6566   -999.2500   -999.2500
  1549.2000      7.7667      2.4987      0.0537      9.1686   -999.2500   -999.2500
  1549.3000      7.7638      2.5081      0.0310      8.5977   -999.2500   -999.2500
  1549.4000      7.7638      2.5260      0.0686      7.5144   -999.2500   -999.2500
  1549.5000      7.7635      2.5369      0.0872      6.8543   -999.2500   -999.2500
  1549.6000      7.7635      2.5280      0.0944      7.3958   -999.2500   -999.2500
  1549.7000      7.7635      2.5099      0.0441      8.4926   -999.2500   -999.2500
  1549.8000      7.7639      2.4989      0.0571      9.1574   -999.2500   -999.2500
  1549.9000      7.7639      2.4963      0.0506      9.3178   -999.2500   -999.2500
  1550.0000      7.7642      2.4961      0.0334      9.3289   -999.2500   -999.2500
  1550.1000      7.7642      2.4977      0.0362      9.2292   -999.2500   -999.2500
  1550.2000      7.7642      2.5026      0.0694      8.9335   -999.2500   -999.2500
  1550.3000      7.7663      2.5039      0.0548      8.8567   -999.2500   -999.2500
  1550.4000      7.7663      2.4924      0.0217      9.5493   -999.2500   -999.2500
  1550.5000      7.7680      2.4760      0.0122     10.5478   -999.2500   -999.2500
  1550.6000      7.7680      2.4692      0.0249     10.9601   -999.2500   -999.2500
  1550.7000      7.7680      2.4738      0.0557     10.6797   -999.2500   -999.2500
  1550.8000      7.7649      2.4876     -0.0087      9.8420   -999.2500   -999.2500
  1550.9000      7.7649      2.5087      0.0711      8.5623   -999.2500   -999.2500
  1551.0000      7.7600      2.5256      0.0553      7.5384   -999.2500   -999.2500
  1551.1000      7.7600      2.5305      0.0499      7.2449   -999.2500   -999.2500
  1551.2000      7.7600      2.5248      0.0566      7.5865   -999.2500   -999.2500
  1551.3000      7.7568      2.5144      0.0587      8.2196   -999.2500   -999.2500
  1551.4000      7.7568      2.5102      0.0427      8.4736   -999.2500   -999.2500
  1551.5000      7.7550      2.5198      0.0682      7.8918   -999.2500   -999.2500
  1551.6000      7.7550      2.5325      0.0983      7.1183   -999.2500   -999.2500
  1551.7000      7.7550      2.5386      0.0438      6.7544   -999.2500   -999.2500
  1551.8000      7.7543      2.5489      0.0634      6.1301   -999.2500   -999.2500
  1551.9000      7.7543      2.5712      0.0785      4.7761   -999.2500   -999.2500
  1552.0000      7.7556      2.5901      0.1076      3.6294   -999.2500   -999.2500
  1552.1000      7.7556      2.5867      0.1053      3.8392   -999.2500   -999.2500
  1552.2000      7.7556      2.5720      0.0520      4.7260   -999.2500   -999.2500
  1552.3000      7.7568      2.5704      0.0653      4.8241   -999.2500   -999.2500
  1552.4000      7.7568      2.5799      0.0517      4.2509   -999.2500   -999.2500
  1552.5000      7.7564      2.5884      0.0530      3.7358   -999.2500   -999.2500
  1552.6000      7.7564      2.5926      0.0856      3.4783   -999.2500   -999.2500
  1552.7000      7.7564      2.5943      0.0481      3.3746   -999.2500   -999.2500
  1552.8000      7.7546      2.5939      0.0798      3.3988   -999.2500   -999.2500
  1552.9000      7.7546      2.5895      0.0292      3.6642   -999.2500   -999.2500
  1553.0000      7.7511      2.5831      0.0360      4.0557   -999.2500   -999.2500
  1553.1000      7.7511      2.5747      0.0396      4.5615   -999.2500   -999.2500
  1553.2000      7.7511      2.5714      0.0199      4.7637   -999.2500   -999.2500
  1553.3000      7.7468      2.5783      0.0607      4.3471   -999.2500   -999.2500
  1553.4000      7.7468      2.5908      0.0226      3.5905   -999.2500   -999.2500
  1553.5000      7.7472      2.6121      0.0540      2.2954   -999.2500   -999.2500
  1553.6000      7.7472      2.6312      0.1104      1.1422   -999.2500   -999.2500
  1553.7000      7.7472      2.6358      0.0479      0.8623   -999.2500   -999.2500
  1553.8000      7.7489      2.6447      0.0669      0.3239   -999.2500   -999.2500
  1553.9000      7.7489      2.6559      0.1071     -0.3600   -999.2500   -999.2500
  1554.0000      7.7480      2.6400      0.0997      0.6089   -999.2500   -999.2500
  1554.1000      7.7480      2.6073      0.0222      2.5885   -999.2500   -999.2500
  1554.2000      7.7480      2.5986     -0.0042      3.1165   -999.2500   -999.2500
  1554.3000      7.7409      2.6187      0.0781      1.8946   -999.2500   -999.2500
  1554.4000      7.7409      2.6552      0.0901     -0.3141   -999.2500   -999.2500
  1554.5000      7.6965      2.7335      0.0840     -5.0618   -999.2500   -999.2500
  1554.6000      7.6965      2.7465      0.0668     -5.8472   -999.2500   -999.2500
  1554.7000      7.6965      2.2841      0.6091     22.1755   -999.2500   -999.2500
  1554.8000      7.2789      1.2919      0.1000     82.3079   -999.2500   -999.2500
  1554.9000      7.2789      0.4371      0.1000    134.1155   -999.2500   -999.2500
  1555.0000      5.4521      0.0829   -999.2500    155.5819   -999.2500   -999.2500
  1555.1000      5.4521      0.0085   -999.2500    160.0885   -999.2500   -999.2500
  1555.2000      5.4521      0.0005   -999.2500    160.5780   -999.2500   -999.2500
  1555.3000      2.4532      0.0000   -999.2500    160.6061   -999.2500   -999.2500
  1555.4000      2.4532      0.0000   -999.2500    160.6061   -999.2500   -999.2500
  1555.5000      0.6365   -999.2500   -999.2500   -999.2500   -999.2500   -999.2500
