~Version Information
VERS.                      2.0: CWLS Log ASCII Standard - VERSION 2.0
WRAP.                       NO: One line per depth step
~Well Information Block
STRT.FT               423.0000: 
STOP.FT              2306.0000: 
STEP.FT                 0.1000: 
NULL.                -999.2500: 
COMP.          Pioneer Natural Resources: COMPANY
WELL.             Culver 14-12: WELL
FLD.           Purgatoire River: FIELD
LOC.           913' FSL & 1140' FWL: LOCATION
PROV.                 Colorado: PROVINCE
CNTY.               Las Animas: COUNTRY
SRVC.                Patterson: SERVICE COMPANY
DATE.          Tue Jun 07 09:21:05 2005: LOG DATE
UWI.           05 071 08386 00: UNIQUE WELL ID
~Curve Information Block
DEPT.FT            0 000 00 00: Depth
DCAL.in                       : CDL Caliper
RHOB.g/cc                     : CDL Bulk Density
RHOC.g/cc                     : CDL Density Correction
DPOR.pu                       : CDL Density Porosity
GR.GAPI                       : Gamma Ray
NPOR.pu                       : Neutron Porosity
~Parameter Information Block
~A  Depth       DCAL        RHOB        RHOC        DPOR         GR         NPOR    
# ...
  1671.0000      8.0473      2.6085      0.1432      2.5172    159.7867     23.7054
  1671.1000      8.0473      2.6522      0.1653     -0.1339    154.7478     24.1882
  1671.2000      8.0473      2.6790      0.1832     -1.7605    148.8779     24.3049
  1671.3000      8.0520      2.7037      0.1750     -3.2527    146.4187     24.0074
  1671.4000      8.0520      2.7305      0.1859     -4.8765    142.9598     23.4724
  1671.5000      7.9926      2.7415      0.2178     -5.5483    138.3733     23.0627
  1671.6000      7.9926      2.7297      0.1637     -4.8296    132.1152     23.0605
  1671.7000      7.9926      2.7146      0.0658     -3.9136    122.0764     23.3563
  1671.8000      7.9736      2.6999      0.1313     -3.0226    112.8899     23.8829
  1671.9000      7.9736      2.6662      0.1141     -0.9822    109.8571     24.2646
  1672.0000      7.9741      2.6237      0.0465      1.5915    112.1781     24.5372
  1672.1000      7.9741      2.6001      0.0583      3.0254    118.8635     25.0444
  1672.2000      7.9741      2.5940      0.0570      3.3919    130.1671     25.5370
  1672.3000      7.9720      2.5862      0.0647      3.8664    141.0029     25.5405
  1672.4000      7.9720      2.5730      0.0502      4.6677    144.2105     25.3048
  1672.5000      7.9809      2.5657      0.0501      5.1082    142.7190     25.4755
  1672.6000      7.9809      2.5648      0.0502      5.1631    143.2091     25.8813
  1672.7000      7.9809      2.5618      0.0742      5.3458    148.7128     26.4710
  1672.8000      8.0513      2.5628      0.0750      5.2820    157.0878     27.3529
  1672.9000      8.0513      2.5825      0.1110      4.0909    160.2459     27.8957
  1673.0000      8.0515      2.6174      0.1395      1.9758    156.2522     27.9135
  1673.1000      8.0515      2.6479      0.1509      0.1265    150.1366     27.9098
  1673.2000      8.0515      2.6573      0.1863     -0.4445    144.5224     27.8112
  1673.3000      8.0225      2.6452      0.1778      0.2920    138.4959     26.9663
  1673.4000      8.0225      2.6271      0.1779      1.3909    130.5019     25.7895
  1673.5000      8.0261      2.6224      0.1157      1.6710    124.5686     24.9333
  1673.6000      8.0261      2.6364      0.1396      0.8258    123.9729     23.9206
  1673.7000      8.0261      2.6505      0.1476     -0.0293    123.0750     23.0890
  1673.8000      8.0587      2.6488      0.1135      0.0742    115.5423     23.2804
  1673.9000      8.0587      2.6331      0.0783      1.0251    105.8268     23.8426
  1674.0000      8.0196      2.6123      0.0998      2.2876     99.8843     23.6025
  1674.1000      8.0196      2.5982      0.0132      3.1393     92.7488     22.7321
  1674.2000      8.0196      2.6010      0.0798      2.9725     83.4656     21.8988
  1674.3000      7.9955      2.6172      0.0637      1.9890     79.2411     21.4421
  1674.4000      7.9955      2.6329      0.0894      1.0364     79.1828     21.3858
  1674.5000      7.9913      2.6219      0.1390      1.7005     77.1419     21.6015
  1674.6000      7.9913      2.5759      0.0600      4.4883     72.9872     21.6942
  1674.7000      7.9913      2.5306      0.0326      7.2390     68.8927     21.4200
  1674.8000      7.9887      2.5163      0.0375      8.1019     64.2148     21.5671
  1674.9000      7.9887      2.5235      0.0614      7.6689     60.9195     22.4386
  1675.0000      7.9898      2.5349      0.0651      6.9740     62.9721     23.1019
  1675.1000      7.9898      2.5482      0.0670      6.1672     67.7102     22.8634
  1675.2000      7.9898      2.5550      0.1375      5.7571     69.5381     21.9965
  1675.3000      8.0038      2.5473      0.0615      6.2241     67.8357     21.5074
  1675.4000      8.0038      2.5283      0.1140      7.3755     64.5018     22.0272
  1675.5000      8.0304      2.4974      0.0825      9.2481     61.8603     22.7834
  1675.6000      8.0304      2.4691      0.0012     10.9667     59.8609     22.7611
  1675.7000      8.0304      2.4683      0.0662     11.0126     56.5683     22.5390
  1675.8000      8.0203      2.4927      0.0817      9.5354     53.0768     22.9761
  1675.9000      8.0203      2.5131      0.1030      8.2951     51.6095     23.0651
  1676.0000      7.9991      2.5107      0.0767      8.4434     51.0935     22.0819
  1676.1000      7.9991      2.5031      0.0668      8.9054     48.9468     21.0143
  1676.2000      7.9991      2.5083      0.0905      8.5857     47.2285     20.6477
  1676.3000      8.0094      2.5113      0.0757      8.4090     50.7596     21.0909
  1676.4000      8.0094      2.4986      0.0822      9.1785     59.0574     21.9995
  1676.5000      8.0134      2.4854      0.0380      9.9746     66.7749     22.4131
  1676.6000      8.0134      2.4885      0.1043      9.7870     68.1556     21.7739
  1676.7000      8.0134      2.4979      0.0941      9.2208     62.5494     21.1906
  1676.8000      8.0230      2.4979      0.0892      9.2190     55.8867     21.2923
  1676.9000      8.0230      2.4853      0.0874      9.9830     51.4424     21.2800
  1677.0000      8.0242      2.4707      0.0277     10.8661     48.4032     20.7749
  1677.1000      8.0242      2.4706      0.0541     10.8705     47.5282     20.1817
  1677.2000      8.0242      2.4804      0.0876     10.2813     49.6905     20.0211
  1677.3000      8.0212      2.4885      0.0619      9.7864     53.5309     20.8125
  1677.4000      8.0212      2.4954      0.1207      9.3721     57.2944     22.3767
  1677.5000      8.0223      2.4980      0.1000      9.2094     60.7757     23.4764
  1677.6000      8.0223      2.4889      0.0844      9.7647     61.6772     23.3024
  1677.7000      8.0223      2.4637      0.0668     11.2889     59.0193     22.6249
  1677.8000      7.9998      2.4322      0.0495     13.1992     58.9860     22.1326
  1677.9000      7.9998      2.4170      0.0380     14.1201     64.3554     21.6251
  1678.0000      7.9931      2.4273      0.0611     13.4958     69.7004     21.1147
  1678.1000      7.9931      2.4498      0.0647     12.1306     70.8478     20.8298
  1678.2000      7.9931      2.4670      0.0977     11.0915     68.2611     20.9681
  1678.3000      7.9997      2.4737      0.0560     10.6867     63.4446     21.6225
  1678.4000      7.9997      2.4804      0.0730     10.2807     58.7095     22.4701
  1678.5000      7.9950      2.4869      0.1132      9.8871     58.0711     22.7972
  1678.6000      7.9950      2.4816      0.0575     10.2068     61.7368     21.7285
  1678.7000      7.9950      2.4781      0.0086     10.4174     64.3354     19.5785
  1678.8000      7.9936      2.4978      0.0782      9.2265     62.6922     18.1863
  1678.9000      7.9936      2.5232      0.1370      7.6838     60.4783     18.5224
  1679.0000      7.9937      2.5191      0.1383      7.9330     62.9957     19.6928
  1679.1000      7.9937      2.4873      0.0774      9.8594     68.5161     20.3640
  1679.2000      7.9937      2.4633      0.0573     11.3139     70.1545     20.1888
  1679.3000      7.9814      2.4647      0.0678     11.2295     66.0932     19.4247
  1679.4000      7.9814      2.4791      0.0873     10.3554     61.3546     18.9697
  1679.5000      7.9785      2.4882      0.1100      9.8054     60.5979     19.6321
  1679.6000      7.9785      2.4825      0.0491     10.1514     63.5994     20.7934
  1679.7000      7.9785      2.4668      0.0033     11.1036     65.9374     21.3949
  1679.8000      7.9880      2.4493      0.0243     12.1638     63.8335     20.9575
  1679.9000      7.9880      2.4392      0.0011     12.7739     58.5263     19.7781
  1680.0000      8.0016      2.4529     -0.0470     11.9427     53.7309     19.0133
  1680.1000      8.0016      2.4869      0.0569      9.8854     52.0550     19.5677
  1680.2000      8.0016      2.5120      0.0372      8.3646     51.9335     20.9646
  1680.3000      8.0280      2.5141      0.0673      8.2372     50.4201     21.8539
  1680.4000      8.0280      2.5037      0.0569      8.8644     49.0405     21.6708
  1680.5000      8.0787      2.4954      0.0436      9.3716     48.5332     21.1244
