~Version Information
VERS.                      2.0: CWLS Log ASCII Standard - VERSION 2.0
WRAP.                       NO: One line per depth step
~Well Information Block
STRT.FT               840.0000: 
STOP.FT              2450.0000: 
STEP.FT                 0.1000: 
NULL.                -999.2500: 
COMP.          Petrogulf Corporation: COMPANY
WELL.             Leier 17-42V: WELL
FLD.           Purgatorie River: FIELD
LOC.           2309' FNL & 1062' FEL SENE 17 33S 67W: LOCATION
PROV.                 Colorado: PROVINCE
CNTY.               Las Animas: COUNTRY
SRVC.                Patterson: SERVICE COMPANY
DATE.          Thu Sep 22 09:35:36 2005: LOG DATE
UWI.           071 08409 : UNIQUE WELL ID
~Curve Information Block
DEPT.FT            0 000 00 00: Depth
DCAL.in                       : CDL Caliper
RHOB.g/cc                     : CDL Bulk Density
RHOC.g/cc                     : CDL Density Correction
DPOR.pu                       : CDL Density Porosity
GR.GAPI                       : Gamma Ray
NPOR.pu                       : Neutron Porosity
~Parameter Information Block
~A  Depth       DCAL        RHOB        RHOC        DPOR         GR         NPOR    
# ...
  1694.4000      7.9833      2.5547      0.0023      5.7772    154.3320     24.8785
  1694.5000      7.9803      2.5360      0.0334      6.9121    154.3792     24.7534
  1694.6000      7.9803      2.5135      0.0417      8.2721    154.4410     24.8714
  1694.7000      7.9803      2.4914      0.0331      9.6136    159.9274     25.0120
  1694.8000      7.9859      2.4934     -0.0316      9.4898    169.2293     25.0040
  1694.9000      7.9859      2.5283      0.0378      7.3752    172.3435     24.8558
  1695.0000      7.9893      2.5666      0.0646      5.0576    166.6662     24.8163
  1695.1000      7.9893      2.5843      0.0524      3.9822    159.4796     25.0623
  1695.2000      7.9893      2.5894      0.0415      3.6752    155.9079     25.4818
  1695.3000      7.9926      2.5885      0.0889      3.7300    154.1188     26.1988
  1695.4000      7.9926      2.5791      0.0531      4.2961    151.4549     27.0128
  1695.5000      7.9936      2.5709      0.0572      4.7924    149.4228     27.3190
  1695.6000      7.9936      2.5745      0.0618      4.5786    148.2309     27.0276
  1695.7000      7.9936      2.5845      0.0731      3.9721    145.6009     26.1408
  1695.8000      7.9980      2.5877      0.0323      3.7743    141.2577     24.8529
  1695.9000      7.9980      2.5727      0.0519      4.6834    135.7681     23.7875
  1696.0000      8.0008      2.5375      0.0388      6.8157    129.9357     23.3047
  1696.1000      8.0008      2.5000      0.0595      9.0886    129.6234     23.3390
  1696.2000      8.0008      2.4824     -0.0109     10.1574    137.6470     23.6502
  1696.3000      8.0026      2.4890     -0.0099      9.7593    145.9431     24.1328
  1696.4000      8.0026      2.5027      0.0458      8.9257    147.5845     24.6350
  1696.5000      8.0069      2.5115      0.0174      8.3926    146.3524     24.8554
  1696.6000      8.0069      2.5222      0.0770      7.7427    148.5710     24.8668
  1696.7000      8.0069      2.5426      0.1208      6.5061    153.8946     24.9911
  1696.8000      8.0186      2.5691      0.1477      4.9023    158.8403     25.2570
  1696.9000      8.0186      2.5886      0.1732      3.7222    161.9243     25.4182
  1697.0000      8.0480      2.5925      0.1820      3.4863    163.2453     25.5714
  1697.1000      8.0480      2.5896      0.1328      3.6605    163.4176     26.0486
  1697.2000      8.0480      2.5996      0.0733      3.0535    161.4014     26.8112
  1697.3000      8.0918      2.6258      0.1221      1.4637    155.3017     27.7593
  1697.4000      8.0918      2.6521      0.1222     -0.1267    148.1194     28.7071
  1697.5000      8.0390      2.6673      0.1137     -1.0486    145.3832     29.1636
  1697.6000      8.0390      2.6700      0.1149     -1.2130    146.5404     29.0880
  1697.7000      8.0390      2.6625      0.1181     -0.7570    147.7387     29.0088
  1697.8000      8.0120      2.6549      0.0932     -0.2956    149.8927     28.9602
  1697.9000      8.0120      2.6524      0.0834     -0.1431    155.2283     28.5053
  1698.0000      8.0040      2.6461      0.0871      0.2345    158.0365     27.9876
  1698.1000      8.0040      2.6356      0.0423      0.8708    152.2603     28.0711
  1698.2000      8.0040      2.6366      0.0017      0.8126    144.7362     28.5258
  1698.3000      8.0015      2.6609     -0.0049     -0.6611    144.2490     28.6753
  1698.4000      8.0015      2.6982      0.0689     -2.9193    148.7036     28.5269
  1698.5000      8.0027      2.7217      0.1555     -4.3462    149.9588     28.5293
  1698.6000      8.0027      2.7248      0.0740     -4.5303    146.2657     28.6167
  1698.7000      8.0027      2.7234      0.0805     -4.4481    142.4263     28.5144
  1698.8000      7.9990      2.7124      0.0609     -3.7841    140.2820     28.2056
  1698.9000      7.9990      2.6823      0.0184     -1.9591    141.5656     27.9636
  1699.0000      7.9989      2.6502     -0.0016     -0.0106    147.7345     28.0061
  1699.1000      7.9989      2.6251      0.0321      1.5112    155.1203     28.0199
  1699.2000      7.9989      2.5926      0.0443      3.4762    159.7007     27.9211
  1699.3000      7.9949      2.5494     -0.0106      6.0988    160.0059     28.0468
  1699.4000      7.9949      2.5116     -0.0246      8.3849    157.2318     28.3391
  1699.5000      7.9938      2.4943     -0.0158      9.4348    156.4792     28.3980
  1699.6000      7.9938      2.4912      0.0553      9.6217    158.7583     28.2728
  1699.7000      7.9938      2.4735      0.0772     10.6993    158.7410     28.4221
  1699.8000      8.0015      2.4195      0.1027     13.9719    155.2239     28.7058
  1699.9000      8.0015      2.3487      0.0448     18.2624    153.3771     28.4852
  1700.0000      8.0878      2.3052      0.0268     20.8974    156.3478     27.8884
  1700.1000      8.0878      2.3036      0.0308     20.9935    159.9801     27.6612
  1700.2000      8.0878      2.3270      0.0897     19.5758    160.4857     28.1183
  1700.3000      8.1063      2.3745      0.0553     16.6990    158.9425     28.9172
  1700.4000      8.1063      2.4579      0.2036     11.6440    156.9285     29.4673
  1700.5000      8.1716      2.5531      0.3560      5.8714    154.3342     29.6824
  1700.6000      8.1716      2.6190      0.4039      1.8771    152.3629     29.8354
  1700.7000      8.1716      2.6460      0.3659      0.2398    151.6805     30.1249
  1700.8000      8.2909      2.6480      0.3475      0.1233    150.3569     30.6807
  1700.9000      8.2909      2.6317      0.3108      1.1069    147.4759     31.1785
  1701.0000      8.2979      2.6043      0.1681      2.7668    144.0645     31.2305
  1701.1000      8.2979      2.5831      0.1601      4.0532    142.2888     30.9479
  1701.2000      8.2979      2.5765      0.1294      4.4521    143.8192     30.4114
  1701.3000      8.3597      2.5781      0.1224      4.3557    144.9976     29.7670
  1701.4000      8.3597      2.5778      0.1313      4.3769    143.5643     29.3509
  1701.5000      8.3663      2.5725      0.0686      4.6966    143.3447     29.1168
  1701.6000      8.3663      2.5689      0.0389      4.9168    147.0980     28.7746
  1701.7000      8.3663      2.5712      0.0668      4.7765    152.2542     28.4478
  1701.8000      8.0785      2.5756      0.0350      4.5071    155.4388     28.2812
  1701.9000      8.0785      2.5728      0.1165      4.6775    157.8497     28.0636
  1702.0000      8.0364      2.5675      0.0258      4.9983    160.8910     27.8019
  1702.1000      8.0364      2.5796      0.1009      4.2670    162.6165     27.7453
  1702.2000      8.0364      2.6004      0.1110      3.0081    160.3641     27.6121
  1702.3000      8.0286      2.6084      0.1306      2.5224    158.1709     27.1141
  1702.4000      8.0286      2.6062      0.0989      2.6516    162.2972     26.8247
  1702.5000      7.9962      2.6056      0.1132      2.6939    168.0820     27.0612
  1702.6000      7.9962      2.6106      0.0893      2.3862    167.2408     27.2205
  1702.7000      7.9962      2.6170      0.1270      1.9984    158.9778     27.0921
  1702.8000      7.9929      2.6118      0.1184      2.3157    148.1570     27.0989
  1702.9000      7.9929      2.5934      0.0817      3.4326    142.4532     27.2370
  1703.0000      7.9940      2.5762      0.0331      4.4718    145.1034     27.2439
  1703.1000      7.9940      2.5685      0.0503      4.9417    147.8609     27.0710
  1703.2000      7.9940      2.5640      0.0948      5.2131    145.2982     26.7675
  1703.3000      8.0003      2.5597      0.0567      5.4707    144.1962     26.5530
  1703.4000      8.0003      2.5585      0.0635      5.5433    147.9634     26.5463
  1703.5000      7.9942      2.5507      0.0920      6.0162    153.7638     26.6937
  1703.6000      7.9942      2.5295      0.0421      7.3020    160.0312     27.0147
  1703.7000      7.9942      2.5115      0.0318      8.3964    163.9809     27.3267
  1703.8000      7.9913      2.5204      0.0166      7.8534    162.9988     27.5090
  1703.9000      7.9913      2.5613      0.0695      5.3760    156.3790     27.6379
