~Version Information
VERS.                      2.0: CWLS Log ASCII Standard - VERSION 2.0
WRAP.                       NO: One line per depth step
~Well Information Block
STRT.FT               998.8000: 
STOP.FT              2235.5000: 
STEP.FT                 0.1000: 
NULL.                -999.2500: 
COMP.          Petrogulf Corporation: COMPANY
WELL.          Latiluppe 8-13R: WELL
FLD.           Purgatorie River: FIELD
LOC.           1495' FSL & 946' FWL: LOCATION
CNTY.               Las Animas: COUNTY
SRVC.                         : SERVICE COMPANY
DATE.          Wed Apr 21 10:46:16 2004: LOG DATE
UWI.           05 071 08035 00: UNIQUE WELL ID
STAT.                 Colorado: STATE
~Curve Information Block
DEPT.FT            0 000 00 00: Depth
DCAL.in                       : CDL Caliper
RHOB.g/cc                     : CDL Bulk Density
RHOC.g/cc                     : CDL Density Correction
DPOR.pu                       : CDL Density Porosity
NPOR.pu                       : Neutron Porosity
GR.GAPI                       : Gamma Ray
~Parameter Information Block
~A  Depth       DCAL        RHOB        RHOC        DPOR        NPOR         GR     
# ...
  1248.4000      7.8059      2.6333     -0.0027      1.0096     28.2928    119.3561
  1248.5000      7.8068      2.6467      0.0005      0.1996     29.0125    118.2758
  1248.6000      7.8068      2.6761      0.0071     -1.5811     29.6350    117.0143
  1248.7000      7.8068      2.7005      0.0045     -3.0617     30.0456    116.6640
  1248.8000      7.8034      2.7065      0.0676     -3.4213     30.2083    118.8896
  1248.9000      7.8034      2.6917      0.0159     -2.5245     29.9769    123.4728
  1249.0000      7.8091      2.6654      0.0494     -0.9354     29.4767    130.2694
  1249.1000      7.8091      2.6385      0.0127      0.6990     29.0554    136.5555
  1249.2000      7.8091      2.6190      0.0010      1.8793     28.5813    138.4467
  1249.3000      7.8090      2.6117      0.0179      2.3211     27.6780    134.4461
  1249.4000      7.8090      2.6121      0.0204      2.2984     26.7537    126.3916
  1249.5000      7.8111      2.6194      0.0016      1.8542     26.3735    121.1445
  1249.6000      7.8111      2.6413      0.0288      0.5302     26.4680    121.8325
  1249.7000      7.8111      2.6682      0.0796     -1.1050     26.9397    123.5622
  1249.8000      7.8095      2.6743      0.0810     -1.4733     27.5125    123.2132
  1249.9000      7.8095      2.6588      0.0518     -0.5353     27.8482    122.4442
  1250.0000      7.8087      2.6474      0.0413      0.1574     28.0873    122.2692
  1250.1000      7.8087      2.6538      0.0309     -0.2300     28.3523    122.2722
  1250.2000      7.8087      2.6682      0.0505     -1.1034     28.6614    121.5321
  1250.3000      7.8096      2.6740      0.0331     -1.4534     29.0476    118.8524
  1250.4000      7.8096      2.6686      0.0423     -1.1265     29.3642    116.3067
  1250.5000      7.8073      2.6634      0.0072     -0.8138     29.5692    116.7382
  1250.6000      7.8073      2.6610      0.0443     -0.6638     29.7952    118.3358
  1250.7000      7.8073      2.6507      0.0337     -0.0446     29.8232    115.0817
  1250.8000      7.8074      2.6364     -0.0127      0.8250     29.6874    107.9321
  1250.9000      7.8074      2.6301     -0.0038      1.2057     29.9201    104.9846
  1251.0000      7.8063      2.6268      0.0181      1.4069     30.4767    106.8301
  1251.1000      7.8063      2.6172      0.0209      1.9862     30.8424    107.6227
  1251.2000      7.8063      2.6130     -0.0086      2.2423     30.6263    107.9061
  1251.3000      7.8072      2.6287      0.0130      1.2939     29.8866    111.8275
  1251.4000      7.8072      2.6480      0.0464      0.1192     29.3319    117.8316
  1251.5000      7.8099      2.6457      0.0439      0.2636     29.4633    122.4628
  1251.6000      7.8099      2.6278     -0.0003      1.3480     29.9950    126.8441
  1251.7000      7.8099      2.6213      0.0194      1.7378     30.2503    130.7541
  1251.8000      7.8062      2.6307      0.0128      1.1673     29.9010    130.2231
  1251.9000      7.8062      2.6363      0.0601      0.8286     29.3785    124.8031
  1252.0000      7.8077      2.6310     -0.0153      1.1523     29.3599    120.5891
  1252.1000      7.8077      2.6303     -0.0250      1.1942     29.8758    120.1134
  1252.2000      7.8077      2.6422      0.0395      0.4751     30.3530    119.0685
  1252.3000      7.8052      2.6519      0.0819     -0.1144     30.4057    117.5994
  1252.4000      7.8052      2.6498      0.0193      0.0123     30.1769    120.1194
  1252.5000      7.8058      2.6473      0.0260      0.1607     30.1082    126.0604
  1252.6000      7.8058      2.6513      0.0376     -0.0781     30.2918    131.5158
  1252.7000      7.8058      2.6588      0.0482     -0.5346     30.4157    134.9086
  1252.8000      7.7969      2.6692      0.0429     -1.1626     30.2248    135.1821
  1252.9000      7.7969      2.6757      0.0715     -1.5579     29.9600    131.4923
  1253.0000      7.8073      2.6651      0.0273     -0.9175     29.8690    128.3132
  1253.1000      7.8073      2.6401      0.0396      0.5996     29.7318    130.6344
  1253.2000      7.8073      2.6170     -0.0004      2.0011     29.3961    135.4839
  1253.3000      7.8064      2.6124     -0.0056      2.2791     29.0420    138.7327
  1253.4000      7.8064      2.6262      0.0272      1.4437     28.8514    138.7106
  1253.5000      7.8065      2.6410      0.0266      0.5436     28.6614    132.9722
  1253.6000      7.8065      2.6509      0.0122     -0.0547     28.4575    123.2003
  1253.7000      7.8065      2.6590      0.0460     -0.5455     28.5646    116.5149
  1253.8000      7.8102      2.6552      0.0398     -0.3155     28.6616    115.6758
  1253.9000      7.8102      2.6320      0.0283      1.0936     28.1940    116.4862
  1254.0000      7.8101      2.6022      0.0175      2.8963     27.5128    115.5096
  1254.1000      7.8101      2.5808      0.0260      4.1918     27.2051    115.1338
  1254.2000      7.8101      2.5702      0.0015      4.8351     27.2587    117.5370
  1254.3000      7.8142      2.5680      0.0019      4.9668     27.1998    118.9657
  1254.4000      7.8142      2.5722     -0.0156      4.7132     26.5988    117.5088
  1254.5000      7.8087      2.5777      0.0718      4.3795     25.5944    114.3502
  1254.6000      7.8087      2.5803      0.0309      4.2236     24.8539    109.2224
  1254.7000      7.8087      2.5859      0.0453      3.8863     24.7610    103.0888
  1254.8000      7.8083      2.5960      0.0821      3.2744     25.0680     98.8453
  1254.9000      7.8083      2.6044      0.0913      2.7639     25.1366     97.9142
  1255.0000      7.8033      2.6114      0.0792      2.3394     24.6184     99.0725
  1255.1000      7.8033      2.6137      0.0906      2.1974     24.0729    100.4067
  1255.2000      7.8033      2.6036      0.0465      2.8112     24.1462    100.1526
  1255.3000      7.8071      2.5867      0.0272      3.8365     24.6058     96.7124
  1255.4000      7.8071      2.5685      0.0506      4.9411     24.8512     91.7926
  1255.5000      7.8080      2.5545     -0.0004      5.7885     24.7596     88.3822
  1255.6000      7.8080      2.5536      0.0256      5.8418     24.5681     84.8680
  1255.7000      7.8080      2.5557      0.0507      5.7178     24.4862     81.0725
  1255.8000      7.8064      2.5513      0.0168      5.9841     24.5581     80.6099
  1255.9000      7.8064      2.5539      0.0332      5.8223     24.6767     82.3491
  1256.0000      7.8116      2.5661      0.0789      5.0862     24.8483     83.6316
  1256.1000      7.8116      2.5699      0.0487      4.8551     24.9734     85.1447
  1256.2000      7.8116      2.5587      0.0735      5.5346     24.8049     87.5220
  1256.3000      7.8069      2.5435      0.0216      6.4559     24.4356     89.3048
  1256.4000      7.8069      2.5429     -0.0062      6.4905     24.1694     89.2249
  1256.5000      7.8119      2.5593      0.0506      5.4986     24.1368     87.9508
  1256.6000      7.8119      2.5735      0.0299      4.6347     24.2074     86.6377
  1256.7000      7.8119      2.5740      0.0232      4.6041     24.2182     85.6444
  1256.8000      7.8080      2.5665      0.0123      5.0578     24.0955     85.2396
  1256.9000      7.8080      2.5572      0.0542      5.6262     23.9798     86.7674
  1257.0000      7.8049      2.5402      0.0265      6.6534     23.9610     89.9500
  1257.1000      7.8049      2.5125      0.0013      8.3353     23.7547     93.9111
  1257.2000      7.8049      2.4878     -0.0287      9.8304     23.3039     95.7122
  1257.3000      7.8010      2.4814     -0.0108     10.2194     22.9052     92.5723
  1257.4000      7.8010      2.4838      0.0381     10.0720     22.5211     87.5235
  1257.5000      7.8019      2.4801      0.0146     10.2976     21.9754     83.1185
  1257.6000      7.8019      2.4759      0.0323     10.5517     21.4480     79.2031
  1257.7000      7.8019      2.4745      0.0814     10.6370     21.0332     75.5689
  1257.8000      7.8050      2.4751      0.0488     10.5985     20.7523     72.6047
  1257.9000      7.8050      2.4915      0.0862      9.6079     20.8332     71.1385
