~Version Information
VERS.                      2.0: CWLS Log ASCII Standard - VERSION 2.0
WRAP.                       NO: One line per depth step
~Well Information Block
STRT.FT               450.0000: 
STOP.FT              2756.0000: 
STEP.FT                 0.2500: 
NULL.                -999.2500: 
COMP.          Pioneer Natural Resources: COMPANY
WELL.             Squeal 11-26: WELL
FLD.           Purgatoire River: FIELD
LOC.           1186' FNL & 152' FWL: LOCATION
PROV.                 Colorado: PROVINCE
CNTY.               Las Animas: COUNTRY
SRVC.                Patterson: SERVICE COMPANY
DATE.          Wed Jun 15 02:22:08 2005: LOG DATE
UWI.           05 071 08404 00: UNIQUE WELL ID
~Curve Information Block
DEPT.FT            0 000 00 00: Depth
SN.Ohm-m                      : IEL Short Normal
SP.mV                         : IEL Spontaneous Potential
DIR.Ohm-m                     : IEL Induction Resistivity
GR.GAPI                       : Gamma Ray
~Parameter Information Block
~A  Depth        SN          SP         DIR          GR     
# ...
  2259.0000     10.0757    -76.6700      9.7195    121.5190
  2259.2500      9.0002    -76.5414      9.3557    121.5442
  2259.5000      7.9262    -76.4317      8.9946    121.0427
  2259.7500      7.2019    -76.3275      8.6524    120.5936
  2260.0000      7.0072    -76.2418      8.3375    120.1929
  2260.2500      7.2540    -76.2123      8.0526    120.2719
  2260.5000      7.6522    -76.2718      7.7956    121.0874
  2260.7500      7.9374    -76.4146      7.5605    122.1586
  2261.0000      7.9922    -76.5877      7.3398    124.3107
  2261.2500      7.7929    -76.7212      7.1283    125.6951
  2261.5000      7.4183    -76.7770      6.9260    127.1408
  2261.7500      7.0591    -76.7743      6.7383    127.8534
  2262.0000      6.8859    -76.7696      6.5730    129.4902
  2262.2500      6.9119    -76.8144      6.4363    131.2826
  2262.5000      7.0060    -76.9281      6.3303    134.4834
  2262.7500      7.0449    -77.0947      6.2533    136.3003
  2263.0000      7.0420    -77.2725      6.2017    137.8109
  2263.2500      7.0608    -77.4090      6.1721    137.9329
  2263.5000      7.0822    -77.4643      6.1625    136.9388
  2263.7500      7.0783    -77.4361      6.1713    135.7161
  2264.0000      7.0676    -77.3682      6.1969    133.7407
  2264.2500      7.0436    -77.3284      6.2380    132.6652
  2264.5000      6.9971    -77.3659      6.2939    131.2330
  2264.7500      6.9507    -77.4804      6.3648    129.9299
  2265.0000      6.9196    -77.6288      6.4512    126.7966
  2265.2500      6.9164    -77.7609      6.5533    123.8863
  2265.5000      6.9612    -77.8493      6.6702    118.8471
  2265.7500      7.0695    -77.8900      6.8018    115.6898
  2266.0000      7.2455    -77.8855      6.9499    112.5044
  2266.2500      7.4865    -77.8341      7.1186    111.7258
  2266.5000      7.7724    -77.7321      7.3134    111.7440
  2266.7500      8.0528    -77.5828      7.5389    111.4987
  2267.0000      8.2987    -77.4053      7.7976    109.1473
  2267.2500      8.5420    -77.2368      8.0895    105.9258
  2267.5000      8.8237    -77.1237      8.4124     99.1987
  2267.7500      9.1366    -77.1016      8.7618     94.2471
  2268.0000      9.4467    -77.1758      9.1302     87.5974
  2268.2500      9.7587    -77.3168      9.5076     84.1827
  2268.5000     10.1209    -77.4738      9.8830     80.3779
  2268.7500     10.5653    -77.6010     10.2485     78.2496
  2269.0000     11.0528    -77.6801     10.6024     75.3028
  2269.2500     11.5081    -77.7243     10.9498     73.7359
  2269.5000     11.9258    -77.7588     11.2984     72.3746
  2269.7500     12.3843    -77.7967     11.6537     71.9248
  2270.0000     12.9372    -77.8284     12.0181     71.1442
  2270.2500     13.5426    -77.8323     12.3959     70.2829
  2270.5000     14.1199    -77.7954     12.7975     68.6664
  2270.7500     14.6292    -77.7295     13.2382     67.6821
  2271.0000     15.0861    -77.6723     13.7307     66.8276
  2271.2500     15.5420    -77.6725     14.2775     66.7871
  2271.5000     16.0535    -77.7665     14.8689     67.3235
  2271.7500     16.6307    -77.9609     15.4881     67.8063
  2272.0000     17.2198    -78.2302     16.1185     68.1407
  2272.2500     17.8036    -78.5341     16.7447     67.6762
  2272.5000     18.4735    -78.8376     17.3511     65.0596
  2272.7500     19.3421    -79.1214     17.9235     61.6811
  2273.0000     20.4946    -79.3766     18.4600     54.4688
  2273.2500     21.9979    -79.6002     18.9811     48.9817
  2273.5000     23.8329    -79.7972     19.5221     41.4204
  2273.7500     25.8395    -79.9869     20.1079     37.6586
  2274.0000     27.7530    -80.2028     20.7296     34.5666
  2274.2500     29.3356    -80.4831     21.3432     34.0310
  2274.5000     30.4906    -80.8543     21.8945     34.7258
  2274.7500     31.1970    -81.3174     22.3506     35.7825
  2275.0000     31.4023    -81.8506     22.7120     37.7177
  2275.2500     31.0901    -82.4315     22.9984     38.8554
  2275.5000     30.4215    -83.0566     23.2265     39.7427
  2275.7500     29.6897    -83.7372     23.4069     39.7472
  2276.0000     29.1442    -84.4720     23.5571     39.2555
  2276.2500     28.8667    -85.2267     23.7087     38.8081
  2276.5000     28.7480    -85.9413     23.8903     38.1229
  2276.7500     28.6607    -86.5591     24.0993     37.6729
  2277.0000     28.6370    -87.0486     24.2911     36.8623
  2277.2500     28.7622    -87.4038     24.4082     36.0787
  2277.5000     29.0511    -87.6322     24.4265     34.4455
  2277.7500     29.5472    -87.7495     24.3767     33.1645
  2278.0000     30.3372    -87.7832     24.3222     31.2230
  2278.2500     31.3707    -87.7718     24.3193     30.0215
  2278.5000     32.4267    -87.7486     24.3960     28.5586
  2278.7500     33.3092    -87.7207     24.5553     28.0307
  2279.0000     34.0083    -87.6648     24.7922     28.2988
  2279.2500     34.6930    -87.5462     25.1040     29.1252
  2279.5000     35.5361    -87.3452     25.4827     30.4781
  2279.7500     36.4747    -87.0684     25.8957     30.8204
  2280.0000     37.2030    -86.7408     26.2733     30.0657
  2280.2500     37.4318    -86.3900     26.5229     28.9765
  2280.5000     37.0732    -86.0361     26.5718     27.2297
  2280.7500     36.2507    -85.6953     26.4070     26.3414
  2281.0000     35.2418    -85.3931     26.0793     25.7995
  2281.2500     34.3071    -85.1738     25.6699     26.0643
  2281.5000     33.5192    -85.0877     25.2533     27.1959
  2281.7500     32.8052    -85.1595     24.8758     28.1014
  2282.0000     32.1100    -85.3656     24.5526     29.1482
  2282.2500     31.5008    -85.6433     24.2730     29.5339
  2282.5000     31.0853    -85.9233     24.0088     29.6698
  2282.7500     30.8476    -86.1591     23.7350     29.4562
  2283.0000     30.7100    -86.3326     23.4594     28.7761
  2283.2500     30.6767    -86.4466     23.2413     28.3237
  2283.5000     30.7844    -86.5158     23.1763     28.1064
  2283.7500     31.0431    -86.5621     23.3512     28.2812
  2284.0000     31.4719    -86.6114     23.7986     28.5696
  2284.2500     32.1069    -86.6889     24.4756     28.5224
  2284.5000     32.9665    -86.8100     25.2783     28.0705
  2284.7500     34.0149    -86.9700     26.0830     27.6563
  2285.0000     35.1818    -87.1399     26.7931     26.9656
  2285.2500     36.4199    -87.2726     27.3648     26.3891
  2285.5000     37.7309    -87.3183     27.8020     25.2908
  2285.7500     39.1562    -87.2419     28.1312     24.5396
  2286.0000     40.7189    -87.0386     28.3812     23.8994
  2286.2500     42.3618    -86.7371     28.5760     24.1451
  2286.5000     43.9283    -86.3854     28.7390     25.9217
  2286.7500     45.1780    -86.0218     28.8977     27.9769
  2287.0000     45.9321    -85.6495     29.0799     31.5056
  2287.2500     46.2443    -85.2315     29.3019     33.3864
  2287.5000     46.3397    -84.7111     29.5559     34.5715
  2287.7500     46.4147    -84.0489     29.8014     34.2878
  2288.0000     46.5285    -83.2542     29.9607     32.9150
  2288.2500     46.5906    -82.3863     29.9241     31.7073
  2288.5000     46.4314    -81.5199     29.5746     29.6679
  2288.7500     45.9517    -80.6995     28.8354     28.2099
  2289.0000     45.1948    -79.9261     27.7128     26.1014
  2289.2500     44.2349    -79.1814     26.2962     24.9805
  2289.5000     43.0197    -78.4587     24.7126     24.2905
  2289.7500     41.3593    -77.7647     23.0783     24.8825
  2290.0000     39.0594    -77.1037     21.4820     27.9975
  2290.2500     36.0345    -76.4698     19.9883     31.8835
  2290.5000     32.3758    -75.8552     18.6401     40.8465
  2290.7500     28.4352    -75.2581     17.4549     48.9314
  2291.0000     24.7617    -74.6798     16.4253     63.5088
  2291.2500     21.7758    -74.1156     15.5281     74.0245
  2291.5000     19.5212    -73.5498     14.7373     89.3656
  2291.7500     17.7976    -72.9640     14.0319     98.4557
  2292.0000     16.4098    -72.3569     13.3960    109.0788
  2292.2500     15.2072    -71.7544     12.8157    113.5386
