~Version Information
VERS.                      2.0: CWLS Log ASCII Standard - VERSION 2.0
WRAP.                       NO: One line per depth step
~Well Information Block
STRT.FT               665.0000: 
STOP.FT              1972.5000: 
STEP.FT                 0.1000: 
NULL.                -999.2500: 
COMP.          Petrogulf Corporation: COMPANY
WELL.          Great Plains 22-21V: WELL
FLD.           Purgatorie River: FIELD
LOC.           63' FNL & 1895' FWL: LOCATION
PROV.                 Colorado: PROVINCE
CNTY.               Las Animas: COUNTRY
SRVC.                Patterson: SERVICE COMPANY
DATE.          Thu Sep 01 07:39:43 2005: LOG DATE
UWI.                          : UNIQUE WELL ID
~Curve Information Block
DEPT.FT            0 000 00 00: Depth
DCAL.in                       : CDL Caliper
RHOB.g/cc                     : CDL Bulk Density
RHOC.g/cc                     : CDL Density Correction
DPOR.pu                       : CDL Density Porosity
GR.GAPI                       : Gamma Ray
NPOR.pu                       : Neutron Porosity
~Parameter Information Block
~A  Depth       DCAL        RHOB        RHOC        DPOR         GR         NPOR    
# ...
   837.8000      8.0794      2.6122      0.1186      2.2923     82.2868     20.2782
   837.9000      8.0794      2.6148      0.0758      2.1357     82.3538     21.0363
   838.0000      8.0648      2.6117      0.0473      2.3183     78.4986     21.1731
   838.1000      8.0648      2.6152      0.0566      2.1076     74.0480     21.2042
   838.2000      8.0648      2.6274      0.0483      1.3714     70.9915     21.9748
   838.3000      8.0414      2.6395      0.1143      0.6361     67.9777     22.8567
   838.4000      8.0414      2.6402      0.1182      0.5963     65.6033     22.3611
   838.5000      8.0573      2.6308      0.0570      1.1612     65.0274     20.5907
   838.6000      8.0573      2.6194      0.0549      1.8561     63.9359     18.9907
   838.7000      8.0573      2.6077      0.0505      2.5644     60.6773     18.4534
   838.8000      8.1288      2.5988      0.0327      3.1053     57.5279     18.7368
   838.9000      8.1288      2.5989      0.0521      3.0948     56.5491     19.0641
   839.0000      8.1135      2.6107      0.0662      2.3793     56.7805     19.0643
   839.1000      8.1135      2.6263      0.0534      1.4386     57.1316     18.9560
   839.2000      8.1135      2.6321      0.0884      1.0819     58.1948     18.7659
   839.3000      8.1016      2.6220      0.0900      1.6995     60.1537     18.2158
   839.4000      8.1016      2.6021      0.0701      2.9049     60.8052     17.5516
   839.5000      8.1201      2.5861      0.0294      3.8741     59.4398     17.3488
   839.6000      8.1201      2.5831      0.0408      4.0535     59.2749     17.3827
   839.7000      8.1201      2.5839      0.0552      4.0089     61.9710     17.2233
   839.8000      8.1161      2.5708      0.0716      4.8027     66.1572     17.1126
   839.9000      8.1161      2.5475     -0.0028      6.2132     70.9518     17.3393
   840.0000      8.1811      2.5389      0.0019      6.7334     75.0579     17.8285
   840.1000      8.1811      2.5498      0.0463      6.0756     78.4568     18.4831
   840.2000      8.1811      2.5599      0.0625      5.4591     83.0904     19.4591
   840.3000      8.2100      2.5613      0.0626      5.3759     88.2734     20.8482
   840.4000      8.2100      2.5593      0.0563      5.4985     92.3925     22.0270
   840.5000      8.2032      2.5534      0.0456      5.8539     96.7806     22.0126
   840.6000      8.2032      2.5380      0.0458      6.7891    104.7068     20.9950
   840.7000      8.2032      2.5151      0.0172      8.1755    117.2296     20.4770
   840.8000      8.1736      2.5009     -0.0006      9.0383    130.6314     21.6914
   840.9000      8.1736      2.5052      0.0175      8.7743    139.3080     24.6117
   841.0000      8.1936      2.5185      0.0653      7.9720    140.3828     27.7522
   841.1000      8.1936      2.5285      0.0694      7.3629    136.8164     28.9543
   841.2000      8.1936      2.5310      0.0793      7.2114    134.7404     27.9808
   841.3000      8.1676      2.5251      0.0544      7.5696    136.0563     26.5610
   841.4000      8.1676      2.5123      0.0703      8.3441    138.8670     25.8937
   841.5000      8.1861      2.4995      0.0532      9.1215    140.4822     26.1295
   841.6000      8.1861      2.4953      0.0719      9.3739    139.1132     26.9025
   841.7000      8.1861      2.4972      0.0578      9.2634    137.1962     27.6910
   841.8000      8.2080      2.4953      0.0881      9.3742    137.6930     28.2280
   841.9000      8.2080      2.4926      0.0314      9.5418    139.4883     28.8774
   842.0000      8.2479      2.4987      0.0527      9.1681    139.9328     29.8184
   842.1000      8.2479      2.5087      0.0741      8.5650    138.1056     30.2245
   842.2000      8.2479      2.5154      0.0536      8.1563    135.7001     29.5837
   842.3000      8.2593      2.5224      0.1132      7.7326    135.5024     28.5427
   842.4000      8.2593      2.5293      0.0963      7.3135    137.1947     28.0143
   842.5000      8.1017      2.5334      0.1108      7.0692    136.9941     28.3975
   842.6000      8.1017      2.5370      0.1259      6.8461    133.5513     29.1208
   842.7000      8.1017      2.5473      0.1204      6.2213    130.1497     29.1434
   842.8000      8.0903      2.5666      0.1726      5.0559    128.7505     28.5157
   842.9000      8.0903      2.5849      0.1557      3.9485    128.8821     28.2256
   843.0000      8.1136      2.5907      0.1826      3.5956    130.0687     28.8741
   843.1000      8.1136      2.5862      0.1393      3.8640    129.6031     30.1056
   843.2000      8.1136      2.5889      0.1081      3.7055    127.4280     30.6778
   843.3000      8.1329      2.6042      0.1520      2.7777    127.6367     29.8615
   843.4000      8.1329      2.6182      0.1308      1.9296    127.4655     28.1911
   843.5000      8.1149      2.6223      0.1124      1.6800    121.2436     26.4714
   843.6000      8.1149      2.6174      0.1706      1.9772    110.9437     25.3108
   843.7000      8.1149      2.6001      0.1572      3.0238    101.9084     24.8900
   843.8000      8.1233      2.5694      0.1057      4.8850     96.2661     25.0509
   843.9000      8.1233      2.5416      0.0410      6.5690     94.5881     25.5608
   844.0000      8.1234      2.5351      0.0461      6.9625     95.8727     25.8357
   844.1000      8.1234      2.5467      0.1163      6.2614     96.4785     25.4225
   844.2000      8.1234      2.5628      0.0675      5.2846     94.2207     24.6355
   844.3000      8.1334      2.5755      0.1321      4.5142     90.5575     23.9192
   844.4000      8.1334      2.5797      0.1086      4.2610     87.8025     23.1036
   844.5000      8.1546      2.5796      0.1197      4.2677     86.8662     22.0795
   844.6000      8.1546      2.5838      0.1048      4.0144     86.1900     21.2598
   844.7000      8.1546      2.5914      0.1194      3.5485     83.8914     21.0116
   844.8000      8.1684      2.5897      0.1268      3.6531     79.5728     21.0658
   844.9000      8.1684      2.5675      0.1243      4.9971     74.2659     20.9901
   845.0000      8.1521      2.5371      0.0864      6.8442     70.7952     20.9180
   845.1000      8.1521      2.5280      0.0277      7.3961     71.2217     21.1494
   845.2000      8.1521      2.5501      0.0426      6.0559     73.9479     21.5423
   845.3000      8.1129      2.5733      0.1056      4.6507     75.7572     21.8745
   845.4000      8.1129      2.5703      0.0752      4.8273     75.5164     22.0056
   845.5000      8.1059      2.5534      0.0733      5.8572     75.0852     22.0023
   845.6000      8.1059      2.5401      0.0919      6.6585     76.0577     22.2145
   845.7000      8.1059      2.5288      0.0956      7.3479     76.5650     22.3850
   845.8000      8.1268      2.5129      0.0893      8.3086     76.5302     21.9979
   845.9000      8.1268      2.4977      0.0663      9.2316     78.2853     21.7096
   846.0000      8.1187      2.4940      0.0551      9.4529     80.2525     22.4826
   846.1000      8.1187      2.5003      0.0739      9.0708     80.3903     23.5554
   846.2000      8.1187      2.5008      0.0813      9.0413     79.2964     23.5678
   846.3000      8.1358      2.4902      0.0277      9.6852     77.6306     22.8055
   846.4000      8.1358      2.4780      0.0414     10.4221     77.0469     22.1827
   846.5000      8.1081      2.4702      0.0036     10.8971     77.2756     21.8064
   846.6000      8.1081      2.4724     -0.0121     10.7620     74.4692     21.5380
   846.7000      8.1081      2.4830      0.0427     10.1230     69.2427     21.4428
   846.8000      8.1267      2.4888      0.0581      9.7667     66.7203     21.5065
   846.9000      8.1267      2.4865      0.0541      9.9105     67.9850     21.5670
   847.0000      8.1264      2.4826      0.0249     10.1440     70.6657     21.5652
   847.1000      8.1264      2.4862      0.0310      9.9272     72.7436     21.3698
   847.2000      8.1264      2.5057      0.0162      8.7457     72.6285     21.0291
   847.3000      8.1165      2.5330      0.1031      7.0904     71.3992     21.3417
