~Version Information
VERS.                      2.0: CWLS Log ASCII Standard - VERSION 2.0
WRAP.                       NO: One line per depth step
~Well Information Block
STRT.FT               -10.3000: 
STOP.FT              1936.7000: 
STEP.FT                 0.1000: 
NULL.                -999.2500: 
COMP.          Petrogulf Corporation: COMPANY
WELL.              Graff 9-31R: WELL
FLD.           Purgatorie River: FIELD
LOC.           707' FNL & 1713' FEL------: LOCATION
CNTY.               Las Animas: COUNTY
SRVC.                         : SERVICE COMPANY
DATE.          Wed Nov 17 13:41:51 2004: LOG DATE
UWI.                          : UNIQUE WELL ID
STAT.                       CO: STATE
~Curve Information Block
DEPT.FT            0 000 00 00: Depth
GR.GAPI                       : Gamma Ray
CCL.                          : Casing Collar Locator
TT3.usec                      : CBL 3' Travel Time
AMP3.mV                       : CBL 3' Amplitude
~Parameter Information Block
~A  Depth        GR         CCL         TT3         AMP3    
# ...
   244.3000     95.0711      0.0000    258.7264     75.0581
   244.4000     95.0711      0.0000    258.7264     75.0581
   244.5000     92.5120      0.0000    258.7248     75.2755
   244.6000     92.5120      0.0000    258.7248     75.2755
   244.7000     92.5120      0.0000    258.7248     75.2755
   244.8000     89.8557      0.0000    258.7093     75.5171
   244.9000     89.8557      0.0000    258.7093     75.5171
   245.0000     88.8484      0.0000    258.6732     75.7714
   245.1000     88.8484      0.0000    258.6732     75.7714
   245.2000     88.8484      0.0000    258.6732     75.7714
   245.3000     90.4665      0.0000    258.6155     76.0327
   245.4000     90.4665      0.0000    258.6155     76.0327
   245.5000     94.1329      0.0000    258.5571     76.2758
   245.6000     94.1329      0.0000    258.5571     76.2758
   245.7000     94.1329      0.0000    258.5571     76.2758
   245.8000     98.3240      0.0000    258.5604     76.4425
   245.9000     98.3240      0.0000    258.5604     76.4425
   246.0000    101.6441      0.0000    258.8694     76.3992
   246.1000    101.6441      0.0000    258.8694     76.3992
   246.2000    101.6441      0.0000    258.8694     76.3992
   246.3000    103.5797      0.0000    260.1963     75.8295
   246.4000    103.5797      0.0000    260.1963     75.8295
   246.5000    104.6449      0.0000    264.0083     74.1446
   246.6000    104.6449      0.0000    264.0083     74.1446
   246.7000    104.6449      0.0000    264.0083     74.1446
   246.8000    105.7133      0.0000    272.0174     70.6838
   246.9000    105.7133      0.0000    272.0174     70.6838
   247.0000    107.0316      0.0000    284.1619     65.3175
   247.1000    107.0316      0.0000    284.1619     65.3175
   247.2000    107.0316      0.0000    284.1619     65.3175
   247.3000    108.0269      0.0000    296.5904     58.9420
   247.4000    108.0269      0.0000    296.5904     58.9420
   247.5000    108.0918      0.0000    303.2274     53.0794
   247.6000    108.0918      0.0000    303.2274     53.0794
   247.7000    108.0918      0.0000    303.2274     53.0794
   247.8000    107.2282      0.0000    301.1623     48.7495
   247.9000    107.2282      0.0000    301.1623     48.7495
   248.0000    105.7088      0.0000    293.9252     45.8444
   248.1000    105.7088      0.0000    293.9252     45.8444
   248.2000    105.7088      0.0000    293.9252     45.8444
   248.3000    103.4126      0.0000    288.2290     43.6188
   248.4000    103.4126      0.0000    288.2290     43.6188
   248.5000     99.9118      0.0000    288.1242     41.4985
   248.6000     99.9118      0.0000    288.1242     41.4985
   248.7000     99.9118      0.0000    288.1242     41.4985
   248.8000     95.1881      0.0000    293.2758     39.3422
   248.9000     95.1881      0.0000    293.2758     39.3422
   249.0000     90.0237     -2.0000    302.0180     37.2279
   249.1000     90.0237      0.0000    302.0180     37.2279
   249.2000     90.0237      2.0000    302.0180     37.2279
   249.3000     85.6534     -2.0000    315.0240     35.2291
   249.4000     85.6534      0.0000    315.0240     35.2291
   249.5000     83.0400      2.0000    335.1684     33.3804
   249.6000     83.0400      0.0000    335.1684     33.3804
   249.7000     83.0400      0.0000    335.1684     33.3804
   249.8000     82.3070      0.0000    362.3091     31.7735
   249.9000     82.3070      0.0000    362.3091     31.7735
   250.0000     82.6549      0.0000    387.8780     30.6527
   250.1000     82.6549      0.0000    387.8780     30.6527
   250.2000     82.6549      0.0000    387.8780     30.6527
   250.3000     82.7832      0.0000    398.0809     30.3541
   250.4000     82.7832      0.0000    398.0809     30.3541
   250.5000     81.5791      0.0000    386.0384     31.0481
   250.6000     81.5791      0.0000    386.0384     31.0481
   250.7000     81.5791      0.0000    386.0384     31.0481
   250.8000     78.8495      0.0000    359.0927     32.5338
   250.9000     78.8495      0.0000    359.0927     32.5338
   251.0000     75.7078      0.0000    331.6781     34.3274
   251.1000     75.7078      0.0000    331.6781     34.3274
   251.2000     75.7078      0.0000    331.6781     34.3274
   251.3000     73.9661      0.0000    313.1030     35.9624
   251.4000     73.9661      0.0000    313.1030     35.9624
   251.5000     74.6596      0.0000    303.7515     37.2099
   251.6000     74.6596      0.0000    303.7515     37.2099
   251.7000     74.6596      0.0000    303.7515     37.2099
   251.8000     77.1436      0.0000    299.5053     38.0846
   251.9000     77.1436      0.0000    299.5053     38.0846
   252.0000     79.8983      0.0000    296.4415     38.7134
   252.1000     79.8983      0.0000    296.4415     38.7134
   252.2000     79.8983      0.0000    296.4415     38.7134
   252.3000     82.1479      0.0000    292.4924     39.2055
   252.4000     82.1479      0.0000    292.4924     39.2055
   252.5000     84.2989      0.0000    287.4318     39.5992
   252.6000     84.2989      0.0000    287.4318     39.5992
   252.7000     84.2989      0.0000    287.4318     39.5992
   252.8000     86.6401      0.0000    282.2437     39.8929
   252.9000     86.6401      0.0000    282.2437     39.8929
   253.0000     88.2069      0.0000    277.8594     40.1265
   253.1000     88.2069      0.0000    277.8594     40.1265
   253.2000     88.2069      0.0000    277.8594     40.1265
   253.3000     87.7135      0.0000    274.2676     40.4235
   253.4000     87.7135      0.0000    274.2676     40.4235
   253.5000     85.3246      0.0000    270.8972     40.9303
   253.6000     85.3246      0.0000    270.8972     40.9303
   253.7000     85.3246      0.0000    270.8972     40.9303
   253.8000     82.6312      0.0000    267.6082     41.7048
   253.9000     82.6312      0.0000    267.6082     41.7048
   254.0000     80.9773      0.0000    264.8275     42.6786
   254.1000     80.9773      0.0000    264.8275     42.6786
   254.2000     80.9773      0.0000    264.8275     42.6786
   254.3000     80.5589      0.0000    262.9124     43.7195
   254.4000     80.5589      0.0000    262.9124     43.7195
   254.5000     81.1390      0.0000    261.7987     44.7170
   254.6000     81.1390      0.0000    261.7987     44.7170
   254.7000     81.1390      0.0000    261.7987     44.7170
   254.8000     82.8480      0.0000    261.1981     45.6233
   254.9000     82.8480      0.0000    261.1981     45.6233
   255.0000     85.9411      0.0000    260.8666     46.4427
   255.1000     85.9411      0.0000    260.8666     46.4427
   255.2000     85.9411      0.0000    260.8666     46.4427
   255.3000     90.1629      0.0000    260.6750     47.1849
   255.4000     90.1629      0.0000    260.6750     47.1849
   255.5000     94.6799      0.0000    260.5669     47.8316
   255.6000     94.6799      0.0000    260.5669     47.8316
   255.7000     94.6799      0.0000    260.5669     47.8316
   255.8000     98.5711      0.0000    260.5137     48.3608
   255.9000     98.5711      0.0000    260.5137     48.3608
   256.0000    101.3151      0.0000    260.4924     48.7911
   256.1000    101.3151      0.0000    260.4924     48.7911
   256.2000    101.3151      0.0000    260.4924     48.7911
   256.3000    102.9774      0.0000    260.4875     49.1627
   256.4000    102.9774      0.0000    260.4875     49.1627
   256.5000    104.1250      0.0000    260.4959     49.4717
   256.6000    104.1250      0.0000    260.4959     49.4717
   256.7000    104.1250      0.0000    260.4959     49.4717
   256.8000    105.4275      0.0000    260.5247     49.6488
   256.9000    105.4275      0.0000    260.5247     49.6488
   257.0000    106.9686      0.0000    260.5779     49.6129
   257.1000    106.9686      0.0000    260.5779     49.6129
   257.2000    106.9686      0.0000    260.5779     49.6129
   257.3000    108.0315      0.0000    260.6486     49.3384
   257.4000    108.0315      0.0000    260.6486     49.3384
   257.5000    107.8660      0.0000    260.7219     48.8906
   257.6000    107.8660      0.0000    260.7219     48.8906
