~Version Information
 VERS.                      2.0: CWLS Log ASCII Standard - VERSION 2.0
 WRAP.                       NO: One line per depth step
 ~Well Information Block
 STRT.FT               130.0000: 
 STOP.FT              1766.9000: 
 STEP.FT                 0.1000: 
 NULL.                -999.2500: 
 COMP.          Petrogulf Corporation: COMPANY
 WELL.           Parsons 23-15V: WELL
 FLD.           Purgatorie River: FIELD
 LOC.           2095' FSL & 1817' FWL--API 05 071 07556 00----: LOCATION
 CNTY.               Las Animas: COUNTY
 SRVC.                         : SERVICE COMPANY
 DATE.          Fri Apr 19 17:40:55 2002: LOG DATE
 UWI.                          : UNIQUE WELL ID
 STAT.                       CO: STATE
 PROV.                         :Province
 ~Curve Information Block
 DEPT.FT            0 000 00 00: Depth
 DCAL.in                       : CDL Caliper
 RHOB.g/cc                     : CDL Bulk Density
 RHOC.g/cc                     : CDL Density Correction
 DPOR.pu                       : CDL Density Porosity
 GR.GAPI                       : Gamma Ray
 NPOR.pu                       : Neutron Porosity
 ~Parameter Information Block
 ~A  Depth       DCAL        RHOB        RHOC        DPOR         GR         NPOR    
# ...
  1541.2000      7.8096      2.5298      0.0209      7.2850     99.2171     19.2829
  1541.3000      7.8113      2.5313      0.0223      7.1918     98.5035     19.3672
  1541.4000      7.8113      2.5333      0.0243      7.0732     97.7136     19.4474
  1541.5000      7.8090      2.5356      0.0267      6.9331     96.8773     19.5052
  1541.6000      7.8090      2.5382      0.0296      6.7767     96.0321     19.5246
  1541.7000      7.8090      2.5409      0.0326      6.6092     95.2142     19.4939
  1541.8000      7.8083      2.5438      0.0357      6.4359     94.4537     19.4075
  1541.9000      7.8083      2.5467      0.0387      6.2612     93.7650     19.2684
  1542.0000      7.8056      2.5495      0.0414      6.0894     93.1390     19.0877
  1542.1000      7.8056      2.5523      0.0437      5.9234     92.5467     18.8846
  1542.2000      7.8056      2.5549      0.0456      5.7650     91.9434     18.6831
  1542.3000      7.8006      2.5573      0.0471      5.6154     91.2808     18.5082
  1542.4000      7.8006      2.5597      0.0483      5.4745     90.5254     18.3834
  1542.5000      7.7964      2.5619      0.0493      5.3420     89.6686     18.3263
  1542.6000      7.7964      2.5639      0.0501      5.2171     88.7386     18.3476
  1542.7000      7.7964      2.5659      0.0510      5.0994     87.7973     18.4498
  1542.8000      7.7909      2.5677      0.0520      4.9886     86.9326     18.6284
  1542.9000      7.7909      2.5694      0.0530      4.8855     86.2366     18.8721
  1543.0000      7.7797      2.5709      0.0540      4.7911     85.7886     19.1659
  1543.1000      7.7797      2.5723      0.0550      4.7074     85.6366     19.4925
  1543.2000      7.7797      2.5735      0.0558      4.6367     85.7832     19.8335
  1543.3000      7.7679      2.5744      0.0563      4.5815     86.1895     20.1708
  1543.4000      7.7679      2.5750      0.0563      4.5441     86.7805     20.4868
  1543.5000      7.7643      2.5753      0.0559      4.5259     87.4650     20.7645
  1543.6000      7.7643      2.5753      0.0550      4.5276     88.1509     20.9888
  1543.7000      7.7643      2.5749      0.0535      4.5486     88.7602     21.1469
  1543.8000      7.7703      2.5743      0.0517      4.5866     89.2416     21.2297
  1543.9000      7.7703      2.5735      0.0495      4.6385     89.5731     21.2328
  1544.0000      7.7814      2.5725      0.0471      4.6999     89.7589     21.1579
  1544.1000      7.7814      2.5714      0.0447      4.7658     89.8222     21.0125
  1544.2000      7.7814      2.5703      0.0424      4.8310     89.7967     20.8095
  1544.3000      7.7896      2.5693      0.0404      4.8905     89.7192     20.5662
  1544.4000      7.7896      2.5685      0.0388      4.9401     89.6208     20.3014
  1544.5000      7.7941      2.5679      0.0375      4.9768     89.5239     20.0338
  1544.6000      7.7941      2.5675      0.0367      4.9987     89.4436     19.7797
  1544.7000      7.7941      2.5674      0.0362      5.0049     89.3829     19.5520
  1544.8000      7.7937      2.5676      0.0359      4.9963     89.3420     19.3586
  1544.9000      7.7937      2.5679      0.0357      4.9745     89.3130     19.2030
  1545.0000      7.7885      2.5685      0.0355      4.9418     89.2844     19.0846
  1545.1000      7.7885      2.5691      0.0352      4.9013     89.2431     18.9993
  1545.2000      7.7885      2.5699      0.0347      4.8563     89.1709     18.9408
  1545.3000      7.7849      2.5706      0.0341      4.8105     89.0477     18.9031
  1545.4000      7.7849      2.5713      0.0335      4.7677     88.8500     18.8802
  1545.5000      7.7876      2.5719      0.0330      4.7322     88.5534     18.8680
  1545.6000      7.7876      2.5723      0.0326      4.7085     88.1359     18.8646
  1545.7000      7.7876      2.5724      0.0325      4.7016     87.5792     18.8697
  1545.8000      7.7903      2.5722      0.0325      4.7167     86.8772     18.8850
  1545.9000      7.7903      2.5715      0.0325      4.7592     86.0371     18.9132
  1546.0000      7.7903      2.5702      0.0324      4.8339     85.0825     18.9574
  1546.1000      7.7903      2.5684      0.0319      4.9454     84.0577     19.0218
  1546.2000      7.7903      2.5659      0.0307      5.0961     83.0209     19.1098
  1546.3000      7.7918      2.5628      0.0287      5.2869     82.0471     19.2249
  1546.4000      7.7918      2.5590      0.0258      5.5163     81.2167     19.3703
  1546.5000      7.7918      2.5546      0.0222      5.7797     80.6049     19.5483
  1546.6000      7.7918      2.5498      0.0181      6.0700     80.2787     19.7609
  1546.7000      7.7918      2.5448      0.0139      6.3776     80.2796     20.0088
  1546.8000      7.7832      2.5396      0.0102      6.6912     80.6224     20.2913
  1546.9000      7.7832      2.5345      0.0075      6.9984     81.2894     20.6054
  1547.0000      7.7689      2.5298      0.0062      7.2870     82.2339     20.9461
  1547.1000      7.7689      2.5255      0.0067      7.5458     83.3868     21.3058
  1547.2000      7.7689      2.5219      0.0089      7.7655     84.6649     21.6733
  1547.3000      7.7620      2.5190      0.0127      7.9399     85.9884     22.0353
  1547.4000      7.7620      2.5169      0.0178      8.0659     87.2887     22.3769
  1547.5000      7.7664      2.5156      0.0236      8.1436     88.5201     22.6829
  1547.6000      7.7664      2.5151      0.0297      8.1766     89.6609     22.9406
  1547.7000      7.7664      2.5152      0.0355      8.1709     90.7108     23.1418
  1547.8000      7.7712      2.5158      0.0407      8.1348     91.6894     23.2846
  1547.9000      7.7712      2.5167      0.0450      8.0778     92.6190     23.3749
  1548.0000      7.7684      2.5178      0.0484      8.0098     93.5217     23.4256
  1548.1000      7.7684      2.5190      0.0509      7.9406     94.4088     23.4546
  1548.2000      7.7684      2.5200      0.0526      7.8789     95.2808     23.4817
  1548.3000      7.7679      2.5208      0.0537      7.8321     96.1243     23.5251
  1548.4000      7.7679      2.5212      0.0544      7.8061     96.9196     23.5975
  1548.5000      7.7708      2.5212      0.0548      7.8049     97.6484     23.7043
  1548.6000      7.7708      2.5208      0.0551      7.8309     98.2992     23.8421
  1548.7000      7.7708      2.5199      0.0552      7.8848     98.8703     24.0006
  1548.8000      7.7674      2.5185      0.0553      7.9668     99.3768     24.1651
  1548.9000      7.7674      2.5167      0.0552      8.0760     99.8441     24.3198
  1549.0000      7.7643      2.5145      0.0550      8.2117    100.3115     24.4517
  1549.1000      7.7643      2.5118      0.0546      8.3739    100.8239     24.5532
  1549.2000      7.7643      2.5087      0.0542      8.5634    101.4247     24.6232
  1549.3000      7.7705      2.5051      0.0536      8.7833    102.1575     24.6678
  1549.4000      7.7705      2.5009      0.0530      9.0386    103.0546     24.6965
  1549.5000      7.7832      2.4959      0.0523      9.3377    104.1347     24.7221
  1549.6000      7.7832      2.4901      0.0516      9.6916    105.3990     24.7567
  1549.7000      7.7832      2.4831      0.0508     10.1152    106.8292     24.8112
  1549.8000      7.7888      2.4747      0.0499     10.6268    108.3896     24.8935
  1549.9000      7.7888      2.4644      0.0489     11.2474    110.0254     25.0090
  1550.0000      7.7828      2.4520      0.0476     12.0007    111.6678     25.1595
  1550.1000      7.7828      2.4370      0.0459     12.9114    113.2408     25.3444
  1550.2000      7.7828      2.4189      0.0438     14.0043    114.6610     25.5600
  1550.3000      7.7787      2.3975      0.0409     15.3018    115.8454     25.8009
  1550.4000      7.7787      2.3724      0.0371     16.8229    116.7101     26.0600
  1550.5000      7.7909      2.3434      0.0322     18.5800    117.1794     26.3285
  1550.6000      7.7909      2.3105      0.0261     20.5779    117.1869     26.5983
  1550.7000      7.7909      2.2736      0.0187     22.8116    116.6773     26.8623
