~Version Information
VERS.                      2.0: CWLS Log ASCII Standard - VERSION 2.0
WRAP.                       NO: One line per depth step
~Well Information Block
STRT.FT               550.0000: 
STOP.FT              2042.5000: 
STEP.FT                 0.1000: 
NULL.                -999.2500: 
COMP.          Petrogulf Corporation: COMPANY
WELL.          Robinson 15-12V: WELL
FLD.           Purgatorie River: FIELD
LOC.           1788' FNL & 466' FWL: LOCATION
PROV.                 Colorado: PROVINCE
CNTY.               Las Animas: COUNTRY
SRVC.                Patterson: SERVICE COMPANY
DATE.          Mon Sep 12 10:04:59 2005: LOG DATE
UWI.                          : UNIQUE WELL ID
~Curve Information Block
DEPT.FT            0 000 00 00: Depth
DCAL.in                       : CDL Caliper
RHOB.g/cc                     : CDL Bulk Density
RHOC.g/cc                     : CDL Density Correction
DPOR.pu                       : CDL Density Porosity
GR.GAPI                       : Gamma Ray
NPOR.pu                       : Neutron Porosity
~Parameter Information Block
~A  Depth       DCAL        RHOB        RHOC        DPOR         GR         NPOR    
# ...
  1327.6000      7.9315      2.6319      0.0740      1.0973     85.2260     21.5055
  1327.7000      7.9315      2.6194      0.0669      1.8527     82.6833     21.0662
  1327.8000      7.9311      2.6075      0.0147      2.5742     81.2243     20.2429
  1327.9000      7.9311      2.6055      0.0536      2.6979     82.5866     19.5662
  1328.0000      7.9365      2.6098      0.0599      2.4389     86.3185     19.3851
  1328.1000      7.9365      2.6128      0.0872      2.2528     91.5091     19.4976
  1328.2000      7.9365      2.6064      0.0933      2.6399     93.9193     19.4440
  1328.3000      7.9255      2.5841      0.0691      3.9931     91.1453     19.1587
  1328.4000      7.9255      2.5454      0.0531      6.3422     86.5270     18.9935
  1328.5000      7.9273      2.4933      0.0364      9.4960     82.8253     18.9174
  1328.6000      7.9273      2.4236      0.0201     13.7208     81.2851     18.9726
  1328.7000      7.9273      2.3228     -0.0047     19.8288     83.9409     19.4040
  1328.8000      7.9313      2.2034     -0.1032     27.0641     90.5812     20.1026
  1328.9000      7.9313      2.1105     -0.0935     32.6991     97.3086     21.0095
  1329.0000      7.9345      2.0690     -0.0868     35.2096    101.6541     21.9993
  1329.1000      7.9345      2.0619     -0.0690     35.6419    105.4764     22.7822
  1329.2000      7.9345      2.0609     -0.0365     35.7028    111.2804     23.4685
  1329.3000      7.9329      2.0677     -0.0451     35.2891    118.7307     24.4698
  1329.4000      7.9329      2.1118      0.0431     32.6163    124.8303     25.7487
  1329.5000      7.9350      2.2062      0.1963     26.8962    128.0994     26.9855
  1329.6000      7.9350      2.3318      0.2469     19.2822    131.3700     28.1538
  1329.7000      7.9350      2.4521      0.3462     11.9963    136.6719     29.1672
  1329.8000      7.9527      2.5314      0.2527      7.1861    143.1404     29.6703
  1329.9000      7.9527      2.5644      0.1510      5.1886    150.7682     29.7184
  1330.0000      7.9602      2.5713      0.1374      4.7725    155.2225     29.5328
  1330.1000      7.9602      2.5679      0.1201      4.9786    151.1672     28.9388
  1330.2000      7.9602      2.5566      0.1449      5.6579    142.9402     28.1040
  1330.3000      7.9904      2.5403      0.1187      6.6491    137.3632     27.3981
  1330.4000      7.9904      2.5344      0.0656      7.0038    134.1435     26.6221
  1330.5000      7.9930      2.5511      0.0875      5.9909    127.8425     25.5793
  1330.6000      7.9930      2.5809      0.0793      4.1885    119.3606     24.6453
  1330.7000      7.9930      2.6080      0.0808      2.5426    116.6769     23.9667
  1330.8000      7.9706      2.6262      0.0794      1.4434    120.1249     23.2025
  1330.9000      7.9706      2.6303      0.0904      1.1957    123.8279     22.4326
  1331.0000      7.9400      2.6116      0.1046      2.3282    127.1962     22.1246
  1331.1000      7.9400      2.5777      0.0264      4.3830    133.4617     22.2699
  1331.2000      7.9400      2.5497      0.0499      6.0780    141.6649     22.4278
  1331.3000      7.9411      2.5339     -0.0076      7.0339    149.0803     22.6655
  1331.4000      7.9411      2.5238      0.0560      7.6514    156.1095     23.0009
  1331.5000      7.9344      2.5175     -0.0097      8.0302    161.1937     22.8529
  1331.6000      7.9344      2.5264      0.0085      7.4920    160.5535     22.5820
  1331.7000      7.9344      2.5510      0.0702      5.9985    156.4251     23.0363
  1331.8000      7.9404      2.5718      0.0507      4.7420    153.1315     23.7740
  1331.9000      7.9404      2.5746      0.0746      4.5700    151.3074     23.8782
  1332.0000      7.9552      2.5613      0.0903      5.3769    151.5540     23.7764
  1332.1000      7.9552      2.5409      0.0220      6.6107    155.7023     24.3121
  1332.2000      7.9552      2.5201      0.0737      7.8753    162.7933     25.1221
  1332.3000      7.9533      2.5001      0.0351      9.0852    166.1922     25.4320
  1332.4000      7.9533      2.4883      0.0192      9.8028    161.5236     25.2458
  1332.5000      7.9500      2.4919      0.0190      9.5825    151.9489     25.0894
  1332.6000      7.9500      2.5083      0.0261      8.5853    145.2692     25.2629
  1332.7000      7.9500      2.5226      0.0920      7.7192    146.5101     25.6805
  1332.8000      7.9650      2.5239      0.0557      7.6439    152.6730     26.1907
  1332.9000      7.9650      2.5237      0.0393      7.6572    158.8637     26.6246
  1333.0000      7.9624      2.5271      0.1281      7.4480    162.9180     26.6973
  1333.1000      7.9624      2.5256      0.1084      7.5389    161.8470     26.4275
  1333.2000      7.9624      2.5279      0.0871      7.4009    153.4776     26.1295
  1333.3000      7.9679      2.5475      0.0818      6.2120    143.8428     26.0972
  1333.4000      7.9679      2.5781      0.1108      4.3554    137.8142     26.3814
  1333.5000      7.9393      2.6043      0.1151      2.7681    132.1174     26.6013
  1333.6000      7.9393      2.6197      0.1107      1.8393    124.9132     26.3786
  1333.7000      7.9393      2.6263      0.1218      1.4357    117.2399     25.6117
  1333.8000      7.9341      2.6241      0.1202      1.5717    110.4997     24.3370
  1333.9000      7.9341      2.6176      0.0744      1.9661    103.6086     22.8715
  1334.0000      7.9269      2.6176      0.0546      1.9617     95.6027     21.7955
  1334.1000      7.9269      2.6221      0.0764      1.6879     88.6617     21.1930
  1334.2000      7.9269      2.6174      0.0930      1.9747     83.0791     20.6331
  1334.3000      7.9348      2.6007      0.0468      2.9897     79.0587     19.8877
  1334.4000      7.9348      2.5813     -0.0080      4.1632     77.2736     19.0970
  1334.5000      7.9395      2.5650     -0.0196      5.1534     74.6657     18.5330
  1334.6000      7.9395      2.5579     -0.0346      5.5841     71.1383     18.1884
  1334.7000      7.9395      2.5668      0.0305      5.0453     70.2796     17.9475
  1334.8000      7.9286      2.5835      0.0623      4.0319     73.4954     17.9917
  1334.9000      7.9286      2.5944      0.0635      3.3688     80.5241     18.2734
  1335.0000      7.9255      2.5994      0.0247      3.0692     88.7080     18.2239
  1335.1000      7.9255      2.5963      0.0769      3.2528     95.6767     17.8973
  1335.2000      7.9255      2.5758      0.0722      4.4983    102.9188     18.0284
  1335.3000      7.9291      2.5462      0.0417      6.2880    109.6250     18.7482
  1335.4000      7.9291      2.5243      0.0296      7.6208    112.7010     19.5343
  1335.5000      7.9276      2.5090      0.0224      8.5425    112.8297     20.1142
  1335.6000      7.9276      2.4930      0.0325      9.5171    110.9802     20.5132
  1335.7000      7.9276      2.4820     -0.0238     10.1824    107.5471     20.6497
  1335.8000      7.9275      2.4868      0.0430      9.8906    104.7864     20.3631
  1335.9000      7.9275      2.4968      0.0667      9.2857    103.7293     19.8644
  1336.0000      7.9292      2.4956      0.0418      9.3559    101.0904     19.8221
  1336.1000      7.9292      2.4880      0.0124      9.8201     92.9557     20.3521
  1336.2000      7.9292      2.4781      0.1037     10.4183     80.8215     20.8488
  1336.3000      7.9345      2.4626      0.0279     11.3600     72.0675     21.0305
  1336.4000      7.9345      2.4538      0.0260     11.8927     71.3308     21.0241
  1336.5000      7.9355      2.4581      0.0448     11.6306     74.2606     20.8142
  1336.6000      7.9355      2.4598      0.0593     11.5290     73.7892     20.4126
  1336.7000      7.9355      2.4512      0.0369     12.0504     69.7730     19.7667
  1336.8000      7.9371      2.4393      0.0213     12.7715     66.0385     18.9013
  1336.9000      7.9371      2.4285      0.0301     13.4234     63.9841     18.4699
  1337.0000      7.9342      2.4242     -0.0086     13.6871     63.3124     18.7457
  1337.1000      7.9342      2.4323      0.0170     13.1943     63.5381     19.0415
