~Version Information
VERS.                      2.0: CWLS Log ASCII Standard - VERSION 2.0
WRAP.                       NO: One line per depth step
~Well Information Block
STRT.FT              1882.7500: 
STOP.FT              2400.5000: 
STEP.FT                 0.2500: 
NULL.                -999.2500: 
COMP.          Pioneer Natural Resources: COMPANY
WELL.          Flying Horse 12-11: WELL
FLD.           Purgatoire River: FIELD
LOC.           2,428' FNL & 308' FWL------: LOCATION
PROV.                 Colorado: PROVINCE
CNTY.               Las Animas: COUNTRY
SRVC.                         : SERVICE COMPANY
DATE.          Fri Jun 10 06:52:30 2005: LOG DATE
UWI.                          : UNIQUE WELL ID
~Curve Information Block
DEPT.FT            0 000 00 00: Depth
CCL.                          : Casing Collar Locator
TT3.usec                      : CBL 3' Travel Time
AMP3.mV                       : CBL 3' Amplitude
AMP5.mV                       : CBL 5' Amplitude
GR.GAPI                       : Gamma Ray
~Parameter Information Block
~A  Depth       CCL         TT3         AMP3        AMP5         GR     
  1882.7500   -999.2500   -999.2500   -999.2500   -999.2500     84.2657
  1883.0000   -999.2500   -999.2500   -999.2500   -999.2500     91.8178
  1883.2500   -999.2500   -999.2500   -999.2500   -999.2500    102.0328
  1883.5000   -999.2500   -999.2500   -999.2500   -999.2500    112.6339
  1883.7500   -999.2500   -999.2500   -999.2500   -999.2500    120.5372
  1884.0000   -999.2500   -999.2500   -999.2500   -999.2500    124.1784
  1884.2500   -999.2500   -999.2500   -999.2500   -999.2500    124.6654
  1884.5000   -999.2500   -999.2500   -999.2500   -999.2500    124.3540
  1884.7500   -999.2500   -999.2500   -999.2500   -999.2500    124.9025
  1885.0000   -999.2500   -999.2500   -999.2500     89.9579    127.0448
  1885.2500   -999.2500   -999.2500   -999.2500     90.6543    131.3610
  1885.5000   -999.2500   -999.2500   -999.2500     89.9579    138.2389
  1885.7500   -999.2500   -999.2500   -999.2500     89.9579    147.1172
  1886.0000   -999.2500   -999.2500   -999.2500     90.3061    156.3593
  1886.2500   -999.2500   -999.2500   -999.2500     90.2191    164.0074
  1886.5000   -999.2500   -999.2500   -999.2500     90.2191    168.6401
  1886.7500   -999.2500   -999.2500   -999.2500     91.4377    169.8290
  1887.0000   -999.2500   -999.2500   -999.2500     90.7413    168.1270
  1887.2500   -999.2500   -999.2500   -999.2500     89.7838    164.6116
  1887.5000   -999.2500   -999.2500   -999.2500     89.9579    160.2875
  1887.7500   -999.2500   -999.2500   -999.2500     90.2191    155.8693
  1888.0000   -999.2500    259.3183     66.8242     89.7838    152.0474
  1888.2500   -999.2500    259.2990     66.8223     89.4356    149.6333
  1888.5000   -999.2500    259.2856     66.7547     89.0875    148.9766
  1888.7500   -999.2500    259.2789     66.6339     90.1320    149.1347
  1889.0000   -999.2500    259.2774     66.5191     90.2191    148.3573
  1889.2500   -999.2500    259.2770     66.4798     89.9579    146.0272
  1889.5000   -999.2500    259.2728     66.5483     90.7413    143.5138
  1889.7500   -999.2500    259.2630     66.7000     89.8709    142.5316
  1890.0000   -999.2500    259.2506     66.8785     89.6968    143.3397
  1890.2500   -999.2500    259.2401     67.0399     89.5227    145.1264
  1890.5000   -999.2500    259.2350     67.1699     89.8709    147.4371
  1890.7500   -999.2500    259.2376     67.2663     90.1320    150.3745
  1891.0000   -999.2500    259.2469     67.3188     90.3061    153.7528
  1891.2500   -999.2500    259.2590     67.3107     90.5672    156.8609
  1891.5000   -999.2500    259.2695     67.2376     90.6543    159.0944
  1891.7500   -999.2500    259.2778     67.1208     90.7413    160.4075
  1892.0000   -999.2500    259.2851     67.0013     90.5672    161.1586
  1892.2500   -999.2500    259.2927     66.9165     90.4802    161.7248
  1892.5000   -999.2500    259.3018     66.8755     90.4802    162.0878
  1892.7500   -999.2500    259.3132     66.8537     90.4802    161.4587
  1893.0000   -999.2500    259.3261     66.8195     90.3061    158.3738
  1893.2500   -999.2500    259.3372     66.7667     90.3932    151.6749
  1893.5000   -999.2500    259.3437     66.7188     90.0450    142.0265
  1893.7500      0.0000    259.3443     66.7024     90.3061    132.5504
  1894.0000      0.0000    259.3380     66.7259     90.3061    127.2261
  1894.2500      0.0000    259.3221     66.7804     89.6968    127.8418
  1894.5000      0.0000    259.2954     66.8513     90.1320    132.4477
  1894.7500      0.0000    259.2633     66.9217     90.0450    137.0989
  1895.0000      0.0000    259.2380     66.9714     90.1320    139.2391
  1895.2500      0.0000    259.2305     66.9824     89.5227    139.3569
  1895.5000      0.0000    259.2421     66.9496     90.5672    139.4936
  1895.7500      0.0000    259.2647     66.8851     90.2191    140.5150
  1896.0000      0.0000    259.2871     66.8107     91.0895    141.2664
  1896.2500      0.0000    259.3006     66.7419     91.0895    140.2227
  1896.5000      0.0000    259.3035     66.6826     90.8284    137.2469
  1896.7500      0.0000    259.3010     66.6340     90.7413    133.5827
  1897.0000      0.0000    259.3001     66.5981     90.8284    130.6358
  1897.2500      0.0000    259.3023     66.5704     90.3061    128.8178
  1897.5000      0.0000    259.3030     66.5390     90.4802    127.3983
  1897.7500      0.0000    259.2977     66.4984     90.9154    125.6110
  1898.0000      0.0000    259.2868     66.4576     90.5672    123.7292
  1898.2500      0.0000    259.2730     66.4279     89.6968    122.5449
  1898.5000      0.0000    259.2574     66.4117     90.3932    122.0943
  1898.7500      0.0000    259.2394     66.4082     90.1320    121.6818
  1899.0000      0.0000    259.2191     66.4256     90.5672    120.9229
  1899.2500      0.0000    259.1992     66.4759     91.0895    119.9264
  1899.5000      0.0000    259.1844     66.5553     90.3932    118.5689
  1899.7500      0.0000    259.1800     66.6357     90.6543    116.2337
  1900.0000      0.0000    259.1894     66.6778     90.1320    112.5122
  1900.2500      0.0000    259.2124     66.6570     90.7413    108.0343
  1900.5000      0.0000    259.2444     66.5803     90.3932    104.4801
  1900.7500      0.0000    259.2791     66.4837     90.4802    103.6590
  1901.0000      0.0000    259.3094     66.4088     91.1766    106.3708
  1901.2500      0.0000    259.3284     66.3784     91.1766    111.9295
  1901.5000      0.0000    259.3292     66.3904     90.2191    118.7884
  1901.7500      0.0000    259.3086     66.4304     90.2191    125.7082
  1902.0000      0.0000    259.2713     66.4869     90.7413    132.3617
  1902.2500      0.0000    259.2283     66.5557     90.4802    138.9737
  1902.5000      0.0000    259.1909     66.6307     91.3507    145.8718
  1902.7500      0.0000    259.1649     66.6969     90.2191    153.5188
  1903.0000      0.0000    259.1509     66.7346     89.9579    162.0853
  1903.2500      0.0000    259.1483     66.7321     90.1320    170.2803
  1903.5000      0.0000    259.1575     66.6943     89.7838    175.4068
  1903.7500      0.0000    259.1783     66.6390     89.6968    175.6609
  1904.0000      0.0000    259.2053     66.5881     90.0450    172.0985
  1904.2500      0.0000    259.2283     66.5606     90.4802    167.8009
  1904.5000      0.0000    259.2359     66.5707     89.6968    165.5586
  1904.7500      0.0000    259.2231     66.6243     90.0450    166.4189
  1905.0000      0.0000    259.1949     66.7153     90.2191    169.3709
  1905.2500      0.0000    259.1629     66.8287     90.9154    171.8864
  1905.5000      0.0000    259.1388     66.9473     89.6968    171.6284
  1905.7500      0.0000    259.1297     67.0529     89.3486    168.3184
  1906.0000      0.0000    259.1351     67.1232     89.6968    163.6492
  1906.2500      0.0000    259.1473     67.1388     89.7838    159.0728
  1906.5000      0.0000    259.1576     67.0944     89.4356    153.9166
  1906.7500      0.0000    259.1646     67.0018     89.2616    145.8386
  1907.0000      0.0000    259.1747     66.8830     89.4356    133.1580
  1907.2500      0.0000    259.1945     66.7662     90.0450    116.8962
  1907.5000      0.0000    259.2225     66.6838     89.9579    100.7234
  1907.7500      0.0000    259.2494     66.6545     89.6968     89.0017
  1908.0000      0.0000    259.2657     66.6481     89.6097     84.5528
  1908.2500      0.0000    259.2831     66.5613     88.8263     87.5286
  1908.5000      0.0000    259.3635     66.2070     88.8263     95.6645
  1908.7500      0.0000    259.7605     65.3159     87.5206    105.5534
  1909.0000      0.0000    261.1847     63.5751     65.6719    114.2772
  1909.2500      0.0000    265.0335     60.7209     62.5383    120.3595
  1909.5000      0.0000    272.8479     56.6508     60.8844    123.5403
  1909.7500      0.0000    284.3953     51.5548     68.7186    124.1240
  1910.0000      0.0000    295.8401     46.0444     68.5445    122.6933
  1910.2500      0.0000    301.2687     41.0657     68.1963    119.9851
  1910.5000      0.0000    297.6598     37.4471     67.3258    116.6982
