~Version Information
VERS.                      2.0: CWLS Log ASCII Standard - VERSION 2.0
WRAP.                       NO: One line per depth step
~Well Information Block
STRT.FT                 0.0000: 
STOP.FT              2234.2500: 
STEP.FT                 0.2500: 
NULL.                -999.2500: 
COMP.          Pioner Natural Resources: COMPANY
WELL.          Casablanca 11-28 Tr: WELL
FLD.           Purgatoire River: FIELD
LOC.           422' FNL & 215' FWL--: LOCATION
PROV.                 Colorado: PROVINCE
CNTY.               Las Animas: COUNTRY
SRVC.                         : SERVICE COMPANY
DATE.          Fri Mar 11 13:02:46 2005: LOG DATE
UWI.           005 071 08314  : UNIQUE WELL ID
~Curve Information Block
DEPT.FT            0 000 00 00: Depth
CCL.                          : Casing Collar Locator
TT3.usec                      : CBL 3' Travel Time
AMP3.mV                       : CBL 3' Amplitude
AMP5.mV                       : CBL 5' Amplitude
GR.GAPI                       : Gamma Ray
~Parameter Information Block
~A  Depth       CCL         TT3         AMP3        AMP5         GR     
# ...
  1484.0000      0.0000    750.6934      4.5022     -1.0057    143.1387
  1484.2500      0.0000    749.6068      4.5043     -1.0057    136.9874
  1484.5000      0.0000    738.7654      4.5239     -0.8316    134.3231
  1484.7500      0.0000    717.6669      4.5564     -0.6575    135.2212
  1485.0000      0.0000    691.0800      4.5905     -0.9187    138.6169
  1485.2500      0.0000    665.7477      4.6149     -0.8316    143.0502
  1485.5000      0.0000    646.4335      4.6250     -0.5705    147.4962
  1485.7500      0.0000    634.4184      4.6264     -0.6575    151.5433
  1486.0000      0.0000    628.6924      4.6295     -0.2223    155.1986
  1486.2500      0.0000    627.7275      4.6392     -1.0057    158.6090
  1486.5000      0.0000    630.2181      4.6498     -0.4834    161.4459
  1486.7500      0.0000    635.0003      4.6514     -0.9187    162.4574
  1487.0000      0.0000    640.9683      4.6404     -0.6575    160.3523
  1487.2500      0.0000    647.3163      4.6208     -0.6575    155.3754
  1487.5000      0.0000    654.1083      4.5987     -0.9187    149.4249
  1487.7500      0.0000    662.4850      4.5799     -1.0057    144.3936
  1488.0000      0.0000    673.3318      4.5707     -0.8316    140.8155
  1488.2500      0.0000    684.8916      4.5763     -0.6575    138.2908
  1488.5000      0.0000    692.2115      4.5950     -1.0057    136.7256
  1488.7500      0.0000    690.5838      4.6183     -0.6575    136.6109
  1489.0000      0.0000    680.2045      4.6388     -0.9187    138.2276
  1489.2500      0.0000    666.6768      4.6552     -0.4834    140.9583
  1489.5000      0.0000    656.5272      4.6702     -0.9187    143.2897
  1489.7500      0.0000    652.5892      4.6843     -1.0057    143.5806
  1490.0000      0.0000    653.4284      4.6944     -0.9187    141.5333
  1490.2500      0.0000    655.9762      4.6968     -1.2668    139.0777
  1490.5000      0.0000    657.9820      4.6920     -0.6575    138.9352
  1490.7500      0.0000    658.6111      4.6876     -1.1798    141.6968
  1491.0000      0.0000    658.1197      4.6919     -0.8316    144.7954
  1491.2500      0.0000    657.6804      4.7036     -0.6575    144.6741
  1491.5000      0.0000    659.1743      4.7099     -0.3964    139.4828
  1491.7500      0.0000    664.3458      4.6985     -0.7446    129.5985
  1492.0000      0.0000    673.7719      4.6666     -1.1798    116.4815
  1492.2500      0.0000    686.5933      4.6185     -0.5705    101.7969
  1492.5000      0.0000    701.1887      4.5601     -1.0057     87.2355
  1492.7500      0.0000    715.8068      4.5008     -0.8316     74.3240
  1493.0000      0.0000    728.4471      4.4560     -0.9187     64.0508
  1493.2500      0.0000    737.1213      4.4396     -0.7446     56.6014
  1493.5000      0.0000    741.6432      4.4522     -0.5705     51.4880
  1493.7500      0.0000    744.7870      4.4806     -1.3539     48.1570
  1494.0000      0.0000    750.1270      4.5085     -0.0482     46.5405
  1494.2500      0.0000    758.6534      4.5253     -0.8316     46.9253
  1494.5000      0.0000    768.3359      4.5281     -0.6575     49.3237
  1494.7500      0.0000    776.3091      4.5197     -1.0057     52.9990
  1495.0000      0.0000    780.2378      4.5080     -0.9187     56.5657
  1495.2500      0.0000    778.0778      4.5010     -0.6575     58.8241
  1495.5000      0.0000    768.2828      4.5033     -1.1798     59.8846
  1495.7500      0.0000    751.1744      4.5149     -1.1798     61.3796
  1496.0000      0.0000    730.1145      4.5314     -0.8316     65.2993
  1496.2500      0.0000    710.7521      4.5436     -1.1798     72.7142
  1496.5000      0.0000    698.0484      4.5404     -1.0057     83.4358
  1496.7500      0.0000    693.2977      4.5138     -1.5280     96.0677
  1497.0000      0.0000    694.4231      4.4664     -0.8316    108.0769
  1497.2500      0.0000    699.1496      4.4124     -0.9187    116.5830
  1497.5000      0.0000    706.7431      4.3691     -0.7446    119.9766
  1497.7500      0.0000    716.2087      4.3456     -1.1798    119.0172
  1498.0000      0.0000    724.0760      4.3401     -1.5280    116.1797
  1498.2500      0.0000    725.1643      4.3473     -1.0057    113.6749
  1498.5000      0.0000    716.0052      4.3625     -0.9187    111.9689
  1498.7500      0.0000    697.9120      4.3771     -1.1798    110.3338
  1499.0000      0.0000    676.6125      4.3753     -0.8316    108.5279
  1499.2500      0.0000    658.2974      4.3384     -0.7446    107.1338
  1499.5000      0.0000    645.7693      4.2604     -0.9187    106.1689
  1499.7500      0.0000    638.1315      4.1584     -0.9187    104.4251
  1500.0000      0.0000    633.5050      4.0650     -0.8316    100.8916
  1500.2500      0.0000    631.5402      4.0088     -1.0057     96.3668
  1500.5000      0.0000    633.7626      4.0020     -1.3539     93.1755
  1500.7500      0.0000    642.2964      4.0404     -1.3539     93.6194
  1501.0000      0.0000    658.1444      4.1112     -1.6150     98.8064
  1501.2500      0.0000    679.9554      4.1981     -1.6150    108.1610
  1501.5000      0.0000    704.1667      4.2881      0.9093    119.4203
  1501.7500      0.0000    726.3934      4.3778     -1.2668    129.5271
  1502.0000      0.0000    742.4380      4.4720     -1.0057    136.2506
  1502.2500      0.0000    748.4755      4.5661     -1.0057    139.1291
  1502.5000      0.0000    742.2823      4.6384     -0.9187    139.0116
  1502.7500      0.0000    726.0048      4.6739     -0.6575    137.0499
  1503.0000      0.0000    707.1831      4.6860     -1.0057    134.1228
  1503.2500      0.0000    695.0171      4.6967     -1.1798    130.8757
  1503.5000      0.0000    694.3203      4.7101     -1.0057    127.9453
  1503.7500     -5.0000    703.1660      4.7171     -1.6150    125.8945
  1504.0000      0.0000    715.8295      4.7123     -1.3539    124.9302
  1504.2500      0.0000    726.7468      4.6975     -1.4409    124.7211
  1504.5000      0.0000    732.0794      4.6797     -0.8316    124.3481
  1504.7500      0.0000    729.8545      4.6722     -1.1798    122.3860
  1505.0000      0.0000    720.1349      4.6813     -1.1798    117.5111
  1505.2500      0.0000    704.7980      4.6891     -1.5280    109.7250
  1505.5000      0.0000    686.8909      4.6617     -1.5280    101.0202
  1505.7500      0.0000    670.1460      4.5806     -1.5280     94.3516
  1506.0000      0.0000    658.0487      4.4584     -1.8762     91.7317
  1506.2500      0.0000    652.1127      4.3261     -0.8316     93.1474
  1506.5000      0.0000    650.9478      4.2099     -1.4409     96.8684
  1506.7500      0.0000    651.5781      4.1196     -0.6575    100.6964
  1507.0000      0.0000    651.8458      4.0534      0.0389    103.3092
  1507.2500      0.0000    651.2789      4.0087     -0.0482    104.7463
  1507.5000      0.0000    649.8530      3.9869      0.4741    105.7420
  1507.7500      0.0000    646.9227      3.9865      0.0389    106.6780
  1508.0000      0.0000    642.0027      3.9990      0.4741    107.2299
  1508.2500      0.0000    636.2089      4.0172      0.3000    106.8683
  1508.5000      0.0000    632.1504      4.0487      0.3000    105.4345
  1508.7500      0.0000    632.1716      4.1125     -0.0482    103.2481
  1509.0000      0.0000    636.6595      4.2182     -0.2223    100.9287
  1509.2500      0.0000    643.9374      4.3517     -0.2223     99.1768
  1509.5000      0.0000    651.8053      4.4847     -0.0482     98.5835
  1509.7500      0.0000    659.4321      4.5955     -0.3964     99.6001
  1510.0000      0.0000    667.9418      4.6797     -0.6575    102.5104
  1510.2500      0.0000    679.0379      4.7432     -0.9187    107.0966
  1510.5000      0.0000    692.8060      4.7939     -1.0057    112.3920
  1510.7500      0.0000    706.6538      4.8405     -1.2668    117.1199
  1511.0000      0.0000    716.5589      4.8910     -0.8316    120.4972
  1511.2500      0.0000    719.7050      4.9442     -0.9187    122.5104
  1511.5000      0.0000    716.2633      4.9845     -0.6575    123.4058
  1511.7500      0.0000    708.7106      4.9926     -0.9187    123.1385
