~Version Information
 VERS.                                  2.0 : CWLS LAS VERSION
 WRAP.                                   NO : WRAPING MODE
 SWARE .                 MController 2.5.0J : SOFTWARE VERSION
~Well Information
 WELL.                       Beacon 11-18TR : WELL
 COMP.        Pioneer Natural Resources Inc : COMPANY
 FLD.                      Purgatoire River : FIELD
 LOC.                NW/NW Sec 18 T32S R66W : LOCATION
 DATE.                           1/15-16/05 : DATE(S) LOGGED
 SRVC.       Blanco Geological Services LLC : SERVICE COMPANY
 STAT.                                   CO : STATE
 CNTY.                           Las Animas : COUNTY
 CTRY.                                  USA : COUNTRY
 API.                          05-071-08251 : API NUMBER
 STRT.FT                             283.00 : START DEPTH
 STOP.FT                            2753.00 : STOP DEPTH
 STEP.FT                               1.00 : DEPTH INCREMENT
 NULL.                                -9999 : NULL VALUE
~Curve information
 DEPTH.FT                                   :
 ROP.MIN/FT                                 :
 GAS.UNITS                                  :
~ASCII Log data
# ...
      1483.0         0.23         21.7 
      1484.0         0.20         22.0 
      1485.0         0.37         21.8 
      1486.0         0.33         20.9 
      1487.0         0.33         20.7 
      1488.0         0.40         20.4 
      1489.0         0.33         20.1 
      1490.0         0.43         20.0 
      1491.0         0.48         36.1 
      1492.0         0.40         18.2 
      1493.0         0.37         17.0 
      1494.0         0.37         16.4 
      1495.0         0.43         16.5 
      1496.0         0.27         17.7 
      1497.0         0.27         19.6 
      1498.0         0.37         20.5 
      1499.0         0.40         20.5 
      1500.0         0.47         19.7 
      1501.0         0.40         18.0 
      1502.0         0.35         17.6 
      1503.0         0.30         17.2 
      1504.0         0.33         16.6 
      1505.0         0.33         15.7 
      1506.0         0.27         15.6 
      1507.0         0.27         14.7 
      1508.0         0.30         14.5 
      1509.0         0.27         14.5 
      1510.0         0.23         14.1 
      1511.0         0.27         14.2 
      1512.0         0.30         14.2 
      1513.0         0.25         14.0 
      1514.0         0.27         14.0 
      1515.0         0.27         15.0 
      1516.0         0.33         15.2 
      1517.0         0.27         18.7 
      1518.0         0.17         20.1 
      1519.0         0.10         21.6 
      1520.0         0.13         23.9 
      1521.0         0.20         24.8 
      1522.0         0.20         25.3 
      1523.0         0.27         25.4 
      1524.0         0.23         25.4 
      1525.0         0.23         25.2 
      1526.0         0.13         23.6 
      1527.0         0.27         22.9 
      1528.0         0.30         21.0 
      1529.0         0.37         17.8 
      1530.0         0.23         15.7 
      1531.0         0.25         14.7 
      1532.0         0.27         14.4 
      1533.0         0.20         14.2 
      1534.0         0.23         13.8 
      1535.0         0.33         13.7 
      1536.0         0.27         13.3 
      1537.0         0.30         12.7 
      1538.0         0.27         12.8 
      1539.0         0.30         12.3 
      1540.0         0.27         12.0 
      1541.0         0.23         11.7 
      1542.0         0.20         11.4 
      1543.0         0.25         11.4 
      1544.0         0.33         11.5 
      1545.0         0.20         11.3 
      1546.0         0.23         12.4 
      1547.0         0.37         13.9 
      1548.0         0.33         20.4 
      1549.0         0.17         24.0 
      1550.0         0.20         25.5 
      1551.0         0.20         25.8 
      1552.0         0.20         25.0 
      1553.0         0.20         23.7 
      1554.0         0.17         21.1 
      1555.0         0.20         19.6 
      1556.0         0.17         18.1 
      1557.0         0.25         17.1 
      1558.0         0.30         15.7 
      1559.0         0.27         14.1 
      1560.0         0.40         12.5 
      1561.0         0.37         11.3 
      1562.0         0.27         12.9 
      1563.0         0.20         14.7 
      1564.0         0.17         15.6 
      1565.0         0.17         17.0 
      1566.0         0.20         17.3 
      1567.0         0.13         17.5 
      1568.0         0.10         17.4 
      1569.0         0.13         17.3 
      1570.0         0.33         17.0 
      1571.0         0.28         16.3 
      1572.0         0.33         15.3 
      1573.0         0.33         14.5 
      1574.0         0.43         12.7 
      1575.0         0.33         11.0 
      1576.0         0.20         10.7 
      1577.0         0.17          9.2 
      1578.0         0.17          9.2 
      1579.0         0.13          9.1 
      1580.0         0.20          9.1 
      1581.0         0.27          9.8 
      1582.0         0.20         11.3 
      1583.0         0.25         13.8 
      1584.0         0.30         17.8 
      1585.0         0.20         18.2 
      1586.0         0.30         12.6 
      1587.0         0.30         15.4 
      1588.0         0.37         20.2 
      1589.0         0.27         20.1 
      1590.0         0.25         19.0 
      1591.0         0.30         16.3 
      1592.0         0.33         14.2 
      1593.0         0.33         12.6 
      1594.0         0.37         11.7 
      1595.0         0.37         11.3 
      1596.0         0.27         21.9 
      1597.0         0.30         49.6 
      1598.0         0.27         74.3 
      1599.0         0.17         88.3 
      1600.0         0.20        102.3 
      1601.0         0.20        114.0 
      1602.0         0.25        123.9 
      1603.0         0.27        128.3 
      1604.0         0.23        129.1 
      1605.0         0.27        129.0 
      1606.0         0.27        128.0 
      1607.0         0.30        127.2 
      1608.0         0.30        127.5 
      1609.0         0.30        107.9 
      1610.0         0.30         23.1 
      1611.0         0.33         31.8 
      1612.0         0.45         51.1 
      1613.0         0.27         57.6 
      1614.0         0.27         58.2 
      1615.0         0.27         56.3 
      1616.0         0.40         50.6 
      1617.0         0.07         44.2 
      1618.0         0.45         43.4 
      1619.0         0.47         36.9 
      1620.0         0.33         30.8 
      1621.0         0.33         27.1 
      1622.0         0.27         25.7 
      1623.0         0.27         24.6 
      1624.0         0.23         24.2 
      1625.0         0.27         24.2 
      1626.0         0.33         24.4 
      1627.0         0.27         24.8 
      1628.0         0.25         24.9 
      1629.0         0.30         25.2 
      1630.0         0.33         25.0 
      1631.0         0.30         24.3 
      1632.0         0.27         23.5 
      1633.0         0.23         23.7 
      1634.0         0.13         24.0 
      1635.0         0.13         24.2 
      1636.0         0.13         24.6 
      1637.0         0.20         24.9 
      1638.0         0.27         25.6 
      1639.0         0.33         20.4 
      1640.0         0.20         23.4 
      1641.0         0.27         28.4 
      1642.0         0.25         36.2 
      1643.0         0.23         44.0 
      1644.0         0.23         49.9 
      1645.0         0.23         54.0 
      1646.0         0.47         55.1 
      1647.0         0.38         52.6 
      1648.0         0.30         45.1 
      1649.0         0.27         38.7 
      1650.0         0.27         34.1 
      1651.0         0.37         31.1 
      1652.0         0.30         26.6 
      1653.0         0.40         25.4 
      1654.0         0.33         24.6 
      1655.0         0.30         24.5 
      1656.0         0.20         24.3 
      1657.0         0.23         24.8 
      1658.0         0.25         24.4 
      1659.0         0.30         23.8 
      1660.0         0.30         22.7 
      1661.0         0.27         21.9 
      1662.0         0.23         21.9 
      1663.0         0.23         21.1 
      1664.0         0.23         21.2 
      1665.0         0.20         20.7 
      1666.0         0.13         21.2 
      1667.0         0.17         24.0 
      1668.0         0.17         28.4 
      1669.0         0.20         34.6 
      1670.0         0.20         39.8 
      1671.0         0.23         43.1 
      1672.0         0.25         44.1 
      1673.0         0.27         43.9 
      1674.0         0.37         43.3 
      1675.0         0.30         40.9 
      1676.0         0.27         37.6 
      1677.0         0.30         35.1 
      1678.0         0.30         31.9 
      1679.0         0.30         28.6 
      1680.0         0.27         26.1 
      1681.0         0.23         25.2 
      1682.0         0.23         24.2 
