~Version Information
VERS.                      2.0: CWLS Log ASCII Standard - VERSION 2.0
WRAP.                       NO: One line per depth step
~Well Information Block
STRT.FT                 0.6000: 
STOP.FT              2735.2000: 
STEP.FT                 0.1000: 
NULL.                -999.2500: 
COMP.          Pioneer Natural Resources: COMPANY
WELL.              Cluck 21-25: WELL
FLD.           Purgatoire River: FIELD
LOC.           91' FNL & 1834' FWL--: LOCATION
PROV.                 Colorado: PROVINCE
CNTY.               Las Animas: COUNTRY
SRVC.                Patterson: SERVICE COMPANY
DATE.          Mon Jun 06 19:08:34 2005: LOG DATE
UWI.           05 071 08397 00: UNIQUE WELL ID
~Curve Information Block
DEPT.FT            0 000 00 00: Depth
SN.Ohm-m                      : IEL Short Normal
SP.mV                         : IEL Spontaneous Potential
DIR.Ohm-m                     : IEL Induction Resistivity
GR.GAPI                       : Gamma Ray
~Parameter Information Block
~A  Depth        SN          SP         DIR          GR     
# ...
  1287.0000     18.4473   -221.5214     16.3692    132.6920
  1287.1000     18.4473   -221.5214     16.3692    132.3826
  1287.2000     18.4473   -221.5214     16.3692    132.0632
  1287.3000     18.2422   -220.8154     16.0998    131.7791
  1287.4000     18.2422   -220.8154     16.0998    131.5684
  1287.5000     18.1656   -220.2343     15.9192    131.4639
  1287.6000     18.1656   -220.2343     15.9192    131.4842
  1287.7000     18.1656   -220.2343     15.9192    131.6371
  1287.8000     18.2018   -219.7734     15.8286    131.9153
  1287.9000     18.2018   -219.7734     15.8286    132.2998
  1288.0000     18.3200   -219.4336     15.8270    132.7677
  1288.1000     18.3200   -219.4336     15.8270    133.2911
  1288.2000     18.3200   -219.4336     15.8270    133.8468
  1288.3000     18.4909   -219.2283     15.9125    134.4147
  1288.4000     18.4909   -219.2283     15.9125    134.9815
  1288.5000     18.7020   -219.1886     16.0854    135.5369
  1288.6000     18.7020   -219.1886     16.0854    136.0690
  1288.7000     18.7020   -219.1886     16.0854    136.5599
  1288.8000     18.9663   -219.3656     16.3492    136.9821
  1288.9000     18.9663   -219.3656     16.3492    137.2917
  1289.0000     19.3234   -219.8278     16.7107    137.4305
  1289.1000     19.3234   -219.8278     16.7107    137.3257
  1289.2000     19.3234   -219.8278     16.7107    136.8949
  1289.3000     19.8360   -220.6540     17.1792    136.0520
  1289.4000     19.8360   -220.6540     17.1792    134.7190
  1289.5000     20.5849   -221.9215     17.7650    132.8311
  1289.6000     20.5849   -221.9215     17.7650    130.3449
  1289.7000     20.5849   -221.9215     17.7650    127.2402
  1289.8000     21.6701   -223.6925     18.4767    123.5245
  1289.9000     21.6701   -223.6925     18.4767    119.2302
  1290.0000     23.2217   -225.9970     19.3182    114.4094
  1290.1000     23.2217   -225.9970     19.3182    109.1305
  1290.2000     23.2217   -225.9970     19.3182    103.4726
  1290.3000     25.4133   -228.8185     20.2892     97.5233
  1290.4000     25.4133   -228.8185     20.2892     91.3751
  1290.5000     28.4581   -232.0814     21.3919     85.1243
  1290.6000     28.4581   -232.0814     21.3919     78.8684
  1290.7000     28.4581   -232.0814     21.3919     72.7058
  1290.8000     32.5595   -235.6427     22.6415     66.7316
  1290.9000     32.5595   -235.6427     22.6415     61.0340
  1291.0000     37.7880   -239.2908     24.0652     55.6906
  1291.1000     37.7880   -239.2908     24.0652     50.7622
  1291.2000     37.7880   -239.2908     24.0652     46.2910
  1291.3000     43.8844   -242.7536     25.6751     42.3008
  1291.4000     43.8844   -242.7536     25.6751     38.7976
  1291.5000     50.0856   -245.7155     27.4112     35.7756
  1291.6000     50.0856   -245.7155     27.4112     33.2225
  1291.7000     50.0856   -245.7155     27.4112     31.1266
  1291.8000     55.1740   -247.8465     29.0730     29.4807
  1291.9000     55.1740   -247.8465     29.0730     28.2880
  1292.0000     57.8791   -248.8397     30.3015     27.5578
  1292.1000     57.8791   -248.8397     30.3015     27.3056
  1292.2000     57.8791   -248.8397     30.3015     27.5500
  1292.3000     57.4733   -248.4548     30.6835     28.3106
  1292.4000     57.4733   -248.4548     30.6835     29.6047
  1292.5000     54.1560   -246.5588     29.9756     31.4487
  1292.6000     54.1560   -246.5588     29.9756     33.8534
  1292.7000     54.1560   -246.5588     29.9756     36.8251
  1292.8000     48.9233   -243.1566     28.2722     40.3638
  1292.9000     48.9233   -243.1566     28.2722     44.4599
  1293.0000     43.0191   -238.4019     25.9442     49.0922
  1293.1000     43.0191   -238.4019     25.9442     54.2252
  1293.2000     43.0191   -238.4019     25.9442     59.8072
  1293.3000     37.3740   -232.5831     23.4213     65.7698
  1293.4000     37.3740   -232.5831     23.4213     72.0296
  1293.5000     32.3830   -226.0856     21.0204     78.4903
  1293.6000     32.3830   -226.0856     21.0204     85.0443
  1293.7000     32.3830   -226.0856     21.0204     91.5784
  1293.8000     28.0561   -219.3369     18.9033     97.9771
  1293.9000     28.0561   -219.3369     18.9033    104.1280
  1294.0000     24.2991   -212.7477     17.1129    109.9303
  1294.1000     24.2991   -212.7477     17.1129    115.2946
  1294.2000     24.2991   -212.7477     17.1129    120.1502
  1294.3000     21.0780   -206.6601     15.6276    124.4462
  1294.4000     21.0780   -206.6601     15.6276    128.1471
  1294.5000     18.4134   -201.3148     14.4041    131.2297
  1294.6000     18.4134   -201.3148     14.4041    133.6802
  1294.7000     18.4134   -201.3148     14.4041    135.4869
  1294.8000     16.3138   -196.8394     13.4005    136.6424
  1294.9000     16.3138   -196.8394     13.4005    137.1426
  1295.0000     14.7468   -193.2573     12.5834    136.9938
  1295.1000     14.7468   -193.2573     12.5834    136.2165
  1295.2000     14.7468   -193.2573     12.5834    134.8518
  1295.3000     13.6558   -190.5094     11.9258    132.9637
  1295.4000     13.6558   -190.5094     11.9258    130.6423
  1295.5000     12.9756   -188.4827     11.4036    127.9958
  1295.6000     12.9756   -188.4827     11.4036    125.1493
  1295.7000     12.9756   -188.4827     11.4036    122.2357
  1295.8000     12.6264   -187.0382     10.9952    119.3888
  1295.9000     12.6264   -187.0382     10.9952    116.7340
  1296.0000     12.5054   -186.0341     10.6819    114.3808
  1296.1000     12.5054   -186.0341     10.6819    112.4182
  1296.2000     12.5054   -186.0341     10.6819    110.9005
  1296.3000     12.5018   -185.3434     10.4497    109.8538
  1296.4000     12.5018   -185.3434     10.4497    109.2668
  1296.5000     12.5274   -184.8636     10.2887    109.1007
  1296.6000     12.5274   -184.8636     10.2887    109.2955
  1296.7000     12.5274   -184.8636     10.2887    109.7858
  1296.8000     12.5350   -184.5218     10.1912    110.5135
  1296.9000     12.5350   -184.5218     10.1912    111.4376
  1297.0000     12.5105   -184.2736     10.1492    112.5391
  1297.1000     12.5105   -184.2736     10.1492    113.8209
  1297.2000     12.5105   -184.2736     10.1492    115.3001
  1297.3000     12.4572   -184.0985     10.1539    116.9963
  1297.4000     12.4572   -184.0985     10.1539    118.9145
  1297.5000     12.3913   -183.9933     10.1978    121.0385
  1297.6000     12.3913   -183.9933     10.1978    123.3216
  1297.7000     12.3913   -183.9933     10.1978    125.6893
  1297.8000     12.3432   -183.9638     10.2781    128.0430
  1297.9000     12.3432   -183.9638     10.2781    130.2723
  1298.0000     12.3554   -184.0179     10.3995    132.2722
  1298.1000     12.3554   -184.0179     10.3995    133.9491
  1298.2000     12.3554   -184.0179     10.3995    135.2404
  1298.3000     12.4704   -184.1607     10.5724    136.1147
  1298.4000     12.4704   -184.1607     10.5724    136.5730
  1298.5000     12.7140   -184.3907     10.8084    136.6449
  1298.6000     12.7140   -184.3907     10.8084    136.3775
  1298.7000     12.7140   -184.3907     10.8084    135.8265
  1298.8000     13.0827   -184.6990     11.1135    135.0450
  1298.9000     13.0827   -184.6990     11.1135    134.0739
  1299.0000     13.5436   -185.0693     11.4836    132.9427
  1299.1000     13.5436   -185.0693     11.4836    131.6683
  1299.2000     13.5436   -185.0693     11.4836    130.2590
  1299.3000     14.0474   -185.4810     11.9038    128.7215
  1299.4000     14.0474   -185.4810     11.9038    127.0685
  1299.5000     14.5487   -185.9120     12.3532    125.3231
  1299.6000     14.5487   -185.9120     12.3532    123.5239
  1299.7000     14.5487   -185.9120     12.3532    121.7215
  1299.8000     15.0248   -186.3431     12.8136    119.9773
  1299.9000     15.0248   -186.3431     12.8136    118.3562
  1300.0000     15.4794   -186.7621     13.2758    116.9157
  1300.1000     15.4794   -186.7621     13.2758    115.7032
  1300.2000     15.4794   -186.7621     13.2758    114.7441
  1300.3000     15.9277   -187.1667     13.7394    114.0417
