~Version Information
VERS.                      2.0: CWLS Log ASCII Standard - VERSION 2.0
WRAP.                       NO: One line per depth step
~Well Information Block
STRT.FT               768.0000: 
STOP.FT              2635.5000: 
STEP.FT                 0.1000: 
NULL.                -999.2500: 
COMP.          Pioneer Natural Resources: COMPANY
WELL.               Zink 44-10: WELL
FLD.           Purgatoire River: FIELD
LOC.           548' FSL & 473' FEL: LOCATION
PROV.                 Colorado: PROVINCE
CNTY.               Las Animas: COUNTRY
SRVC.                Patterson: SERVICE COMPANY
DATE.          Tue May 31 07:05:25 2005: LOG DATE
UWI.           05 071 08380 00: UNIQUE WELL ID
~Curve Information Block
DEPT.FT            0 000 00 00: Depth
DCAL.in                       : CDL Caliper
RHOB.g/cc                     : CDL Bulk Density
RHOC.g/cc                     : CDL Density Correction
DPOR.pu                       : CDL Density Porosity
GR.GAPI                       : Gamma Ray
NPOR.pu                       : Neutron Porosity
~Parameter Information Block
~A  Depth       DCAL        RHOB        RHOC        DPOR         GR         NPOR    
# ...
  2246.4000      7.9560      2.6611      0.1096     -0.6754     51.0849     17.8753
  2246.5000      7.9348      2.6455      0.0477      0.2726     50.4762     17.7591
  2246.6000      7.9348      2.6267      0.1048      1.4147     52.6314     18.2337
  2246.7000      7.9348      2.6122      0.0584      2.2909     53.6636     19.1336
  2246.8000      7.9313      2.6026      0.0297      2.8728     51.7214     19.8041
  2246.9000      7.9313      2.5937      0.0521      3.4105     49.1575     19.1994
  2247.0000      7.9502      2.5811      0.0626      4.1731     46.9415     17.8208
  2247.1000      7.9502      2.5802      0.0060      4.2327     45.9650     17.1983
  2247.2000      7.9502      2.6067      0.0378      2.6270     46.2479     17.7377
  2247.3000      7.9505      2.6476      0.0597      0.1468     45.5291     18.3624
  2247.4000      7.9505      2.6745      0.1554     -1.4845     45.0443     18.1708
  2247.5000      7.9489      2.6762      0.1049     -1.5893     45.9456     17.4804
  2247.6000      7.9489      2.6656      0.1481     -0.9455     46.5644     16.8580
  2247.7000      7.9489      2.6478      0.0751      0.1354     46.1706     16.7035
  2247.8000      7.9418      2.6235      0.0438      1.6049     43.4855     16.8909
  2247.9000      7.9418      2.6001      0.0886      3.0228     38.9158     16.5788
  2248.0000      7.9370      2.5757      0.0692      4.5049     36.5448     15.6442
  2248.1000      7.9370      2.5564      0.0682      5.6745     38.6209     15.1713
  2248.2000      7.9370      2.5592      0.0399      5.5030     43.9347     15.4735
  2248.3000      7.9645      2.5772      0.1156      4.4099     48.9356     15.6721
  2248.4000      7.9645      2.5909      0.0944      3.5810     50.5743     15.2905
  2248.5000      8.0098      2.6009      0.0658      2.9731     49.2735     14.9261
  2248.6000      8.0098      2.6135      0.0733      2.2106     46.0995     15.0915
  2248.7000      8.0098      2.6276      0.0491      1.3597     42.6047     15.3306
  2248.8000      8.0281      2.6468      0.0650      0.1922     40.2686     15.1672
  2248.9000      8.0281      2.6687      0.1174     -1.1321     38.7203     15.1951
  2249.0000      8.0194      2.6731      0.1239     -1.4015     38.8633     15.6772
  2249.1000      8.0194      2.6529      0.0745     -0.1778     42.0303     16.0311
  2249.2000      8.0194      2.6278      0.1031      1.3450     44.4814     16.1147
  2249.3000      7.9851      2.6147      0.1114      2.1390     43.1108     16.3056
  2249.4000      7.9851      2.6095      0.1137      2.4517     41.1077     16.7620
  2249.5000      7.9752      2.6112      0.0732      2.3543     39.5710     17.1342
  2249.6000      7.9752      2.6220      0.1225      1.6973     37.3835     17.2136
  2249.7000      7.9752      2.6235      0.1342      1.6041     36.0744     17.2006
  2249.8000      7.9696      2.6078      0.0894      2.5601     35.9800     16.8816
  2249.9000      7.9696      2.5917      0.0897      3.5322     37.1667     16.3312
  2250.0000      7.9718      2.5815      0.0992      4.1514     39.0471     15.8649
  2250.1000      7.9718      2.5797      0.0285      4.2620     37.6472     15.3060
  2250.2000      7.9718      2.5929      0.0940      3.4593     34.0136     14.9434
  2250.3000      7.9867      2.6072      0.1253      2.5947     34.0304     15.4045
  2250.4000      7.9867      2.6096      0.0699      2.4468     36.7527     16.6023
  2250.5000      7.9885      2.6052      0.0716      2.7146     37.5781     17.9906
  2250.6000      7.9885      2.5993      0.0841      3.0700     35.7785     19.4413
  2250.7000      7.9885      2.5941      0.1018      3.3871     32.0438     20.2573
  2250.8000      7.9889      2.5946      0.0798      3.3566     29.7415     19.7124
  2250.9000      7.9889      2.6004      0.1404      3.0055     32.3329     18.7984
  2251.0000      7.9107      2.5965      0.0777      3.2410     36.1395     18.4531
  2251.1000      7.9107      2.5797      0.0630      4.2615     35.1035     18.1088
  2251.2000      7.9107      2.5674      0.0490      5.0076     30.7808     17.5243
  2251.3000      7.9441      2.5714      0.1046      4.7643     28.9476     17.4149
  2251.4000      7.9441      2.5776      0.1196      4.3906     30.1796     17.6482
  2251.5000      7.9791      2.5761      0.0373      4.4776     31.3596     17.7803
  2251.6000      7.9791      2.5834      0.0490      4.0392     31.6884     17.9331
  2251.7000      7.9791      2.6016      0.0752      2.9315     32.2186     17.6977
  2251.8000      7.9767      2.6140      0.0768      2.1810     32.0886     16.7926
  2251.9000      7.9767      2.6173      0.0397      1.9791     30.9216     15.9850
  2252.0000      7.9844      2.6137      0.1022      2.2006     30.2917     15.7303
  2252.1000      7.9844      2.5959      0.1041      3.2808     30.7547     15.6991
  2252.2000      7.9844      2.5655      0.0705      5.1200     31.2424     15.6741
  2252.3000      7.9940      2.5404      0.0117      6.6428     31.4129     15.6768
  2252.4000      7.9940      2.5267      0.0434      7.4757     32.3585     15.6060
  2252.5000      7.9929      2.5123      0.0268      8.3450     34.1273     15.5846
  2252.6000      7.9929      2.4979      0.0143      9.2154     36.5988     15.9757
  2252.7000      7.9929      2.4947     -0.0028      9.4148     39.5311     16.5349
  2252.8000      7.9921      2.4986      0.0486      9.1752     41.3338     16.5246
  2252.9000      7.9921      2.4949      0.0480      9.3979     41.8133     16.0540
  2253.0000      7.9585      2.4888     -0.0056      9.7692     42.5178     16.1502
  2253.1000      7.9585      2.5014      0.0651      9.0087     43.1236     17.4413
  2253.2000      7.9585      2.5362      0.0609      6.8941     42.9607     19.2958
  2253.3000      7.9579      2.5739      0.1625      4.6100     43.2886     20.6936
  2253.4000      7.9579      2.5928      0.1619      3.4648     44.2942     21.5051
  2253.5000      7.9507      2.5972      0.1156      3.2009     46.2918     21.8018
  2253.6000      7.9507      2.6053      0.1506      2.7097     49.0631     21.4566
  2253.7000      7.9507      2.6224      0.1478      1.6729     48.8833     20.8235
  2253.8000      7.8976      2.6400      0.1554      0.6051     45.9450     20.5113
  2253.9000      7.8976      2.6472      0.1382      0.1682     44.6431     20.8115
  2254.0000      7.9033      2.6392      0.1532      0.6545     45.5245     21.1512
  2254.1000      7.9033      2.6193      0.1234      1.8630     46.8699     20.6451
  2254.2000      7.9033      2.6024      0.0886      2.8831     48.1027     19.4828
  2254.3000      7.9567      2.6038      0.0973      2.8018     48.0555     18.1975
  2254.4000      7.9567      2.6226      0.1215      1.6583     45.7235     16.7113
  2254.5000      7.9737      2.6457      0.1030      0.2608     41.3065     15.3303
  2254.6000      7.9737      2.6568      0.0756     -0.4093     38.2103     14.7889
  2254.7000      7.9737      2.6462      0.1128      0.2313     39.4244     14.9308
  2254.8000      7.9627      2.6256      0.0575      1.4778     41.4238     14.8050
  2254.9000      7.9627      2.6118      0.1256      2.3142     40.4156     14.1391
  2255.0000      7.9378      2.5971      0.0854      3.2075     38.7316     13.7151
  2255.1000      7.9378      2.5716      0.0472      4.7524     39.4971     13.9317
  2255.2000      7.9378      2.5444      0.0670      6.4004     39.4500     14.4371
  2255.3000      7.9558      2.5314      0.0078      7.1895     36.6878     14.8444
  2255.4000      7.9558      2.5473      0.0154      6.2239     36.9906     15.0479
  2255.5000      7.9554      2.5949      0.0467      3.3372     40.3948     15.5655
  2255.6000      7.9554      2.6532      0.1021     -0.1962     39.9516     17.0522
  2255.7000      7.9554      2.6902      0.1260     -2.4358     36.0117     18.7801
  2255.8000      7.9500      2.6881      0.0939     -2.3081     33.5413     19.4066
  2255.9000      7.9500      2.6631      0.1131     -0.7909     33.5662     19.0734
