~Version Information
VERS.                      2.0: CWLS Log ASCII Standard - VERSION 2.0
WRAP.                       NO: One line per depth step
~Well Information Block
STRT.FT               577.8000: 
STOP.FT              2445.8000: 
STEP.FT                 0.1000: 
NULL.                -999.2500: 
COMP.          Petrogulf Corporation: COMPANY
WELL.             State 16-32V: WELL
FLD.           Purgatorie River: FIELD
LOC.           1599' FNL & 1783' FEL: LOCATION
CNTY.               Las Animas: COUNTY
SRVC.                         : SERVICE COMPANY
DATE.          Thu Jun 05 16:36:04 2003: LOG DATE
UWI.           05 071 07726 00: UNIQUE WELL ID
STAT.                 Colorado: STATE
~Curve Information Block
DEPT.FT            0 000 00 00: Depth
DCAL.in                       : Caliper from Density Tool
RHOB.g/cc                     : Bulk Density
RHOC.g/cc                     : Density Correction
DPOR.pu                       : Density Porosity
GR.GAPI                       : Gamma Ray
NPOR.pu                       : Neutron Porosity
~Parameter Information Block
~A  Depth       DCAL        RHOB        RHOC        DPOR         GR         NPOR    
# ...
  1326.6000      8.0336      2.5223      0.0618      7.7391    101.1007     26.9478
  1326.7000      8.0336      2.5223      0.0618      7.7391     99.7391     26.7615
  1326.8000      8.0427      2.5267      0.0653      7.4700     98.5242     26.6101
  1326.9000      8.0427      2.5267      0.0653      7.4700     97.4427     26.4945
  1327.0000      8.0536      2.5287      0.0693      7.3538     96.4806     26.4138
  1327.1000      8.0536      2.5287      0.0693      7.3538     95.6316     26.3657
  1327.2000      8.0536      2.5287      0.0693      7.3538     94.9064     26.3489
  1327.3000      8.0822      2.5306      0.0768      7.2363     94.3329     26.3639
  1327.4000      8.0822      2.5306      0.0768      7.2363     93.9573     26.4135
  1327.5000      8.1149      2.5311      0.0817      7.2031     93.8340     26.5027
  1327.6000      8.1149      2.5311      0.0817      7.2031     94.0186     26.6367
  1327.7000      8.1149      2.5311      0.0817      7.2031     94.5541     26.8196
  1327.8000      8.1082      2.5299      0.0868      7.2765     95.4645     27.0523
  1327.9000      8.1082      2.5299      0.0868      7.2765     96.7502     27.3310
  1328.0000      8.0771      2.5272      0.0875      7.4439     98.3860     27.6465
  1328.1000      8.0771      2.5272      0.0875      7.4439    100.3262     27.9855
  1328.2000      8.0771      2.5272      0.0875      7.4439    102.5055     28.3317
  1328.3000      8.1022      2.5198      0.0847      7.8891    104.8492     28.6680
  1328.4000      8.1022      2.5198      0.0847      7.8891    107.2742     28.9792
  1328.5000      8.1530      2.5134      0.0808      8.2800    109.6927     29.2540
  1328.6000      8.1530      2.5134      0.0808      8.2800    112.0180     29.4852
  1328.7000      8.1530      2.5134      0.0808      8.2800    114.1654     29.6709
  1328.8000      8.1751      2.5035      0.0742      8.8771    116.0562     29.8127
  1328.9000      8.1751      2.5035      0.0742      8.8771    117.6236     29.9145
  1329.0000      8.1598      2.4984      0.0702      9.1866    118.8170     29.9808
  1329.1000      8.1598      2.4984      0.0702      9.1866    119.6079     30.0158
  1329.2000      8.1598      2.4984      0.0702      9.1866    119.9908     30.0215
  1329.3000      8.1328      2.4955      0.0670      9.3633    119.9840     29.9983
  1329.4000      8.1328      2.4955      0.0670      9.3633    119.6255     29.9454
  1329.5000      8.0453      2.4978      0.0677      9.2248    118.9661     29.8616
  1329.6000      8.0453      2.4978      0.0677      9.2248    118.0626     29.7467
  1329.7000      8.0453      2.4978      0.0677      9.2248    116.9729     29.6027
  1329.8000      7.9515      2.5078      0.0748      8.6157    115.7497     29.4348
  1329.9000      7.9515      2.5078      0.0748      8.6157    114.4408     29.2513
  1330.0000      7.9265      2.5177      0.0837      8.0167    113.0911     29.0636
  1330.1000      7.9265      2.5177      0.0837      8.0167    111.7448     28.8846
  1330.2000      7.9265      2.5177      0.0837      8.0167    110.4480     28.7273
  1330.3000      7.9574      2.5328      0.1003      7.1009    109.2496     28.6037
  1330.4000      7.9574      2.5328      0.1003      7.1009    108.1964     28.5231
  1330.5000      8.0009      2.5400      0.1104      6.6677    107.3318     28.4916
  1330.6000      8.0009      2.5400      0.1104      6.6677    106.6881     28.5122
  1330.7000      8.0009      2.5400      0.1104      6.6677    106.2840     28.5845
  1330.8000      8.0102      2.5428      0.1190      6.4955    106.1216     28.7059
  1330.9000      8.0102      2.5428      0.1190      6.4955    106.1866     28.8721
  1331.0000      8.0262      2.5395      0.1191      6.6951    106.4570     29.0772
  1331.1000      8.0262      2.5395      0.1191      6.6951    106.9039     29.3144
  1331.2000      8.0262      2.5395      0.1191      6.6951    107.5011     29.5759
  1331.3000      8.0154      2.5304      0.1124      7.2478    108.2270     29.8535
  1331.4000      8.0154      2.5304      0.1124      7.2478    109.0698     30.1386
  1331.5000      7.9921      2.5246      0.1062      7.6002    110.0225     30.4233
  1331.6000      7.9921      2.5246      0.1062      7.6002    111.0847     30.7008
  1331.7000      7.9921      2.5246      0.1062      7.6002    112.2537     30.9661
  1331.8000      7.9796      2.5201      0.0992      7.8699    113.5224     31.2159
  1331.9000      7.9796      2.5201      0.0992      7.8699    114.8736     31.4486
  1332.0000      8.0079      2.5204      0.0978      7.8547    116.2790     31.6644
  1332.1000      8.0079      2.5204      0.0978      7.8547    117.7019     31.8638
  1332.2000      8.0079      2.5204      0.0978      7.8547    119.0988     32.0475
  1332.3000      8.0140      2.5233      0.1007      7.6810    120.4280     32.2161
  1332.4000      8.0140      2.5233      0.1007      7.6810    121.6545     32.3702
  1332.5000      8.0233      2.5249      0.1054      7.5798    122.7586     32.5102
  1332.6000      8.0233      2.5249      0.1054      7.5798    123.7364     32.6374
  1332.7000      8.0233      2.5249      0.1054      7.5798    124.5990     32.7539
  1332.8000      8.0203      2.5249      0.1158      7.5844    125.3716     32.8631
  1332.9000      8.0203      2.5249      0.1158      7.5844    126.0828     32.9698
  1333.0000      7.9768      2.5225      0.1247      7.7248    126.7624     33.0797
  1333.1000      7.9768      2.5225      0.1247      7.7248    127.4322     33.1987
  1333.2000      7.9768      2.5225      0.1247      7.7248    128.1072     33.3319
  1333.3000      7.9958      2.5150      0.1397      8.1800    128.7943     33.4840
  1333.4000      7.9958      2.5150      0.1397      8.1800    129.4951     33.6574
  1333.5000      8.0558      2.5068      0.1488      8.6807    130.2090     33.8530
  1333.6000      8.0558      2.5068      0.1488      8.6807    130.9348     34.0698
  1333.7000      8.0558      2.5068      0.1488      8.6807    131.6729     34.3052
  1333.8000      8.0367      2.4887      0.1568      9.7747    132.4238     34.5555
  1333.9000      8.0367      2.4887      0.1568      9.7747    133.1862     34.8165
  1334.0000      8.0349      2.4732      0.1561     10.7170    133.9571     35.0840
  1334.1000      8.0349      2.4732      0.1561     10.7170    134.7313     35.3539
  1334.2000      8.0349      2.4732      0.1561     10.7170    135.4995     35.6229
  1334.3000      8.0960      2.4469      0.1455     12.3062    136.2525     35.8883
  1334.4000      8.0960      2.4469      0.1455     12.3062    136.9820     36.1480
  1334.5000      8.1391      2.4300      0.1340     13.3360    137.6810     36.4005
  1334.6000      8.1391      2.4300      0.1340     13.3360    138.3441     36.6447
  1334.7000      8.1391      2.4300      0.1340     13.3360    138.9682     36.8803
  1334.8000      8.0939      2.4099      0.1164     14.5535    139.5534     37.1071
  1334.9000      8.0939      2.4099      0.1164     14.5535    140.1028     37.3251
  1335.0000      8.0442      2.4018      0.1082     15.0413    140.6229     37.5351
  1335.1000      8.0442      2.4018      0.1082     15.0413    141.1224     37.7377
  1335.2000      8.0442      2.4018      0.1082     15.0413    141.6153     37.9335
  1335.3000      8.0329      2.3962      0.1047     15.3813    142.1157     38.1227
  1335.4000      8.0329      2.3962      0.1047     15.3813    142.6374     38.3048
  1335.5000      8.0067      2.3923      0.1075     15.6181    143.1869     38.4780
  1335.6000      8.0067      2.3923      0.1075     15.6181    143.7624     38.6392
  1335.7000      8.0067      2.3923      0.1075     15.6181    144.3471     38.7842
  1335.8000      7.9984      2.3731      0.1146     16.7833    144.9120     38.9074
  1335.9000      7.9984      2.3731      0.1146     16.7833    145.4153     39.0029
  1336.0000      8.0164      2.3425      0.1188     18.6344    145.8074     39.0648
  1336.1000      8.0164      2.3425      0.1188     18.6344    146.0372     39.0880
