~Version Information
VERS.                      2.0: CWLS Log ASCII Standard - VERSION 2.0
WRAP.                       NO: One line per depth step
~Well Information Block
STRT.FT               440.0000: 
STOP.FT              2735.2000: 
STEP.FT                 0.1000: 
NULL.                -999.2500: 
COMP.          Pioneer Natural Resources: COMPANY
WELL.              Cluck 21-25: WELL
FLD.           Purgatoire River: FIELD
LOC.           91' FNL & 1834' FWL--: LOCATION
PROV.                 Colorado: PROVINCE
CNTY.               Las Animas: COUNTRY
SRVC.                Patterson: SERVICE COMPANY
DATE.          Tue Jun 07 07:26:19 2005: LOG DATE
UWI.           05 071 08397 00: UNIQUE WELL ID
~Curve Information Block
DEPT.FT            0 000 00 00: Depth
DCAL.in                       : CDL Caliper
RHOB.g/cc                     : CDL Bulk Density
RHOC.g/cc                     : CDL Density Correction
DPOR.pu                       : CDL Density Porosity
NPOR.pu                       : Neutron Porosity
GR.GAPI                       : Gamma Ray
~Parameter Information Block
SNDERRM.mmho-m          0.0000: Medium Sonde Error Correction
~A  Depth       DCAL        RHOB        RHOC        DPOR        NPOR         GR     
# ...
  2408.0000      7.9049      2.6194      0.0442      1.8575     19.8745     70.1587
  2408.1000      7.9049      2.6143      0.0486      2.1608     19.4818     68.4753
  2408.2000      7.9049      2.6097      0.0786      2.4433     19.5291     69.1332
  2408.3000      7.9092      2.6022      0.0430      2.8969     19.4826     69.5758
  2408.4000      7.9092      2.6012      0.0572      2.9585     19.5129     64.2486
  2408.5000      7.9093      2.6099      0.0434      2.4273     19.8514     58.9768
  2408.6000      7.9093      2.6226      0.0537      1.6586     20.0245     62.6850
  2408.7000      7.9093      2.6287      0.0427      1.2934     19.7266     70.9617
  2408.8000      7.9039      2.6145      0.0886      2.1512     19.4249     72.1573
  2408.9000      7.9039      2.5824      0.0456      4.0959     19.4413     64.8581
  2409.0000      7.8999      2.5588      0.0080      5.5273     19.7408     58.0255
  2409.1000      7.8999      2.5578      0.0298      5.5892     20.2845     58.4494
  2409.2000      7.8999      2.5634      0.0348      5.2473     20.7725     64.2331
  2409.3000      7.8983      2.5618     -0.0122      5.3467     20.9345     67.7911
  2409.4000      7.8983      2.5617     -0.0010      5.3536     20.8615     67.9888
  2409.5000      7.8951      2.5737      0.0533      4.6252     20.7523     69.0135
  2409.6000      7.8951      2.5879      0.0407      3.7640     20.7441     69.0043
  2409.7000      7.8951      2.5880      0.0574      3.7560     20.8683     64.6194
  2409.8000      7.8899      2.5776      0.0107      4.3869     20.9156     59.2020
  2409.9000      7.8899      2.5782      0.0135      4.3516     20.5222     57.6006
  2410.0000      7.8854      2.5946      0.0566      3.3560     19.7111     57.7154
  2410.1000      7.8854      2.6069      0.0887      2.6095     19.2176     53.7893
  2410.2000      7.8854      2.6069      0.0262      2.6124     19.2882     48.8829
  2410.3000      7.8812      2.6059      0.0603      2.6745     19.4931     51.7979
  2410.4000      7.8812      2.6105      0.0255      2.3956     19.6787     60.1395
  2410.5000      7.8773      2.6202      0.0602      1.8056     19.9852     65.8626
  2410.6000      7.8773      2.6326      0.0401      1.0540     20.3317     68.2483
  2410.7000      7.8773      2.6432      0.0889      0.4096     20.5163     66.1678
  2410.8000      7.8752      2.6420      0.0823      0.4849     20.7376     61.3537
  2410.9000      7.8752      2.6230      0.0596      1.6378     21.1129     61.6087
  2411.0000      7.8735      2.5921      0.0306      3.5088     21.2935     67.4268
  2411.1000      7.8735      2.5634      0.0309      5.2515     21.2701     71.1766
  2411.2000      7.8735      2.5545     -0.0155      5.7882     21.2259     71.9333
  2411.3000      7.8699      2.5749      0.0182      4.5512     21.2428     72.0464
  2411.4000      7.8699      2.6055      0.0581      2.6993     21.6765     69.6898
  2411.5000      7.8660      2.6186      0.0623      1.9053     22.6669     65.6992
  2411.6000      7.8660      2.6137      0.0307      2.2004     23.7505     66.5555
  2411.7000      7.8660      2.6021      0.0551      2.9031     24.3558     75.6265
  2411.8000      7.8660      2.5911      0.0183      3.5668     24.1901     86.8197
  2411.9000      7.8660      2.5896      0.0574      3.6586     23.7816     91.3643
  2412.0000      7.8682      2.5954      0.0414      3.3066     24.1052     88.5194
  2412.1000      7.8682      2.5920      0.0617      3.5139     25.1531     86.0933
  2412.2000      7.8682      2.5677      0.0462      4.9883     26.0252     89.9314
  2412.3000      7.8678      2.5412     -0.0178      6.5931     26.4166     98.9992
  2412.4000      7.8678      2.5302      0.0345      7.2617     26.7388    111.8854
  2412.5000      7.8681      2.5193      0.0326      7.9192     26.8084    125.7441
  2412.6000      7.8681      2.4980      0.0342      9.2150     26.3743    132.6199
  2412.7000      7.8681      2.4778      0.0050     10.4367     26.2776    131.4574
  2412.8000      7.8722      2.4670      0.0223     11.0915     26.8801    131.2298
  2412.9000      7.8722      2.4604      0.0246     11.4894     27.5510    134.5757
  2413.0000      7.8758      2.4549      0.0098     11.8225     27.9835    137.7943
  2413.1000      7.8758      2.4490      0.0143     12.1824     28.1702    142.0048
  2413.2000      7.8758      2.4439      0.0126     12.4934     27.9967    144.7375
  2413.3000      7.8780      2.4464      0.0229     12.3365     27.8184    140.4451
  2413.4000      7.8780      2.4518      0.0735     12.0127     28.0277    132.7240
  2413.5000      7.8827      2.4497      0.0383     12.1412     28.0049    131.7145
  2413.6000      7.8827      2.4523      0.0411     11.9807     27.3088    140.9233
  2413.7000      7.8827      2.4772      0.0563     10.4710     26.6358    152.5190
  2413.8000      7.8909      2.5159      0.0840      8.1260     26.3213    152.5609
  2413.9000      7.8909      2.5511      0.0820      5.9959     25.9119    136.0001
  2414.0000      7.8980      2.5760      0.1185      4.4879     25.5578    116.9565
  2414.1000      7.8980      2.5825      0.1130      4.0901     25.5771    108.9789
  2414.2000      7.8980      2.5661      0.1257      5.0846     25.5938    110.4127
  2414.3000      7.8991      2.5437      0.0445      6.4408     25.5062    115.1495
  2414.4000      7.8991      2.5352      0.0771      6.9591     25.6557    116.6727
  2414.5000      7.8922      2.5372      0.0315      6.8337     25.9953    113.2225
  2414.6000      7.8922      2.5404      0.0671      6.6450     26.1682    109.6831
  2414.7000      7.8922      2.5415      0.0025      6.5744     26.1846    108.2501
  2414.8000      7.8800      2.5424      0.0518      6.5216     26.3790    110.3332
  2414.9000      7.8800      2.5425      0.0651      6.5146     26.8241    117.0831
  2415.0000      7.8726      2.5438      0.0344      6.4349     27.0208    124.9361
  2415.1000      7.8726      2.5463      0.0842      6.2843     26.6265    131.6598
  2415.2000      7.8726      2.5402      0.0627      6.6547     26.1473    134.2189
  2415.3000      7.8716      2.5234      0.0610      7.6734     25.9444    126.8678
  2415.4000      7.8716      2.5084      0.0141      8.5791     25.7312    111.9786
  2415.5000      7.8737      2.5079      0.0471      8.6094     25.5667    100.3113
  2415.6000      7.8737      2.5213      0.0459      7.7972     25.6699     99.9520
  2415.7000      7.8737      2.5369      0.0628      6.8573     26.0638    104.5827
  2415.8000      7.8766      2.5385      0.0560      6.7552     26.8037    106.8617
  2415.9000      7.8766      2.5213      0.0588      7.7995     27.4358    111.3723
  2416.0000      7.8756      2.4976      0.0075      9.2358     27.3390    118.0093
  2416.1000      7.8756      2.4730      0.0818     10.7298     27.0382    120.8925
  2416.2000      7.8756      2.4340      0.0585     13.0911     27.1364    120.6594
  2416.3000      7.8719      2.3851     -0.0130     16.0567     27.1858    121.4083
  2416.4000      7.8719      2.3471      0.0194     18.3563     27.2586    123.0853
  2416.5000      7.8704      2.3310     -0.0228     19.3357     27.7327    122.7266
  2416.6000      7.8704      2.3411      0.0034     18.7234     28.2091    121.4641
  2416.7000      7.8704      2.3635      0.0665     17.3615     28.3417    120.7578
  2416.8000      7.8689      2.3747      0.0603     16.6842     28.1500    119.6593
  2416.9000      7.8689      2.3778      0.0452     16.4982     27.4167    120.1970
  2417.0000      7.8656      2.3915      0.0831     15.6673     26.1657    122.5399
  2417.1000      7.8656      2.4228      0.0979     13.7669     25.4564    121.8933
  2417.2000      7.8656      2.4699      0.1209     10.9123     25.8343    118.6029
  2417.3000      7.8622      2.5261      0.1298      7.5097     26.1555    116.4528
  2417.4000      7.8622      2.5736      0.1959      4.6304     25.7511    115.9461
  2417.5000      7.8602      2.5990      0.1113      3.0900     25.5783    118.6813
