~Version Information
VERS.                      2.0: CWLS Log ASCII Standard - VERSION 2.0
WRAP.                       NO: One line per depth step
~Well Information Block
STRT.FT               806.0000: 
STOP.FT              1812.2000: 
STEP.FT                 0.1000: 
NULL.                -999.2500: 
COMP.          Pioneer Natural Resources: COMPANY
WELL.            Hill 33-22 Tr: WELL
FLD.           Purgatoire River: FIELD
LOC.           1573' FSL & 1585' FEL: LOCATION
PROV.                 Colorado: PROVINCE
CNTY.               Las Animas: COUNTRY
SRVC.                Patterson: SERVICE COMPANY
DATE.          Thu Apr 14 12:25:33 2005: LOG DATE
UWI.           05 071 08316 00: UNIQUE WELL ID
~Curve Information Block
DEPT.FT            0 000 00 00: Depth
DCAL.in                       : CDL Caliper
RHOB.g/cc                     : CDL Bulk Density
RHOC.g/cc                     : CDL Density Correction
DPOR.pu                       : CDL Density Porosity
GR.GAPI                       : Gamma Ray
NPOR.pu                       : Neutron Porosity
~Parameter Information Block
~A  Depth       DCAL        RHOB        RHOC        DPOR         GR         NPOR    
# ...
  1535.6000      8.0074      2.5098     -0.0597      8.4983    129.4555     26.5412
  1535.7000      8.0074      2.5052     -0.0214      8.7750    138.8544     27.6146
  1535.8000      7.9904      2.5045     -0.0210      8.8205    145.5426     28.3739
  1535.9000      7.9904      2.5168      0.0055      8.0755    146.8406     28.8436
  1536.0000      8.0055      2.5425      0.0207      6.5131    145.5926     29.1272
  1536.1000      8.0055      2.5688      0.0218      4.9214    145.5703     29.0918
  1536.2000      8.0055      2.5792      0.0211      4.2885    147.1131     28.4932
  1536.3000      7.9814      2.5683      0.0648      4.9537    148.4973     27.7213
  1536.4000      7.9814      2.5443      0.0010      6.4038    144.5060     27.2707
  1536.5000      7.9888      2.5200     -0.0133      7.8777    132.0285     27.2826
  1536.6000      7.9888      2.4994     -0.0349      9.1298    118.1791     27.6402
  1536.7000      7.9888      2.4891     -0.0404      9.7495    112.9233     27.8682
  1536.8000      8.0092      2.4995      0.0291      9.1185    118.3067     27.8580
  1536.9000      8.0092      2.5158      0.1052      8.1313    128.8461     27.7183
  1537.0000      7.9995      2.5195      0.0434      7.9081    137.3729     27.4303
  1537.1000      7.9995      2.5216      0.0102      7.7831    141.3974     27.1136
  1537.2000      7.9995      2.5317      0.0928      7.1699    142.7722     26.5534
  1537.3000      7.9535      2.5452      0.0285      6.3515    141.5537     25.5634
  1537.4000      7.9535      2.5594      0.1313      5.4921    138.4512     24.7952
  1537.5000      7.9314      2.5661      0.0571      5.0833    137.7901     25.1459
  1537.6000      7.9314      2.5604      0.1184      5.4297    138.8983     26.3768
  1537.7000      7.9314      2.5482      0.0755      6.1723    139.1739     27.3984
  1537.8000      7.9270      2.5426      0.0700      6.5086    140.9301     27.9974
  1537.9000      7.9270      2.5457      0.0659      6.3217    143.2464     28.7872
  1538.0000      7.9806      2.5475      0.0563      6.2101    145.9515     29.6403
  1538.1000      7.9806      2.5404      0.1024      6.6405    151.2445     30.0120
  1538.2000      7.9806      2.5253      0.0785      7.5558    153.7114     29.9597
  1538.3000      8.0281      2.5184      0.0488      7.9729    148.8125     29.9855
  1538.4000      8.0281      2.5300      0.0557      7.2752    140.7630     30.1690
  1538.5000      7.9941      2.5488      0.1162      6.1325    137.2957     30.0461
  1538.6000      7.9941      2.5624      0.1052      5.3085    139.7989     29.4420
  1538.7000      7.9941      2.5687      0.1370      4.9257    140.6683     28.8418
  1538.8000      8.0578      2.5703      0.0549      4.8328    134.9024     28.6103
  1538.9000      8.0578      2.5672      0.0892      5.0155    125.7845     28.4160
  1539.0000      8.0318      2.5535      0.0380      5.8472    120.2243     28.0228
  1539.1000      8.0318      2.5357      0.0361      6.9261    123.5357     27.9962
  1539.2000      8.0318      2.5284      0.0769      7.3707    132.5255     28.3219
  1539.3000      8.0081      2.5300      0.0254      7.2739    136.2425     28.1507
  1539.4000      8.0081      2.5257      0.0694      7.5344    132.6103     28.0036
  1539.5000      7.9921      2.5045      0.0710      8.8173    130.6213     28.7279
  1539.6000      7.9921      2.4682      0.0648     11.0193    132.1322     29.6094
  1539.7000      7.9921      2.4245      0.0418     13.6673    130.5212     30.0487
  1539.8000      7.9860      2.3890      0.0509     15.8189    128.3454     30.4413
  1539.9000      7.9860      2.3816      0.0225     16.2696    132.6647     31.0294
  1540.0000      7.9821      2.3988      0.0745     15.2233    140.3215     31.3916
  1540.1000      7.9821      2.4110      0.0658     14.4851    146.6970     31.4022
  1540.2000      7.9821      2.4039      0.1001     14.9168    150.6352     31.1872
  1540.3000      8.0209      2.3905      0.0906     15.7252    149.6438     30.3670
  1540.4000      8.0209      2.3917      0.0886     15.6532    145.9885     29.2197
  1540.5000      8.0684      2.4229      0.0690     13.7617    143.5857     29.0482
  1540.6000      8.0684      2.4725      0.1249     10.7550    140.9747     29.6283
  1540.7000      8.0684      2.5050      0.0971      8.7900    135.5032     29.4161
  1540.8000      8.0343      2.5140      0.0380      8.2446    130.0878     28.2599
  1540.9000      8.0343      2.5311      0.0196      7.2048    129.4294     27.3774
  1541.0000      8.0200      2.5632      0.0979      5.2592    132.6750     27.4320
  1541.1000      8.0200      2.5769      0.0897      4.4318    135.5742     28.0200
  1541.2000      8.0200      2.5583      0.0851      5.5552    135.1619     28.2271
  1541.3000      8.0123      2.5358      0.0430      6.9230    132.4927     27.9656
  1541.4000      8.0123      2.5372      0.0522      6.8382    128.7858     28.1300
  1541.5000      7.9686      2.5450      0.1230      6.3635    125.1244     28.5338
  1541.6000      7.9686      2.5269      0.0675      7.4592    122.5642     28.0358
  1541.7000      7.9686      2.5019      0.0249      8.9769    121.7813     26.7615
  1541.8000      7.9659      2.4985      0.0585      9.1841    123.2303     26.1151
  1541.9000      7.9659      2.4982      0.0416      9.2027    123.4857     26.5181
  1542.0000      7.9676      2.4743      0.0336     10.6484    119.1833     27.3481
  1542.1000      7.9676      2.4262      0.0133     13.5610    113.7911     28.5419
  1542.2000      7.9676      2.3677     -0.0064     17.1092    110.1872     29.7958
  1542.3000      7.9841      2.3031     -0.0369     21.0224    106.0944     30.1524
  1542.4000      7.9841      2.2106     -0.0127     26.6302     99.4711     29.6137
  1542.5000      8.0165      2.0691     -0.0664     35.2089     91.9287     28.9198
  1542.6000      8.0165      1.9149     -0.1280     44.5518     88.7833     28.4517
  1542.7000      8.0165      1.8117     -0.1288     50.8076     90.9783     28.3372
  1542.8000      8.0851      1.7690     -0.0828     53.3951     92.4595     28.6151
  1542.9000      8.0851      1.7519     -0.1125     54.4312     91.6166     29.1756
  1543.0000      8.2578      1.7416     -0.0865     55.0537     91.4413     30.1077
  1543.1000      8.2578      1.7362     -0.0105     55.3796     88.8832     31.4028
  1543.2000      8.2578      1.7248      0.0830     56.0709     83.2225     32.7179
  1543.3000      8.2634      1.7015      0.1118     57.4836     80.7428     33.7042
  1543.4000      8.2634      1.6851      0.0837     58.4773     83.6252     34.2102
  1543.5000      8.1192      1.7006      0.0882     57.5389     87.3167     34.3231
  1543.6000      8.1192      1.7609      0.0698     53.8823     88.0373     34.1436
  1543.7000      8.1192      1.8607      0.0973     47.8372     88.2766     33.6421
  1543.8000      8.0797      1.9694      0.1219     41.2460     91.3870     32.9418
  1543.9000      8.0797      2.0617      0.1042     35.6554     96.4525     32.4762
  1544.0000      8.0334      2.1438      0.1892     30.6806    100.4643     32.4085
  1544.1000      8.0334      2.2391      0.1573     24.9048    102.6966     32.1555
  1544.2000      8.0334      2.3559      0.2038     17.8226    104.2132     30.9608
  1544.3000      8.0293      2.4647      0.1871     11.2295    103.1752     28.7903
  1544.4000      8.0293      2.5314      0.1131      7.1887     96.9922     26.4574
  1544.5000      8.0005      2.5585      0.0143      5.5461     89.0975     24.9031
  1544.6000      8.0005      2.5702      0.0279      4.8368     83.5583     24.3523
  1544.7000      8.0005      2.5821      0.0405      4.1173     78.7199     24.1298
  1544.8000      7.9511      2.5916      0.0812      3.5402     74.0710     23.6455
  1544.9000      7.9511      2.5839      0.0494      4.0070     70.9552     22.8823
  1545.0000      7.9331      2.5568      0.0404      5.6477     67.4228     22.0496
  1545.1000      7.9331      2.5284     -0.0018      7.3684     63.4504     20.9449
