~Version Information
VERS.                      2.0: CWLS Log ASCII Standard - VERSION 2.0
WRAP.                       NO: One line per depth step
~Well Information Block
STRT.FT               260.0000: 
STOP.FT              1200.5000: 
STEP.FT                 0.2500: 
NULL.                -999.2500: 
COMP.          Evergreen Operating Corporation: COMPANY
WELL.             Justin 32-10: WELL
FLD.           Purgatorie River: FIELD
LOC.           2994' FNL & 1449' FEL: LOCATION
PROV.                 Colorado: PROVINCE
CNTY.               Las Animas: COUNTRY
SRVC.                         : SERVICE COMPANY
DATE.          Sun Aug 29 20:47:20 2004: LOG DATE
UWI.           05 071 08053 00: UNIQUE WELL ID
~Curve Information Block
DEPT.FT            0 000 00 00: Depth
LTEN.lb                       : Surface Line Tension
SN.Ohm-m                      : IEL Short Normal
SP.mV                         : IEL Spontaneous Potential
DIR.Ohm-m                     : IEL Induction Resistivity
GR.GAPI                       : Gamma Ray
~Parameter Information Block
~A  Depth       LTEN         SN          SP         DIR          GR     
# ...
   932.0000    633.4576     19.2833     18.5500     14.8857    101.2903
   932.2500    633.9904     18.6943     18.4220     14.3304    100.2991
   932.5000    634.3471     18.0476     18.3138     13.8719     98.2978
   932.7500    634.5678     17.3785     18.2313     13.5112     97.3486
   933.0000    634.6713     16.7418     18.1783     13.2280     96.8903
   933.2500    634.7904     16.1867     18.1567     12.9867     97.1499
   933.5000    635.1269     15.7275     18.1663     12.7459     98.0984
   933.7500    635.6483     15.3294     18.2056     12.4723     98.8172
   934.0000    636.0369     14.9235     18.2710     12.1501     99.3493
   934.2500    636.0056     14.4469     18.3575     11.7856     98.9372
   934.5000    635.5147     13.8844     18.4583     11.4020     96.6522
   934.7500    634.7234     13.2889     18.5663     11.0299     93.9207
   935.0000    633.8815     12.7642     18.6741     10.6975     88.3424
   935.2500    633.2197     12.4194     18.7760     10.4251     84.1337
   935.5000    632.8398     12.3167     18.8685     10.2219     78.4644
   935.7500    632.7203     12.4432     18.9512     10.0867     76.1504
   936.0000    632.8018     12.7180     19.0271     10.0080     76.3737
   936.2500    633.0260     13.0307     19.1016      9.9658     79.2351
   936.5000    633.3464     13.2863     19.1813      9.9352     86.7480
   936.7500    633.7418     13.4340     19.2726      9.8936     92.9250
   937.0000    634.1962     13.4712     19.3799      9.8284    102.0429
   937.2500    634.6701     13.4296     19.5049      9.7418    107.0048
   937.5000    635.0957     13.3541     19.6459      9.6504    111.7000
   937.7500    635.3813     13.2860     19.7983      9.5781    113.0869
   938.0000    635.4634     13.2545     19.9552      9.5485    113.9611
   938.2500    635.3863     13.2756     20.1088      9.5791    114.7577
   938.5000    635.2719     13.3554     20.2508      9.6803    117.0124
   938.7500    635.1973     13.4955     20.3737      9.8557    118.8072
   939.0000    635.1784     13.6977     20.4716     10.1043    120.4732
   939.2500    635.2460     13.9662     20.5405     10.4214    120.2563
   939.5000    635.4172     14.3080     20.5791     10.7981    117.9603
   939.7500    635.6107     14.7299     20.5887     11.2196    115.7050
   940.0000    635.7247     15.2328     20.5734     11.6630    112.3722
   940.2500    635.8045     15.8044     20.5396     12.0978    110.4153
   940.5000    636.0097     16.4138     20.4948     12.4904    107.1550
   940.7500    636.3709     17.0126     20.4469     12.8120    103.9861
   941.0000    636.6773     17.5444     20.4030     13.0463     96.8310
   941.2500    636.6704     17.9622     20.3683     13.1913     90.4792
   941.5000    636.3129     18.2413     20.3459     13.2535     79.4267
   941.7500    635.8290     18.3792     20.3367     13.2395     71.9559
   942.0000    635.5270     18.3771     20.3400     13.1497     62.8185
   942.2500    635.6124     18.2169     20.3536     12.9803     59.4337
   942.5000    636.0980     17.8559     20.3749     12.7299     59.7070
   942.7500    636.7889     17.2504     20.4008     12.4065     63.2880
   943.0000    637.3638     16.3975     20.4283     12.0293     71.9019
   943.2500    637.5532     15.3670     20.4544     11.6250     78.1017
   943.5000    637.3286     14.2976     20.4760     11.2225     85.2969
   943.7500    636.9612     13.3560     20.4909     10.8485     87.8755
   944.0000    636.8414     12.6785     20.4975     10.5247     88.9264
   944.2500    637.1359     12.3266     20.4963     10.2671     88.8398
   944.5000    637.6211     12.2785     20.4894     10.0856     89.5537
   944.7500    637.9151     12.4545     20.4817      9.9826     91.1820
   945.0000    637.8646     12.7587     20.4797      9.9539     94.8488
   945.2500    637.6532     13.1154     20.4914      9.9900     97.2697
   945.5000    637.5497     13.4846     20.5247     10.0795     99.5364
   945.7500    637.6243     13.8589     20.5861     10.2122     99.7487
   946.0000    637.7531     14.2472     20.6800     10.3815     98.2275
   946.2500    637.8607     14.6571     20.8072     10.5839     96.4547
   946.5000    638.0474     15.0833     20.9654     10.8180     93.9184
   946.7500    638.4275     15.5077     21.1487     11.0822     93.0474
   947.0000    638.9224     15.9077     21.3480     11.3735     93.5565
   947.2500    639.2862     16.2686     21.5524     11.6871     94.7562
   947.5000    639.2986     16.5903     21.7490     12.0171     96.2599
   947.7500    638.9040     16.8815     21.9249     12.3580     96.1612
   948.0000    638.2122     17.1469     22.0675     12.7025     94.1377
   948.2500    637.4108     17.3739     22.1663     13.0369     92.2983
   948.5000    636.6954     17.5282     22.2138     13.3355     90.3476
   948.7500    636.2548     17.5572     22.2068     13.5622     89.8029
   949.0000    636.2112     17.4021     22.1470     13.6805     89.2989
   949.2500    636.5126     17.0160     22.0408     13.6689     88.6692
   949.5000    636.9559     16.3857     21.8990     13.5307     87.2362
   949.7500    637.3609     15.5507     21.7347     13.2914     86.3007
   950.0000    637.6691     14.6063     21.5621     12.9869     85.5215
   950.2500    637.8781     13.6857     21.3941     12.6528     85.5223
   950.5000    637.9597     12.9224     21.2412     12.3178     86.0875
   950.7500    637.8596     12.4112     21.1104     12.0033     86.6580
   951.0000    637.5292     12.1828     21.0053     11.7243     87.5245
   951.2500    637.0018     12.2037     20.9264     11.4886     87.9453
   951.5000    636.4713     12.3965     20.8720     11.2966     88.3339
   951.7500    636.2025     12.6687     20.8391     11.1427     88.7616
   952.0000    636.3042     12.9402     20.8239     11.0180     90.3625
   952.2500    636.6716     13.1596     20.8228     10.9158     92.1213
   952.5000    637.1700     13.3077     20.8323     10.8339     95.1615
   952.7500    637.7222     13.3906     20.8501     10.7758     97.0796
   953.0000    638.1856     13.4260     20.8747     10.7483     99.7061
   953.2500    638.3522     13.4331     20.9058     10.7588    101.3746
   953.5000    638.1781     13.4280     20.9439     10.8119    103.4237
   953.7500    637.8542     13.4249     20.9900     10.9065    104.0936
   954.0000    637.5468     13.4382     21.0455     11.0347    103.9821
   954.2500    637.1797     13.4814     21.1110     11.1830    103.6139
   954.5000    636.5681     13.5618     21.1862     11.3364    103.3728
   954.7500    635.7150     13.6757     21.2694     11.4823    103.4832
   955.0000    634.9464     13.8074     21.3577     11.6131    103.6705
   955.2500    634.7602     13.9349     21.4466     11.7262    103.3640
   955.5000    635.4350     14.0379     21.5311     11.8237    101.2054
   955.7500    636.7255     14.1057     21.6055     11.9110     98.2875
   956.0000    638.0258     14.1381     21.6641     11.9948     92.3701
   956.2500    638.8472     14.1429     21.7020     12.0797     88.3090
   956.5000    639.0761     14.1300     21.7146     12.1660     83.5076
   956.7500    638.8746     14.1085     21.6982     12.2488     81.7919
   957.0000    638.5010     14.0862     21.6504     12.3198     81.9598
   957.2500    638.1720     14.0703     21.5699     12.3713     83.5696
   957.5000    637.9672     14.0663     21.4572     12.4006     86.6043
   957.7500    637.8803     14.0771     21.3148     12.4119     88.1287
   958.0000    637.9758     14.1026     21.1481     12.4140     89.2408
   958.2500    638.4055     14.1420     20.9648     12.4155     89.4565
   958.5000    639.2391     14.1968     20.7748     12.4216     89.4102
   958.7500    640.3107     14.2711     20.5896     12.4348     89.2299
   959.0000    641.2264     14.3692     20.4210     12.4577     88.8688
   959.2500    641.5759     14.4912     20.2796     12.4951     88.5931
   959.5000    641.2656     14.6300     20.1738     12.5530     87.8523
   959.7500    640.6258     14.7697     20.1093     12.6346     86.8708
