~Version Information
VERS.                      2.0: CWLS Log ASCII Standard - VERSION 2.0
WRAP.                       NO: One line per depth step
~Well Information Block
STRT.FT               553.0000: 
STOP.FT              1576.5000: 
STEP.FT                 0.2500: 
NULL.                -999.2500: 
COMP.          Pioneer Natural Resources: COMPANY
WELL.           Telna 24-22 Tr: WELL
FLD.           Purgatoire River: FIELD
LOC.           748' FSL & 1931' FWL: LOCATION
PROV.                 Colorado: PROVINCE
CNTY.               Las Animas: COUNTRY
SRVC.                Patterson: SERVICE COMPANY
DATE.          Mon May 02 07:15:29 2005: LOG DATE
UWI.           05 071 08304 00: UNIQUE WELL ID
~Curve Information Block
DEPT.FT            0 000 00 00: Depth
DCAL.in                       : CDL Caliper
RHOB.g/cc                     : CDL Bulk Density
RHOC.g/cc                     : CDL Density Correction
DPOR.pu                       : CDL Density Porosity
GR.GAPI                       : Gamma Ray
NPOR.pu                       : Neutron Porosity
~Parameter Information Block
~A  Depth       DCAL        RHOB        RHOC        DPOR         GR         NPOR    
# ...
  1417.0000      7.9558      2.4009      0.0659     15.0990    150.1010     24.7873
  1417.2500      7.9775      2.3704     -0.0040     16.9456    149.5594     24.2052
  1417.5000      8.0021      2.4268      0.0882     13.5263    143.2675     26.6375
  1417.7500      8.0157      2.4583      0.1772     11.6181    148.7422     27.4827
  1418.0000      7.9997      2.4773      0.0959     10.4688    155.8387     27.7015
  1418.2500      7.9512      2.5161      0.0956      8.1137    154.3252     25.2110
  1418.5000      7.9135      2.4899      0.0292      9.7022    136.2755     26.3336
  1418.7500      7.9083      2.4736      0.0410     10.6932    134.4406     26.2528
  1419.0000      7.9155      2.4562      0.0608     11.7433    143.9235     26.5169
  1419.2500      7.9206      2.4442     -0.0012     12.4725    142.5408     27.1469
  1419.5000      7.9219      2.4134      0.0084     14.3418    141.5579     27.0467
  1419.7500      7.9214      2.3883     -0.0099     15.8577    141.2564     29.1711
  1420.0000      7.9209      2.2959     -0.0023     21.4615    135.7055     30.0340
  1420.2500      7.9156      2.1492     -0.0127     30.3492    126.8866     29.2339
  1420.5000      7.8957      1.7213     -0.1543     56.2845    111.9398     30.9181
  1420.7500      7.8751      1.6510     -0.0929     60.5444    105.6767     32.8459
  1421.0000      7.9054      1.8153      0.1101     50.5860     92.4164     29.0138
  1421.2500      7.9758      1.9650      0.1176     41.5179     80.5609     25.9683
  1421.5000      7.9921      2.2708      0.1223     22.9807     76.1568     26.9279
  1421.7500      7.9447      2.4746      0.2046     10.6304     79.2279     25.2218
  1422.0000      7.9011      2.4934      0.0080      9.4932     82.0895     22.6083
  1422.2500      7.8850      2.4831      0.0208     10.1179     82.8296     21.2294
  1422.5000      7.8813      2.4495     -0.0702     12.1517     86.6169     14.8777
  1422.7500      7.8787      2.4668     -0.0011     11.1013     91.7181     17.6492
  1423.0000      7.8769      2.5154      0.0749      8.1603     89.1722     21.1069
  1423.2500      7.8802      2.5159      0.0465      8.1269     88.2120     20.3635
  1423.5000      7.8847      2.4760     -0.0287     10.5436     83.9303     16.8577
  1423.7500      7.8822      2.4658     -0.0099     11.1646     82.9997     18.0724
  1424.0000      7.8734      2.4496     -0.0350     12.1451     90.2095     18.9277
  1424.2500      7.8682      2.4768      0.0267     10.4993    101.5297     18.4648
  1424.5000      7.8692      2.5032      0.0108      8.8983    100.8968     19.2188
  1424.7500      7.8723      2.5195      0.0734      7.9112     96.1648     19.3472
  1425.0000      7.8745      2.4980      0.0536      9.2112    105.4170     19.1577
  1425.2500      7.8730      2.5129      0.0459      8.3110    105.4321     16.9928
  1425.5000      7.8780      2.4927     -0.0129      9.5356    108.0033     16.7866
  1425.7500      7.8853      2.4832      0.0848     10.1103    108.0842     15.7621
  1426.0000      7.8867      2.4604     -0.0152     11.4932    109.9833     14.7733
  1426.2500      7.8838      2.4879      0.0478      9.8251    113.6781     14.4869
  1426.5000      7.8790      2.5124      0.0290      8.3377    123.2236     17.1522
  1426.7500      7.8683      2.4829      0.0321     10.1284    124.5215     17.9870
  1427.0000      7.8605      2.4936      0.0910      9.4779    140.9900     19.1098
  1427.2500      7.8645      2.5239      0.0575      7.6403    142.7212     22.1584
  1427.5000      7.8769      2.5135      0.0863      8.2739    133.6263     21.0874
  1427.7500      7.8844      2.4857      0.0766      9.9588    128.9432     19.8525
  1428.0000      7.8873      2.4322      0.0122     13.1989    131.3727     19.9638
  1428.2500      7.8881      2.4275      0.0056     13.4830    127.4122     18.9912
  1428.5000      7.8756      2.4595      0.0371     11.5436    110.3730     20.4914
  1428.7500      7.8536      2.4745      0.0475     10.6352    100.0005     20.4499
  1429.0000      7.8528      2.4738      0.0600     10.6778     99.9862     18.7744
  1429.2500      7.8739      2.4496      0.0042     12.1437     89.1239     18.0069
  1429.5000      7.8853      2.5171      0.0858      8.0537     84.0735     20.0895
  1429.7500      7.8798      2.5433      0.0103      6.4649     93.0502     20.0704
  1430.0000      7.8684      2.5565      0.0994      5.6690     95.9367     18.7889
  1430.2500      7.8616      2.5232      0.0393      7.6849     92.9302     17.3184
  1430.5000      7.8627      2.4938      0.0428      9.4646     96.2151     19.7467
  1430.7500      7.8685      2.5031      0.0737      8.9049    104.7584     19.2177
  1431.0000      7.8637      2.5138      0.0258      8.2559     95.2420     17.3921
  1431.2500      7.8407      2.5763      0.0812      4.4644     98.0979     16.7429
  1431.5000      7.8215      2.5736      0.1412      4.6333    108.2775     18.5503
  1431.7500      7.8314      2.5748      0.0911      4.5599    109.0866     20.0062
  1432.0000      7.8547      2.5898      0.0652      3.6494     98.5037     18.1263
  1432.2500      7.8634      2.5700      0.0891      4.8463     96.4093     19.2798
  1432.5000      7.8653      2.6021      0.0627      2.9052    108.6762     20.3432
  1432.7500      7.8683      2.6567      0.0969     -0.4088     99.4261     20.0658
  1433.0000      7.8623      2.6244      0.0660      1.5526     93.1443     19.3447
  1433.2500      7.8633      2.5634     -0.0001      5.2468     89.6426     20.2474
  1433.5000      7.8743      2.5250      0.0267      7.5782     93.6685     18.0866
  1433.7500      7.8658      2.5614      0.0481      5.3711     93.4287     14.9610
  1434.0000      7.8458      2.6170      0.1678      1.9997    102.7612     15.3944
  1434.2500      7.8508      2.5948      0.1030      3.3454    106.9414     16.5926
  1434.5000      7.8718      2.5177      0.0773      8.0157    115.3008     19.0733
  1434.7500      7.8819      2.4983     -0.0018      9.1963    123.6640     18.1333
  1435.0000      7.8816      2.5512      0.0343      5.9902    106.7732     16.8246
  1435.2500      7.8811      2.5574      0.1045      5.6134    109.3657     18.3464
  1435.5000      7.8827      2.5411      0.0488      6.5997    110.8474     17.0767
  1435.7500      7.8841      2.5338      0.0552      7.0401    115.3080     17.1135
  1436.0000      7.8846      2.5446      0.0956      6.3876    119.0723     21.6647
  1436.2500      7.8887      2.5169      0.0549      8.0640    121.5469     23.6951
  1436.5000      7.9014      2.4867      0.0295      9.8955    119.9542     26.9544
  1436.7500      7.9145      2.5405      0.0843      6.6366    121.9447     28.4636
  1437.0000      7.9186      2.5160      0.0089      8.1213    130.8339     23.2017
  1437.2500      7.9125      2.5352      0.0728      6.9587    125.1344     23.7209
  1437.5000      7.8964      2.5640      0.0871      5.2121    132.5973     23.8991
  1437.7500      7.8786      2.5334      0.0619      7.0643    139.7936     25.3312
  1438.0000      7.8784      2.5135      0.0312      8.2729    145.7469     24.1890
  1438.2500      7.8904      2.4735      0.0274     10.6997    145.8896     23.8759
  1438.5000      7.9012      2.4117      0.0181     14.4412    154.9747     22.7578
  1438.7500      7.9067      2.4026     -0.0141     14.9926    159.4437     24.7627
  1439.0000      7.9049      2.4327      0.0126     13.1700    139.7959     26.7103
  1439.2500      7.9039      2.4549      0.0485     11.8244    134.3221     25.6647
  1439.5000      7.9082      2.4230      0.0398     13.7581    138.2074     24.1436
  1439.7500      7.9142      2.3722     -0.0084     16.8363    149.0078     23.4748
  1440.0000      7.9240      2.3687     -0.0048     17.0475    160.5273     27.6954
  1440.2500      7.9341      2.3262      0.0296     19.6223    157.0925     30.3461
  1440.5000      7.9378      2.2363      0.0599     25.0709    163.9576     27.1355
  1440.7500      7.9419      2.1770     -0.0519     28.6650    162.8141     27.5722
