~Version Information
VERS.                      2.0: CWLS Log ASCII Standard - VERSION 2.0
WRAP.                       NO: One line per depth step
~Well Information Block
STRT.FT               563.6000: 
STOP.FT              2133.0000: 
STEP.FT                 0.1000: 
NULL.                -999.2500: 
COMP.          Petrogulf Corporation: COMPANY
WELL.             State 16-43V: WELL
FLD.           Purgatorie River: FIELD
LOC.           2437' FSL & 734' FEL: LOCATION
CNTY.               Las Animas: COUNTY
SRVC.                         : SERVICE COMPANY
DATE.          Mon Dec 06 06:01:26 2004: LOG DATE
UWI.           05 071 08015 00: UNIQUE WELL ID
STAT.                 Colorado: STATE
~Curve Information Block
DEPT.FT            0 000 00 00: Depth
DCAL.in                       : CDL Caliper
RHOB.g/cc                     : CDL Bulk Density
RHOC.g/cc                     : CDL Density Correction
DPOR.pu                       : CDL Density Porosity
GR.GAPI                       : Gamma Ray
NPOR.pu                       : Neutron Porosity
~Parameter Information Block
~A  Depth       DCAL        RHOB        RHOC        DPOR         GR         NPOR    
# ...
   582.8000   -999.2500   -999.2500   -999.2500   -999.2500     59.7604     49.4591
   582.9000   -999.2500   -999.2500   -999.2500   -999.2500     59.2204     49.7171
   583.0000   -999.2500   -999.2500   -999.2500   -999.2500     59.9137     49.6278
   583.1000   -999.2500   -999.2500   -999.2500   -999.2500     60.4074     49.2893
   583.2000   -999.2500   -999.2500   -999.2500   -999.2500     63.2818     48.8981
   583.3000   -999.2500   -999.2500   -999.2500   -999.2500     70.3649     48.6097
   583.4000   -999.2500   -999.2500   -999.2500   -999.2500     75.6386     48.5418
   583.5000   -999.2500   -999.2500   -999.2500   -999.2500     74.3379     48.6842
   583.6000   -999.2500   -999.2500   -999.2500   -999.2500     72.4717     48.7918
   583.7000   -999.2500   -999.2500   -999.2500   -999.2500     75.0313     48.5158
   583.8000   -999.2500   -999.2500   -999.2500   -999.2500     79.9196     47.9624
   583.9000   -999.2500   -999.2500      0.1912   -999.2500     81.8876     47.4818
   584.0000      4.8679   -999.2500      0.1306   -999.2500     76.6885     47.2008
   584.1000      4.8679   -999.2500      0.1034   -999.2500     70.0890     47.0137
   584.2000      4.8679   -999.2500      0.0908   -999.2500     72.7601     46.7342
   584.3000      4.8445   -999.2500      0.0990   -999.2500     83.3813     46.3930
   584.4000      4.8445      0.8829      0.0354    107.0988     90.5437     46.2037
   584.5000      4.8393      0.8455      0.0094    109.3638     90.5496     46.2484
   584.6000      4.8393      0.8154      0.0030    111.1890     89.8096     46.5091
   584.7000      4.8393      0.7827      0.0086    113.1677     93.0456     46.7864
   584.8000      4.8397      0.7416     -0.0560    115.6587     96.9232     46.8404
   584.9000      4.8397      0.6991     -0.0911    118.2370     93.7360     46.6758
   585.0000      4.8452      0.6637     -0.1575    120.3798     83.9672     46.5467
   585.1000      4.8452      0.6357     -0.1544    122.0778     77.0525     46.6419
   585.2000      4.8452      0.6101     -0.1772    123.6286     77.6659     46.7995
   585.3000      4.8470      0.5884     -0.2157    124.9433     81.7397     46.7617
   585.4000      4.8470      0.5766     -0.2219    125.6593     83.9946     46.5035
   585.5000      4.8452      0.5743     -0.2187    125.8007     85.7847     46.2251
   585.6000      4.8452      0.5704     -0.1796    126.0363     90.8630     46.3446
   585.7000      4.8452      0.5527     -0.1812    127.1097     94.4575     46.8356
   585.8000      4.8499      0.5267     -0.2332    128.6879     88.1777     47.1477
   585.9000      4.8499      0.5080     -0.2482    129.8200     77.4166     47.0522
   586.0000      4.8353      0.4979     -0.2167    130.4318     73.8739     46.7265
   586.1000      4.8353      0.4872     -0.2574    131.0793     78.0656     46.4424
   586.2000      4.8353      0.4708     -0.2471    132.0734     83.5208     46.4596
   586.3000      4.8186      0.4444     -0.2581    133.6701     86.9499     46.9328
   586.4000      4.8186      0.4077     -0.3036    135.8947     88.1402     47.4726
   586.5000      4.8902      0.3709     -0.3620    138.1297     86.9188     47.4399
   586.6000      4.8902      0.3429     -0.3448    139.8264     83.6644     47.0772
   586.7000      4.8902      0.3201     -0.3588    141.2068     80.6638     46.9340
   586.8000      4.8614      0.2969     -0.3740    142.6141     80.4281     46.8490
   586.9000      4.8614      0.2757     -0.3947    143.8960     82.1756     46.5939
   587.0000      4.8816      0.2610     -0.4077    144.7874     83.4514     46.1763
   587.1000      4.8816      0.2481     -0.4054    145.5698     83.7431     45.7480
   587.2000      4.8816      0.2238     -0.3785    147.0438     81.7035     45.6871
   587.3000      4.8512      0.1841     -0.4833    149.4474     76.1385     46.1781
   587.4000      4.8512      0.1403     -0.4695    152.1002     71.3443     46.7028
   587.5000      4.8470      0.1020     -0.5559    154.4242     71.7556     46.7956
   587.6000      4.8470      0.0745     -0.5560    156.0899     75.0460     46.5597
   587.7000      4.8470      0.0583     -0.5467    157.0702     76.5194     46.1769
   587.8000      4.8209      0.0482     -0.5638    157.6820     73.8026     45.7974
   587.9000      4.8209      0.0395     -0.5518    158.2092     70.1676     45.6337
   588.0000      4.8504      0.0307     -0.5978    158.7449     71.6902     45.7535
   588.1000      4.8504      0.0184     -0.5628    159.4908     78.2352     46.0309
   588.2000      4.8504     -0.0018     -0.6029    160.7164     83.7583     46.2654
   588.3000      4.8493     -0.0207     -0.6742    161.8583     84.5376     46.4521
   588.4000      4.8493     -0.0303     -0.6195    162.4434     83.3586     46.7129
   588.5000      4.8361     -0.0436     -0.6192    163.2473     84.8974     47.1300
   588.6000      4.8361     -0.0686     -0.6722    164.7650     89.5153     47.5558
   588.7000      4.8361     -0.0949     -0.6831    166.3559     93.8951     47.6699
   588.8000      4.8451     -0.1123     -0.7009    167.4132     95.2811     47.6378
   588.9000      4.8451     -0.1192     -0.6905    167.8327     93.0313     47.8348
   589.0000      4.8798     -0.1137     -0.7344    167.4996     89.6340     47.9651
   589.1000      4.8798     -0.1021     -0.6171    166.7956     88.9239     47.6151
   589.2000      4.8798     -0.1019     -0.6647    166.7796     89.1687     47.1027
   589.3000      4.8605     -0.1145     -0.7280    167.5450     87.6586     46.9064
   589.4000      4.8605     -0.1341     -0.6686    168.7346     85.2791     46.8400
   589.5000      4.8532     -0.1606     -0.7459    170.3393     82.6974     46.4590
   589.6000      4.8532     -0.1788     -0.7905    171.4426     80.4634     45.9041
   589.7000      4.8532     -0.1753     -0.7655    171.2318     78.8307     45.6776
   589.8000      4.8378     -0.1648     -0.7076    170.5929     77.8442     45.7966
   589.9000      4.8378     -0.1655     -0.7329    170.6383     76.5695     45.9213
   590.0000      4.8630     -0.1684     -0.8003    170.8101     73.3536     45.7442
   590.1000      4.8630     -0.1551     -0.7665    170.0052     71.2266     45.2992
   590.2000      4.8630     -0.1318     -0.6910    168.5969     72.9445     44.9771
   590.3000      4.8469     -0.1151     -0.7245    167.5793     74.4250     44.9696
   590.4000      4.8469     -0.1076     -0.6576    167.1245     72.3785     44.9805
   590.5000      4.8644     -0.1052     -0.7180    166.9844     68.0249     44.7101
   590.6000      4.8644     -0.1060     -0.6614    167.0308     63.2488     44.4860
   590.7000      4.8644     -0.1116     -0.7145    167.3681     59.1599     44.5036
   590.8000      4.8617     -0.1216     -0.7181    167.9783     57.6455     44.5943
   590.9000      4.8617     -0.1309     -0.7295    168.5420     61.1298     44.7296
   591.0000      4.8514     -0.1281     -0.7841    168.3702     67.3076     44.8273
   591.1000      4.8514     -0.1148     -0.6551    167.5655     69.9514     44.9005
   591.2000      4.8514     -0.1081     -0.7318    167.1602     67.1916     45.3565
   591.3000      4.8670     -0.1067     -0.7005    167.0738     63.1724     46.1576
   591.4000      4.8670     -0.1006     -0.7118    166.7016     64.2460     46.4332
   591.5000      4.8514     -0.0961     -0.6640    166.4291     72.0025     45.8498
   591.6000      4.8514     -0.1072     -0.6625    167.1010     80.8656     45.3354
   591.7000      4.8514     -0.1280     -0.7667    168.3624     85.2792     45.5494
   591.8000      4.8427     -0.1357     -0.7442    168.8329     83.4846     45.8017
   591.9000      4.8427     -0.1223     -0.7352    168.0187     78.4548     45.5722
   592.0000      4.8234     -0.0996     -0.6715    166.6421     77.1076     45.3912
   592.1000      4.8234     -0.0801     -0.6935    165.4595     80.7290     45.6766
   592.2000      4.8234     -0.0634     -0.6713    164.4462     82.2428     46.0999
   592.3000      4.8465     -0.0458     -0.6433    163.3823     78.5474     46.0556
