~Version Information
VERS.                      2.0: CWLS Log ASCII Standard - VERSION 2.0
WRAP.                       NO: One line per depth step
~Well Information Block
STRT.FT                -8.8000: 
STOP.FT              2006.2000: 
STEP.FT                 0.1000: 
NULL.                -999.2500: 
COMP.          Petrogulf Corporation: COMPANY
WELL.             J & P 12-33V: WELL
FLD.           Purgatorie River: FIELD
LOC.           2005' FSL & 1928' FEL: LOCATION
CNTY.               Las Animas: COUNTY
SRVC.                         : SERVICE COMPANY
DATE.          Fri Jul 29 13:37:28 2005: LOG DATE
UWI.                          : UNIQUE WELL ID
STAT.                 Colorado: STATE
~Curve Information Block
DEPT.FT            0 000 00 00: Depth
GR.GAPI                       : Gamma Ray
CCL.                          : Casing Collar Locator
TT3.usec                      : CBL 3' Travel Time
AMP3.mV                       : CBL 3' Amplitude
~Parameter Information Block
~A  Depth        GR         CCL         TT3         AMP3    
# ...
   125.2000     84.2076      0.0000    255.9223     81.0714
   125.3000     83.8762      0.0000    255.9090     81.0310
   125.4000     83.8762      0.0000    255.9090     81.0310
   125.5000     85.3365      0.0000    255.8918     80.9678
   125.6000     85.3365      0.0000    255.8918     80.9678
   125.7000     85.3365      0.0000    255.8918     80.9678
   125.8000     87.1346      0.0000    255.8958     80.8676
   125.9000     87.1346      0.0000    255.8958     80.8676
   126.0000     87.9978      0.0000    255.9229     80.6957
   126.1000     87.9978      0.0000    255.9229     80.6957
   126.2000     87.9978      0.0000    255.9229     80.6957
   126.3000     87.8044      0.0000    255.9477     80.5359
   126.4000     87.8044      0.0000    255.9477     80.5359
   126.5000     87.4509      0.0000    255.9557     80.4833
   126.6000     87.4509      0.0000    255.9557     80.4833
   126.7000     87.4509      0.0000    255.9557     80.4833
   126.8000     87.9058      0.0000    255.9575     80.4974
   126.9000     87.9058      0.0000    255.9575     80.4974
   127.0000     89.6243      0.0000    255.9639     80.5037
   127.1000     89.6243      0.0000    255.9639     80.5037
   127.2000     89.6243      0.0000    255.9639     80.5037
   127.3000     92.7363      0.0000    255.9667     80.5224
   127.4000     92.7363      0.0000    255.9667     80.5224
   127.5000     97.2448      0.0000    255.9547     80.6106
   127.6000     97.2448      0.0000    255.9547     80.6106
   127.7000     97.2448      0.0000    255.9547     80.6106
   127.8000    102.6686      0.0000    255.9330     80.7646
   127.9000    102.6686      0.0000    255.9330     80.7646
   128.0000    107.7948      0.0000    255.9135     80.9133
   128.1000    107.7948      0.0000    255.9135     80.9133
   128.2000    107.7948      0.0000    255.9135     80.9133
   128.3000    111.3493      0.0000    255.9048     80.9744
   128.4000    111.3493      0.0000    255.9048     80.9744
   128.5000    113.0298      0.0000    255.9123     80.9314
   128.6000    113.0298      0.0000    255.9123     80.9314
   128.7000    113.0298      0.0000    255.9123     80.9314
   128.8000    113.6536      0.0000    255.9333     80.8502
   128.9000    113.6536      0.0000    255.9333     80.8502
   129.0000    114.2367      0.0000    255.9576     80.8003
   129.1000    114.2367      0.0000    255.9576     80.8003
   129.2000    114.2367      0.0000    255.9576     80.8003
   129.3000    115.1009      0.0000    255.9806     80.7728
   129.4000    115.1009      0.0000    255.9806     80.7728
   129.5000    115.8377      0.0000    256.0057     80.6912
   129.6000    115.8377      0.0000    256.0057     80.6912
   129.7000    115.8377      0.0000    256.0057     80.6912
   129.8000    115.8410      0.0000    256.0291     80.5140
   129.9000    115.8410      0.0000    256.0291     80.5140
   130.0000    114.8317      0.0000    256.0373     80.3159
   130.1000    114.8317      0.0000    256.0373     80.3159
   130.2000    114.8317      0.0000    256.0373     80.3159
   130.3000    113.0136      0.0000    256.0239     80.2544
   130.4000    113.0136      0.0000    256.0239     80.2544
   130.5000    110.8888      0.0000    255.9954     80.4271
   130.6000    110.8888      0.0000    255.9954     80.4271
   130.7000    110.8888      0.0000    255.9954     80.4271
   130.8000    109.0312      0.0000    255.9658     80.7414
   130.9000    109.0312      0.0000    255.9658     80.7414
   131.0000    107.8198      0.0000    255.9480     80.9692
   131.1000    107.8198      0.0000    255.9480     80.9692
   131.2000    107.8198      0.0000    255.9480     80.9692
   131.3000    107.0386      0.0000    255.9440     80.9670
   131.4000    107.0386      0.0000    255.9440     80.9670
   131.5000    105.8899      0.0000    255.9462     80.8119
   131.6000    105.8899      0.0000    255.9462     80.8119
   131.7000    105.8899      0.0000    255.9462     80.8119
   131.8000    103.7452      0.0000    255.9467     80.6666
   131.9000    103.7452      0.0000    255.9467     80.6666
   132.0000    100.8325      0.0000    255.9435     80.5691
   132.1000    100.8325      0.0000    255.9435     80.5691
   132.2000    100.8325      0.0000    255.9435     80.5691
   132.3000     98.0363      0.0000    255.9334     80.4757
   132.4000     98.0363      0.0000    255.9334     80.4757
   132.5000     96.0914      0.0000    255.9090     80.4183
   132.6000     96.0914      0.0000    255.9090     80.4183
   132.7000     96.0914      0.0000    255.9090     80.4183
   132.8000     94.9736      0.0000    255.8670     80.4798
   132.9000     94.9736      0.0000    255.8670     80.4798
   133.0000     94.0189      0.0000    255.8128     80.6789
   133.1000     94.0189      0.0000    255.8128     80.6789
   133.2000     94.0189      0.0000    255.8128     80.6789
   133.3000     92.7152      0.0000    255.7641     80.9334
   133.4000     92.7152      0.0000    255.7641     80.9334
   133.5000     91.3679      0.0000    255.7617     81.0915
   133.6000     91.3679      0.0000    255.7617     81.0915
   133.7000     91.3679      0.0000    255.7617     81.0915
   133.8000     90.7199      0.0000    255.8720     81.0404
   133.9000     90.7199      0.0000    255.8720     81.0404
   134.0000     91.0390      0.0000    256.1455     80.8512
   134.1000     91.0390      0.0000    256.1455     80.8512
   134.2000     91.0390      0.0000    256.1455     80.8512
   134.3000     92.0481      0.0000    256.5037     80.7090
   134.4000     92.0481      0.0000    256.5037     80.7090
   134.5000     93.6286      0.0000    256.6921     80.6630
   134.6000     93.6286      0.0000    256.6921     80.6630
   134.7000     93.6286      0.0000    256.6921     80.6630
   134.8000     95.9396      0.0000    256.5497     80.6139
   134.9000     95.9396      0.0000    256.5497     80.6139
   135.0000     98.9634      0.0000    256.2467     80.5285
   135.1000     98.9634      0.0000    256.2467     80.5285
   135.2000     98.9634      0.0000    256.2467     80.5285
   135.3000    102.5527      0.0000    256.0295     80.4903
   135.4000    102.5527      0.0000    256.0295     80.4903
   135.5000    106.7037      0.0000    255.9428     80.5612
   135.6000    106.7037      0.0000    255.9428     80.5612
   135.7000    106.7037      0.0000    255.9428     80.5612
   135.8000    111.0125      0.0000    255.9158     80.6943
   135.9000    111.0125      0.0000    255.9158     80.6943
   136.0000    113.9923      0.0000    255.9034     80.7799
   136.1000    113.9923      0.0000    255.9034     80.7799
   136.2000    113.9923      0.0000    255.9034     80.7799
   136.3000    113.7218      0.0000    255.8976     80.7706
   136.4000    113.7218      0.0000    255.8976     80.7706
   136.5000    109.5889      0.0000    255.8985     80.7461
   136.6000    109.5889      0.0000    255.8985     80.7461
   136.7000    109.5889      0.0000    255.8985     80.7461
   136.8000    103.3056      0.0000    255.9082     80.7748
   136.9000    103.3056      0.0000    255.9082     80.7748
   137.0000     98.0043      0.0000    255.9280     80.7880
   137.1000     98.0043      0.0000    255.9280     80.7880
   137.2000     98.0043      0.0000    255.9280     80.7880
   137.3000     96.1020      0.0000    255.9523     80.7179
   137.4000     96.1020      0.0000    255.9523     80.7179
   137.5000     97.9025      0.0000    255.9729     80.6312
   137.6000     97.9025      0.0000    255.9729     80.6312
   137.7000     97.9025      0.0000    255.9729     80.6312
   137.8000    102.0572      0.0000    255.9836     80.6209
   137.9000    102.0572      0.0000    255.9836     80.6209
   138.0000    107.0778      0.0000    255.9791     80.6794
   138.1000    107.0778      0.0000    255.9791     80.6794
   138.2000    107.0778      0.0000    255.9791     80.6794
   138.3000    112.2441      0.0000    255.9620     80.7158
   138.4000    112.2441      0.0000    255.9620     80.7158
   138.5000    117.3501      0.0000    255.9483     80.6531
