~Version Information
 VERS.                                  2.0 : CWLS LAS VERSION
 WRAP.                                   NO : WRAPING MODE
 SWARE .                 MController 2.5.0J : SOFTWARE VERSION
~Well Information
 WELL.                        Desoto 13-7TR : WELL
 COMP.        Pioneer Natural Resources Inc : COMPANY
 FLD.                      Purgatoire River : FIELD
 LOC.                 NW/SW Sec 7 T32S R66W : LOCATION
 DATE.                           1/13-14/05 : DATE(S) LOGGED
 SRVC.       Blanco Geological Services LLC : SERVICE COMPANY
 STAT.                                   CO : STATE
 CNTY.                           Las Animas : COUNTY
 CTRY.                                  USA : COUNTRY
 API.                          05-071-08216 : API NUMBER
 STRT.FT                             945.00 : START DEPTH
 STOP.FT                            2785.00 : STOP DEPTH
 STEP.FT                               1.00 : DEPTH INCREMENT
 NULL.                                -9999 : NULL VALUE
~Curve information
 DEPTH.FT                                   :
 ROP.MIN/FT                                 :
 GAS.UNITS                                  :
~ASCII Log data
       945.0     -9999.00          4.6 
       946.0         0.47          4.8 
       947.0         0.47          4.5 
       948.0         0.37          4.8 
       949.0         0.30          4.4 
       950.0         0.35          4.4 
       951.0         0.27          4.7 
       952.0         0.27          4.7 
       953.0         0.20          4.7 
       954.0         0.27          4.7 
       955.0         0.27          5.7 
       956.0         0.27          5.1 
       957.0         0.20          5.2 
       958.0         0.27          4.9 
       959.0         0.13          5.1 
       960.0         0.27          4.9 
       961.0         0.23          4.9 
       962.0         0.27          4.8 
       963.0         0.27          5.6 
       964.0         0.22         14.3 
       965.0         0.20          2.9 
       966.0         0.27          2.9 
       967.0         0.27          3.0 
       968.0         0.27          2.9 
       969.0         0.27          3.1 
       970.0         0.27          3.1 
       971.0         0.30          3.8 
       972.0         0.27          3.5 
       973.0         0.33          3.7 
       974.0         0.27          3.2 
       975.0         0.27          3.7 
       976.0         0.27          3.5 
       977.0         0.30          3.1 
       978.0         0.33          3.7 
       979.0         0.27          3.2 
       980.0         0.27          3.1 
       981.0         0.28          3.2 
       982.0         0.30          3.6 
       983.0         0.27          3.6 
       984.0         0.27          3.5 
       985.0         0.27          3.3 
       986.0         0.33          3.1 
       987.0         0.27          3.3 
       988.0         0.27          3.4 
       989.0         0.40          3.3 
       990.0         0.27          3.6 
       991.0         0.27          3.8 
       992.0         0.27          3.4 
       993.0         0.27          3.2 
       994.0         0.40          3.0 
       995.0         0.27          3.0 
       996.0         0.27          2.8 
       997.0         0.27          3.0 
       998.0         0.28          3.5 
       999.0         0.17          3.5 
      1000.0         0.27          2.8 
      1001.0         0.33          2.9 
      1002.0         0.27          3.0 
      1003.0         0.37          3.0 
      1004.0         0.27          2.8 
      1005.0         0.27          3.7 
      1006.0         0.20          3.2 
      1007.0         0.27          3.4 
      1008.0         0.30          3.1 
      1009.0         0.27          2.9 
      1010.0         0.62          3.5 
      1011.0         0.27          3.5 
      1012.0         0.27          2.8 
      1013.0         0.20          3.0 
      1014.0         0.27          2.9 
      1015.0         0.27          2.9 
      1016.0         0.23          2.9 
      1017.0         0.27          2.8 
      1018.0         0.27          3.6 
      1019.0         0.22          3.1 
      1020.0         0.27          3.1 
      1021.0         0.37          3.8 
      1022.0         0.43          3.2 
      1023.0         0.27          3.4 
      1024.0         0.20          3.3 
      1025.0         0.27          3.1 
      1026.0         0.23          3.2 
      1027.0         0.23          3.7 
      1028.0         0.23          3.3 
      1029.0         0.27          3.5 
      1030.0         0.40          3.2 
      1031.0         0.33          3.3 
      1032.0         0.30         47.1 
      1033.0         0.27         25.8 
      1034.0         0.27         10.1 
      1035.0         0.23          6.0 
      1036.0         0.27          3.7 
      1037.0         0.35          1.6 
      1038.0         0.27          1.8 
      1039.0         0.37          1.8 
      1040.0         0.27          3.2 
      1041.0         0.33          3.4 
      1042.0         0.33          2.5 
      1043.0         0.27          2.8 
      1044.0         0.27          2.7 
      1045.0         0.27          2.6 
      1046.0         0.27          3.1 
      1047.0         0.30          3.6 
      1048.0         0.32          2.8 
      1049.0         0.27          3.0 
      1050.0         0.27          2.5 
      1051.0         0.27          2.9 
      1052.0         0.27          3.3 
      1053.0         0.27          2.7 
      1054.0         0.20          2.7 
      1055.0         0.20          2.5 
      1056.0         0.20          2.4 
      1057.0         0.20          2.6 
      1058.0         0.20          2.3 
      1059.0         0.20          2.3 
      1060.0         0.20          2.7 
      1061.0         0.23          2.3 
      1062.0         0.22          3.1 
      1063.0         0.23          2.6 
      1064.0         0.23          2.3 
      1065.0         0.20          2.6 
      1066.0         0.23          2.1 
      1067.0         0.20          2.7 
      1068.0         0.20          2.7 
      1069.0         0.23          2.1 
      1070.0         0.23          2.1 
      1071.0         0.20          1.8 
      1072.0         0.20          2.3 
      1073.0         0.20          2.3 
      1074.0         0.20          1.7 
      1075.0         0.23          1.6 
      1076.0         0.23          1.6 
      1077.0         0.23          2.0 
      1078.0         0.32          1.9 
      1079.0         0.27          1.8 
      1080.0         0.33          2.1 
      1081.0         0.27          2.3 
      1082.0         0.27          2.7 
      1083.0         0.25          2.5 
      1084.0         0.23          2.4 
      1085.0         0.27          1.7 
      1086.0         0.27          2.6 
      1087.0         0.23          2.2 
      1088.0         0.23          2.2 
      1089.0         0.23          2.2 
      1090.0         0.23          1.9 
      1091.0         0.23          2.0 
      1092.0         0.27          2.8 
      1093.0         0.20          2.8 
      1094.0         0.23          2.1 
      1095.0         0.23          1.8 
      1096.0         0.23          2.7 
      1097.0         0.22          2.1 
      1098.0         0.30          1.8 
      1099.0         0.27          2.2 
      1100.0         0.20          2.2 
      1101.0         0.27          1.9 
      1102.0         0.20          1.9 
      1103.0         0.23          1.7 
      1104.0         0.20          1.7 
      1105.0         0.17          2.2 
      1106.0         0.20          2.2 
      1107.0         0.37          2.2 
      1108.0         0.30          1.4 
      1109.0         0.30          2.1 
      1110.0         0.27          1.6 
      1111.0         0.30          1.7 
      1112.0         0.27          1.6 
      1113.0         0.27          2.1 
      1114.0         0.27          1.5 
      1115.0         0.28          1.9 
      1116.0         0.27          1.5 
      1117.0         0.23          1.7 
      1118.0         0.27          1.9 
      1119.0         0.27          2.4 
      1120.0         0.20          2.4 
      1121.0         0.17          2.3 
      1122.0         0.27          2.3 
      1123.0         0.30          3.2 
      1124.0         0.27          3.1 
      1125.0         0.27          2.5 
      1126.0         0.23          2.9 
      1127.0         0.27          3.2 
      1128.0         0.28          2.7 
      1129.0         0.27          3.0 
      1130.0         0.17          2.3 
      1131.0         0.27          2.3 
      1132.0         0.13          6.6 
      1133.0         0.27         55.4 
      1134.0         0.23         97.6 
      1135.0         0.27         71.1 
      1136.0         0.28         59.0 
      1137.0         0.27         20.8 
      1138.0         0.27          9.0 
      1139.0         0.13          2.7 
      1140.0         0.27          1.3 
      1141.0         0.30          1.0 
      1142.0         0.13          1.0 
      1143.0         0.27          1.9 
      1144.0         0.30          1.8 
