~Version Information
 VERS.                                  2.0 : CWLS LAS VERSION
 WRAP.                                   NO : WRAPING MODE
 SWARE .                  MController 2.5.1 : SOFTWARE VERSION
~Well Information
 WELL.                 Big Cat Federal 44-1 : WELL
 COMP.  Pioneer Natural Resources USA, Inc. : COMPANY
 FLD.                      Purgatoire River : FIELD
 LOC.               SE/SE Sec.1, T34S, R66W : LOCATION
 DATE.                04/23/2006-04/23/2006 : DATE(S) LOGGED
 SRVC.                  Entrada GeoSciences : SERVICE COMPANY
 STAT.                             Colorado : STATE
 CNTY.                           Las Animas : COUNTY
 CTRY.                        United States : COUNTRY
 API.                          071-08042-00 : API NUMBER
 STRT.FT                             266.00 : START DEPTH
 STOP.FT                            1570.00 : STOP DEPTH
 STEP.FT                               1.00 : DEPTH INCREMENT
 NULL.                                -9999 : NULL VALUE
~Curve information
 DEPTH.FT                                   :
 ROP.MIN/FT                                 :
 GAS.UNITS                                  :
~ASCII Log data
# ...
     1466.00         0.33         11.0 
     1467.00         0.27         10.9 
     1468.00         0.23         10.8 
     1469.00         0.33         10.5 
     1470.00         0.23         10.1 
     1471.00         0.20         10.2 
     1472.00         0.17         10.0 
     1473.00         0.13         10.1 
     1474.00         0.20         10.9 
     1475.00         0.20         10.3 
     1476.00         0.20          9.7 
     1477.00         0.22          9.5 
     1478.00         0.10          9.4 
     1479.00         0.17          9.5 
     1480.00         0.17          9.8 
     1481.00         0.23         10.3 
     1482.00         0.20         10.3 
     1483.00         0.17          9.7 
     1484.00         0.20         10.5 
     1485.00         0.20          9.3 
     1486.00         0.17         10.6 
     1487.00         0.17          9.8 
     1488.00         0.13          9.7 
     1489.00         0.20         10.1 
     1490.00         0.20         10.4 
     1491.00         0.13         10.4 
     1492.00         0.13         10.6 
     1493.00         0.13         10.0 
     1494.00         0.13          9.7 
     1495.00         0.13          9.2 
     1496.00         0.42          9.1 
     1497.00         0.37          9.7 
     1498.00         0.50         10.1 
     1499.00         0.27          9.7 
     1500.00         0.30         10.0 
     1501.00         0.33         10.1 
     1502.00         0.27         10.1 
     1503.00         0.23         10.3 
     1504.00         0.20         10.5 
     1505.00         0.23         10.2 
     1506.00         0.22         10.1 
     1507.00         0.23         10.2 
     1508.00         0.17         10.3 
     1509.00         0.13         10.1 
     1510.00         0.33         10.2 
     1511.00         0.20         10.6 
     1512.00         0.20          9.8 
     1513.00         0.23         10.0 
     1514.00         0.23         10.0 
     1515.00         0.23         10.0 
     1516.00         0.23         10.3 
     1517.00         0.23         10.2 
     1518.00         0.20          9.9 
     1519.00         0.23         10.1 
     1520.00         0.20         10.5 
     1521.00         0.22         10.1 
     1522.00         0.20         10.1 
     1523.00         0.20          9.6 
     1524.00         0.23          9.3 
     1525.00         0.17          9.5 
     1526.00         0.17          9.7 
     1527.00         0.27          9.3 
     1528.00         0.50         10.4 
     1529.00         0.40         10.2 
     1530.00         0.28         19.8 
     1531.00         0.27         19.7 
     1532.00         0.27         10.3 
     1533.00         0.23         10.6 
     1534.00         0.13         19.9 
     1535.00         0.17         19.5 
     1536.00         0.20         19.6 
     1537.00         0.20         19.8 
     1538.00         0.23         19.7 
     1539.00         0.20         19.3 
     1540.00         0.20         18.6 
     1541.00         0.17         19.4 
     1542.00         0.17         18.5 
     1543.00         0.13         10.0 
     1544.00         0.20         19.5 
     1545.00         0.20         19.1 
     1546.00         0.32         18.9 
     1547.00         0.27         19.4 
     1548.00         0.20         18.9 
     1549.00         0.20         19.2 
     1550.00         0.20         18.8 
     1551.00         0.17         19.3 
     1552.00         0.17         19.0 
     1553.00         0.20         18.6 
     1554.00         0.20         19.1 
     1555.00         0.20         18.5 
     1556.00         0.17         18.1 
     1557.00         0.30         18.8 
     1558.00         0.28         18.6 
     1559.00         0.10         18.5 
     1560.00         0.27         18.7 
     1561.00         0.37         18.7 
     1562.00         0.30         18.7 
     1563.00         0.23         19.5 
     1564.00         0.17         19.0 
     1565.00         0.13         19.6 
     1566.00         0.13         19.1 
     1567.00         0.13         19.5 
     1568.00         0.13         18.6 
     1569.00         0.13         19.0 
     1570.00         0.23         18.4 
