~Version Information
VERS.                      2.0: CWLS Log ASCII Standard - VERSION 2.0
WRAP.                       NO: One line per depth step
~Well Information Block
STRT.FT               250.0000: 
STOP.FT               894.7000: 
STEP.FT                 0.1000: 
NULL.                -999.2500: 
COMP.          Pioneer Natural Resources: COMPANY
WELL.          Santisteven 13-22: WELL
FLD.           Purgatoire River: FIELD
LOC.           1861' FSL & 992' FWL----: LOCATION
PROV.                 Colorado: PROVINCE
CNTY.               Las Animas: COUNTRY
SRVC.                Patterson: SERVICE COMPANY
DATE.          Mon Apr 04 11:05:36 2005: LOG DATE
UWI.           05 071 08337 00: UNIQUE WELL ID
~Curve Information Block
DEPT.FT            0 000 00 00: Depth
DCAL.in                       : CDL Caliper
RHOB.g/cc                     : CDL Bulk Density
RHOC.g/cc                     : CDL Density Correction
DPOR.pu                       : CDL Density Porosity
NPOR.pu                       : Neutron Porosity
GR.GAPI                       : Gamma Ray
~Parameter Information Block
~A  Depth       DCAL        RHOB        RHOC        DPOR        NPOR         GR     
   250.0000      8.1622      2.5570     -0.2185      5.6384     44.0570     69.3931
   250.1000      8.1622      2.5524     -0.2358      5.9167     44.1339     75.3619
   250.2000      8.1622      2.5808     -0.2216      4.1931     44.6030     79.1945
   250.3000      8.1615      2.6331     -0.1877      1.0224     45.1725     79.7697
   250.4000      8.1615      2.6830     -0.1584     -2.0006     45.3815     78.7159
   250.5000      8.1627      2.7106     -0.1435     -3.6729     45.1808     77.2821
   250.6000      8.1627      2.7105     -0.1956     -3.6679     44.9090     77.1192
   250.7000      8.1627      2.6987     -0.2211     -2.9535     44.8240     78.0384
   250.8000      8.1636      2.6856     -0.1785     -2.1566     44.9836     77.6089
   250.9000      8.1636      2.6668     -0.2323     -1.0201     45.2692     76.0612
   251.0000      8.1632      2.6506     -0.2884     -0.0368     45.4311     73.7053
   251.1000      8.1632      2.6426     -0.1950      0.4489     45.2684     70.1716
   251.2000      8.1632      2.6358     -0.2385      0.8578     44.8500     68.7931
   251.3000      8.1631      2.6264     -0.2379      1.4324     44.5513     69.1674
   251.4000      8.1631      2.6192     -0.2345      1.8660     44.6969     67.0494
   251.5000      8.1642      2.6332     -0.2878      1.0201     45.0320     64.7625
   251.6000      8.1642      2.6697     -0.2163     -1.1955     45.1386     66.6331
   251.7000      8.1642      2.6918     -0.1856     -2.5346     44.9280     71.8858
   251.8000      8.1650      2.6944     -0.2795     -2.6880     44.6026     77.0463
   251.9000      8.1650      2.7170     -0.2458     -4.0611     44.5097     78.0526
   252.0000      8.1646      2.7555     -0.1723     -6.3954     44.7612     76.8679
   252.1000      8.1646      2.7628     -0.2026     -6.8370     45.2326     78.1218
   252.2000      8.1646      2.7256     -0.2072     -4.5836     45.5959     77.8458
   252.3000      8.1648      2.6809     -0.2737     -1.8702     45.3927     72.7156
   252.4000      8.1648      2.6655     -0.2698     -0.9404     44.9275     68.1491
   252.5000      8.1645      2.6701     -0.2693     -1.2183     44.8986     69.8078
   252.6000      8.1645      2.6640     -0.2122     -0.8458     45.3923     77.7484
   252.7000      8.1645      2.6480     -0.3202      0.1198     46.0192     83.9912
   252.8000      8.1634      2.6385     -0.2459      0.6957     46.3658     82.3473
   252.9000      8.1634      2.6173     -0.2382      1.9802     46.3796     78.2275
   253.0000      8.1638      2.5761     -0.3466      4.4794     46.3580     76.4445
   253.1000      8.1638      2.5480     -0.3333      6.1805     46.3871     75.0506
   253.2000      8.1638      2.5446     -0.3381      6.3901     46.0698     73.2493
   253.3000      8.1653      2.5403     -0.2613      6.6484     45.4088     71.8730
   253.4000      8.1653      2.5241     -0.3299      7.6331     45.0502     70.9604
   253.5000      8.1658      2.5206     -0.2860      7.8402     45.2234     71.1662
   253.6000      8.1658      2.5482     -0.2794      6.1701     45.5280     72.5185
   253.7000      8.1658      2.5852     -0.2094      3.9286     45.6553     73.0025
   253.8000      8.1654      2.6039     -0.2519      2.7914     45.5329     72.7642
   253.9000      8.1654      2.6065     -0.1969      2.6334     45.2613     72.3392
   254.0000      8.1649      2.6019     -0.2354      2.9142     44.9558     69.9924
   254.1000      8.1649      2.5884     -0.2340      3.7305     44.5285     66.9748
   254.2000      8.1649      2.5686     -0.2861      4.9333     44.1825     66.5289
   254.3000      8.1637      2.5594     -0.2803      5.4925     44.1671     68.3853
   254.4000      8.1637      2.5733     -0.2606      4.6461     44.0991     70.1176
   254.5000      8.1624      2.5982     -0.2087      3.1370     43.6934     69.5117
   254.6000      8.1624      2.6110     -0.2016      2.3620     43.3372     67.6834
   254.7000      8.1624      2.6084     -0.2154      2.5205     43.3270     67.7108
   254.8000      8.1624      2.6075     -0.2649      2.5737     43.4219     72.0340
   254.9000      8.1624      2.6189     -0.2114      1.8827     43.5479     80.4930
   255.0000      8.1636      2.6363     -0.2179      0.8325     43.7545     86.6770
   255.1000      8.1636      2.6605     -0.2484     -0.6389     43.7887     83.2900
   255.2000      8.1636      2.6899     -0.1437     -2.4172     43.4757     72.6770
   255.3000      8.1646      2.6959     -0.1588     -2.7791     42.8867     64.1273
   255.4000      8.1646      2.6529     -0.1960     -0.1735     42.2304     62.2317
   255.5000      8.1651      2.5685     -0.2705      4.9388     41.6164     64.4541
   255.6000      8.1651      2.4726     -0.2674     10.7534     40.9145     68.1391
   255.7000      8.1651      2.3958     -0.3590     15.4081     39.9906     72.1241
   255.8000      8.1660      2.3552     -0.3413     17.8671     38.7200     75.6811
   255.9000      8.1660      2.3442     -0.3060     18.5350     37.0591     80.1933
   256.0000      8.1670      2.3523     -0.3458     18.0446     35.2467     85.4611
   256.1000      8.1670      2.3833     -0.3002     16.1644     33.4166     89.4301
   256.2000      8.1670      2.4362     -0.2900     12.9600     31.5945     91.7542
   256.3000      8.1667      2.4880     -0.1540      9.8153     29.7687     91.5825
   256.4000      8.1667      2.5075     -0.1147      8.6345     27.3533     89.3825
   256.5000      8.1659      2.4966     -0.1394      9.2982     24.1266     88.6682
   256.6000      8.1659      2.4861     -0.0519      9.9336     21.1659     91.5768
   256.7000      8.1659      2.4882      0.0450      9.8042     19.4275     96.0200
   256.8000      8.1654      2.4936      0.0713      9.4763     18.6100     97.7170
   256.9000      8.1654      2.4882      0.0972      9.8046     17.8465     96.8533
   257.0000      8.1647      2.4635      0.0772     11.3035     17.0807     98.7354
   257.1000      8.1647      2.4369     -0.0078     12.9176     16.7464    104.0827
   257.2000      8.1647      2.4344      0.0190     13.0655     16.8496    106.5557
   257.3000      8.1637      2.4497      0.0834     12.1364     17.1003    103.4519
   257.4000      8.1637      2.4602      0.0945     11.5002     17.2366     98.0178
   257.5000      8.1636      2.4632      0.0883     11.3218     17.1562     92.9243
   257.6000      8.1636      2.4653      0.1108     11.1960     16.9563     87.9162
   257.7000      8.1636      2.4681      0.0960     11.0255     16.7249     83.6441
   257.8000      8.1680      2.4706      0.0872     10.8752     16.4517     83.3644
   257.9000      8.1680      2.4693      0.0566     10.9496     16.0576     86.4650
   258.0000      8.1841      2.4663      0.0324     11.1320     15.5789     88.2171
   258.1000      8.1841      2.4677      0.0620     11.0476     15.4009     88.2960
   258.2000      8.1841      2.4677      0.0652     11.0503     15.5702     88.0843
   258.3000      8.2121      2.4550      0.0748     11.8170     15.6090     86.6956
   258.4000      8.2121      2.4379      0.0317     12.8557     15.3441     84.2365
   258.5000      8.2356      2.4329      0.0540     13.1592     14.9690     81.2266
   258.6000      8.2356      2.4375      0.0507     12.8807     14.5623     76.7959
   258.7000      8.2356      2.4354      0.0879     13.0069     14.1796     71.6668
   258.8000      8.2470      2.4239      0.0256     13.7020     13.9677     68.6319
   258.9000      8.2470      2.4160      0.0454     14.1818     14.0460     66.9372
   259.0000      8.2516      2.4142      0.0366     14.2934     14.2238     63.1761
   259.1000      8.2516      2.4163      0.0353     14.1653     14.2489     59.1323
   259.2000      8.2516      2.4237      0.0484     13.7146     14.2703     59.0633
   259.3000      8.2527      2.4346      0.0469     13.0533     14.5402     62.9176
   259.4000      8.2527      2.4431      0.0704     12.5419     14.9615     67.1569
   259.5000      8.2509      2.4447      0.0442     12.4422     15.1788     67.9499
