~Version Information
 VERS.                                  2.0 : CWLS LAS VERSION
 WRAP.                                   NO : WRAPING MODE
 SWARE .                 MController 2.5.0J : SOFTWARE VERSION
~Well Information
 WELL.                         Leier 17-24V : WELL
 COMP.                Petrogulf Corporation : COMPANY
 FLD.                      Purgatoire River : FIELD
 LOC.                SE/NE Sec 17 T33S R67W : LOCATION
 DATE.                             09/21/05 : DATE(S) LOGGED
 SRVC.       BLANCO Geological Services LLC : SERVICE COMPANY
 STAT.                                   CO : STATE
 CNTY.                           Las Animas : COUNTY
 CTRY.                                  USA : COUNTRY
 API.                       05-071-08409-00 : API NUMBER
 STRT.FT                             1.00 : START DEPTH
 STOP.FT                            2455.00 : STOP DEPTH
 STEP.FT                               1.00 : DEPTH INCREMENT
 NULL.                                -9999 : NULL VALUE
~Curve information
 DEPTH.FT                                   :
 ROP.MIN/FT                                 :
 GAS.UNITS                                  :
~ASCII Log data
# ...
      2196.0         0.23         75.6 
      2197.0         0.27         73.4 
      2198.0         0.27         70.3 
      2199.0         0.27         67.1 
      2200.0         0.27         64.2 
      2201.0         0.23         61.3 
      2202.0         0.33         59.7 
      2203.0         0.30         57.2 
      2204.0         0.37         54.9 
      2205.0         0.37         52.3 
      2206.0         0.35         50.7 
      2207.0         0.33         49.9 
      2208.0         0.33         49.7 
      2209.0         0.33         48.9 
      2210.0         0.33         48.4 
      2211.0         0.17         47.8 
      2212.0         0.20         48.7 
      2213.0         0.17         49.4 
      2214.0         0.20         49.9 
      2215.0         0.33         49.8 
      2216.0         4.03         98.4 
      2217.0         0.33         80.3 
      2218.0         0.40         88.2 
      2219.0         0.20         88.5 
      2220.0         0.27         87.8 
      2221.0         0.50         84.4 
      2222.0         0.37         76.1 
      2223.0         0.37         72.2 
      2224.0         0.37         71.5 
      2225.0         0.35         69.3 
      2226.0         0.33         65.2 
      2227.0         0.27         60.6 
      2228.0         0.27         57.8 
      2229.0         0.37         55.9 
      2230.0         0.43         53.7 
      2231.0         0.33         51.4 
      2232.0         0.37         49.9 
      2233.0         0.33         48.6 
      2234.0         0.33         47.9 
      2235.0         0.35         47.4 
      2236.0         0.30         47.4 
      2237.0         0.27         46.9 
      2238.0         0.30         46.6 
      2239.0         0.30         46.2 
      2240.0         0.27         45.7 
      2241.0         0.40         45.7 
      2242.0         0.43         45.6 
      2243.0         0.40         45.0 
      2244.0         0.33         44.6 
      2245.0         0.48         44.4 
      2246.0         4.85        109.2 
      2247.0         0.50         83.7 
      2248.0         0.47         80.8 
      2249.0         0.40         73.5 
      2250.0         0.42         67.9 
      2251.0         0.37         67.9 
      2252.0         0.30         67.1 
      2253.0         0.27         64.2 
      2254.0         0.27         61.6 
      2255.0         0.30         59.0 
      2256.0         0.23         56.3 
      2257.0         0.27         54.3 
      2258.0         0.27         52.7 
      2259.0         0.23         51.3 
      2260.0         0.18         50.7 
      2261.0         0.13         52.4 
      2262.0         0.17         56.9 
      2263.0         0.13         61.0 
      2264.0         0.23         69.7 
      2265.0         0.27         78.1 
      2266.0         0.27         80.6 
      2267.0         0.33         80.3 
      2268.0         0.33         75.5 
      2269.0         0.30         70.9 
      2270.0         0.43         67.2 
      2271.0         0.30         62.6 
      2272.0         0.23         60.8 
      2273.0         0.25         59.9 
      2274.0         0.20         58.1 
      2275.0         0.27         53.7 
      2276.0         4.35        153.8 
      2277.0         0.27         82.3 
      2278.0         0.27         90.3 
      2279.0         0.17         94.0 
      2280.0         0.13         98.5 
      2281.0         0.17        103.6 
      2282.0         0.20        106.2 
      2283.0         0.20        106.0 
      2284.0         0.32        102.3 
      2285.0         0.33         94.9 
      2286.0         0.30         88.8 
      2287.0         0.33         83.6 
      2288.0         0.37         80.2 
      2289.0         0.33         79.4 
      2290.0         0.30         76.2 
      2291.0         0.23         70.8 
      2292.0         0.27         67.4 
      2293.0         0.23         64.7 
      2294.0         0.13         64.1 
      2295.0         0.13         67.1 
      2296.0         0.13         71.7 
      2297.0         0.15         77.4 
      2298.0         0.13         82.2 
      2299.0         0.17         88.3 
      2300.0         0.23         96.2 
      2301.0         0.30        100.2 
      2302.0         0.30         99.9 
      2303.0         0.23         94.6 
      2304.0         0.20         88.6 
      2305.0         0.30         83.7 
      2306.0         5.87        132.2 
      2307.0         0.10         95.4 
      2308.0         0.17         93.6 
      2309.0         0.27        102.9 
      2310.0         0.23        112.2 
      2311.0         0.27        116.4 
      2312.0         0.13        121.2 
      2313.0         0.30        136.0 
      2314.0         0.33        137.6 
      2315.0         0.28        132.8 
      2316.0         0.27        121.6 
      2317.0         0.33        112.3 
      2318.0         0.27        107.7 
      2319.0         0.37        105.4 
      2320.0         0.33        100.6 
      2321.0         0.23         93.0 
      2322.0         0.30         88.5 
      2323.0         0.27         84.2 
      2324.0         0.27         81.2 
      2325.0         0.27         78.1 
      2326.0         0.27         74.9 
      2327.0         0.28         72.3 
      2328.0         0.27         69.9 
      2329.0         0.27         67.9 
      2330.0         0.27         66.4 
      2331.0         0.27         65.3 
      2332.0         0.27         64.2 
      2333.0         0.27         62.8 
      2334.0         0.27         61.8 
      2335.0         0.27         61.0 
      2336.0         4.53        155.3 
      2337.0         0.40        157.5 
      2338.0         0.37        153.6 
      2339.0         0.37        135.9 
      2340.0         0.33        116.7 
      2341.0         0.40        103.8 
      2342.0         0.40         90.7 
      2343.0         0.30         81.8 
      2344.0         0.35         76.2 
      2345.0         0.33         73.3 
      2346.0         0.33         72.2 
      2347.0         0.30         69.7 
      2348.0         0.30         66.6 
      2349.0         0.33         63.1 
      2350.0         0.33         60.5 
      2351.0         0.33         58.5 
      2352.0         0.33         56.7 
      2353.0         0.33         55.6 
      2354.0         0.42         54.2 
      2355.0         0.37         52.3 
      2356.0         0.40         50.9 
      2357.0         0.40         49.8 
      2358.0         0.47         48.8 
      2359.0         0.43         47.5 
      2360.0         0.43         47.9 
      2361.0         0.47         47.6 
      2362.0         0.48         47.4 
      2363.0         0.50         47.1 
      2364.0         0.50         46.6 
      2365.0         4.93        149.0 
      2366.0         0.53         96.6 
      2367.0         0.47        102.1 
      2368.0         0.50        101.1 
      2369.0         0.47         91.8 
      2370.0         0.35         81.5 
      2371.0         0.27         76.9 
      2372.0         0.30         73.8 
      2373.0         0.33         69.3 
      2374.0         0.40         66.5 
      2375.0         0.47         63.7 
      2376.0         0.47         60.8 
      2377.0         0.53         55.8 
      2378.0         0.52         51.8 
      2379.0         0.53         50.3 
      2380.0         0.47         48.4 
      2381.0         0.47         47.6 
      2382.0         0.40         46.8 
      2383.0         0.30         46.4 
      2384.0         0.30         46.8 
      2385.0         0.32         46.7 
      2386.0         0.33         46.5 
      2387.0         0.43         46.4 
      2388.0         0.37         45.9 
      2389.0         0.33         45.6 
      2390.0         0.33         45.0 
      2391.0         0.33         44.7 
      2392.0         0.35         45.5 
      2393.0         0.30         45.3 
      2394.0         0.37         44.9 
      2395.0         0.47         42.6 
