~Version Information
VERS.                      2.0: CWLS Log ASCII Standard - VERSION 2.0
WRAP.                       NO: One line per depth step
~Well Information Block
STRT.FT               250.0000: 
STOP.FT              1017.5000: 
STEP.FT                 0.1000: 
NULL.                -999.2500: 
COMP.          Pioneer Natural Resources: COMPANY
WELL.              Oscar 41-31: WELL
FLD.           Purgatoire River: FIELD
LOC.           412' FNL & 1216' FEL: LOCATION
PROV.                 Colorado: PROVINCE
CNTY.               Las Animas: COUNTRY
SRVC.                Patterson: SERVICE COMPANY
DATE.          Thu Feb 24 15:11:09 2005: LOG DATE
UWI.           05 071 08290 00: UNIQUE WELL ID
~Curve Information Block
DEPT.FT            0 000 00 00: Depth
DCAL.in                       : CDL Caliper
RHOB.g/cc                     : CDL Bulk Density
RHOC.g/cc                     : CDL Density Correction
DPOR.pu                       : CDL Density Porosity
GR.GAPI                       : Gamma Ray
NPOR.pu                       : Neutron Porosity
~Parameter Information Block
~A  Depth       DCAL        RHOB        RHOC        DPOR         GR         NPOR    
# ...
   298.0000      7.9917      2.4442      0.0765     12.4747    122.8055     17.5868
   298.1000      7.9917      2.4236      0.0519     13.7212    122.6997     15.7604
   298.2000      7.9917      2.3721      0.0196     16.8400    122.2399     14.6086
   298.3000      7.9961      2.2916     -0.0323     21.7204    121.1179     13.8801
   298.4000      7.9961      2.1813     -0.0256     28.4086    117.1249     12.6639
   298.5000      8.0273      2.0435     -0.0917     36.7589    109.9094     11.1416
   298.6000      8.0273      1.8997     -0.1261     45.4716    102.7870     10.1556
   298.7000      8.0273      1.7679     -0.1236     53.4579     96.3028      9.9352
   298.8000      8.0795      1.6445     -0.1123     60.9392     88.3183      9.8520
   298.9000      8.0795      1.5272     -0.1192     68.0507     78.9969      9.5067
   299.0000      8.1429      1.4292     -0.1431     73.9857     71.9212      8.9794
   299.1000      8.1429      1.3645     -0.0656     77.9075     69.6909      8.4021
   299.2000      8.1429      1.3424     -0.0215     79.2498     70.7575      8.0918
   299.3000      8.2005      1.3621      0.1395     78.0564     71.5220      8.3188
   299.4000      8.2005      1.4040      0.2128     75.5149     71.2333      9.2165
   299.5000      8.2259      1.4562      0.2091     72.3488     72.7646     10.7424
   299.6000      8.2259      1.5271      0.2004     68.0566     76.5483     12.5235
   299.7000      8.2259      1.6243      0.2279     62.1646     80.3658     14.4396
   299.8000      8.1874      1.7478      0.2296     54.6784     83.7623     17.0841
   299.9000      8.1874      1.8924      0.2714     45.9148     87.7967     20.3894
   300.0000      8.0641      2.0483      0.2930     36.4669     91.7309     23.1483
   300.1000      8.0641      2.2051      0.3452     26.9634     95.8789     24.6058
   300.2000      8.0641      2.3459      0.3787     18.4301    100.5517     25.3532
   300.3000      7.9072      2.4467      0.3749     12.3203    102.6337     26.6597
   300.4000      7.9072      2.4942      0.3116      9.4449    101.4919     28.6648
   300.5000      7.8021      2.5029      0.1746      8.9172    101.6798     30.1765
   300.6000      7.8021      2.5048      0.1316      8.8016    106.2177     30.5321
   300.7000      7.8021      2.5114      0.1354      8.4005    111.4939     30.0800
   300.8000      7.7646      2.5183      0.0412      7.9812    114.5972     29.1703
   300.9000      7.7646      2.5268      0.0813      7.4640    116.2289     27.8938
   301.0000      7.8989      2.5351      0.0547      6.9650    116.1046     26.6175
   301.1000      7.8989      2.5383      0.0993      6.7690    114.0688     25.9063
   301.2000      7.8989      2.5352      0.0533      6.9602    109.5915     25.8892
   301.3000      7.8979      2.5331      0.0458      7.0824    103.4240     26.0804
   301.4000      7.8979      2.5398      0.0328      6.6773     99.7239     26.0329
   301.5000      7.8976      2.5491      0.0919      6.1143    101.4122     25.6671
   301.6000      7.8976      2.5481      0.0344      6.1727    106.7448     24.8478
   301.7000      7.8976      2.5383      0.0597      6.7727    111.9222     23.8184
   301.8000      7.8974      2.5335      0.0430      7.0593    115.5932     23.3349
   301.9000      7.8974      2.5411      0.0790      6.5975    118.9952     23.6596
   302.0000      7.8968      2.5510      0.0420      5.9973    121.4983     23.8701
   302.1000      7.8968      2.5441      0.0589      6.4153    121.4940     23.1968
   302.2000      7.8968      2.5144      0.0169      8.2166    119.6430     22.5152
   302.3000      7.8965      2.4838      0.0114     10.0698    118.4174     22.6005
   302.4000      7.8965      2.4712     -0.0209     10.8370    121.2971     22.6145
   302.5000      7.8969      2.4711     -0.0188     10.8414    127.6804     21.7490
   302.6000      7.8969      2.4684      0.0313     11.0080    131.5942     21.0125
   302.7000      7.8969      2.4564     -0.0208     11.7363    129.3101     21.4950
   302.8000      7.8976      2.4465      0.0047     12.3308    123.5786     22.5472
   302.9000      7.8976      2.4521      0.0031     11.9931    120.1396     23.2583
   303.0000      7.8982      2.4777      0.0152     10.4434    119.7168     23.5963
   303.1000      7.8982      2.5150      0.0624      8.1791    118.5432     23.5695
   303.2000      7.8982      2.5477      0.0770      6.2029    116.6927     23.0101
   303.3000      7.8987      2.5684      0.1173      4.9438    116.4371     22.1465
   303.4000      7.8987      2.5759      0.1330      4.4922    118.6900     21.2313
   303.5000      7.8991      2.5682      0.1361      4.9579    123.7948     20.6897
   303.6000      7.8991      2.5609      0.0608      5.4018    130.7255     21.1456
   303.7000      7.8991      2.5666      0.1278      5.0528    137.4381     22.2488
   303.8000      7.9020      2.5700      0.1403      4.8484    142.3992     22.9565
   303.9000      7.9020      2.5612      0.0864      5.3846    142.4843     23.3094
   304.0000      7.9050      2.5392      0.1149      6.7133    137.0556     24.1877
   304.1000      7.9050      2.4995      0.0833      9.1222    129.7785     25.4847
   304.2000      7.9050      2.4567     -0.0120     11.7175    124.3742     26.3513
   304.3000      7.9021      2.4348      0.0281     13.0448    121.3862     26.8142
   304.4000      7.9021      2.4391     -0.0341     12.7789    118.7133     26.9407
   304.5000      7.8982      2.4581      0.0135     11.6291    117.5871     26.5086
   304.6000      7.8982      2.4655      0.0667     11.1824    120.9033     25.9367
   304.7000      7.8982      2.4477     -0.0051     12.2622    127.4016     25.9575
   304.8000      7.8974      2.4250      0.0439     13.6337    131.4116     26.7125
   304.9000      7.8974      2.4238      0.0401     13.7087    128.9665     27.4083
   305.0000      7.8974      2.4554      0.0583     11.7936    123.5590     27.4827
   305.1000      7.8974      2.5147      0.0974      8.1985    120.3447     27.4937
   305.2000      7.8974      2.5860      0.1511      3.8804    116.5014     28.0279
   305.3000      7.8974      2.6521      0.2092     -0.1273    107.5953     28.5856
   305.4000      7.8974      2.7006      0.2223     -3.0647     98.6059     28.5785
   305.5000      7.8972      2.7254      0.2371     -4.5708     95.4326     28.4789
   305.6000      7.8972      2.7277      0.2135     -4.7083     95.1404     28.4583
   305.7000      7.8972      2.7172      0.1834     -4.0730     93.6107     28.0614
   305.8000      7.8973      2.7001      0.1886     -3.0368     91.6863     27.3068
   305.9000      7.8973      2.6750      0.1401     -1.5153     91.8509     26.4809
   306.0000      7.8976      2.6441      0.0781      0.3579     93.6349     25.6799
   306.1000      7.8976      2.6111      0.0743      2.3560     92.9822     24.7955
   306.2000      7.8976      2.5841      0.0348      3.9954     88.5931     23.3418
   306.3000      7.8978      2.5766      0.0219      4.4489     83.8441     21.5490
   306.4000      7.8978      2.5852      0.0657      3.9275     82.0021     20.5513
   306.5000      7.8977      2.5917      0.0889      3.5335     84.0401     20.6008
   306.6000      7.8977      2.5952      0.0656      3.3212     87.6782     21.2023
   306.7000      7.8977      2.6019      0.0789      2.9128     89.5885     22.3040
   306.8000      7.8974      2.6073      0.1035      2.5872     89.2262     23.7784
   306.9000      7.8974      2.6118      0.0775      2.3149     88.7136     25.0066
   307.0000      7.8971      2.6170      0.0694      2.0008     88.1850     25.8247
   307.1000      7.8971      2.6171      0.1045      1.9961     85.3716     26.4860
   307.2000      7.8971      2.6200      0.0460      1.8168     81.3203     26.9045
   307.3000      7.8962      2.6426      0.0492      0.4477     79.1225     27.1366
   307.4000      7.8962      2.6856      0.0624     -2.1589     78.1851     27.2531
   307.5000      7.8949      2.7409      0.0716     -5.5100     74.3627     26.9596
