~Version Information
VERS.                      2.0: CWLS Log ASCII Standard - VERSION 2.0
WRAP.                       NO: One line per depth step
~Well Information Block
STRT.FT               340.0000: 
STOP.FT              1731.0000: 
STEP.FT                 0.1000: 
NULL.                -999.2500: 
COMP.          Pioneer Natural Resources: COMPANY
WELL.          Rancher 12-35 Tr: WELL
FLD.           Purgatoire River: FIELD
LOC.           2242' FNL & 308' FWL SWNW 35 32S 67W: LOCATION
PROV.                 Colorado: PROVINCE
CNTY.               Las Animas: COUNTRY
SRVC.                Patterson: SERVICE COMPANY
DATE.          Tue Jul 05 07:18:22 2005: LOG DATE
UWI.              05 071 08430 00: UNIQUE WELL ID
~Curve Information Block
DEPT.FT            0 000 00 00: Depth
DCAL.in                       : CDL Caliper
RHOB.g/cc                     : CDL Bulk Density
RHOC.g/cc                     : CDL Density Correction
DPOR.pu                       : CDL Density Porosity
GR.GAPI                       : Gamma Ray
NPOR.pu                       : Neutron Porosity
~Parameter Information Block
~A  Depth       DCAL        RHOB        RHOC        DPOR         GR         NPOR    
# ...
   618.4000      8.3651      2.3754      0.2321     16.6442    144.1126     23.5444
   618.5000      8.5377      2.3293      0.1371     19.4337    140.2523     23.5352
   618.6000      8.5377      2.3044      0.1449     20.9471    139.7050     23.4926
   618.7000      8.5377      2.3083      0.1172     20.7100    139.7050     23.6217
   618.8000      8.5638      2.3416      0.0861     18.6914    141.0920     24.2726
   618.9000      8.5638      2.3950      0.1244     15.4527    146.4254     25.3625
   619.0000      8.2959      2.4483      0.1623     12.2223    151.7417     26.0760
   619.1000      8.2959      2.4932      0.1715      9.5029    151.6963     26.3904
   619.2000      8.2959      2.5381      0.1618      6.7833    148.0809     26.9555
   619.3000      8.3463      2.5754      0.2608      4.5190    145.8237     27.5161
   619.4000      8.3463      2.5800      0.2546      4.2431    147.3398     27.4338
   619.5000      8.2401      2.5604      0.1900      5.4280    151.3273     26.8493
   619.6000      8.2401      2.5468      0.1848      6.2561    153.4404     26.3779
   619.7000      8.2401      2.5372      0.1912      6.8387    153.7599     26.2662
   619.8000      8.2151      2.5207      0.0855      7.8394    154.9145     26.4897
   619.9000      8.2151      2.5008      0.0804      9.0420    153.9911     26.9170
   620.0000      8.2255      2.4729      0.0524     10.7353    148.9150     26.9906
   620.1000      8.2255      2.4292      0.0666     13.3841    145.2656     26.4962
   620.2000      8.2255      2.3814     -0.0413     16.2760    147.4687     26.0794
   620.3000      8.2700      2.3561     -0.0301     17.8144    150.4696     26.4359
   620.4000      8.2700      2.3588      0.0140     17.6474    151.8852     27.4555
   620.5000      8.1691      2.3717      0.0078     16.8687    154.6375     28.2819
   620.6000      8.1691      2.3789      0.0111     16.4331    157.0877     28.3042
   620.7000      8.1691      2.3844     -0.0604     16.0953    155.4296     27.6953
   620.8000      8.1476      2.4050      0.0125     14.8484    152.1696     27.0644
   620.9000      8.1476      2.4355      0.0868     12.9976    151.0853     26.9883
   621.0000      8.1106      2.4585      0.0481     11.6066    149.2752     27.2624
   621.1000      8.1106      2.4745      0.0938     10.6384    146.2083     27.2781
   621.2000      8.1106      2.4894      0.0827      9.7306    146.6695     27.1221
   621.3000      8.0589      2.5025      0.1287      8.9423    148.1905     27.3073
   621.4000      8.0589      2.5089      0.1187      8.5543    144.8335     28.0985
   621.5000      8.0627      2.5127      0.0556      8.3190    139.8125     29.1325
   621.6000      8.0627      2.5214      0.0616      7.7931    138.2907     29.6903
   621.7000      8.0627      2.5314      0.0633      7.1902    137.7637     29.5657
   621.8000      8.1062      2.5367      0.0855      6.8656    135.8131     29.0875
   621.9000      8.1062      2.5302      0.1094      7.2617    133.3078     28.7138
   622.0000      8.1210      2.5099      0.0668      8.4884    131.9871     28.9479
   622.1000      8.1210      2.4923      0.0359      9.5551    131.6962     29.5842
   622.2000      8.1210      2.4956     -0.0320      9.3597    130.3353     29.7400
   622.3000      8.1266      2.5122      0.0392      8.3507    127.9877     29.2999
   622.4000      8.1266      2.5102      0.0461      8.4748    127.2071     28.7977
   622.5000      8.1209      2.4849     -0.0194     10.0075    127.1384     28.3749
   622.6000      8.1209      2.4748     -0.0369     10.6185    127.1809     28.0749
   622.7000      8.1209      2.4973      0.0365      9.2563    128.9645     27.9060
   622.8000      8.1094      2.5341      0.0482      7.0262    130.4876     27.6369
   622.9000      8.1094      2.5676      0.0765      4.9932    129.3799     27.2404
   623.0000      8.0914      2.5883      0.0751      3.7410    127.6247     27.1838
   623.1000      8.0914      2.5969      0.1097      3.2185    127.6249     27.6147
   623.2000      8.0914      2.6020      0.1325      2.9091    129.0071     27.8678
   623.3000      8.0627      2.6036      0.0683      2.8097    129.5057     27.3742
   623.4000      8.0627      2.5939      0.0944      3.3984    128.2569     26.3717
   623.5000      8.0134      2.5755      0.0625      4.5139    128.5159     25.6959
   623.6000      8.0134      2.5617      0.0783      5.3527    131.6124     25.9893
   623.7000      8.0134      2.5509      0.0949      6.0047    132.8330     26.8835
   623.8000      8.0236      2.5360      0.0567      6.9099    128.0212     27.5026
   623.9000      8.0236      2.5356      0.0159      6.9320    118.4868     27.6132
   624.0000      8.0235      2.5726      0.0606      4.6933    110.2943     27.9026
   624.1000      8.0235      2.6286      0.1291      1.2960    110.9612     28.9659
   624.2000      8.0235      2.6686      0.1317     -1.1286    119.4440     30.0735
   624.3000      8.0086      2.6882      0.1063     -2.3150    125.0186     29.9975
   624.4000      8.0086      2.7016      0.1487     -3.1259    123.1655     28.7556
   624.5000      8.0009      2.7075      0.1106     -3.4820    116.7974     27.3268
   624.6000      8.0009      2.7038      0.0844     -3.2585    107.9618     26.2105
   624.7000      8.0009      2.6967      0.0936     -2.8329     97.6201     25.2101
   624.8000      8.0013      2.6672      0.1908     -1.0397     90.7626     24.2131
   624.9000      8.0013      2.5852      0.0710      3.9300     89.9208     23.3703
   625.0000      8.0237      2.4753     -0.0532     10.5865     90.4212     22.6283
   625.1000      8.0237      2.3880     -0.0189     15.8805     91.0465     21.7871
   625.2000      8.0237      2.3306     -0.0636     19.3600     94.7946     20.8534
   625.3000      8.0213      2.2865     -0.0159     22.0275    100.4039     20.0296
   625.4000      8.0213      2.2531     -0.0199     24.0525    107.6661     19.8441
   625.5000      8.0097      2.2424      0.0193     24.7024    118.6410     20.4337
   625.6000      8.0097      2.2609      0.1154     23.5801    129.0555     21.2155
   625.7000      8.0097      2.2943      0.2256     21.5587    132.4352     21.6178
   625.8000      8.0734      2.3154      0.3055     20.2807    133.2994     21.5456
   625.9000      8.0734      2.3121      0.2646     20.4809    139.0450     21.3528
   626.0000      8.0877      2.2963      0.2459     21.4371    142.8899     21.5651
   626.1000      8.0877      2.2863      0.2108     22.0448    139.4371     22.1096
   626.2000      8.0877      2.2919      0.1678     21.7047    137.4488     22.7741
   626.3000      8.1496      2.3049      0.2299     20.9174    141.0300     23.9272
   626.4000      8.1496      2.3117      0.1825     20.5005    143.3058     25.5052
   626.5000      8.2268      2.3172      0.1586     20.1674    138.9387     26.7927
   626.6000      8.2268      2.3293      0.1567     19.4367    132.2792     27.4728
   626.7000      8.2268      2.3464      0.1334     18.4015    133.3825     27.6920
   626.8000      8.2258      2.3616      0.1350     17.4781    142.6415     27.6010
   626.9000      8.2258      2.3687      0.0929     17.0513    154.3236     27.3817
   627.0000      8.2078      2.3743      0.0937     16.7111    163.2326     27.1486
   627.1000      8.2078      2.3886      0.0764     15.8447    165.2272     26.8908
   627.2000      8.2078      2.4096      0.0987     14.5721    162.5018     26.6816
   627.3000      8.1716      2.4295      0.1194     13.3665    155.4654     26.6505
   627.4000      8.1716      2.4434      0.1369     12.5186    143.3353     26.7701
   627.5000      8.1163      2.4482      0.1432     12.2312    134.9344     26.9238
   627.6000      8.1163      2.4446      0.1162     12.4487    134.0262     27.0260
   627.7000      8.1163      2.4361      0.1104     12.9607    135.6978     27.0932
   627.8000      8.1238      2.4247      0.1231     13.6552    138.1606     27.1266
   627.9000      8.1238      2.4160      0.1119     14.1818    141.7745     27.3230
