~Version Information
VERS.                      2.0: CWLS Log ASCII Standard - VERSION 2.0
WRAP.                       NO: One line per depth step
~Well Information Block
STRT.FT                -6.7500: 
STOP.FT              1766.5000: 
STEP.FT                 0.2500: 
NULL.                -999.2500: 
COMP.          Pioneer Natural Resources: COMPANY
WELL.            Hill 33-22 Tr: WELL
FLD.           Purgatorie River: FIELD
LOC.           1573' FSL & 1585' FEL: LOCATION
PROV.                 Colorado: PROVINCE
CNTY.               Las Animas: COUNTRY
SRVC.          Patterson Wireline: SERVICE COMPANY
DATE.          Tue Apr 19 09:26:19 2005: LOG DATE
UWI.           05-071-08316-00: UNIQUE WELL ID
~Curve Information Block
DEPT.FT            0 000 00 00: Depth
CCL.                          : Casing Collar Locator
TT3.usec                      : CBL 3' Travel Time
AMP3.mV                       : CBL 3' Amplitude
GR.GAPI                       : Gamma Ray
~Parameter Information Block
~A  Depth       CCL         TT3         AMP3         GR     
    -6.7500   -999.2500   -999.2500   -999.2500     61.9622
    -6.5000   -999.2500   -999.2500   -999.2500     63.4456
    -6.2500   -999.2500   -999.2500   -999.2500     65.7773
    -6.0000   -999.2500   -999.2500   -999.2500     67.8596
    -5.7500   -999.2500   -999.2500   -999.2500     69.9481
    -5.5000   -999.2500   -999.2500   -999.2500     72.3723
    -5.2500   -999.2500   -999.2500   -999.2500     74.4470
    -5.0000   -999.2500   -999.2500   -999.2500     74.9769
    -4.7500   -999.2500   -999.2500   -999.2500     73.5510
    -4.5000   -999.2500   -999.2500   -999.2500     71.0953
    -4.2500   -999.2500   -999.2500   -999.2500     69.1945
    -4.0000   -999.2500   -999.2500   -999.2500     68.9561
    -3.7500   -999.2500   -999.2500   -999.2500     70.3835
    -3.5000   -999.2500   -999.2500   -999.2500     72.5007
    -3.2500   -999.2500   -999.2500   -999.2500     73.9959
    -3.0000   -999.2500   -999.2500   -999.2500     74.2080
    -2.7500   -999.2500   -999.2500   -999.2500     73.7693
    -2.5000   -999.2500   -999.2500   -999.2500     73.8745
    -2.2500   -999.2500   -999.2500   -999.2500     74.7621
    -2.0000   -999.2500   -999.2500   -999.2500     75.4319
    -1.7500   -999.2500   1470.0000     -1.9553     74.9460
    -1.5000   -999.2500   1470.0000     -1.9715     73.4452
    -1.2500   -999.2500   1470.0000     -1.9871     71.8264
    -1.0000   -999.2500   1470.0000     -1.9909     70.8820
    -0.7500   -999.2500   1470.0000     -1.9781     70.7369
    -0.5000   -999.2500   1470.0000     -1.9417     70.7577
    -0.2500   -999.2500   1470.0000     -1.9446     70.0834
     0.0000   -999.2500   1470.0000     -1.9641     68.4132
     0.2500   -999.2500   1470.0000     -1.9883     66.0648
     0.5000   -999.2500   1470.0000     -2.0022     63.2702
     0.7500   -999.2500   1470.0000     -1.9984     59.8068
     1.0000   -999.2500   1470.0000     -1.9802     55.3311
     1.2500   -999.2500   1470.0000     -1.9583     49.7579
     1.5000   -999.2500   1470.0000     -1.9418     43.4889
     1.7500   -999.2500   1470.0000     -1.9324     37.6002
     2.0000   -999.2500   1470.0000     -1.9263     33.4847
     2.2500   -999.2500   1470.0000     -1.9190     31.9027
     2.5000   -999.2500   1470.0000     -1.9108     32.5236
     2.7500   -999.2500   1470.0000     -1.9059     34.5562
     3.0000   -999.2500   1470.0000     -1.9078     37.5294
     3.2500   -999.2500   1470.0000     -1.9168     41.1606
     3.5000   -999.2500   1470.0000     -1.9302     44.6938
     3.7500      0.0000   1470.0000     -1.9453     46.9488
     4.0000      0.0000   1470.0000     -1.9597     47.2847
     4.2500      0.0000   1470.0000     -1.9709     46.2302
     4.5000      0.0000   1470.0000     -1.9764     44.9914
     4.7500      0.0000   1470.0000     -1.9738     44.6420
     5.0000      0.0000   1470.0000     -1.9613     45.8714
     5.2500      0.0000   1470.0000     -1.9393     48.9812
     5.5000      0.0000   1470.0000     -1.9126     53.6359
     5.7500      0.0000   1470.0000     -1.8905     58.6787
     6.0000      0.0000   1470.0000     -1.8837     62.5393
     6.2500      0.0000   1470.0000     -1.8968     64.1378
     6.5000      0.0000   1470.0000     -1.9235     63.5102
     6.7500      0.0000   1470.0000     -1.9497     61.6421
     7.0000      0.0000   1470.0000     -1.9639     59.8574
     7.2500      0.0000   1470.0000     -1.9641     59.3307
     7.5000      0.0000   1470.0000     -1.9559     60.6814
     7.7500      0.0000   1470.0000     -1.9440     63.4870
     8.0000      0.0000   1470.0000     -1.9273     66.3219
     8.2500      0.0000   1470.0000     -1.9025     67.8635
     8.5000      0.0000   1470.0000     -1.8713     68.1548
     8.7500      0.0000   1470.0000     -1.8436     68.4681
     9.0000      0.0000   1470.0000     -1.8322     69.7535
     9.2500      0.0000   1470.0000     -1.8412     71.5012
     9.5000      0.0000   1470.0000     -1.8628     72.4148
     9.7500      0.0000   1470.0000     -1.8845     72.0913
    10.0000      0.0000   1470.0000     -1.8981     71.6595
    10.2500      0.0000   1470.0000     -1.9020     72.5975
    10.5000      0.0000   1470.0000     -1.9002     75.1422
    10.7500      0.0000   1470.0000     -1.9021     78.0078
    11.0000      0.0000   1470.0000     -1.9182     79.4940
    11.2500      0.0000   1469.9554     -1.9508     78.8611
    11.5000      0.0000   1469.6282     -1.9856     76.8696
    11.7500      0.0000   1467.9159     -1.9864     75.0930
    12.0000      0.0000   1460.8914     -1.8512     74.6190
    12.2500      0.0000   1438.2511     -1.2836     75.2118
    12.5000      0.0000   1380.9475      0.3969     75.5488
    12.7500      0.0000   1267.0331      4.2279     74.2808
    13.0000      0.0000   1089.4752     10.9375     71.0554
    13.2500      0.0000    873.8127     19.8446     66.7384
    13.5000      0.0000    674.0118     28.5871     62.7243
    13.7500      0.0000    544.6363     34.5159     59.9662
    14.0000      0.0000    515.6256     36.4396     58.5700
    14.2500      0.0000    588.5004     34.8298     58.0817
    14.5000      0.0000    742.6516     30.8143     57.7931
    14.7500      0.0000    937.8751     25.5630     56.8665
    15.0000      0.0000   1122.3912     20.2614     54.8332
    15.2500      0.0000   1255.7991     15.8653     52.2384
    15.5000      0.0000   1330.5013     12.6892     50.4460
    15.7500     -5.0000   1367.4836     10.4462     50.6439
    16.0000      0.0000   1390.0533      8.7021     53.0208
    16.2500      0.0000   1403.0367      7.2275     56.5333
    16.5000      0.0000   1395.1370      6.0425     59.3514
    16.7500      0.0000   1355.3724      5.2836     60.0695
    17.0000      0.0000   1284.8010      5.0535     58.7675
    17.2500      0.0000   1194.9736      5.3328     56.7229
    17.5000      0.0000   1099.4078      5.9710     55.1593
    17.7500      0.0000   1009.3972      6.7314     54.5035
    18.0000      0.0000    935.0404      7.3677     54.6320
    18.2500      0.0000    883.5203      7.7199     55.2570
    18.5000      0.0000    855.0675      7.7706     55.8498
    18.7500      0.0000    843.8825      7.6152     55.6522
    19.0000      0.0000    843.7761      7.3770     54.3133
    19.2500      0.0000    851.5972      7.1419     52.3853
    19.5000      0.0000    865.7489      6.9441     50.8522
    19.7500      0.0000    883.0605      6.7873     50.2385
    20.0000      0.0000    898.5881      6.6639     50.3160
    20.2500      0.0000    908.9275      6.5595     50.5100
    20.5000      0.0000    915.1379      6.4533     50.3786
    20.7500      0.0000    921.0013      6.3280     49.7944
    21.0000      0.0000    928.6253      6.1844     48.9719
    21.2500      0.0000    936.7413      6.0430     48.5005
    21.5000      0.0000    943.2768      5.9266     49.0633
    21.7500      0.0000    949.1477      5.8414     50.7299
    22.0000      0.0000    960.9315      5.7759     52.6157
    22.2500      0.0000    990.5140      5.7143     53.5627
    22.5000      0.0000   1048.4144      5.6506     53.2035
    22.7500      0.0000   1131.3342      5.5907     52.2570
    23.0000      0.0000   1216.4771      5.5443     51.8750
    23.2500      0.0000   1275.1678      5.5140     52.7917
    23.5000      0.0000   1296.1492      5.4931     54.9100
    23.7500      0.0000   1292.5933      5.4731     57.3418
    24.0000      0.0000   1284.2343      5.4506     58.8133
    24.2500      0.0000   1275.9423      5.4262     58.3901
    24.5000      0.0000   1256.7272      5.3958     56.1174
    24.7500      0.0000   1219.1406      5.3485     52.9960
    25.0000      0.0000   1176.6101      5.2757     50.1929
    25.2500      0.0000   1156.3511      5.1802     48.1388
    25.5000      0.0000   1173.3984      5.0771     46.3457
    25.7500      0.0000   1217.1930      4.9856     44.1500
    26.0000      0.0000   1267.0831      4.9178     41.6389
    26.2500      0.0000   1313.6252      4.8717     39.7777
    26.5000      0.0000   1358.5151      4.8332     39.5935
