~Version Information
VERS.                      2.0: CWLS Log ASCII Standard - VERSION 2.0
WRAP.                       NO: One line per depth step
~Well Information Block
STRT.FT               675.0000: 
STOP.FT              2373.5000: 
STEP.FT                 0.2500: 
NULL.                -999.2500: 
COMP.          Pioneer Natural Resources: COMPANY
WELL.            Harrier 44-33: WELL
FLD.           Purgatoire River: FIELD
LOC.           456' FSL & 930' FEL: LOCATION
PROV.                 Colorado: PROVINCE
CNTY.               Las Animas: COUNTRY
SRVC.                Patterson: SERVICE COMPANY
DATE.          Mon Jun 20 07:40:56 2005: LOG DATE
UWI.           05 071 08398 00: UNIQUE WELL ID
~Curve Information Block
DEPT.FT            0 000 00 00: Depth
SN.Ohm-m                      : IEL Short Normal
SP.mV                         : IEL Spontaneous Potential
DIR.Ohm-m                     : IEL Induction Resistivity
GR.GAPI                       : Gamma Ray
~Parameter Information Block
~A  Depth        SN          SP         DIR          GR     
# ...
  2249.5000      9.2368    208.6684      8.2712     95.7179
  2249.7500      9.2386    208.5563      8.3311     97.1810
  2250.0000      9.1449    208.5233      8.3770    100.5386
  2250.2500      8.9672    208.5493      8.3967    102.5110
  2250.5000      8.7991    208.6217      8.3819    103.8521
  2250.7500      8.7042    208.7417      8.3307    103.8545
  2251.0000      8.6688    208.9190      8.2478    103.9216
  2251.2500      8.6448    209.1568      8.1436    104.6766
  2251.5000      8.6136    209.4423      8.0312    106.7505
  2251.7500      8.5707    209.7503      7.9223    108.0514
  2252.0000      8.4909    210.0602      7.8239    108.7453
  2252.2500      8.3640    210.3701      7.7377    108.3702
  2252.5000      8.2122    210.6948      7.6618    107.7144
  2252.7500      8.0438    211.0471      7.5941    107.9723
  2253.0000      7.8199    211.4196      7.5347    109.6036
  2253.2500      7.5159    211.7849      7.4864    110.8194
  2253.5000      7.2171    212.1112      7.4538    111.2523
  2253.7500      7.0766    212.3773      7.4414    110.3629
  2254.0000      7.1780    212.5726      7.4519    108.4844
  2254.2500      7.4783    212.6899      7.4860    107.8542
  2254.5000      7.8905    212.7204      7.5436    108.5143
  2254.7500      8.3550    212.6573      7.6237    109.7291
  2255.0000      8.7748    212.5043      7.7250    111.7397
  2255.2500      9.0301    212.2816      7.8457    112.7033
  2255.5000      9.1104    212.0215      7.9837    113.0859
  2255.7500      9.1239    211.7548      8.1372    112.5300
  2256.0000      9.1825    211.4952      8.3056    110.3625
  2256.2500      9.3216    211.2346      8.4885    107.9229
  2256.5000      9.5334    210.9512      8.6855    102.8201
  2256.7500      9.8170    210.6277      8.8956     98.7780
  2257.0000     10.1412    210.2666      9.1166     92.5819
  2257.2500     10.4196    209.8893      9.3435     88.7255
  2257.5000     10.5701    209.5219      9.5680     83.6555
  2257.7500     10.5979    209.1813      9.7790     80.9128
  2258.0000     10.6137    208.8701      9.9653     78.2031
  2258.2500     10.7081    208.5818     10.1189     77.5555
  2258.5000     10.8729    208.3064     10.2387     78.1884
  2258.7500     11.0987    208.0317     10.3305     79.2677
  2259.0000     11.3945    207.7391     10.4023     81.0493
  2259.2500     11.6655    207.3964     10.4583     81.9914
  2259.5000     11.7467    206.9540     10.4954     82.6118
  2259.7500     11.6004    206.3535     10.5057     82.3524
  2260.0000     11.3435    205.5439     10.4824     81.1299
  2260.2500     11.0769    204.4961     10.4241     80.1949
  2260.5000     10.8117    203.2104     10.3360     79.7335
  2260.7500     10.5661    201.7188     10.2269     80.6764
  2261.0000     10.3948    200.0832     10.1051     84.4277
  2261.2500     10.3004    198.3874      9.9757     88.1979
  2261.5000     10.2373    196.7234      9.8410     94.3373
  2261.7500     10.1798    195.1801      9.7022     97.6615
  2262.0000     10.1138    193.8325      9.5617    100.0339
  2262.2500     10.0259    192.7302      9.4226     99.7012
  2262.5000      9.9149    191.8852      9.2882     97.3205
  2262.7500      9.7839    191.2728      9.1595     95.3819
  2263.0000      9.6527    190.8488      9.0329     93.0194
  2263.2500      9.5475    190.5772      8.9017     91.9866
  2263.5000      9.4515    190.4494      8.7632     91.3160
  2263.7500      9.3267    190.4797      8.6253     91.6020
  2264.0000      9.1666    190.6851      8.5062     93.4036
  2264.2500      9.0157    191.0739      8.4260     95.5252
  2264.5000      8.9564    191.6523      8.3964     99.8878
  2264.7500      9.0256    192.4281      8.4166    103.4081
  2265.0000      9.1735    193.3997      8.4752    108.8796
  2265.2500      9.3295    194.5479      8.5547    111.7130
  2265.5000      9.4522    195.8408      8.6382    112.4788
  2265.7500      9.4810    197.2309      8.7139    109.6871
  2266.0000      9.3179    198.6404      8.7791    100.9600
  2266.2500      8.9315    199.9587      8.8404     93.7505
  2266.5000      8.4432    201.0772      8.9115     84.7482
  2266.7500      8.1186    201.9365      9.0079     81.6674
  2267.0000      8.2441    202.5407      9.1421     81.6615
  2267.2500      8.9132    202.9303      9.3195     83.3499
  2267.5000      9.9552    203.1449      9.5344     85.4042
  2267.7500     11.0772    203.2086      9.7679     85.5392
  2268.0000     12.0278    203.1440      9.9885     84.5007
  2268.2500     12.6784    202.9917     10.1578     84.0141
  2268.5000     13.0229    202.8157     10.2416     84.7594
  2268.7500     13.1096    202.6867     10.2218     86.0270
  2269.0000     12.9940    202.6556     10.1016     87.6934
  2269.2500     12.7144    202.7347      9.8999     88.1009
  2269.5000     12.2811    202.9003      9.6397     88.4279
  2269.7500     11.7338    203.1148      9.3405     89.6750
  2270.0000     11.1658    203.3517      9.0179     94.4593
  2270.2500     10.6445    203.6073      8.6869     99.0579
  2270.5000     10.1566    203.8952      8.3635    105.4830
  2270.7500      9.6979    204.2331      8.0635    108.2026
  2271.0000      9.3551    204.6335      7.7997    109.7318
  2271.2500      9.1949    205.0994      7.5805    109.8417
  2271.5000      9.1296    205.6241      7.4103    110.3867
  2271.7500      9.0081    206.1924      7.2911    111.7768
  2272.0000      8.8077    206.7848      7.2235    115.6652
  2272.2500      8.6334    207.3820      7.2057    118.7958
  2272.5000      8.5221    207.9683      7.2332    122.2744
  2272.7500      8.3983    208.5357      7.2983    122.8099
  2273.0000      8.2491    209.0931      7.3929    120.5511
  2273.2500      8.1794    209.6734      7.5127    117.3414
  2273.5000      8.2842    210.3265      7.6599    110.6237
  2273.7500      8.5795    211.0878      7.8447    105.1825
  2274.0000      9.0626    211.9338      8.0832     96.3959
  2274.2500      9.8018    212.7719      8.3938     90.8299
  2274.5000     10.9624    213.4828      8.7943     83.9477
  2274.7500     12.7039    213.9828      9.2969     80.4861
  2275.0000     14.9969    214.2557      9.9033     76.2555
  2275.2500     17.5394    214.3486     10.5977     73.2251
  2275.5000     19.8928    214.3475     11.3386     66.8198
  2275.7500     21.7446    214.3499     12.0560     60.8280
  2276.0000     23.0686    214.4425     12.6601     49.9883
  2276.2500     24.0292    214.6791     13.0680     42.9687
  2276.5000     24.7178    215.0604     13.2389     36.0584
  2276.7500     24.9789    215.5296     13.1930     35.3793
  2277.0000     24.4885    216.0025     12.9966     40.9357
  2277.2500     23.0443    216.4150     12.7235     48.2899
  2277.5000     20.8582    216.7460     12.4223     62.3245
  2277.7500     18.5055    217.0035     12.1087     71.9495
  2278.0000     16.5132    217.1986     11.7797     84.0752
  2278.2500     15.0654    217.3359     11.4329     89.6185
  2278.5000     14.0582    217.4215     11.0775     93.9983
  2278.7500     13.3135    217.4738     10.7318     95.1921
  2279.0000     12.7641    217.5204     10.4162     96.9106
  2279.2500     12.4292    217.5834     10.1459     99.2336
  2279.5000     12.2562    217.6677      9.9289    104.8575
  2279.7500     12.1398    217.7659      9.7675    109.3894
  2280.0000     12.0081    217.8712      9.6618    116.0925
  2280.2500     11.8053    217.9754      9.6137    119.9935
  2280.5000     11.4963    218.0525      9.6267    124.3002
  2280.7500     11.1166    218.0499      9.7033    125.9534
  2281.0000     10.8032    217.9077      9.8422    127.1669
  2281.2500     10.7817    217.5978     10.0383    127.8048
  2281.5000     11.2612    217.1542     10.2863    129.2353
  2281.7500     12.2425    216.6652     10.5831    130.3591
  2282.0000     13.4921    216.2246     10.9248    131.2465
  2282.2500     14.7233    215.8794     11.3000    130.5670
  2282.5000     15.7028    215.6179     11.6831    127.0723
  2282.7500     16.3062    215.4063     12.0354    123.5852
