~Version Information
VERS.                      2.0: CWLS Log ASCII Standard - VERSION 2.0
WRAP.                       NO: One line per depth step
~Well Information Block
STRT.FT                -3.7500: 
STOP.FT               930.7500: 
STEP.FT                 0.2500: 
NULL.                -999.2500: 
COMP.          Pioneer Natural Resources: COMPANY
WELL.                Pug 33-19: WELL
FLD.           Purgatorie River: FIELD
LOC.           1381' FSL & 2140' FEL--: LOCATION
PROV.                       CO: PROVINCE
CNTY.               Las Animas: COUNTRY
SRVC.                         : SERVICE COMPANY
DATE.          Mon Dec 20 15:44:45 2004: LOG DATE
UWI.                          : UNIQUE WELL ID
~Curve Information Block
DEPT.FT            0 000 00 00: Depth
GR.GAPI                       : Gamma Ray
CCL.                          : Casing Collar Locator
TT3.usec                      : CBL 3' Travel Time
AMP3.mV                       : CBL 3' Amplitude
~Parameter Information Block
~A  Depth        GR         CCL         TT3         AMP3    
# ...
   230.7500     94.7832      0.0000    770.0010     11.7527
   231.0000     90.9833      0.0000    770.1298     11.6438
   231.2500     88.0140      0.0000    770.1805     11.4930
   231.5000     86.4345      0.0000    770.1552     11.3098
   231.7500     85.8386      0.0000    770.0748     11.1294
   232.0000     85.6371      0.0000    769.9617     10.9990
   232.2500     85.6491      0.0000    769.8308     10.9476
   232.5000     85.9083      0.0000    769.6942     10.9654
   232.7500     86.1307      0.0000    769.5684     11.0107
   233.0000     85.7424      0.0000    769.4709     11.0382
   233.2500     84.2940      0.0000    769.4074     11.0320
   233.5000     81.4689      0.0000    769.3647     11.0164
   233.7500     77.0119      0.0000    769.3212     11.0341
   234.0000     71.1672      0.0000    769.2689     11.1078
   234.2500     65.0603      0.0000    769.2309     11.2244
   234.5000     60.2667      0.0000    769.2509     11.3539
   234.7500     57.9366      0.0000    769.3544     11.4801
   235.0000     58.1664      0.0000    769.5208     11.6116
   235.2500     59.9510      0.0000    769.6982     11.7680
   235.5000     61.8680      0.0000    769.8446     11.9594
   235.7500     63.1358      0.0000    769.9458     12.1793
   236.0000     64.1101      0.0000    770.0005     12.4120
   236.2500     65.7186      0.0000    770.0020     12.6377
   236.5000     68.4140      0.0000    769.9387     12.8314
   236.7500     71.7335      0.0000    769.8090     12.9634
   237.0000     74.8418      0.0000    769.6257     13.0087
   237.2500     77.3106      0.0000    769.4078     12.9551
   237.5000     79.2459      0.0000    769.1757     12.8063
   237.7500     80.9497      0.0000    768.9593     12.5822
   238.0000     82.7957      0.0000    768.8014     12.3166
   238.2500     85.1419      0.0000    768.7386     12.0534
   238.5000     87.7844      0.0000    768.7737     11.8358
   238.7500     89.7889      0.0000    768.8686     11.6892
   239.0000     90.4614      0.0000    768.9635     11.6110
   239.2500     90.2630      0.0000    769.0082     11.5782
   239.5000     90.2568      0.0000    768.9896     11.5645
   239.7500     90.9541      0.0000    768.9410     11.5484
   240.0000     92.2665      0.0000    768.9139     11.5134
   240.2500     94.2887      0.0000    768.9308     11.4545
   240.5000     97.3600      0.0000    768.9708     11.3880
   240.7500    101.2087      0.0000    769.0050     11.3439
   241.0000    104.5154      0.0000    769.0277     11.3439
   241.2500    105.8555      0.0000    769.0468     11.3888
   241.5000    105.2473      0.0000    769.0641     11.4610
   241.7500    104.4437      0.0000    769.0853     11.5350
   242.0000    105.3090      0.0000    769.1390     11.5922
   242.2500    107.8530      0.0000    769.2684     11.6339
   242.5000    110.0363      0.0000    769.5044     11.6750
   242.7500    109.6832      0.0000    769.8557     11.7213
   243.0000    106.6349      0.0000    770.3860     11.7579
   243.2500    102.9743      0.0000    771.3577     11.7617
   243.5000    101.0634      0.0000    773.3270     11.7189
   243.7500    101.4679      0.0000    776.9116     11.6313
   244.0000    102.8926      0.0000    782.0541     11.5150
   244.2500    103.7455      0.0000    787.3690     11.3933
   244.5000    103.2108      0.0000    790.7183     11.2821
   244.7500    100.8961      0.0000    790.8923     11.1770
   245.0000     96.3231      0.0000    788.4260     11.0623
   245.2500     89.5248      0.0000    784.6347     10.9329
   245.5000     82.0955      0.0000    780.5037     10.8053
   245.7500     76.9282      0.0000    776.6639     10.7081
   246.0000     76.2796      0.0000    773.6421     10.6650
   246.2500     79.8889      0.0000    771.6945     10.6802
   246.5000     85.0152      0.0000    770.6661     10.7331
   246.7500     88.3548      0.0000    770.1791     10.7912
   247.0000     88.2475      0.0000    769.8596     10.8338
   247.2500     85.5355      0.0000    769.3350     10.8619
   247.5000     82.5219      0.0000    768.0761     10.8864
   247.7500     81.0434      0.0000    765.3478     10.9121
   248.0000     81.3194      0.0000    760.6271     10.9350
   248.2500     82.3142      0.0000    754.4705     10.9469
   248.5000     82.8468      0.0000    748.9638     10.9398
   248.7500     82.3761      0.0000    746.7529     10.9126
   249.0000     81.1170      0.0000    749.0745     10.8780
   249.2500     79.7395      0.0000    754.6965     10.8546
   249.5000     79.0402      0.0000    760.9354     10.8468
   249.7500     79.6484      0.0000    765.6393     10.8375
   250.0000     81.6994      0.0000    768.2036     10.8043
   250.2500     84.8681      0.0000    769.1479     10.7383
   250.5000     88.9949      0.0000    769.2418     10.6479
   250.7500     94.3131      0.0000    769.0269     10.5529
   251.0000    100.6137      0.0000    768.7722     10.4731
   251.2500    106.5730      0.0000    768.5792     10.4143
   251.5000    110.5090      0.0000    768.4604     10.3647
   251.7500    111.7057      0.0000    768.3775     10.3122
   252.0000    110.6856      0.0000    768.2760     10.2683
   252.2500    108.5696      0.0000    768.1414     10.2684
   252.5000    106.6816      0.0000    768.0159     10.3465
   252.7500    106.4502      0.0000    767.9329     10.5090
   253.0000    108.7398      0.0000    767.6177     10.7261
   253.2500    112.8729      0.0000    766.0306     10.9457
   253.5000    116.7568      0.0000    761.0509     11.1205
   253.7500    118.4116      0.0000    750.3494     11.2353
   254.0000    117.3558      0.0000    734.2416     11.3059
   254.2500    114.6865      0.0000    718.3628     11.3455
   254.5000    112.3934      0.0000    711.3884     11.3438
   254.7500    112.4487      0.0000    717.6798     11.2927
   255.0000    115.5704      0.0000    732.9571     11.2175
   255.2500    120.3691      0.0000    748.6472     11.1569
   255.5000    123.9948      0.0000    759.2036     11.1187
   255.7500    123.8545      0.0000    764.3095     11.0755
   256.0000    118.9809      0.0000    766.1745     10.9990
   256.2500    110.2877      0.0000    766.7517     10.8824
   256.5000     99.8838      0.0000    766.9263     10.7309
   256.7500     90.0854      0.0000    766.7189     10.5443
   257.0000     82.6371      0.0000    765.4623     10.3082
   257.2500     78.3401      0.0000    761.9847      9.9972
   257.5000     77.1756      0.0000    755.4700      9.6066
   257.7500     78.7986      0.0000    747.4076      9.1900
   258.0000     82.8841      0.0000    742.8470      8.8400
   258.2500     89.0448      0.0000    747.9191      8.5971
   258.5000     96.5101      0.0000    764.2205      8.4015
   258.7500    103.7599      0.0000    786.4477      8.1665
   259.0000    108.4828      0.0000    807.5517      7.8771
   259.2500    108.5992      0.0000    825.4507      7.5907
   259.5000    104.1107      0.0000    842.5128      7.3683
   259.7500     97.7754      2.0000    859.5162      7.2391
   260.0000     93.3144      0.0000    873.3427      7.2241
   260.2500     92.7825      0.0000    880.4964      7.3779
   260.5000     95.8112      0.0000    879.9211      7.7928
   260.7500    100.9114      0.0000    871.8737      8.5263
   261.0000    106.6838      0.0000    856.5721      9.4865
   261.2500    111.8107      0.0000    835.4116     10.4184
   261.5000    115.0409      0.0000    812.3000     11.0682
   261.7500    116.0032      0.0000    792.0210     11.3678
   262.0000    115.4897      0.0000    777.0811     11.4347
   262.2500    114.2825      0.0000    766.7891     11.4280
   262.5000    112.0318      0.0000    759.1832     11.4412
   262.7500    107.7304      0.0000    753.1381     11.4953
   263.0000    100.9366      0.0000    748.7676     11.5737
   263.2500     92.2829      0.0000    746.5219     11.6460
   263.5000     83.3288      0.0000    746.0995     11.6824
   263.7500     76.2788      0.0000    746.0988     11.6735
   264.0000     73.2939      0.0000    745.1326     11.6450
