~Version Information
VERS.                      2.0: CWLS Log ASCII Standard - VERSION 2.0
WRAP.                       NO: One line per depth step
~Well Information Block
STRT.FT                -8.2500: 
STOP.FT              1175.7500: 
STEP.FT                 0.2500: 
NULL.                -999.2500: 
COMP.          Evergreen Operating Corporation: COMPANY
WELL.             Justin 32-10: WELL
FLD.           Purgatorie River: FIELD
LOC.           2994' FNL & 1449' FEL: LOCATION
PROV.                 Colorado: PROVINCE
CNTY.               Las Animas: COUNTRY
SRVC.                         : SERVICE COMPANY
DATE.          Wed Sep 29 10:00:10 2004: LOG DATE
UWI.           05 071 08053 00: UNIQUE WELL ID
~Curve Information Block
DEPT.FT            0 000 00 00: Depth
GR.GAPI                       : Gamma Ray
CCL.                          : Casing Collar Locator
TT3.usec                      : CBL 3' Travel Time
AMP3.mV                       : CBL 3' Amplitude
~Parameter Information Block
~A  Depth        GR         CCL         TT3         AMP3    
# ...
    58.7500     66.5324      0.0000    315.3958      7.8223
    59.0000     67.3049      0.0000    315.1689      8.0148
    59.2500     68.7153      0.0000    314.9715      8.2031
    59.5000     69.9080      0.0000    314.8053      8.3774
    59.7500     70.1785      0.0000    314.6803      8.5249
    60.0000     69.5933      0.0000    314.6028      8.6382
    60.2500     68.8816      0.0000    314.5640      8.7173
    60.5000     68.6776      0.0000    314.5424      8.7631
    60.7500     68.9373      0.0000    314.5185      8.7674
    61.0000     69.1659      0.0000    314.4900      8.7144
    61.2500     69.2220      0.0000    314.4728      8.5986
    61.5000     69.7120      0.0000    314.4909      8.4404
    61.7500     71.3589      0.0000    314.5583      8.2798
    62.0000     74.0170      0.0000    314.6640      8.1527
    62.2500     76.5386      0.0000    314.7738      8.0699
    62.5000     77.7329      0.0000    314.8517      8.0145
    62.7500     77.4392      0.0000    314.8849      7.9579
    63.0000     76.5621      0.0000    314.8902      7.8815
    63.2500     76.0787      0.0000    314.9003      7.7873
    63.5000     76.1463      0.0000    314.9430      7.6906
    63.7500     76.1160      0.0000    315.0279      7.6010
    64.0000     75.0804      0.0000    315.1507      7.5148
    64.2500     72.3818      0.0000    315.3117      7.4248
    64.5000     67.9884      0.0000    315.5280      7.3313
    64.7500     62.7790      0.0000    315.8669      7.2390
    65.0000     58.3578      0.0000    316.5129      7.1486
    65.2500     56.0961      0.0000    317.9504      7.0574
    65.5000     56.0408      0.0000    321.1303      6.9649
    65.7500     56.8089      0.0000    327.4231      6.8730
    66.0000     56.6386      0.0000    337.9711      6.7804
    66.2500     54.5946      0.0000    352.7602      6.6850
    66.5000     51.0214      0.0000    370.6979      6.5947
    66.7500     47.1436      0.0000    392.4530      6.5303
    67.0000     44.2196      0.0000    423.8764      6.5141
    67.2500     42.8388      0.0000    473.1802      6.5514
    67.5000     42.7067      0.0000    540.8167      6.6237
    67.7500     42.8565      0.0000    614.5363      6.6978
    68.0000     42.1890      0.0000    679.6022      6.7463
    68.2500     40.2710      0.0000    732.1724      6.7618
    68.5000     37.8914      0.0000    778.1786      6.7544
    68.7500     36.6718      0.0000    821.3102      6.7369
    69.0000     37.9043      0.0000    856.9327      6.7167
    69.2500     41.6906      0.0000    876.9288      6.7008
    69.5000     46.9119      0.0000    877.8157      6.7010
    69.7500     51.6659      0.0000    864.1487      6.7254
    70.0000     54.0608      0.0000    844.0050      6.7655
    70.2500     53.3944      0.0000    821.7032      6.7992
    70.5000     50.7475      0.0000    797.5566      6.8084
    70.7500     48.1004      0.0000    774.6604      6.7934
    71.0000     46.8268      0.0000    760.8688      6.7671
    71.2500     47.0498      0.0000    760.9379      6.7377
    71.5000     48.0577      0.0000    768.9626      6.6949
    71.7500     49.0232      0.0000    772.0179      6.6129
    72.0000     49.5002      0.0000    761.7602      6.4645
    72.2500     49.5873      0.0000    741.5543      6.2429
    72.5000     49.6560      0.0000    723.8319      5.9782
    72.7500     49.7323      0.0000    724.2764      5.7206
    73.0000     49.2233      0.0000    758.3715      5.4828
    73.2500     47.5121      0.0000    834.3145      5.2167
    73.5000     44.7656      0.0000    939.5297      4.8804
    73.7500     41.8369      0.0000   1039.0662      4.5116
    74.0000     39.3486      0.0000   1100.6683      4.1961
    74.2500     37.2511      0.0000   1122.3389      3.9860
    74.5000     35.4300     -1.5546   1124.8728      3.8838
    74.7500     34.5067      0.0000   1118.7393      3.8900
    75.0000     35.7888      0.0000   1090.6858      4.0489
    75.2500     40.3717      0.0000   1024.4158      4.4424
    75.5000     48.1751      0.0000    924.2877      5.1106
    75.7500     57.8127      0.0000    814.2391      5.9453
    76.0000     67.5424      0.0000    718.9997      6.6944
    76.2500     76.4279      0.0000    651.2427      7.1385
    76.5000     84.4298      0.0000    611.5322      7.2566
    76.7500     91.3354      0.0000    591.5699      7.1931
    77.0000     95.9831      0.0000    579.3533      7.1030
    77.2500     97.0180      0.0000    571.0667      7.0613
    77.5000     94.3101      0.0000    578.6733      7.0710
    77.7500     89.1955      0.0000    617.1441      7.1030
    78.0000     83.4171      0.0000    681.0887      7.1282
    78.2500     78.3455      0.0000    741.3788      7.1346
    78.5000     75.0133      0.0000    769.8776      7.1322
    78.7500     73.8866      0.0000    764.0624      7.1404
    79.0000     74.1632      0.0000    745.2767      7.1701
    79.2500     73.9470      0.0000    737.3932      7.2070
    79.5000     71.6949      0.0000    748.4996      7.2176
    79.7500     67.4486      0.0000    767.8536      7.1774
    80.0000     62.5473      0.0000    777.5593      7.0972
    80.2500     58.3466      0.0000    769.5903      7.0152
    80.5000     55.3979      0.0000    752.5902      6.9648
    80.7500     53.7624      0.0000    742.5507      6.9551
    81.0000     53.6596      0.0000    749.7852      6.9788
    81.2500     55.2713      0.0000    775.2820      7.0303
    81.5000     57.8909      0.0000    814.8356      7.1119
    81.7500     59.9404      0.0000    862.0197      7.2221
    82.0000     60.2636      0.0000    906.5614      7.3380
    82.2500     59.1306      0.0000    932.9960      7.4189
    82.5000     57.7765      0.0000    926.0870      7.4383
    82.7500     57.2845      0.0000    881.2161      7.4134
    83.0000     58.0588      0.0000    810.5682      7.3918
    83.2500     60.0023      0.0000    738.9716      7.4025
    83.5000     62.7824      0.0000    690.9351      7.4276
    83.7500     65.6978      0.0000    677.4958      7.4276
    84.0000     67.4492      0.0000    693.3624      7.3858
    84.2500     66.6841      0.0000    724.1147      7.3172
    84.5000     63.1860      0.0000    755.2941      7.2413
    84.7500     58.2649      0.0000    779.3782      7.1595
    85.0000     53.7910      0.0000    798.2760      7.0603
    85.2500     51.2283      0.0000    818.0051      6.9379
    85.5000     51.5341      0.0000    840.5195      6.8031
    85.7500     55.1725      0.0000    861.2886      6.6791
    86.0000     61.6690      0.0000    872.2423      6.5861
    86.2500     69.2326      0.0000    865.7310      6.5254
    86.5000     75.2093      0.0000    839.7654      6.4792
    86.7500     77.4146      0.0000    801.7846      6.4272
    87.0000     75.4893      0.0000    764.7411      6.3602
    87.2500     71.1586      0.0000    738.1649      6.2792
    87.5000     67.1681      0.0000    723.6209      6.1905
    87.7500     65.7348      0.0000    717.5835      6.1091
    88.0000     67.3624      0.0000    716.5792      6.0655
    88.2500     70.5720      0.0000    720.0436      6.0989
    88.5000     73.1101      0.0000    730.6505      6.2352
    88.7500     73.9936      0.0000    752.5563      6.4616
    89.0000     74.0861      0.0000    787.7681      6.7198
    89.2500     74.3542      0.0000    832.8346      6.9304
    89.5000     74.2251      0.0000    879.9577      7.0367
    89.7500     72.3355      0.0000    923.4366      7.0326
    90.0000     68.5272      0.0000    964.7242      6.9582
    90.2500     64.6123      0.0000   1007.6676      6.8700
    90.5000     63.2522      0.0000   1047.1658      6.8075
    90.7500     65.8750      0.0000   1067.9749      6.7757
    91.0000     71.2915      0.0000   1061.6954      6.7516
    91.2500     76.5619      0.0000   1041.7246      6.7052
    91.5000     79.5493      0.0000   1031.1986      6.6188
    91.7500     80.3830      0.0000   1034.6812      6.4945
    92.0000     80.4637      0.0000   1031.6025      6.3536
