~Version Information
VERS.                      2.0: CWLS Log ASCII Standard - VERSION 2.0
WRAP.                       NO: One line per depth step
~Well Information Block
STRT.FT               340.0000: 
STOP.FT              1731.0000: 
STEP.FT                 0.1000: 
NULL.                -999.2500: 
COMP.          Pioneer Natural Resources: COMPANY
WELL.          Rancher 12-35 Tr: WELL
FLD.           Purgatoire River: FIELD
LOC.           2242' FNL & 308' FWL SWNW 35 32S 67W: LOCATION
PROV.                 Colorado: PROVINCE
CNTY.               Las Animas: COUNTRY
SRVC.                Patterson: SERVICE COMPANY
DATE.          Tue Jul 05 07:18:22 2005: LOG DATE
UWI.              05 071 08430 00: UNIQUE WELL ID
~Curve Information Block
DEPT.FT            0 000 00 00: Depth
DCAL.in                       : CDL Caliper
RHOB.g/cc                     : CDL Bulk Density
RHOC.g/cc                     : CDL Density Correction
DPOR.pu                       : CDL Density Porosity
GR.GAPI                       : Gamma Ray
NPOR.pu                       : Neutron Porosity
~Parameter Information Block
~A  Depth       DCAL        RHOB        RHOC        DPOR         GR         NPOR    
# ...
   887.2000      8.2163      2.4763      0.1606     10.5283    130.8082     23.4025
   887.3000      8.3072      2.5194      0.2158      7.9136    137.5234     23.8511
   887.4000      8.3072      2.5531      0.2863      5.8706    146.4864     27.2436
   887.5000      8.1437      2.5486      0.2911      6.1480    152.6210     29.5721
   887.6000      8.1437      2.5125      0.1110      8.3323    158.1803     28.0226
   887.7000      8.1437      2.4913      0.1048      9.6209    162.3950     25.6345
   887.8000      8.1600      2.5055      0.1524      8.7574    163.2359     26.1223
   887.9000      8.1600      2.5266      0.1848      7.4795    161.8209     27.7657
   888.0000      8.2536      2.5211      0.1876      7.8126    153.6796     27.1192
   888.1000      8.2536      2.4918      0.1341      9.5879    140.5596     26.0594
   888.2000      8.2536      2.4722      0.0694     10.7768    134.1699     27.5321
   888.3000      8.2438      2.4827      0.0844     10.1419    141.1323     29.6276
   888.4000      8.2438      2.5051      0.0910      8.7814    153.1551     30.4000
   888.5000      8.1867      2.5144      0.0887      8.2193    158.7273     30.1636
   888.6000      8.1867      2.5112      0.0793      8.4135    159.1104     28.2172
   888.7000      8.1867      2.5050      0.1243      8.7867    160.6509     25.1246
   888.8000      8.1362      2.4953      0.0934      9.3766    162.1350     24.1718
   888.9000      8.1362      2.4781      0.0976     10.4173    156.6941     26.7753
   889.0000      8.0876      2.4591      0.0506     11.5714    143.9209     29.9527
   889.1000      8.0876      2.4553      0.0432     11.8016    130.4248     30.0677
   889.2000      8.0876      2.4814      0.0023     10.2210    123.7022     26.6492
   889.3000      8.0214      2.5480      0.0753      6.1846    123.5936     22.2557
   889.4000      8.0214      2.6434      0.1750      0.3991    122.0278     20.8482
   889.5000      7.9774      2.7344      0.2067     -5.1181    117.6985     23.5764
   889.6000      7.9774      2.8149      0.2015     -9.9918    115.0077     27.4881
   889.7000      7.9774      2.8943      0.2382    -14.8084    112.9233     29.2471
   889.8000      7.9531      2.9518      0.2270    -18.2916    110.1792     29.1873
   889.9000      7.9531      2.9605      0.1854    -18.8152    106.8205     28.1366
   890.0000      7.9386      2.9206      0.1477    -16.4010     98.6533     25.8019
   890.1000      7.9386      2.8446      0.0838    -11.7953     86.6030     23.9063
   890.2000      7.9386      2.7555     -0.0314     -6.3943     82.1948     24.4178
   890.3000      7.9263      2.6828     -0.0818     -1.9894     88.2026     26.2943
   890.4000      7.9263      2.6294     -0.0760      1.2483     94.1510     27.1041
   890.5000      7.9155      2.5897     -0.1753      3.6575     96.8792     25.6061
   890.6000      7.9155      2.5688     -0.1262      4.9198    103.3847     24.0980
   890.7000      7.9155      2.5519     -0.0866      5.9432    111.9642     25.6141
   890.8000      7.9608      2.5178     -0.0023      8.0125    115.2725     28.8788
   890.9000      7.9608      2.4797      0.0292     10.3207    115.5269     30.8284
   891.0000      8.1019      2.4770      0.0302     10.4854    118.5012     30.3041
   891.1000      8.1019      2.5274      0.0811      7.4333    126.0261     27.6739
   891.2000      8.1019      2.6123      0.0997      2.2845    136.4581     25.3373
   891.3000      8.1101      2.7021      0.2067     -3.1563    144.2526     24.9822
   891.4000      8.1101      2.7657      0.1976     -7.0101    143.3508     25.8086
   891.5000      8.0396      2.7947      0.1899     -8.7688    134.7370     27.5575
   891.6000      8.0396      2.8154      0.1984    -10.0254    129.5454     29.9976
   891.7000      8.0396      2.8438      0.2170    -11.7426    131.4194     31.2004
   891.8000      7.9733      2.8608      0.1888    -12.7785    130.4686     30.0355
   891.9000      7.9733      2.8418      0.1534    -11.6234    120.8818     27.6823
   892.0000      7.9431      2.7831      0.0628     -8.0671    107.4192     26.5099
   892.1000      7.9431      2.7008      0.0302     -3.0798     96.5471     27.6085
   892.2000      7.9431      2.6154     -0.0555      2.0990     93.4408     29.4791
   892.3000      7.9397      2.5476     -0.0451      6.2038    101.2245     30.0657
   892.4000      7.9397      2.5055     -0.0314      8.7586    114.0977     28.7749
   892.5000      8.0436      2.4902     -0.0720      9.6820    122.6681     26.7460
   892.6000      8.0436      2.5038     -0.0372      8.8591    128.0622     25.7558
   892.7000      8.0436      2.5301      0.0335      7.2669    133.5440     26.6575
   892.8000      8.1979      2.5513      0.0330      5.9832    135.1994     28.4994
   892.9000      8.1979      2.5646      0.0505      5.1779    135.4946     29.2219
   893.0000      8.1648      2.5589      0.0602      5.5227    140.4598     28.4942
   893.1000      8.1648      2.5211      0.0484      7.8094    148.2669     26.8448
   893.2000      8.1648      2.4662     -0.0212     11.1386    154.9912     23.9737
   893.3000      8.1144      2.4216     -0.0202     13.8402    159.5143     21.5972
   893.4000      8.1144      2.3925     -0.0696     15.6081    160.4516     22.2206
   893.5000      8.1042      2.3729     -0.0982     16.7926    157.7424     24.5369
   893.6000      8.1042      2.3716     -0.0989     16.8701    152.6899     25.5241
   893.7000      8.1042      2.4010     -0.0783     15.0903    148.5653     25.9987
   893.8000      8.1021      2.4494      0.0517     12.1588    150.1391     27.5013
   893.9000      8.1021      2.4934      0.0081      9.4882    155.3067     28.3869
   894.0000      8.1389      2.5347      0.0324      6.9887    156.6141     27.1167
   894.1000      8.1389      2.5737      0.1010      4.6228    153.2513     25.3561
   894.2000      8.1389      2.5922      0.1041      3.5040    150.5346     25.6901
   894.3000      8.1308      2.5834      0.1119      4.0392    150.1669     27.6581
   894.4000      8.1308      2.5570      0.0546      5.6372    147.8134     28.8556
   894.5000      8.1117      2.5265      0.0706      7.4850    144.1687     28.3262
   894.6000      8.1117      2.4995      0.0229      9.1202    144.9343     27.1089
   894.7000      8.1117      2.4787      0.0633     10.3824    148.3034     27.0476
   894.8000      8.0794      2.4630      0.0125     11.3357    146.9306     28.5316
   894.9000      8.0794      2.4409      0.0469     12.6724    140.2589     29.5757
   895.0000      8.0958      2.3909     -0.0003     15.7009    132.9590     28.7269
   895.1000      8.0958      2.3115     -0.0217     20.5163    129.2334     26.4412
   895.2000      8.0958      2.2307     -0.0802     25.4094    132.5024     25.3346
   895.3000      8.1496      2.1683     -0.0322     29.1957    140.1737     27.6912
   895.4000      8.1496      2.1197     -0.0386     32.1371    150.4291     30.8100
   895.5000      8.1728      2.0866     -0.0424     34.1448    162.1435     30.0638
   895.6000      8.1728      2.0804     -0.0141     34.5187    166.5652     26.4519
   895.7000      8.1728      2.1179     -0.0037     32.2504    160.2532     24.8083
   895.8000      8.1476      2.2170      0.1102     26.2443    154.1530     26.6528
   895.9000      8.1476      2.3615      0.3419     17.4863    156.8430     29.6861
   896.0000      8.1149      2.4961      0.4788      9.3248    163.7231     31.9580
   896.1000      8.1149      2.5820      0.4998      4.1242    166.2247     33.2051
   896.2000      8.1149      2.6178      0.4996      1.9522    165.0214     33.5192
   896.3000      8.1126      2.6176      0.3970      1.9656    164.3105     32.7911
   896.4000      8.1126      2.5992      0.3085      3.0801    161.8272     30.9616
   896.5000      8.1526      2.5761      0.1951      4.4808    154.8346     29.3342
   896.6000      8.1526      2.5464      0.1632      6.2815    145.9015     29.6430
   896.7000      8.1526      2.5076      0.0715      8.6291    140.6955     30.9938
