~Version Information
VERS.                      2.0: CWLS Log ASCII Standard - VERSION 2.0
WRAP.                       NO: One line per depth step
~Well Information Block
STRT.FT               258.0000: 
STOP.FT              1001.0000: 
STEP.FT                 0.2500: 
NULL.                -999.2500: 
COMP.          Pioneer Natural Resources: COMPANY
WELL.          Piggyback 33-25: WELL
FLD.           Purgatoire River: FIELD
LOC.           1600' FSL & 1800' FEL: LOCATION
PROV.                 Colorado: PROVINCE
CNTY.               Las Animas: COUNTRY
SRVC.                Patterson: SERVICE COMPANY
DATE.          Fri Apr 29 14:22:38 2005: LOG DATE
UWI.           05 071 08233 00: UNIQUE WELL ID
~Curve Information Block
DEPT.FT            0 000 00 00: Depth
SN.Ohm-m                      : IEL Short Normal
SP.mV                         : IEL Spontaneous Potential
DIR.Ohm-m                     : IEL Induction Resistivity
GR.GAPI                       : Gamma Ray
~Parameter Information Block
~A  Depth        SN          SP         DIR          GR     
# ...
   861.0000     34.0911     61.7727     31.9788     65.6306
   861.2500     34.5998     61.6769     32.3174     63.1119
   861.5000     35.0935     61.6010     32.6673     61.3152
   861.7500     35.6153     61.5414     33.0353     61.0702
   862.0000     36.1485     61.4819     33.4365     61.1877
   862.2500     36.6206     61.3939     33.8705     61.1589
   862.5000     36.9721     61.2524     34.3068     60.5528
   862.7500     37.2051     61.0579     34.6997     59.7298
   863.0000     37.3780     60.8419     35.0179     58.1896
   863.2500     37.5679     60.6446     35.2574     57.3126
   863.5000     37.8103     60.4898     35.4283     56.6954
   863.7500     38.0794     60.3771     35.5305     56.7989
   864.0000     38.3424     60.2931     35.5420     57.6785
   864.2500     38.5970     60.2240     35.4337     58.7911
   864.5000     38.8405     60.1653     35.1978     61.1965
   864.7500     39.0397     60.1246     34.8699     62.9913
   865.0000     39.1367     60.1181     34.5264     65.1664
   865.2500     39.0809     60.1619     34.2600     65.8502
   865.5000     38.8744     60.2623     34.1488     65.2310
   865.7500     38.5776     60.4088     34.2261     63.6302
   866.0000     38.2534     60.5739     34.4588     59.9942
   866.2500     37.9084     60.7233     34.7410     57.4975
   866.5000     37.4770     60.8333     34.9193     54.9160
   866.7500     36.8710     60.9033     34.8535     54.2128
   867.0000     36.0794     60.9532     34.4827     54.1536
   867.2500     35.2086     61.0071     33.8515     54.2646
   867.5000     34.3918     61.0770     33.0759     54.0632
   867.7500     33.6866     61.1594     32.2855     53.6305
   868.0000     33.0757     61.2441     31.5840     52.7642
   868.2500     32.5430     61.3230     31.0378     52.1599
   868.5000     32.1072     61.3893     30.6733     51.2906
   868.7500     31.7620     61.4286     30.4719     50.8746
   869.0000     31.4487     61.4168     30.3712     51.0356
   869.2500     31.1297     61.3330     30.2863     51.9625
   869.5000     30.8345     61.1758     30.1478     54.6144
   869.7500     30.6177     60.9678     29.9338     56.9086
   870.0000     30.5053     60.7461     29.6705     60.1686
   870.2500     30.4697     60.5483     29.4068     61.5801
   870.5000     30.4492     60.4007     29.1905     61.8309
   870.7500     30.4075     60.3111     29.0611     60.7880
   871.0000     30.3592     60.2679     29.0480     58.2496
   871.2500     30.3227     60.2508     29.1568     56.6121
   871.5000     30.2793     60.2455     29.3505     55.1754
   871.7500     30.2050     60.2561     29.5475     55.0345
   872.0000     30.1105     60.3026     29.6500     55.5571
   872.2500     30.0169     60.4062     29.5925     55.9289
   872.5000     29.9129     60.5738     29.3731     56.0154
   872.7500     29.7598     60.7928     29.0476     55.8185
   873.0000     29.5340     61.0378     28.6921     55.7347
   873.2500     29.2411     61.2826     28.3626     56.1785
   873.5000     28.8954     61.5092     28.0729     57.7305
   873.7500     28.5231     61.7111     27.7998     59.0988
   874.0000     28.1729     61.8935     27.5132     60.9783
   874.2500     27.8720     62.0689     27.2106     61.8561
   874.5000     27.5854     62.2504     26.9259     62.7408
   874.7500     27.2537     62.4461     26.7039     63.4132
   875.0000     26.8594     62.6575     26.5608     65.0944
   875.2500     26.4350     62.8798     26.4651     66.5957
   875.5000     26.0255     63.1033     26.3527     68.6902
   875.7500     25.6820     63.3136     26.1661     69.5881
   876.0000     25.4665     63.4949     25.8895     70.2600
   876.2500     25.3915     63.6356     25.5558     70.7104
   876.5000     25.3875     63.7348     25.2234     72.0199
   876.7500     25.3874     63.8037     24.9443     73.1362
   877.0000     25.3840     63.8606     24.7440     74.1118
   877.2500     25.3884     63.9235     24.6189     73.8036
   877.5000     25.3924     64.0051     24.5449     71.9019
   877.7500     25.3840     64.1098     24.4913     69.9891
   878.0000     25.3724     64.2337     24.4338     66.7763
   878.2500     25.3783     64.3654     24.3629     64.7926
   878.5000     25.4159     64.4887     24.2867     62.6893
   878.7500     25.4966     64.5867     24.2267     62.0191
   879.0000     25.6163     64.6470     24.2080     61.8225
   879.2500     25.7351     64.6639     24.2471     61.9468
   879.5000     25.8164     64.6387     24.3423     62.2220
   879.7500     25.8741     64.5769     24.4734     62.4100
   880.0000     25.9414     64.4852     24.6124     62.6672
   880.2500     26.0274     64.3684     24.7357     62.8207
   880.5000     26.1208     64.2275     24.8219     63.0376
   880.7500     26.2133     64.0603     24.8393     63.1946
   881.0000     26.3148     63.8681     24.7508     63.4900
   881.2500     26.4457     63.6617     24.5486     63.6761
   881.5000     26.6136     63.4592     24.2909     63.6461
   881.7500     26.7998     63.2729     24.0911     63.2944
   882.0000     26.9631     63.0984     24.0550     62.4971
   882.2500     27.0746     62.9179     24.2140     62.1126
   882.5000     27.1583     62.7163     24.5055     62.0806
   882.7500     27.2766     62.4929     24.8149     62.2838
   883.0000     27.4760     62.2566     25.0540     62.3823
   883.2500     27.7544     62.0138     25.2126     62.1076
   883.5000     28.0499     61.7623     25.3402     61.2937
   883.7500     28.2661     61.4960     25.4835     60.7288
   884.0000     28.3750     61.2155     25.6445     60.2821
   884.2500     28.4680     60.9347     25.7906     60.3595
   884.5000     28.6414     60.6778     25.8983     60.7073
   884.7500     28.9056     60.4665     25.9814     60.6328
   885.0000     29.2162     60.3073     26.0780     59.4714
   885.2500     29.5198     60.1901     26.2155     58.1183
   885.5000     29.7758     60.0966     26.3892     56.0805
   885.7500     29.9672     60.0119     26.5749     55.2078
   886.0000     30.0996     59.9337     26.7596     54.8532
   886.2500     30.2106     59.8724     26.9596     54.9464
   886.5000     30.3685     59.8435     27.2106     54.7440
   886.7500     30.6206     59.8558     27.5399     54.1327
   887.0000     30.9438     59.9050     27.9443     52.8506
   887.2500     31.2749     59.9740     28.3901     52.1681
   887.5000     31.5730     60.0362     28.8319     51.8360
   887.7500     31.8364     60.0618     29.2399     52.0678
   888.0000     32.1058     60.0264     29.6180     52.8631
   888.2500     32.4653     59.9210     30.0002     53.5269
   888.5000     32.9949     59.7568     30.4302     54.4251
   888.7500     33.7214     59.5586     30.9360     54.8119
   889.0000     34.6378     59.3500     31.5177     55.0154
   889.2500     35.7332     59.1427     32.1511     54.9278
   889.5000     36.9892     58.9422     32.8017     54.2565
   889.7500     38.3803     58.7578     33.4379     53.1874
   890.0000     39.8792     58.6039     34.0300     50.6603
   890.2500     41.4497     58.4909     34.5349     48.8985
   890.5000     43.0056     58.4183     34.8854     47.3419
   890.7500     44.3369     58.3782     35.0043     47.3102
   891.0000     45.1364     58.3631     34.8473     48.3595
   891.2500     45.1756     58.3728     34.4347     49.4211
   891.5000     44.4239     58.4140     33.8390     51.3378
   891.7500     43.0022     58.4950     33.1357     52.9709
   892.0000     41.0937     58.6176     32.3587     56.2932
   892.2500     38.8978     58.7727     31.4929     59.0929
   892.5000     36.6183     58.9422     30.4985     63.5729
   892.7500     34.4347     59.1046     29.3486     66.2045
   893.0000     32.4601     59.2439     28.0494     68.9329
   893.2500     30.7454     59.3560     26.6375     69.8170
   893.5000     29.3052     59.4499     25.1661     69.7867
   893.7500     28.1141     59.5428     23.6948     68.9733
   894.0000     27.1135     59.6522     22.2819     67.1724
   894.2500     26.2333     59.7890     20.9729     66.3141
