~Version Information
VERS.                      2.0: CWLS Log ASCII Standard - VERSION 2.0
WRAP.                       NO: One line per depth step
~Well Information Block
STRT.FT               650.0000: 
STOP.FT              2087.0000: 
STEP.FT                 0.2500: 
NULL.                -999.2500: 
COMP.          Pioneer Natural Resources: COMPANY
WELL.           Galloway 32-13: WELL
FLD.           Purgatoire River: FIELD
LOC.           1809' FNL & 2004' FEL: LOCATION
PROV.                 Colorado: PROVINCE
CNTY.               Las Animas: COUNTRY
SRVC.                Patterson: SERVICE COMPANY
DATE.          Fri Jul 08 15:50:04 2005: LOG DATE
UWI.           05 071 08423 00: UNIQUE WELL ID
~Curve Information Block
DEPT.FT            0 000 00 00: Depth
SN.Ohm-m                      : IEL Short Normal
SP.mV                         : IEL Spontaneous Potential
DIR.Ohm-m                     : IEL Induction Resistivity
GR.GAPI                       : Gamma Ray
~Parameter Information Block
~A  Depth        SN          SP         DIR          GR     
# ...
   918.0000     14.3495   -370.6519     12.2345    145.5270
   918.2500     14.7992   -369.4063     12.3922    144.4519
   918.5000     15.0647   -367.3172     12.5567    141.0748
   918.7500     15.0982   -366.5072     12.7289    138.4541
   919.0000     15.0654   -367.5250     12.9247    133.9062
   919.2500     15.0808   -368.8351     13.1756    129.9230
   919.5000     14.9961   -368.8459     13.5124    122.7450
   919.7500     14.6909   -367.7963     13.9470    118.5684
   920.0000     14.3687   -367.1787     14.4653    116.3457
   920.2500     14.3456   -367.8246     15.0359    118.1366
   920.5000     14.8367   -369.1424     15.6232    123.0296
   920.7500     15.9782   -369.9373     16.1903    124.9268
   921.0000     17.6690   -369.4685     16.6919    121.9533
   921.2500     19.5029   -367.7296     17.0740    115.5926
   921.5000     21.1890   -365.0506     17.2925    101.3162
   921.7500     22.9208   -361.6801     17.3430     90.6030
   922.0000     25.1616   -357.7732     17.2738     76.4579
   922.2500     28.0467   -353.6531     17.1667     70.1463
   922.5000     30.8520   -349.9392     17.1018     67.2954
   922.7500     32.1770   -347.3409     17.1307     70.2056
   923.0000     31.1159   -346.2905     17.2662     81.3979
   923.2500     28.2355   -346.7405     17.4764     92.4592
   923.5000     25.0653   -348.2842     17.6823    111.2708
   923.7500     22.7461   -350.4483     17.7730    122.7821
   924.0000     21.3731   -352.8802     17.6501    134.7423
   924.2500     20.4222   -355.3325     17.2830    138.2936
   924.5000     19.4607   -357.5599     16.7277    138.0604
   924.7500     18.3951   -359.2819     16.0918    135.6300
   925.0000     17.3109   -360.2472     15.4795    131.0606
   925.2500     16.3208   -360.3267     14.9590    128.5961
   925.5000     15.5078   -359.5417     14.5571    127.0798
   925.7500     14.8979   -357.9971     14.2701    127.5474
   926.0000     14.4800   -355.7749     14.0789    129.2001
   926.2500     14.2320   -352.8706     13.9609    129.9839
   926.5000     14.0982   -349.2118     13.8964    129.8717
   926.7500     13.9971   -344.7154     13.8688    129.0791
   927.0000     13.9162   -339.3179     13.8630    127.5529
   927.2500     13.9570   -332.9789     13.8658    126.7836
   927.5000     14.2362   -325.7209     13.8703    126.5291
   927.7500     14.7332   -317.6992     13.8819    126.7889
   928.0000     15.2578   -309.1979     13.9186    126.6301
   928.2500     15.6180   -300.4901     14.0033    125.6377
   928.5000     15.8158   -291.6960     14.1535    123.7144
   928.7500     16.0191   -282.8627     14.3754    123.5623
   929.0000     16.3422   -274.2605     14.6656    126.9266
   929.2500     16.7305   -266.5403     15.0187    131.3595
   929.5000     17.1006   -260.4637     15.4320    138.6613
   929.7500     17.4719   -256.4254     15.9002    141.9706
   930.0000     17.8350   -254.2435     16.4056    142.2862
   930.2500     18.0532   -253.3642     16.9127    139.2437
   930.5000     18.0626   -253.2028     17.3776    131.3946
   930.7500     18.0401   -253.3319     17.7691    125.3996
   931.0000     18.2356   -253.4861     18.0849    117.2570
   931.2500     18.6970   -253.5040     18.3463    112.9304
   931.5000     19.2145   -253.2998     18.5764    108.3138
   931.7500     19.5511   -252.8679     18.7836    106.6007
   932.0000     19.6792   -252.2846     18.9643    106.4199
   932.2500     19.6709   -251.6778     19.1185    107.9571
   932.5000     19.5261   -251.1720     19.2610    112.2031
   932.7500     19.2894   -250.8408     19.4146    115.6134
   933.0000     19.1159   -250.6914     19.5924    120.4124
   933.2500     19.0982   -250.6863     19.7799    123.2234
   933.5000     19.1531   -250.7783     19.9334    127.3574
   933.7500     19.0834   -250.9342     20.0017    130.1848
   934.0000     18.7691   -251.1329     19.9608    133.6926
   934.2500     18.3107   -251.3486     19.8346    134.7640
   934.5000     17.9473   -251.5352     19.6797    133.8136
   934.7500     17.8816   -251.6201     19.5516    131.7268
   935.0000     18.1311   -251.5163     19.4808    127.5430
   935.2500     18.4945   -251.1600     19.4752    124.8539
   935.5000     18.7935   -250.5680     19.5377    122.2989
   935.7500     19.0687   -249.8631     19.6783    122.0832
   936.0000     19.4069   -249.2220     19.9085    123.8767
   936.2500     19.7844   -248.7791     20.2206    125.8903
   936.5000     20.1513   -248.5715     20.5688    128.9149
   936.7500     20.5346   -248.5630     20.8684    130.4196
   937.0000     21.0247   -248.7023     21.0175    131.4107
   937.2500     21.6777   -248.9602     20.9322    131.1010
   937.5000     22.4433   -249.3310     20.5703    129.3001
   937.7500     23.2100   -249.8114     19.9364    127.4866
   938.0000     23.9213   -250.3779     19.0819    124.5340
   938.2500     24.6291   -250.9852     18.1034    122.8061
   938.5000     25.4211   -251.5898     17.1268    120.9593
   938.7500     26.3304   -252.1831     16.2707    120.1814
   939.0000     27.3430   -252.8011     15.6106    119.3042
   939.2500     28.4630   -253.4962     15.1699    118.6826
   939.5000     29.7070   -254.2919     14.9376    117.5087
   939.7500     31.0618   -255.1548     14.9054    116.5564
   940.0000     32.4839   -256.0041     15.1156    114.8123
   940.2500     33.8896   -256.7532     15.7231    113.2647
   940.5000     35.1766   -257.3567     17.1000    110.0372
   940.7500     36.3239   -257.8273     20.1242    107.3073
   941.0000     37.4060   -258.2129     27.3932    102.8829
   941.2500     38.4713   -258.5562     52.2679    100.2029
   941.5000     39.4798   -258.8760 100000.0000     97.5337
   941.7500     40.3970   -259.1820 100000.0000     97.1981
   942.0000     41.2752   -259.4999 100000.0000     99.4928
   942.2500     42.0905   -259.8820 100000.0000    102.9392
   942.5000     42.5649   -260.3945 100000.0000    110.4027
   942.7500     42.3852   -261.0954 100000.0000    116.1772
   943.0000     41.5467   -262.0195 100000.0000    124.2553
   943.2500     40.3428   -263.1815 100000.0000    128.2108
   943.5000     39.1397   -264.5898 100000.0000    130.9159
   943.7500     38.2337   -266.2565 100000.0000    130.4252
   944.0000     37.8092   -268.2023 100000.0000    126.4322
   944.2500     37.8561   -270.4705 100000.0000    121.9639
   944.5000     38.1340   -273.1560 100000.0000    114.0741
   944.7500     38.4304   -276.4318 100000.0000    109.2963
   945.0000     38.7475   -280.5503 100000.0000    104.6625
   945.2500     39.1047   -285.8149 100000.0000    103.7789
   945.5000     39.4826   -292.5433 100000.0000    105.7958
   945.7500     39.9440   -301.0071 100000.0000    108.9098
   946.0000     40.4474   -311.3459 100000.0000    114.7333
   946.2500     40.6974   -323.4797 100000.0000    118.3908
   946.5000     40.4026   -337.1427 100000.0000    122.1546
   946.7500     39.5366   -352.0858 100000.0000    122.9591
   947.0000     38.2666   -368.1548 100000.0000    121.4157
   947.2500     36.7589   -384.8439 100000.0000    119.2723
   947.5000     35.1360   -400.7025      4.9270    117.0367
   947.7500     33.4185   -413.6689      1.8729    117.5573
   948.0000     31.3249   -422.3914      1.0016    120.9187
   948.2500     28.3345   -427.0960      0.6255    122.9986
   948.5000     24.1649   -429.1045      0.4232    122.6275
   948.7500     19.0623   -429.7792      0.2956    119.3443
   949.0000     13.7107   -429.9572      0.2073    110.1606
   949.2500      9.0257   -429.9939      0.1474    101.5525
   949.5000      5.7066   -430.0001      0.1125     86.0702
   949.7500      3.8350   -430.0003      0.1004     75.4438
   950.0000      2.9972   -430.0003      0.1122     62.1242
   950.2500      2.7085   -430.0003      0.1597     56.4076
   950.5000      2.6975   -430.0003      0.2749     53.6577
   950.7500      2.8466   -430.0003      0.5315     55.6788
   951.0000      2.9970   -430.0003      1.1799     63.4972
   951.2500      3.0021   -430.0003      3.7394     70.6012
