~Version Information
VERS.                      2.0: CWLS Log ASCII Standard - VERSION 2.0
WRAP.                       NO: One line per depth step
~Well Information Block
STRT.FT               -13.5000: 
STOP.FT              2092.5000: 
STEP.FT                 0.2500: 
NULL.                -999.2500: 
COMP.          Petrogulf Corporation: COMPANY
WELL.          Robinson 15-11V: WELL
FLD.           Purgatorie River: FIELD
LOC.           226' FNL & 592' FWL--: LOCATION
CNTY.               Las Animas: COUNTY
SRVC.                         : SERVICE COMPANY
DATE.          Tue Aug 17 13:05:46 2004: LOG DATE
UWI.                          : UNIQUE WELL ID
STAT.                       CO: STATE
~Curve Information Block
DEPT.FT            0 000 00 00: Depth
CCL.                          : Casing Collar Locator
TT3.usec                      : CBL 3' Travel Time
AMP3.mV                       : CBL 3' Amplitude
GR.GAPI                       : Gamma Ray
~Parameter Information Block
~A  Depth       CCL         TT3         AMP3         GR     
# ...
  1494.0000      0.0000    691.6822      2.6775     79.2983
  1494.2500      0.0000    679.6652      2.6809     83.3926
  1494.5000      0.0000    665.5577      2.6383     86.7386
  1494.7500      0.0000    653.3060      2.5168     89.9544
  1495.0000      0.0000    647.7203      2.3615     92.5858
  1495.2500      0.0000    651.2112      2.2492     93.2827
  1495.5000      0.0000    661.2811      2.2229     90.8862
  1495.7500      0.0000    672.0516      2.2632     85.7162
  1496.0000      0.0000    678.7241      2.3112     79.4901
  1496.2500      0.0000    680.3408      2.3129     73.6051
  1496.5000      0.0000    678.7523      2.2537     67.9331
  1496.7500      0.0000    676.1439      2.1587     61.7506
  1497.0000      0.0000    673.7288      2.0622     55.3563
  1497.2500      0.0000    671.7317      1.9819     50.1153
  1497.5000      0.0000    669.6577      1.9215     47.2342
  1497.7500      0.0000    666.5560      1.8879     47.0032
  1498.0000      0.0000    661.6177      1.8861     48.7965
  1498.2500      0.0000    655.1514      1.9009     51.2697
  1498.5000      0.0000    649.0965      1.8985     52.9960
  1498.7500      0.0000    646.0725      1.8602     53.4293
  1499.0000      0.0000    647.3968      1.8055     53.1217
  1499.2500      0.0000    651.9862      1.7687     52.9063
  1499.5000      0.0000    657.3195      1.7623     53.1132
  1499.7500      0.0000    661.3850      1.7723     53.4247
  1500.0000      0.0000    663.6972      1.7833     53.1362
  1500.2500      0.0000    664.8997      1.7957     51.8116
  1500.5000      0.0000    665.9318      1.8239     50.0418
  1500.7500      0.0000    667.6214      1.8780     49.2180
  1501.0000      0.0000    670.6381      1.9410     50.2334
  1501.2500      0.0000    675.3317      1.9718     52.6857
  1501.5000      0.0000    681.3477      1.9464     55.5013
  1501.7500      0.0000    687.5372      1.8857     57.9183
  1502.0000      0.0000    692.5656      1.8326     59.6780
  1502.2500      0.0000    695.7433      1.8122     60.8231
  1502.5000      0.0000    697.2343      1.8265     61.7182
  1502.7500      0.0000    697.6097      1.8679     62.7920
  1503.0000      0.0000    697.4028      1.9247     63.7506
  1503.2500      0.0000    697.0264      1.9818     63.3457
  1503.5000      0.0000    696.8648      2.0317     60.4253
  1503.7500      0.0000    697.2448      2.0761     55.2751
  1504.0000      0.0000    698.2394      2.1138     49.7061
  1504.2500      0.0000    699.5593      2.1320     45.6057
  1504.5000      0.0000    700.7462      2.1195     43.3978
  1504.7500      0.0000    701.4987      2.0858     42.2101
  1505.0000      0.0000    701.7921      2.0659     41.5231
  1505.2500      0.0000    701.8085      2.0959     41.9750
  1505.5000      0.0000    701.8879      2.1808     44.2393
  1505.7500      0.0000    702.4576      2.2868     47.7942
  1506.0000      0.0000    703.8142      2.3740     51.3218
  1506.2500      0.0000    705.9948      2.4347     53.8927
  1506.5000      0.0000    709.0039      2.4991     55.3714
  1506.7500      0.0000    713.1188      2.6046     56.0282
  1507.0000      0.0000    718.8031      2.7635     56.1188
  1507.2500      0.0000    726.3694      2.9610     55.7383
  1507.5000      0.0000    735.7578      3.1718     54.9526
  1507.7500      0.0000    746.2189      3.3720     54.0314
  1508.0000      0.0000    755.7005      3.5400     53.4047
  1508.2500      0.0000    760.9779      3.6627     53.2935
  1508.5000      0.0000    759.5565      3.7409     53.5065
  1508.7500      0.0000    751.9059      3.7866     53.6363
  1509.0000      0.0000    741.3272      3.8201     53.3966
  1509.2500      0.0000    731.5012      3.8714     52.8290
  1509.5000      0.0000    724.5700      3.9771     52.1855
  1509.7500      0.0000    721.1550      4.1656     51.4819
  1510.0000      0.0000    721.1589      4.4400     50.2720
  1510.2500      0.0000    724.1472      4.7630     48.1107
  1510.5000      0.0000    729.1212      5.0637     45.2414
  1510.7500      0.0000    734.0823      5.2763     42.6774
  1511.0000      0.0000    736.3761      5.3731     41.6152
  1511.2500      0.0000    734.1693      5.3662     42.8009
  1511.5000      0.0000    727.5748      5.2994     46.3550
  1511.7500      0.0000    718.2305      5.2388     51.9462
  1512.0000      0.0000    708.4076      5.2342     58.8147
  1512.2500      0.0000    700.7277      5.2768     65.5052
  1512.5000      0.0000    697.5868      5.3126     69.9831
  1512.7500      0.0000    699.7286      5.3037     70.7035
  1513.0000      0.0000    705.4514      5.2711     67.8445
  1513.2500      0.0000    711.6613      5.2727     63.1628
  1513.5000      0.0000    715.6758      5.3365     58.5392
  1513.7500      0.0000    715.8717      5.4251     54.9392
  1514.0000      0.0000    711.3361      5.4797     52.5458
  1514.2500      0.0000    702.2635      5.4871     51.1135
  1514.5000      0.0000    690.8450      5.4813     49.9999
  1514.7500      0.0000    680.3344      5.4855     48.5254
  1515.0000      0.0000    672.4180      5.4767     46.6574
  1515.2500      0.0000    666.8484      5.4183     45.0420
  1515.5000      0.0000    664.2711      5.3125     44.3398
  1515.7500      0.0000    667.4496      5.2038     44.8107
  1516.0000      0.0000    678.3001      5.1381     46.3278
  1516.2500      0.0000    694.7736      5.1323     48.3546
  1516.5000      0.0000    711.9575      5.1791     50.0085
  1516.7500      0.0000    726.0239      5.2713     50.5006
  1517.0000      0.0000    736.3474      5.4169     49.6108
  1517.2500      0.0000    744.0884      5.6351     47.8753
  1517.5000      0.0000    749.7898      5.9427     46.6908
  1517.7500      0.0000    752.5839      6.3458     48.2280
  1518.0000      0.0000    751.1429      6.8450     54.6968
  1518.2500      0.0000    744.5120      7.4391     67.2114
  1518.5000      0.0000    730.4295      8.1084     84.9939
  1518.7500      0.0000    702.5170      8.7950    105.2516
  1519.0000      0.0000    652.2368      9.4154    123.8769
  1519.2500      0.0000    577.9737      9.9011    137.2606
  1519.5000      0.0000    492.2256     10.2168    144.4518
  1519.7500      0.0000    416.1688     10.3365    147.6418
  1520.0000      0.0000    365.5764     10.2269    150.0302
  1520.2500      0.0000    342.9030      9.8769    153.0833
  1520.5000      0.0000    341.1415      9.3407    155.8040
  1520.7500      0.0000    351.6133      8.7343    156.1464
  1521.0000      0.0000    367.9904      8.1745    152.8434
  1521.2500      0.0000    386.2712      7.7144    146.3204
  1521.5000      0.0000    403.5931      7.3300    138.4529
  1521.7500      0.0000    417.6662      6.9643    131.5630
  1522.0000      0.0000    427.0977      6.5885    127.3484
  1522.2500      0.0000    431.9418      6.2346    126.2113
  1522.5000      0.0000    433.5342      5.9799    127.0774
  1522.7500      0.0000    433.7520      5.8949    128.0364
  1523.0000      0.0000    434.4587      5.9889    127.8756
  1523.2500      0.0000    437.5409      6.1884    127.1626
  1523.5000      0.0000    444.8983      6.3746    127.3451
  1523.7500      0.0000    458.0905      6.4662    128.7043
  1524.0000      0.0000    478.0228      6.4683    129.7813
  1524.2500      0.0000    504.9169      6.4382    129.1074
  1524.5000      0.0000    537.5422      6.4223    126.8890
  1524.7500      0.0000    571.3668      6.4430    124.5049
  1525.0000      0.0000    597.9502      6.5309    122.8130
  1525.2500      0.0000    608.1186      6.7309    121.5790
  1525.5000      0.0000    597.9666      7.0659    120.3786
  1525.7500      0.0000    572.7165      7.4951    119.5180
  1526.0000      0.0000    544.3264      7.9094    120.0157
  1526.2500      0.0000    525.1100      8.1787    122.7409
  1526.5000     -2.0000    523.4220      8.2174    127.3600
  1526.7500      0.0000    542.7191      8.0139    132.0903
  1527.0000      0.0000    580.5962      7.6360    134.9285
  1527.2500      0.0000    628.0906      7.2397    135.5521
