~Version Information
 VERS.                                  2.0 : CWLS LAS VERSION
 WRAP.                                   NO : WRAPING MODE
 SWARE .                 MController 2.5.0N : SOFTWARE VERSION
~Well Information
 WELL.                                  N/A : WELL
 COMP.                                  N/A : COMPANY
 FLD.                                   N/A : FIELD
 LOC.                                   N/A : LOCATION
 DATE.                                  N/A : DATE(S) LOGGED
 SRVC.                                  N/A : SERVICE COMPANY
 STAT.                                  N/A : STATE
 CNTY.                                  N/A : COUNTY
 CTRY.                                  N/A : COUNTRY
 API.                                   N/A : API NUMBER
 STRT.FT                               0.00 : START DEPTH
 STOP.FT                            2050.00 : STOP DEPTH
 STEP.FT                               1.00 : DEPTH INCREMENT
 NULL.                                -9999 : NULL VALUE
~Curve information
 DEPTH.FT                                   :
 ROP.MIN/FT                                 :
 GAS.UNITS                                  :
~ASCII Log data
         0.0     -9999.00          5.9 
         1.0        52.97          6.8 
         2.0         0.70          4.0 
         3.0         0.78          4.0 
         4.0         1.07          4.0 
         5.0         0.43          3.9 
         6.0         0.40          4.0 
         7.0         2.15          4.0 
         8.0         0.13          3.8 
         9.0         0.57          4.1 
        10.0         1.22          4.4 
        11.0         0.43          4.3 
        12.0         0.40          4.3 
        13.0         0.43          4.3 
        14.0         0.47          4.3 
        15.0         0.27          4.4 
        16.0         0.40          4.5 
        17.0         0.43          4.4 
        18.0         0.45          4.4 
        19.0         0.30          4.5 
        20.0         1.60          4.6 
        21.0         0.07          4.5 
        22.0         4.33          4.7 
        23.0         0.10          4.3 
        24.0         0.13          4.2 
        25.0         0.10          4.3 
        26.0         0.13          4.4 
        27.0         0.13          4.0 
        28.0         0.20          4.2 
        29.0         0.40          4.4 
        30.0         0.37          4.3 
        31.0         0.33          4.4 
        32.0         0.30          4.3 
        33.0         0.33          4.3 
        34.0         0.33          4.4 
        35.0         0.32          4.5 
        36.0         0.33          4.0 
        37.0         0.40          4.0 
        38.0         0.33          4.0 
        39.0         0.37          4.0 
        40.0         0.37          4.0 
        41.0         0.40          3.9 
        42.0         0.37          4.0 
        43.0         0.33          3.9 
        44.0         0.45          3.9 
        45.0         0.40          3.9 
        46.0         0.43          3.7 
        47.0         0.50          3.7 
        48.0         0.40          3.7 
        49.0         0.40          3.6 
        50.0         0.33          3.6 
        51.0         0.37          3.6 
        52.0         0.32          3.6 
        53.0         6.67          3.6 
        54.0         0.33          3.2 
        55.0         0.23          3.3 
        56.0         1.13        106.6 
        57.0         0.27         65.6 
        58.0         0.20         21.8 
        59.0         0.27          8.0 
        60.0         0.25          3.3 
        61.0         0.23          1.7 
        62.0         0.30          1.4 
        63.0         0.27          1.1 
        64.0         0.27          0.9 
        65.0         0.37          1.2 
        66.0         0.30          1.4 
        67.0         0.23          1.4 
        68.0         0.27          1.4 
        69.0         0.27          1.6 
        70.0         0.27          1.6 
        71.0         0.28          1.9 
        72.0         0.27          1.7 
        73.0         0.27          1.8 
        74.0         0.27          1.9 
        75.0         0.27          1.9 
        76.0         0.23          2.0 
        77.0         0.27          2.1 
        78.0         0.27          2.0 
        79.0         0.30          2.0 
        80.0         0.27          2.0 
        81.0         0.27          2.0 
        82.0         0.27          2.2 
        83.0         0.32          2.2 
        84.0         0.33          2.2 
        85.0         0.33          2.3 
        86.0         2.17          2.4 
        87.0         0.32          2.3 
        88.0         0.27          2.4 
        89.0         0.30          2.2 
        90.0         0.27          2.2 
        91.0         0.30          2.1 
        92.0         0.23          2.1 
        93.0         0.23          2.0 
        94.0         0.23          1.7 
        95.0         0.27          2.1 
        96.0         0.27          2.0 
        97.0         0.23          2.1 
        98.0         0.28          2.0 
        99.0         0.20          1.9 
       100.0         0.27          1.8 
       101.0         0.30          2.1 
       102.0         0.27          1.8 
       103.0         0.27          1.8 
       104.0         0.23          2.0 
       105.0         0.23          1.8 
       106.0         0.23          2.0 
       107.0         0.23          1.9 
       108.0         0.27          1.9 
       109.0         0.27          1.8 
       110.0         0.27          2.1 
       111.0         0.28          1.9 
       112.0         0.30          2.1 
       113.0         0.30          2.2 
       114.0         0.30          2.0 
       115.0         0.30          2.3 
       116.0         2.05          2.3 
       117.0         0.30          2.3 
       118.0         0.27          2.4 
       119.0         0.23          2.2 
       120.0         0.33          2.4 
       121.0         0.30          2.4 
       122.0         0.30          2.3 
       123.0         0.27          2.2 
       124.0         0.30          2.4 
       125.0         0.30          2.4 
       126.0         0.30          2.5 
       127.0         0.35          2.6 
       128.0         0.33          2.6 
       129.0         0.30          2.4 
       130.0         0.33          2.2 
       131.0         0.30          2.5 
       132.0         0.30          2.3 
       133.0         0.30          2.4 
       134.0         0.20          2.4 
       135.0         0.30          2.5 
       136.0         0.27          2.7 
       137.0         0.27          2.4 
       138.0         0.35          2.6 
       139.0         0.33          2.7 
       140.0         0.30          2.4 
       141.0         0.30          2.6 
       142.0         0.30          2.7 
       143.0         0.33          2.8 
       144.0         0.37          2.7 
       145.0         0.33          2.7 
       146.0         1.45          2.8 
       147.0         0.30          2.8 
       148.0         0.27          2.7 
       149.0         0.30          2.7 
       150.0         0.30          2.7 
       151.0         0.27          2.7 
       152.0         0.30          2.6 
       153.0         0.23          2.6 
       154.0         0.30          2.8 
       155.0         0.28          2.8 
       156.0         0.27          2.6 
       157.0         0.27          2.5 
       158.0         0.30          2.6 
       159.0         0.23          2.6 
       160.0         0.27          2.6 
       161.0         0.27          2.6 
       162.0         0.27          2.6 
       163.0         0.23          2.7 
       164.0         0.33          2.6 
       165.0         0.27          2.8 
       166.0         0.20          2.8 
       167.0         0.27          2.5 
       168.0         0.28          2.9 
       169.0         0.27          2.7 
       170.0         0.27          2.9 
       171.0         0.30          3.0 
       172.0         0.27          2.9 
       173.0         0.30          3.1 
       174.0         0.30          2.9 
       175.0         0.20          3.0 
       176.0         1.65          3.3 
       177.0         0.33          3.2 
       178.0         0.27          2.7 
       179.0         0.27          3.3 
       180.0         0.30          3.1 
       181.0         0.27          3.3 
       182.0         0.27          3.3 
       183.0         0.30          3.3 
       184.0         0.27          3.3 
       185.0         0.28          3.3 
       186.0         0.27          3.6 
       187.0         0.30          3.4 
       188.0         0.30          3.3 
       189.0         0.30          3.2 
       190.0         0.27          3.5 
       191.0         0.27          3.4 
       192.0         0.27          3.5 
       193.0         0.27          3.4 
       194.0         0.30          3.4 
       195.0         0.37          3.5 
       196.0         0.35          3.5 
       197.0         0.30          3.4 
       198.0         0.27          3.5 
       199.0         0.27          3.3 
