~Version Information
VERS.                      2.0: CWLS Log ASCII Standard - VERSION 2.0
WRAP.                       NO: One line per depth step
~Well Information Block
STRT.FT               298.0000: 
STOP.FT              1325.5000: 
STEP.FT                 0.2500: 
NULL.                -999.2500: 
COMP.          Pioneer Natural Resources: COMPANY
WELL.          Santa Fe 43-27 Tr: WELL
FLD.           Purgatoire River: FIELD
LOC.           2018' FSL & 534' FEL: LOCATION
PROV.                 Colorado: PROVINCE
CNTY.               Las Animas: COUNTRY
SRVC.                Patterson: SERVICE COMPANY
DATE.          Tue Mar 08 10:44:11 2005: LOG DATE
UWI.           05 071 08303 00: UNIQUE WELL ID
~Curve Information Block
DEPT.FT            0 000 00 00: Depth
SN.Ohm-m                      : IEL Short Normal
SP.mV                         : IEL Spontaneous Potential
DIR.Ohm-m                     : IEL Induction Resistivity
GR.GAPI                       : Gamma Ray
~Parameter Information Block
~A  Depth        SN          SP         DIR          GR     
# ...
   767.0000   2000.0000   2000.0000     18.4736    110.8802
   767.2500   2000.0000   2000.0000     17.8850    111.1416
   767.5000   2000.0000   2000.0000     17.3388    111.9889
   767.7500   2000.0000   2000.0000     16.8208    113.0522
   768.0000   2000.0000   2000.0000     16.3179    115.6657
   768.2500   2000.0000   2000.0000     15.8263    118.3094
   768.5000   2000.0000   2000.0000     15.3469    123.6204
   768.7500   2000.0000   2000.0000     14.8773    127.4744
   769.0000   2000.0000   2000.0000     14.4095    132.0533
   769.2500   2000.0000   2000.0000     13.9353    133.6359
   769.5000   2000.0000   2000.0000     13.4567    134.0912
   769.7500   2000.0000   2000.0000     12.9899    133.9597
   770.0000   2000.0000   2000.0000     12.5610    134.8257
   770.2500   2000.0000   2000.0000     12.1979    136.8849
   770.5000   2000.0000   2000.0000     11.9211    142.6770
   770.7500   2000.0000   2000.0000     11.7410    148.0011
   771.0000   2000.0000   2000.0000     11.6585    156.6866
   771.2500   2000.0000   2000.0000     11.6679    161.8586
   771.5000   2000.0000   2000.0000     11.7615    167.3308
   771.7500   2000.0000   2000.0000     11.9344    169.2048
   772.0000   2000.0000   2000.0000     12.1858    169.3598
   772.2500   2000.0000   2000.0000     12.5142    167.4576
   772.5000   2000.0000   2000.0000     12.9064    160.7723
   772.7500   2000.0000   2000.0000     13.3312    153.5916
   773.0000   2000.0000   2000.0000     13.7476    139.7330
   773.2500   2000.0000   2000.0000     14.1301    129.5877
   773.5000   2000.0000   2000.0000     14.4906    115.2276
   773.7500   2000.0000   2000.0000     14.8778    107.5121
   774.0000   2000.0000   2000.0000     15.3523    100.7165
   774.2500   2000.0000   2000.0000     15.9583     99.9480
   774.5000   2000.0000   2000.0000     16.7051    103.5570
   774.7500   2000.0000   2000.0000     17.5593    107.7656
   775.0000   2000.0000   2000.0000     18.4417    114.4955
   775.2500   2000.0000   2000.0000     19.2351    118.4115
   775.5000   2000.0000   2000.0000     19.8112    122.3402
   775.7500   2000.0000   2000.0000     20.0724    123.1735
   776.0000   2000.0000   2000.0000     19.9866    122.1981
   776.2500   2000.0000   2000.0000     19.5983    121.3183
   776.5000   2000.0000   2000.0000     19.0096    122.0467
   776.7500   2000.0000   2000.0000     18.3459    124.4638
   777.0000   2000.0000   2000.0000     17.7197    130.2632
   777.2500   2000.0000   2000.0000     17.2091    134.6640
   777.5000   2000.0000   2000.0000     16.8579    140.6305
   777.7500   2000.0000   2000.0000     16.6845    143.7721
   778.0000   2000.0000   2000.0000     16.6872    147.2558
   778.2500   2000.0000   2000.0000     16.8413    148.7165
   778.5000   2000.0000   2000.0000     17.0963    148.5308
   778.7500   2000.0000   2000.0000     17.3827    145.7637
   779.0000   2000.0000   2000.0000     17.6353    136.4591
   779.2500   2000.0000   2000.0000     17.8221    127.1243
   779.5000   2000.0000   2000.0000     17.9587    110.7695
   779.7500   2000.0000   2000.0000     18.0982    100.2387
   780.0000   2000.0000   2000.0000     18.3053     87.8468
   780.2500   2000.0000   2000.0000     18.6309     82.5886
   780.5000   2000.0000   2000.0000     19.0975     78.6874
   780.7500   2000.0000   2000.0000     19.6910     77.8695
   781.0000   2000.0000   2000.0000     20.3575     78.1230
   781.2500   2000.0000   2000.0000     21.0102     79.2724
   781.5000   2000.0000   2000.0000     21.5485     83.6618
   781.7500   2000.0000   2000.0000     21.8860     89.2005
   782.0000   2000.0000   2000.0000     21.9751    101.5345
   782.2500   2000.0000   2000.0000     21.8167    111.2084
   782.5000   2000.0000   2000.0000     21.4555    124.2145
   782.7500   2000.0000   2000.0000     20.9614    129.9516
   783.0000   2000.0000   2000.0000     20.4103    133.1535
   783.2500   2000.0000   2000.0000     19.8723    132.5734
   783.5000   2000.0000   2000.0000     19.4056    130.3634
   783.7500   2000.0000   2000.0000     19.0518    129.4646
   784.0000   2000.0000   2000.0000     18.8319    130.3497
   784.2500   2000.0000   2000.0000     18.7470    132.3248
   784.5000   2000.0000   2000.0000     18.7831    135.7192
   784.7500   2000.0000   2000.0000     18.9173    136.9714
   785.0000   2000.0000   2000.0000     19.1247    136.0361
   785.2500   2000.0000   2000.0000     19.3858    133.7754
   785.5000   2000.0000   2000.0000     19.6952    129.4935
   785.7500   2000.0000   2000.0000     20.0608    126.9231
   786.0000   2000.0000   2000.0000     20.4928    124.0380
   786.2500   2000.0000   2000.0000     20.9902    122.5268
   786.5000   2000.0000   2000.0000     21.5383    120.1676
   786.7500   2000.0000   2000.0000     22.1173    118.3005
   787.0000   2000.0000   2000.0000     22.7109    115.1375
   787.2500   2000.0000   2000.0000     23.3105    112.9706
   787.5000   2000.0000   2000.0000     23.9156    109.8348
   787.7500   2000.0000   2000.0000     24.5333    107.7922
   788.0000   2000.0000   2000.0000     25.1770    104.6562
   788.2500   2000.0000   2000.0000     25.8590    102.5541
   788.5000   2000.0000   2000.0000     26.5797     99.6773
   788.7500   2000.0000   2000.0000     27.3171     98.0090
   789.0000   2000.0000   2000.0000     28.0264     95.4891
   789.2500   2000.0000   2000.0000     28.6568     93.4823
   789.5000   2000.0000   2000.0000     29.1730     90.0027
   789.7500   2000.0000   2000.0000     29.5683     87.7471
   790.0000   2000.0000   2000.0000     29.8552     84.9745
   790.2500   2000.0000   2000.0000     30.0449     83.4402
   790.5000   2000.0000   2000.0000     30.1394     81.2508
   790.7500   2000.0000   2000.0000     30.1411     79.9841
   791.0000   2000.0000   2000.0000     30.0679     79.0406
   791.2500   2000.0000   2000.0000     29.9392     79.1922
   791.5000   2000.0000   2000.0000     29.7419     79.9311
   791.7500   2000.0000   2000.0000     29.4084     80.1435
   792.0000   2000.0000   2000.0000     28.8420     79.3081
   792.2500   2000.0000   2000.0000     27.9822     77.8914
   792.5000   2000.0000   2000.0000     26.8537     74.8386
   792.7500   2000.0000   2000.0000     25.5599     72.6276
   793.0000   2000.0000   2000.0000     24.2287     69.9353
   793.2500   2000.0000   2000.0000     22.9602     68.9653
   793.5000   2000.0000   2000.0000     21.8074     69.2966
   793.7500   2000.0000   2000.0000     20.7876     71.2122
   794.0000   2000.0000   2000.0000     19.9072     77.9441
   794.2500   2000.0000   2000.0000     19.1754     85.4841
   794.5000   2000.0000   2000.0000     18.5970    100.1561
   794.7500   2000.0000   2000.0000     18.1504    110.0776
   795.0000   2000.0000   2000.0000     17.7765    120.6422
   795.2500   2000.0000   2000.0000     17.3971    122.8294
   795.5000   2000.0000   2000.0000     16.9590    118.2265
   795.7500   2000.0000   2000.0000     16.4683    111.3663
   796.0000   2000.0000   2000.0000     15.9854     99.9482
   796.2500   2000.0000   2000.0000     15.5879     94.3694
   796.5000   2000.0000   2000.0000     15.3358     92.2246
   796.7500   2000.0000   2000.0000     15.2575     95.3202
   797.0000   2000.0000   2000.0000     15.3530    104.9075
   797.2500   2000.0000   2000.0000     15.6021    112.6164
   797.5000   2000.0000   2000.0000     15.9692    122.6459
   797.7500   2000.0000   2000.0000     16.4078    126.8224
   798.0000   2000.0000   2000.0000     16.8664    128.4508
   798.2500   2000.0000   2000.0000     17.2986    127.0204
   798.5000   2000.0000   2000.0000     17.6747    123.4647
   798.7500   2000.0000   2000.0000     17.9907    121.7448
   799.0000   2000.0000   2000.0000     18.2734    121.8539
   799.2500   2000.0000   2000.0000     18.5785    123.5745
   799.5000   2000.0000   2000.0000     18.9774    126.5312
   799.7500   2000.0000   2000.0000     19.5327    127.1711
   800.0000   2000.0000   2000.0000     20.2746    124.4099
   800.2500   2000.0000   2000.0000     21.1886    120.1085
