~Version Information
VERS.                      2.0: CWLS Log ASCII Standard - VERSION 2.0
WRAP.                       NO: One line per depth step
~Well Information Block
STRT.FT               430.0000: 
STOP.FT              2417.0000: 
STEP.FT                 0.2500: 
NULL.                -999.2500: 
COMP.          Evergreen Operating Corporation: COMPANY
WELL.          McCullough 34-32: WELL
FLD.           Purgatorie River: FIELD
LOC.           261' FSL & 2098' FEL: LOCATION
PROV.                 Colorado: PROVINCE
CNTY.               Las Animas: COUNTRY
SRVC.                Patterson: SERVICE COMPANY
DATE.          Sun May 16 02:33:07 2004: LOG DATE
UWI.           05 071 07953 00: UNIQUE WELL ID
~Curve Information Block
DEPT.FT            0 000 00 00: Depth
SN.Ohm-m                      : IEL Short Normal
SP.mV                         : IEL Spontaneous Potential
DIR.Ohm-m                     : IEL Induction Resistivity
GR.GAPI                       : Gamma Ray
~Parameter Information Block
~A  Depth        SN          SP         DIR          GR     
# ...
   698.0000   2000.0000   2000.0000     16.3251    122.8325
   698.2500   2000.0000   2000.0000     15.9876    124.1387
   698.5000   2000.0000   2000.0000     15.8120    125.8813
   698.7500   2000.0000   2000.0000     15.7800    126.5216
   699.0000   2000.0000   2000.0000     15.8703    126.1963
   699.2500   2000.0000   2000.0000     16.0692    125.2125
   699.5000   2000.0000   2000.0000     16.3733    123.0769
   699.7500   2000.0000   2000.0000     16.7866    121.2213
   700.0000   2000.0000   2000.0000     17.3152    117.1046
   700.2500   2000.0000   2000.0000     17.9639    113.1126
   700.5000   2000.0000   2000.0000     18.7357    105.6810
   700.7500   2000.0000   2000.0000     19.6334    100.5631
   701.0000   2000.0000   2000.0000     20.6591     93.9574
   701.2500   2000.0000   2000.0000     21.8076     90.5702
   701.5000   2000.0000   2000.0000     23.0540     86.8013
   701.7500   2000.0000   2000.0000     24.3356     84.8737
   702.0000   2000.0000   2000.0000     25.5405     82.4148
   702.2500   2000.0000   2000.0000     26.5162     80.8988
   702.5000   2000.0000   2000.0000     27.1164     78.7599
   702.7500   2000.0000   2000.0000     27.2758     77.5821
   703.0000   2000.0000   2000.0000     27.0537     76.7361
   703.2500   2000.0000   2000.0000     26.5947     77.0501
   703.5000   2000.0000   2000.0000     26.0387     78.7397
   703.7500   2000.0000   2000.0000     25.4605     80.3737
   704.0000   2000.0000   2000.0000     24.8773     83.4174
   704.2500   2000.0000   2000.0000     24.2914     86.2801
   704.5000   2000.0000   2000.0000     23.7174     93.0840
   704.7500   2000.0000   2000.0000     23.1799     99.6108
   705.0000   2000.0000   2000.0000     22.6942    111.1089
   705.2500   2000.0000   2000.0000     22.2512    118.2356
   705.5000   2000.0000   2000.0000     21.8184    125.2139
   705.7500   2000.0000   2000.0000     21.3569    126.6270
   706.0000   2000.0000   2000.0000     20.8469    124.7112
   706.2500   2000.0000   2000.0000     20.3039    121.8628
   706.5000   2000.0000   2000.0000     19.7745    116.6238
   706.7500   2000.0000   2000.0000     19.3155    112.7561
   707.0000   2000.0000   2000.0000     18.9750    106.9300
   707.2500   2000.0000   2000.0000     18.7832    103.9064
   707.5000   2000.0000   2000.0000     18.7513    102.6179
   707.7500   2000.0000   2000.0000     18.8725    104.4960
   708.0000   2000.0000   2000.0000     19.1214    110.4414
   708.2500   2000.0000   2000.0000     19.4535    115.0574
   708.5000   2000.0000   2000.0000     19.8076    120.5395
   708.7500   2000.0000   2000.0000     20.1141    122.5694
   709.0000   2000.0000   2000.0000     20.3073    123.5952
   709.2500   2000.0000   2000.0000     20.3383    123.6592
   709.5000   2000.0000   2000.0000     20.1865    123.9275
   709.7500   2000.0000   2000.0000     19.8663    124.5653
   710.0000   2000.0000   2000.0000     19.4250    126.2337
   710.2500   2000.0000   2000.0000     18.9299    127.4342
   710.5000   2000.0000   2000.0000     18.4458    128.2056
   710.7500   2000.0000   2000.0000     18.0158    127.5442
   711.0000   2000.0000   2000.0000     17.6526    125.1691
   711.2500   2000.0000   2000.0000     17.3442    123.6053
   711.5000   2000.0000   2000.0000     17.0678    123.1847
   711.7500   2000.0000   2000.0000     16.8039    124.7391
   712.0000   2000.0000   2000.0000     16.5437    128.9406
   712.2500   2000.0000   2000.0000     16.2907    131.6297
   712.5000   2000.0000   2000.0000     16.0581    133.4138
   712.7500   2000.0000   2000.0000     15.8646    132.9250
   713.0000   2000.0000   2000.0000     15.7287    131.1581
   713.2500   2000.0000   2000.0000     15.6616    130.3252
   713.5000   2000.0000   2000.0000     15.6572    130.0775
   713.7500   2000.0000   2000.0000     15.6818    130.0557
   714.0000   2000.0000   2000.0000     15.6756    129.0266
   714.2500   2000.0000   2000.0000     15.5776    127.2901
   714.5000   2000.0000   2000.0000     15.3668    123.2007
   714.7500   2000.0000   2000.0000     15.0800    119.9005
   715.0000   2000.0000   2000.0000     14.7878    115.2073
   715.2500   2000.0000   2000.0000     14.5509    112.9397
   715.5000   2000.0000   2000.0000     14.3967    111.7225
   715.7500   2000.0000   2000.0000     14.3221    112.5725
   716.0000   2000.0000   2000.0000     14.3087    115.9237
   716.2500   2000.0000   2000.0000     14.3352    118.8709
   716.5000   2000.0000   2000.0000     14.3819    123.0348
   716.7500   2000.0000   2000.0000     14.4283    125.1100
   717.0000   2000.0000   2000.0000     14.4516    126.8387
   717.2500   2000.0000   2000.0000     14.4296    127.1133
   717.5000   2000.0000   2000.0000     14.3484    126.5078
   717.7500   2000.0000   2000.0000     14.2088    125.6600
   718.0000   2000.0000   2000.0000     14.0247    124.0838
   718.2500   2000.0000   2000.0000     13.8168    122.9441
   718.5000   2000.0000   2000.0000     13.6065    121.1100
   718.7500   2000.0000   2000.0000     13.4141    119.8297
   719.0000   2000.0000   2000.0000     13.2592    118.2135
   719.2500   2000.0000   2000.0000     13.1595    117.7367
   719.5000   2000.0000   2000.0000     13.1274    118.4379
   719.7500   2000.0000   2000.0000     13.1656    119.8782
   720.0000   2000.0000   2000.0000     13.2649    123.2795
   720.2500   2000.0000   2000.0000     13.4081    126.2781
   720.5000   2000.0000   2000.0000     13.5772    131.6651
   720.7500   2000.0000   2000.0000     13.7616    135.4965
   721.0000   2000.0000   2000.0000     13.9599    140.5408
   721.2500   2000.0000   2000.0000     14.1758    142.7148
   721.5000   2000.0000   2000.0000     14.4141    143.1853
   721.7500   2000.0000   2000.0000     14.6805    141.4673
   722.0000   2000.0000   2000.0000     14.9809    136.6217
   722.2500   2000.0000   2000.0000     15.3145    132.7537
   722.5000   2000.0000   2000.0000     15.6641    127.2087
   722.7500   2000.0000   2000.0000     15.9947    123.8990
   723.0000   2000.0000   2000.0000     16.2729    119.4456
   723.2500   2000.0000   2000.0000     16.4975    116.9379
   723.5000   2000.0000   2000.0000     16.7114    114.3568
   723.7500   2000.0000   2000.0000     16.9792    113.4257
   724.0000   2000.0000   2000.0000     17.3461    112.4236
   724.2500   2000.0000   2000.0000     17.8096    111.5595
   724.5000   2000.0000   2000.0000     18.3204    110.0618
   724.7500   2000.0000   2000.0000     18.8091    109.3179
   725.0000   2000.0000   2000.0000     19.2206    108.8217
   725.2500   2000.0000   2000.0000     19.5320    108.6432
   725.5000   2000.0000   2000.0000     19.7496    108.2182
   725.7500   2000.0000   2000.0000     19.8944    108.0112
   726.0000   2000.0000   2000.0000     19.9892    108.4934
   726.2500   2000.0000   2000.0000     20.0546    109.4880
   726.5000   2000.0000   2000.0000     20.1107    111.5664
   726.7500   2000.0000   2000.0000     20.1730    112.9926
   727.0000   2000.0000   2000.0000     20.2425    114.7545
   727.2500   2000.0000   2000.0000     20.2950    115.4221
   727.5000   2000.0000   2000.0000     20.2896    115.2878
   727.7500   2000.0000   2000.0000     20.1984    114.5931
   728.0000   2000.0000   2000.0000     20.0352    113.7861
   728.2500   2000.0000   2000.0000     19.8576    114.1439
   728.5000   2000.0000   2000.0000     19.7390    116.2553
   728.7500   2000.0000   2000.0000     19.7370    118.1448
   729.0000   2000.0000   2000.0000     19.8770    120.6652
   729.2500   2000.0000   2000.0000     20.1542    122.2442
   729.5000   2000.0000   2000.0000     20.5471    125.7860
   729.7500   2000.0000   2000.0000     21.0339    129.4933
   730.0000   2000.0000   2000.0000     21.6025    136.4435
   730.2500   2000.0000   2000.0000     22.2488    140.9619
   730.5000   2000.0000   2000.0000     22.9676    146.0126
   730.7500   2000.0000   2000.0000     23.7449    147.8785
   731.0000   2000.0000   2000.0000     24.5638    148.6648
   731.2500   2000.0000   2000.0000     25.4182    148.2581
