~Version Information
VERS.                      2.0: CWLS Log ASCII Standard - VERSION 2.0
WRAP.                       NO: One line per depth step
~Well Information Block
STRT.FT               750.0000: 
STOP.FT              2433.0000: 
STEP.FT                 0.2500: 
NULL.                -999.2500: 
COMP.          Petrogulf Corporation: COMPANY
WELL.           McDaniel 9-34V: WELL
FLD.           Purgatorie River: FIELD
LOC.           620' FSL & 1800' FEL: LOCATION
PROV.                 Colorado: PROVINCE
CNTY.               Las Animas: COUNTRY
SRVC.                Patterson: SERVICE COMPANY
DATE.          Tue Sep 27 19:56:11 2005: LOG DATE
UWI.                          : UNIQUE WELL ID
~Curve Information Block
DEPT.FT            0 000 00 00: Depth
SP.mV                         : DIL Spontaneous Potential
RILD.Ohm-m                    : DIL Deep Resistivity
RILM.Ohm-m                    : DIL Medium Resistivity
RLL3.Ohm-m                    : DIL Shallow Resistivity
GR.GAPI                       : Gamma Ray
~Parameter Information Block
~A  Depth        SP         RILD        RILM        RLL3         GR     
   750.0000   -177.6779      7.7184   -999.2500      0.2947    105.4921
   750.2500   -178.1508      7.5356   -999.2500      0.3511    101.5437
   750.5000   -178.0903      7.3627   -999.2500      0.5219     92.2501
   750.7500   -177.4812      7.2239   -999.2500      0.7734     84.9384
   751.0000   -176.3414      7.1397   -999.2500      1.0283     74.1937
   751.2500   -174.7191      7.1207   -999.2500      1.2258     67.8906
   751.5000   -172.6902      7.1654   -999.2500      1.3960     60.4713
   751.7500   -170.3559      7.2620   -999.2500      1.6240     57.2761
   752.0000   -167.8387      7.3916   -999.2500      1.9017     55.7014
   752.2500   -165.2759      7.5342   -999.2500      2.0676     56.7337
   752.5000   -162.8091      7.6715   -999.2500      1.9482     60.1761
   752.7500   -160.5706      7.7903   -999.2500      1.5364     62.8595
   753.0000   -158.6685      7.8823   -999.2500      1.0101     67.2164
   753.2500   -157.1755      7.9449   -999.2500      0.5946     70.9737
   753.5000   -156.1248      7.9812 100000.0000      0.4112     78.5799
   753.7500   -155.5128      7.9986 100000.0000      0.4271     84.3746
   754.0000   -155.3097      8.0071 100000.0000      0.5218     91.9778
   754.2500   -155.4721      8.0154 100000.0000      0.5923     95.2847
   754.5000   -155.9552      8.0276 100000.0000      0.6020     97.2126
   754.7500   -156.7191      8.0423 100000.0000      0.5660     96.8283
   755.0000   -157.7293      8.0535 100000.0000      0.5171     94.2737
   755.2500   -158.9504      8.0531 100000.0000      0.4869     91.3552
   755.5000   -160.3370      8.0338 100000.0000      0.5005     85.7109
   755.7500   -161.8245      7.9912 100000.0000      0.5695     81.8177
   756.0000   -163.3241      7.9245 100000.0000      0.6706     76.7092
   756.2500   -164.7252      7.8363 100000.0000      0.7413     73.7133
   756.5000   -165.9050      7.7342 100000.0000      0.7219     69.4519
   756.7500   -166.7456      7.6353 100000.0000      0.6093     67.1206
   757.0000   -167.1524      7.5693 100000.0000      0.4630     65.7988
   757.2500   -167.0720      7.5752 100000.0000      0.3581     66.8088
   757.5000   -166.5031      7.6884 100000.0000      0.3309     70.4029
   757.7500   -165.4996      7.9226 100000.0000      0.3556     73.2435
   758.0000   -164.1635      8.2529 100000.0000      0.3680     76.8264
   758.2500   -162.6317      8.6119 100000.0000      0.3138     78.3369
   758.5000   -161.0579      8.9099 100000.0000      0.1897     79.1408
   758.7500   -159.5944      9.0807 100000.0000      0.0525     79.0178
   759.0000   -158.3766      9.1215 100000.0000     -0.0172     78.9348
   759.2500   -157.5117      9.0968 100000.0000      0.0217     79.4677
   759.5000   -157.0716      9.1104 100000.0000      0.1374     81.0108
   759.7500   -157.0898      9.2740 100000.0000      0.2612     81.8587
   760.0000   -157.5597      9.6786 100000.0000      0.3516     81.5827
   760.2500   -158.4336     10.3544 100000.0000      0.4182     80.1126
   760.5000   -159.6211     11.1954 100000.0000      0.4929     76.5949
   760.7500   -160.9883     11.8812 100000.0000      0.5955     73.9554
   761.0000   -162.3610     11.9855 100000.0000      0.7304     70.2507
   761.2500   -163.5323     11.3632 100000.0000      0.8906     68.2651
   761.5000   -164.2773     10.3251 100000.0000      1.0403     66.7368
   761.7500   -164.3736      9.2976 100000.0000      1.1151     67.0558
   762.0000   -163.6224      8.5203 100000.0000      1.0748     69.3906
   762.2500   -161.8662      8.0593 100000.0000      0.9527     71.5559
   762.5000   -158.9958      7.9247 100000.0000      0.8303     74.4013
   762.7500   -154.9458      8.1631 100000.0000      0.7715     75.6771
   763.0000   -149.6768      8.9158 100000.0000      0.7924     77.1508
   763.2500   -143.1487     10.4559 100000.0000      0.8692     78.3749
   763.5000   -135.2937     13.1047 100000.0000      0.9467     80.8728
   763.7500   -125.9984     16.4700 100000.0000      0.9591     82.7636
   764.0000   -115.1044     17.7550 100000.0000      0.8806     85.6692
   764.2500   -102.4334     14.7911 100000.0000      0.7595     87.6796
   764.5000    -87.8366     10.7676 100000.0000      0.6929     90.5628
   764.7500    -71.2587      8.0844 100000.0000      0.7829     91.9340
   765.0000    -52.8011      6.7314 100000.0000      1.1330     92.3625
   765.2500    -32.7623      6.2930 100000.0000      1.8721     91.3494
   765.5000    -11.6424      6.5198 100000.0000      3.1351     87.9914
   765.7500      9.8991      7.2583 100000.0000      4.9741     84.9575
   766.0000     31.1221      8.1659 100000.0000      7.2748     80.6508
   766.2500     51.3047      8.3683 100000.0000      9.7797     78.8077
   766.5000     69.8381      7.1612 100000.0000     12.2259     78.1185
   766.7500     86.2936      5.3191 100000.0000     14.4713     78.6812
   767.0000    100.4516      3.8721 100000.0000     16.4769     79.9059
   767.2500    112.2902      3.0333 100000.0000     18.1608     80.3775
   767.5000    121.9460      2.6755 100000.0000     19.2989     80.0664
   767.7500    129.6606      2.7010 100000.0000     19.6128     79.3200
   768.0000    135.7285      3.1275     36.3361     18.9875     78.6353
   768.2500    140.4544      4.1374     15.6636     17.6190     79.6783
   768.5000    144.1247      6.2566     11.5080     15.9552     85.2543
   768.7500    146.9900     11.1492     10.2293     14.4748     91.6938
   769.0000    149.2567     27.7356     10.0931     13.4645    103.4583
   769.2500    151.0840 100000.0000     10.6227     12.9410    110.9836
   769.5000    152.5858 100000.0000     11.6345     12.7393    119.4638
   769.7500    153.8353 100000.0000     13.0281     12.6712    122.6680
   770.0000    154.8742 100000.0000     14.7095     12.6329    123.8852
   770.2500    155.7222 100000.0000     16.5287     12.6019    122.6217
   770.5000    156.3884    368.6793     18.2149     12.5616    118.5022
   770.7500    156.8791     33.6338     19.3785     12.4652    115.2304
   771.0000    157.2040     18.9731     19.6814     12.2951    111.7919
   771.2500    157.3766     14.7129     19.0890     12.1407    111.4663
   771.5000    157.4132     13.2052     17.9056     12.1876    113.7579
   771.7500    157.3290     12.7761     16.5386     12.6225    116.1141
   772.0000    157.1343     12.8195     15.2748     13.5383    119.3600
   772.2500    156.8322     13.0587     14.2397     14.8855    121.2604
   772.5000    156.4180     13.3471     13.4505     16.4720    124.0160
   772.7500    155.8808     13.5872     12.8768     17.9972    125.2399
   773.0000    155.2059     13.7118     12.4790     19.1172    124.2658
   773.2500    154.3787     13.7007     12.2260     19.5366    121.3459
   773.5000    153.3875     13.5949     12.0990     19.1215    115.4244
   773.7500    152.2268     13.4684     12.0881     17.9895    112.3641
   774.0000    150.8999     13.3821     12.1846     16.5047    111.6175
   774.2500    149.4197     13.3550     12.3745     15.1584    114.0509
   774.5000    147.8089     13.3668     12.6334     14.4032    120.9048
   774.7500    146.0970     13.3758     12.9253     14.5230    126.1853
   775.0000    144.3160     13.3415     13.2041     15.5360    132.4186
   775.2500    142.4940     13.2386     13.4204     17.1052    134.3119
   775.5000    140.6487     13.0625     13.5320     18.5626    133.4344
   775.7500    138.7824     12.8262     13.5138     19.2077    131.0738
   776.0000    136.8808     12.5530     13.3627     18.7620    126.9186
   776.2500    134.9168     12.2682     13.0957     17.5560    124.9964
   776.5000    132.8581     11.9928     12.7427     16.2302    124.8304
   776.7500    130.6778     11.7404     12.3372     15.2580    126.6245
   777.0000    128.3656     11.5169     11.9100     14.7253    131.0418
   777.2500    125.9354     11.3235     11.4861     14.4404    133.9343
   777.5000    123.4291     11.1587     11.0850     14.1530    135.8483
   777.7500    120.9143     11.0207     10.7210     13.7119    134.6117
