~Version Information
VERS.                      2.0: CWLS Log ASCII Standard - VERSION 2.0
WRAP.                       NO: One line per depth step
~Well Information Block
STRT.FT                 0.7500: 
STOP.FT              2144.0000: 
STEP.FT                 0.2500: 
NULL.                -999.2500: 
COMP.          Petrogulf Corporation: COMPANY
WELL.            Montoya 1-44R: WELL
FLD.           Purgatorie River: FIELD
LOC.           658' FSL & 1052' FWL: LOCATION
CNTY.               Las Animas: COUNTY
SRVC.                         : SERVICE COMPANY
DATE.          Tue Nov 30 08:31:55 2004: LOG DATE
UWI.           05 071 08239 00: UNIQUE WELL ID
STAT.                 Colorado: STATE
~Curve Information Block
DEPT.FT            0 000 00 00: Depth
TT3.usec                      : CBL 3' Travel Time
AMP3.mV                       : CBL 3' Amplitude
GR.GAPI                       : Gamma Ray
CCL.                          : Casing Collar Locator
~Parameter Information Block
~A  Depth       TT3         AMP3         GR         CCL     
     0.7500   -999.2500   -999.2500   -999.2500   -999.2500
     1.0000   -999.2500   -999.2500   -999.2500      0.0000
     1.2500   -999.2500   -999.2500   -999.2500      0.0000
     1.5000   -999.2500   -999.2500   -999.2500      0.0000
     1.7500   -999.2500   -999.2500   -999.2500      0.0000
     2.0000   -999.2500   -999.2500   -999.2500      0.0000
     2.2500   -999.2500   -999.2500   -999.2500      0.0000
     2.5000   -999.2500   -999.2500   -999.2500      0.0000
     2.7500   -999.2500   -999.2500   -999.2500      0.0000
     3.0000   -999.2500   -999.2500   -999.2500      0.0000
     3.2500   -999.2500   -999.2500   -999.2500      0.0000
     3.5000   -999.2500   -999.2500   -999.2500      0.0000
     3.7500   -999.2500   -999.2500   -999.2500      0.0000
     4.0000   -999.2500   -999.2500   -999.2500      0.0000
     4.2500   -999.2500   -999.2500   -999.2500      0.0000
     4.5000   -999.2500   -999.2500    106.0414      0.0000
     4.7500   -999.2500   -999.2500    105.7978      0.0000
     5.0000   -999.2500   -999.2500    104.6165      0.0000
     5.2500   -999.2500   -999.2500    102.1954      0.0000
     5.5000   -999.2500   -999.2500     98.3219      0.0000
     5.7500   -999.2500   -999.2500     93.1402      0.0000
     6.0000   -999.2500   -999.2500     87.1772      0.0000
     6.2500   -999.2500   -999.2500     81.1161      0.0000
     6.5000   -999.2500   -999.2500     75.5102      0.0000
     6.7500   -999.2500   -999.2500     70.6263      0.0000
     7.0000   -999.2500   -999.2500     66.4985      0.0000
     7.2500   -999.2500   -999.2500     63.0716      0.0000
     7.5000   -999.2500   -999.2500     60.2824      0.0000
     7.7500   -999.2500   -999.2500     58.0261      0.0000
     8.0000   -999.2500   -999.2500     56.1283      0.0000
     8.2500   -999.2500   -999.2500     54.4307      0.0000
     8.5000   -999.2500   -999.2500     52.9419      0.0000
     8.7500   -999.2500   -999.2500     51.9028      0.0000
     9.0000   -999.2500   -999.2500     51.6679      0.0000
     9.2500   -999.2500   -999.2500     52.4467      0.0000
     9.5000   -999.2500   -999.2500     54.0865      0.0000
     9.7500   -999.2500   -999.2500     56.0413      0.0000
    10.0000   -999.2500   -999.2500     57.5420      0.0000
    10.2500   -999.2500   -999.2500     57.8916      0.0000
    10.5000   1491.0000      1.6882     56.7802      0.0000
    10.7500   1491.0000      1.7069     54.4770      0.0000
    11.0000   1490.9642      1.7206     51.7543      0.0000
    11.2500   1490.6866      1.7267     49.5255      0.0000
    11.5000   1489.2135      1.7424     48.3901      0.0000
    11.7500   1483.0632      1.8507     48.3696      0.0000
    12.0000   1462.8389      2.3294     48.9863      0.0000
    12.2500   1410.3832      3.8875     49.5771      0.0000
    12.5000   1302.9406      7.8359     49.6381      0.0000
    12.7500   1128.9934     15.7162     49.0409      0.0000
    13.0000    906.2896     28.1296     48.0610      0.0000
    13.2500    680.8074     43.5740     47.2082      0.0000
    13.5000    500.3523     58.7554     46.9712      0.0000
    13.7500    386.2976     70.5431     47.6459      0.0000
    14.0000    329.4350     77.7691     49.3124      0.0000
    14.2500    307.1046     81.2684     51.8677      0.0000
    14.5000    300.2120     82.6177     54.9927      0.0000
    14.7500    298.5526     83.0460     58.1231      0.0000
    15.0000    298.2565     83.1679     60.5917      0.0000
    15.2500    298.2408     83.2021     61.9302      0.0000
    15.5000    298.2730     83.2156     62.0906      0.0000
    15.7500    298.3107     83.2389     61.3659      0.0000
    16.0000    298.3513     83.2891     60.1100      0.0000
    16.2500    298.3863     83.3656     58.5146      0.0000
    16.5000    298.4075     83.4556     56.6162      0.0000
    16.7500    298.4117     83.5449     54.4693      0.0000
    17.0000    298.4011     83.6200     52.3025      0.0000
    17.2500    298.3816     83.6596     50.5243      0.0000
    17.5000    298.3612     83.6395     49.5622      0.0000
    17.7500    298.3499     83.5523     49.6420      0.0000
    18.0000    298.3658     83.4095     50.6591      0.0000
    18.2500    298.4573     83.2044     52.2314      0.0000
    18.5000    298.7307     82.8690     53.8842      0.0000
    18.7500    299.3358     82.2755     55.2222      0.0000
    19.0000    300.3667     81.2635     56.0037      0.0000
    19.2500    301.7304     79.6525     56.1563      0.0000
    19.5000    303.1380     77.3143     55.7898      0.0000
    19.7500    304.2762     74.3794     55.1758      0.0000
    20.0000    305.0017     71.3708     54.6293      0.0000
    20.2500    305.3748     68.9471     54.3560      0.0000
    20.5000    305.5505     67.4325     54.4232      0.0000
    20.7500    305.6758     66.6372     54.8510     -3.0000
    21.0000    305.8553     66.1067     55.6623     -3.0000
    21.2500    306.1357     65.4554     56.7734      3.0000
    21.5000    306.4686     64.5843     57.8726      0.0000
    21.7500    306.6654     63.8292     58.5088      0.0000
    22.0000    306.4156     63.9390     58.4008      0.0000
    22.2500    305.4486     65.6207     57.6816      0.0000
    22.5000    303.7937     68.8832     56.8058      0.0000
    22.7500    301.8746     72.9253     56.1743      0.0000
    23.0000    300.2449     76.7302     55.8012      0.0000
    23.2500    299.2009     79.6601     55.2890      0.0000
    23.5000    298.6762     81.5642     54.1172      0.0000
    23.7500    298.4429     82.6022     52.0312      0.0000
    24.0000    298.3286     83.0572     49.2841      0.0000
    24.2500    298.2697     83.1956     46.5748      0.0000
    24.5000    298.2577     83.1956     44.7179      0.0000
    24.7500    298.2851     83.1462     44.2701      0.0000
    25.0000    298.3324     83.0859     45.3574      0.0000
    25.2500    298.3840     83.0263     47.7541      0.0000
    25.5000    298.4387     82.9700     51.0635      0.0000
    25.7500    298.4987     82.9174     54.8290      0.0000
    26.0000    298.5554     82.8722     58.5802      0.0000
    26.2500    298.5905     82.8408     61.8963      0.0000
    26.5000    298.5929     82.8277     64.5163      0.0000
    26.7500    298.5682     82.8344     66.3800      0.0000
    27.0000    298.5314     82.8598     67.5334      0.0000
    27.2500    298.4952     82.8999     67.9829      0.0000
    27.5000    298.4653     82.9472     67.6544      0.0000
    27.7500    298.4420     82.9949     66.4779      0.0000
    28.0000    298.4227     83.0405     64.4701      0.0000
    28.2500    298.4043     83.0845     61.7359      0.0000
    28.5000    298.3861     83.1240     58.4498      0.0000
    28.7500    298.3728     83.1518     54.9018      0.0000
    29.0000    298.3740     83.1622     51.5659      0.0000
    29.2500    298.3958     83.1531     49.0441      0.0000
    29.5000    298.4328     83.1247     47.8365      0.0000
    29.7500    298.4703     83.0769     48.0656      0.0000
    30.0000    298.4955     83.0137     49.3566      0.0000
    30.2500    298.5048     82.9470     50.9684      0.0000
    30.5000    298.5002     82.8932     52.1405      0.0000
    30.7500    298.4844     82.8634     52.4534      0.0000
    31.0000    298.4606     82.8571     51.9994      0.0000
    31.2500    298.4339     82.8631     51.2616      0.0000
    31.5000    298.4105     82.8675     50.7966      0.0000
    31.7500    298.3977     82.8626     50.9197      0.0000
    32.0000    298.4025     82.8541     51.5580      0.0000
    32.2500    298.4252     82.8591     52.3397      0.0000
    32.5000    298.4545     82.8909     52.8369      0.0000
    32.7500    298.4723     82.9460     52.7816      0.0000
    33.0000    298.4670     83.0074     52.1219      0.0000
    33.2500    298.4424     83.0594     50.9598      0.0000
    33.5000    298.4141     83.0943     49.4913      0.0000
    33.7500    298.3957     83.1092     47.9610      0.0000
    34.0000    298.3905     83.1018     46.5806      0.0000
