~Version Information
VERS.                      2.0: CWLS Log ASCII Standard - VERSION 2.0
WRAP.                       NO: One line per depth step
~Well Information Block
STRT.FT               -10.0000: 
STOP.FT              2184.0000: 
STEP.FT                 0.2500: 
NULL.                -999.2500: 
COMP.          Petrogulf Corporation: COMPANY
WELL.              Silva 1-43R: WELL
FLD.           Purgatorie River: FIELD
LOC.           1971' FSL & 526' FEL--: LOCATION
CNTY.               Las Animas: COUNTY
SRVC.          Patterson Wireline: SERVICE COMPANY
DATE.          Thu Jul 13 13:08:17 2006: LOG DATE
UWI.           05 072 08372 00: UNIQUE WELL ID
STAT.                       CO: STATE
~Curve Information Block
DEPT.FT            0 000 00 00: Depth
CCL.                          : Casing Collar Locator
TT3.usec                      : CBL 3' Travel Time
AMP3.mV                       : CBL 3' Amplitude
GR.GAPI                       : Gamma Ray
~Parameter Information Block
~A  Depth       CCL         TT3         AMP3         GR     
# ...
  1866.0000      0.0000    506.9592      4.9246     89.3300
  1866.2500      0.0000    506.5158      4.9513     91.5093
  1866.5000      0.0000    506.1313      4.9827     94.0644
  1866.7500      0.0000    505.7861      5.0082     95.7170
  1867.0000      0.0000    505.5054      5.0203     95.5293
  1867.2500      0.0000    505.4936      5.0208     92.8909
  1867.5000      0.0000    506.2955      5.0195     88.0354
  1867.7500      0.0000    508.8224      5.0253     82.5640
  1868.0000      0.0000    513.9294      5.0414     78.7516
  1868.2500      0.0000    521.5873      5.0658     77.9905
  1868.5000      0.0000    530.4902      5.0941     80.1305
  1868.7500      0.0000    538.9395      5.1223     84.2121
  1869.0000      0.0000    546.3416      5.1488     89.4790
  1869.2500      0.0000    553.6148      5.1760     95.5189
  1869.5000      0.0000    562.0727      5.2091    101.5528
  1869.7500      0.0000    572.2761      5.2556    105.9637
  1870.0000      0.0000    583.9868      5.3254    107.2156
  1870.2500      0.0000    596.3109      5.4275    105.7346
  1870.5000      0.0000    607.0740      5.5590    104.5362
  1870.7500      0.0000    613.1901      5.6967    107.3222
  1871.0000      0.0000    613.8012      5.8037    115.6094
  1871.2500      0.0000    612.9944      5.8519    127.3770
  1871.5000      0.0000    617.0071      5.8438    138.0853
  1871.7500      0.0000    627.7581      5.8123    143.3800
  1872.0000      0.0000    640.4157      5.7981    141.9726
  1872.2500      0.0000    647.4351      5.8237    136.4360
  1872.5000      0.0000    643.7688      5.8850    130.9060
  1872.7500      0.0000    629.0378      5.9641    127.9211
  1873.0000      0.0000    607.1288      6.0473    127.4270
  1873.2500      0.0000    584.1545      6.1279    128.0524
  1873.5000      0.0000    565.3804      6.1933    128.5788
  1873.7500      0.0000    553.4084      6.2198    128.4866
  1874.0000      0.0000    548.9888      6.1872    127.8656
  1874.2500      0.0000    552.3086      6.1006    126.9861
  1874.5000      0.0000    562.6243      5.9935    125.7760
  1874.7500      0.0000    577.5868      5.9066    123.8339
  1875.0000      0.0000    594.2197      5.8615    121.3016
  1875.2500      0.0000    610.7383      5.8509    119.6268
  1875.5000      0.0000    626.7924      5.8514    120.7303
  1875.7500      0.0000    641.7136      5.8453    124.9218
  1876.0000      0.0000    653.0115      5.8300    130.4522
  1876.2500      0.0000    656.9174      5.8104    135.8031
  1876.5000      0.0000    650.7558      5.7883    141.3453
  1876.7500      0.0000    635.8884      5.7643    147.7561
  1877.0000      0.0000    618.4117      5.7407    153.8504
  1877.2500      0.0000    604.8463      5.7154    157.3587
  1877.5000      0.0000    596.2318      5.6766    157.5527
  1877.7500      0.0000    588.7783      5.6148    156.2788
  1878.0000      0.0000    580.8656      5.5395    156.4149
  1878.2500      0.0000    576.3457      5.4747    159.5591
  1878.5000      0.0000    579.9902      5.4386    164.6445
  1878.7500      0.0000    592.4286      5.4303    168.4018
  1879.0000      0.0000    610.3032      5.4379    167.9452
  1879.2500      0.0000    628.8068      5.4504    163.4495
  1879.5000      0.0000    643.2894      5.4621    157.8441
  1879.7500      0.0000    650.6702      5.4686    153.8666
  1880.0000      0.0000    650.7645      5.4661    152.0383
  1880.2500      0.0000    645.8391      5.4548    151.1232
  1880.5000      0.0000    638.7607      5.4398    149.6045
  1880.7500      0.0000    631.8922      5.4284    146.7296
  1881.0000      0.0000    627.2640      5.4300    143.0254
  1881.2500      0.0000    626.6874      5.4623    140.2661
  1881.5000      0.0000    631.0706      5.5496    140.3823
  1881.7500      0.0000    639.6452      5.7084    143.7369
  1882.0000      0.0000    649.9500      5.9335    148.7435
  1882.2500      0.0000    658.8310      6.2021    153.5515
  1882.5000      0.0000    663.6802      6.4913    157.5878
  1882.7500      0.0000    662.9370      6.7851    161.1323
  1883.0000      0.0000    656.1602      7.0625    164.1426
  1883.2500      0.0000    644.6813      7.2809    166.1715
  1883.5000      0.0000    632.0073      7.3751    167.1067
  1883.7500      0.0000    622.2240      7.2998    167.3142
  1884.0000      0.0000    617.7091      7.0929    166.9364
  1884.2500      0.0000    619.2321      6.8739    165.6132
  1884.5000      0.0000    627.0909      6.7435    163.3084
  1884.7500      0.0000    639.9337      6.6958    160.7965
  1885.0000      0.0000    653.1982      6.6520    158.6119
  1885.2500     -2.0000    660.9659      6.5593    156.2334
  1885.5000      2.0000    659.5671      6.4343    153.4632
  1885.7500      0.0000    649.8353      6.3327    151.8613
  1886.0000      0.0000    637.4536      6.2977    153.4317
  1886.2500      0.0000    630.1762      6.3198    158.3270
  1886.5000      0.0000    631.9566      6.3326    164.8796
  1886.7500      0.0000    639.5092      6.2671    171.2665
  1887.0000      0.0000    646.0997      6.1157    176.2911
  1887.2500      0.0000    648.6569      5.9288    179.2216
  1887.5000      0.0000    649.9808      5.7551    179.7822
  1887.7500      0.0000    654.2494      5.6087    178.0683
  1888.0000      0.0000    662.2346      5.4860    174.1860
  1888.2500      0.0000    671.6388      5.3889    168.3542
  1888.5000      0.0000    680.4800      5.3290    161.4337
  1888.7500      0.0000    688.6093      5.3174    154.9906
  1889.0000      0.0000    695.6191      5.3549    150.7004
  1889.2500      0.0000    697.7974      5.4324    149.7000
  1889.5000      0.0000    688.5534      5.5378    152.1545
  1889.7500      0.0000    663.9921      5.6634    156.8537
  1890.0000      0.0000    628.4609      5.8082    161.3868
  1890.2500      0.0000    592.9271      5.9764    163.8160
  1890.5000      0.0000    567.0663      6.1693    164.6832
  1890.7500      0.0000    553.5487      6.3736    166.5519
  1891.0000      0.0000    549.5764      6.5603    170.9424
  1891.2500      0.0000    552.5961      6.6953    176.1339
  1891.5000      0.0000    564.0163      6.7487    178.4040
  1891.7500      0.0000    587.3250      6.6943    175.2869
  1892.0000      0.0000    622.1263      6.5098    167.8973
  1892.2500      0.0000    660.4005      6.1872    160.5051
  1892.5000      0.0000    690.3004      5.7389    157.4754
  1892.7500      0.0000    704.4825      5.1914    159.8562
  1893.0000      0.0000    704.3729      4.5792    164.7858
  1893.2500      0.0000    696.9454      3.9459    168.2650
  1893.5000      0.0000    688.6691      3.3465    168.1788
  1893.7500      0.0000    682.2476      2.8361    164.9236
  1894.0000      0.0000    677.2646      2.4481    160.3449
  1894.2500      0.0000    672.5830      2.1787    156.6058
  1894.5000      0.0000    668.0885      1.9936    155.2312
  1894.7500      0.0000    664.7808      1.8542    156.2818
  1895.0000      0.0000    663.6956      1.7398    158.1729
  1895.2500      0.0000    664.7217      1.6493    158.5605
  1895.5000      0.0000    666.1698      1.5901    155.8680
  1895.7500      0.0000    665.6146      1.5702    150.2046
  1896.0000      0.0000    661.6853      1.5966    142.9432
  1896.2500      0.0000    655.0154      1.6743    135.6841
  1896.5000      0.0000    647.1467      1.7964    129.7903
  1896.7500      0.0000    639.0267      1.9346    126.5005
  1897.0000      0.0000    631.4567      2.0426    126.7081
  1897.2500      0.0000    626.3918      2.0774    130.3613
  1897.5000      0.0000    625.9368      2.0243    136.5163
  1897.7500      0.0000    629.6475      1.9064    144.1084
  1898.0000      0.0000    634.1998      1.7715    152.1887
  1898.2500      0.0000    636.3162      1.6655    159.2945
  1898.5000      0.0000    635.3514      1.6116    163.6154
  1898.7500      0.0000    632.9788      1.6074    164.7589
  1899.0000      0.0000    631.2571      1.6352    164.8470
  1899.2500      0.0000    631.5448      1.6753    166.7312
