~Version Information
VERS.                      2.0: CWLS Log ASCII Standard - VERSION 2.0
WRAP.                       NO: One line per depth step
~Well Information Block
STRT.FT               456.0000: 
STOP.FT              1700.7000: 
STEP.FT                 0.1000: 
NULL.                -999.2500: 
COMP.          Pioneer Natural Resources: COMPANY
WELL.                Mead 11-9: WELL
FLD.           Purgatoire River: FIELD
LOC.           1127' FNL & 668' FWL: LOCATION
PROV.                 Colorado: PROVINCE
CNTY.               Las Animas: COUNTRY
SRVC.                Patterson: SERVICE COMPANY
DATE.          Sat Feb 19 09:18:18 2005: LOG DATE
UWI.           05 071 08160 00: UNIQUE WELL ID
~Curve Information Block
DEPT.FT            0 000 00 00: Depth
DCAL.in                       : CDL Caliper
RHOB.g/cc                     : CDL Bulk Density
RHOC.g/cc                     : CDL Density Correction
DPOR.pu                       : CDL Density Porosity
GR.GAPI                       : Gamma Ray
NPOR.pu                       : Neutron Porosity
~Parameter Information Block
~A  Depth       DCAL        RHOB        RHOC        DPOR         GR         NPOR    
# ...
  1032.0000      8.0810      2.4487      0.0134     12.2025    153.7343     28.1544
  1032.1000      8.0810      2.4647      0.0362     11.2324    153.8692     27.9386
  1032.2000      8.0810      2.4854      0.0744      9.9765    156.1142     27.6982
  1032.3000      8.0815      2.4972      0.0795      9.2578    156.7702     27.7880
  1032.4000      8.0815      2.5148      0.0504      8.1936    150.7631     27.9639
  1032.5000      8.0831      2.5512      0.0954      5.9872    143.6582     28.0926
  1032.6000      8.0831      2.5814      0.1568      4.1566    143.4494     28.4084
  1032.7000      8.0831      2.5748      0.1511      4.5599    147.4221     28.8434
  1032.8000      8.0842      2.5358      0.1234      6.9211    148.4474     28.7444
  1032.9000      8.0842      2.4789      0.1042     10.3690    144.7055     28.1957
  1033.0000      8.0838      2.4120      0.0113     14.4242    141.6279     28.1271
  1033.1000      8.0838      2.3683     -0.0932     17.0746    144.4903     28.4606
  1033.2000      8.0838      2.3861     -0.0412     15.9951    152.2803     28.5137
  1033.3000      8.0828      2.4511      0.0253     12.0548    159.0741     28.1742
  1033.4000      8.0828      2.5150      0.0744      8.1841    159.4673     27.9806
  1033.5000      8.0830      2.5493      0.1093      6.1002    157.0892     28.1079
  1033.6000      8.0830      2.5535      0.1314      5.8482    157.6202     28.1129
  1033.7000      8.0830      2.5480      0.0757      6.1836    159.4698     28.1097
  1033.8000      8.0884      2.5515      0.1303      5.9680    161.6640     28.4244
  1033.9000      8.0884      2.5562      0.0784      5.6858    163.5980     28.9421
  1034.0000      8.1002      2.5478      0.1352      6.1916    160.9555     29.1698
  1034.1000      8.1002      2.5299      0.0508      7.2764    156.0408     28.8886
  1034.2000      8.1002      2.5225      0.0589      7.7261    155.0073     28.1419
  1034.3000      8.1123      2.5288      0.1026      7.3465    157.8090     27.2211
  1034.4000      8.1123      2.5292      0.1296      7.3213    160.9171     26.7940
  1034.5000      8.1241      2.5144      0.0774      8.2204    160.1551     26.9709
  1034.6000      8.1241      2.4982      0.0482      9.2027    152.3829     27.2915
  1034.7000      8.1241      2.4931      0.1159      9.5064    143.9124     27.8935
  1034.8000      8.1418      2.4952      0.1026      9.3827    144.2156     29.1085
  1034.9000      8.1418      2.4929      0.1051      9.5220    148.6835     30.3497
  1035.0000      8.1639      2.4766      0.1188     10.5081    148.5651     30.7967
  1035.1000      8.1639      2.4615      0.0325     11.4270    145.9370     30.4072
  1035.2000      8.1639      2.4736      0.0549     10.6922    147.3839     29.5736
  1035.3000      8.1795      2.5012      0.1029      9.0168    152.1459     28.6567
  1035.4000      8.1795      2.5206      0.0879      7.8410    154.0868     27.8860
  1035.5000      8.1483      2.5254      0.1553      7.5516    151.5879     27.2141
  1035.6000      8.1483      2.5125      0.0497      8.3364    147.4957     26.6078
  1035.7000      8.1483      2.4905      0.0222      9.6674    143.1789     26.4337
  1035.8000      8.0601      2.4761      0.0175     10.5388    138.1970     26.8084
  1035.9000      8.0601      2.4741      0.0495     10.6588    132.6573     27.4701
  1036.0000      7.9974      2.4770      0.0037     10.4829    127.7274     28.3266
  1036.1000      7.9974      2.4796      0.0205     10.3256    127.2005     28.9348
  1036.2000      7.9974      2.4896      0.0262      9.7207    132.6513     28.6106
  1036.3000      7.9738      2.5145      0.0432      8.2098    143.5612     27.4341
  1036.4000      7.9738      2.5383      0.0532      6.7700    154.0372     26.5266
  1036.5000      7.9554      2.5371      0.0582      6.8413    155.1583     26.5234
  1036.6000      7.9554      2.5135      0.0291      8.2721    149.4317     26.9271
  1036.7000      7.9554      2.4918      0.0098      9.5873    144.6439     27.4045
  1036.8000      7.9444      2.4873      0.0254      9.8577    142.9255     27.5898
  1036.9000      7.9444      2.4887      0.0439      9.7773    144.0957     26.9883
  1037.0000      7.9421      2.4779      0.0153     10.4285    146.1192     25.8711
  1037.1000      7.9421      2.4655     -0.0151     11.1822    146.1240     25.2921
  1037.2000      7.9421      2.4745      0.0147     10.6376    145.5633     25.6443
  1037.3000      7.9422      2.4987      0.0539      9.1698    148.1974     25.9757
  1037.4000      7.9422      2.5162      0.0397      8.1114    152.6632     25.5467
  1037.5000      7.9421      2.5247      0.0242      7.5934    154.7002     25.0319
  1037.6000      7.9421      2.5387      0.0260      6.7474    153.6170     25.3045
  1037.7000      7.9421      2.5636      0.0753      5.2347    153.8219     26.0409
  1037.8000      7.9416      2.5898      0.1061      3.6465    155.3887     26.3319
  1037.9000      7.9416      2.6142      0.0658      2.1697    151.3461     25.8920
  1038.0000      7.9403      2.6389      0.0978      0.6742    139.0444     25.1428
  1038.1000      7.9403      2.6510      0.1380     -0.0634    126.3957     24.4438
  1038.2000      7.9403      2.6394      0.1187      0.6434    119.1438     23.7511
  1038.3000      7.9392      2.6132      0.0790      2.2304    111.6326     22.9283
  1038.4000      7.9392      2.5920     -0.0039      3.5175    100.6006     22.1885
  1038.5000      7.9387      2.5894     -0.0351      3.6747     92.8457     21.8675
  1038.6000      7.9387      2.5937      0.0402      3.4131     92.2907     22.0681
  1038.7000      7.9387      2.5809      0.0332      4.1877     92.0148     22.5841
  1038.8000      7.9385      2.5583     -0.0503      5.5569     86.2560     22.9858
  1038.9000      7.9385      2.5471      0.0058      6.2356     79.7298     22.5526
  1039.0000      7.9379      2.5431      0.0381      6.4765     76.9575     21.1138
  1039.1000      7.9379      2.5412      0.0028      6.5911     76.1849     19.8701
  1039.2000      7.9379      2.5458     -0.0017      6.3141     76.8750     19.6952
  1039.3000      7.9375      2.5448      0.0302      6.3750     82.0935     19.9008
  1039.4000      7.9375      2.5335     -0.0470      7.0583     88.1830     19.8434
  1039.5000      7.9375      2.5335     -0.0043      7.0634     88.0826     19.4228
  1039.6000      7.9375      2.5437      0.0170      6.4420     85.3149     18.6790
  1039.7000      7.9375      2.5347      0.0527      6.9903     84.6023     18.2979
  1039.8000      7.9378      2.5063     -0.0071      8.7061     83.5561     18.4075
  1039.9000      7.9378      2.4948     -0.0134      9.4081     80.3134     18.5684
  1040.0000      7.9386      2.5072      0.0550      8.6533     77.3046     18.6858
  1040.1000      7.9386      2.5164      0.0351      8.0940     78.0243     18.7327
  1040.2000      7.9386      2.5161      0.0346      8.1138     81.1618     18.7783
  1040.3000      7.9393      2.5219      0.0111      7.7634     81.8596     19.0497
  1040.4000      7.9393      2.5358      0.0215      6.9196     78.9174     19.2583
  1040.5000      7.9399      2.5426      0.0322      6.5074     74.1245     18.9754
  1040.6000      7.9399      2.5357      0.0272      6.9280     69.7584     18.5692
  1040.7000      7.9399      2.5225      0.0336      7.7275     68.7207     18.7468
  1040.8000      7.9405      2.5079      0.0481      8.6096     71.0908     19.2394
  1040.9000      7.9405      2.4941      0.0137      9.4468     73.0778     19.3159
  1041.0000      7.9406      2.4919      0.0153      9.5841     72.3917     19.3210
  1041.1000      7.9406      2.5072      0.0144      8.6564     71.2198     19.7656
  1041.2000      7.9406      2.5270      0.0348      7.4544     72.0013     20.5638
  1041.3000      7.9403      2.5343      0.0553      7.0109     74.1914     21.5156
  1041.4000      7.9403      2.5280      0.0465      7.3910     78.7089     22.2509
  1041.5000      7.9399      2.5174      0.0429      8.0341     86.4009     22.4885
