~Version Information
VERS.                      2.0: CWLS Log ASCII Standard - VERSION 2.0
WRAP.                       NO: One line per depth step
~Well Information Block
STRT.FT               660.8000: 
STOP.FT              2375.1000: 
STEP.FT                 0.1000: 
NULL.                -999.2500: 
COMP.          Petrogulf Corporation: COMPANY
WELL.             State 16-34V: WELL
FLD.           Purgatorie River: FIELD
LOC.           1146' FSL & 1393' FEL: LOCATION
CNTY.               Las Animas: COUNTY
SRVC.                         : SERVICE COMPANY
DATE.          Sat Jun 07 20:51:20 2003: LOG DATE
UWI.           05 071 07724 00: UNIQUE WELL ID
STAT.                 Colorado: STATE
~Curve Information Block
DEPT.FT            0 000 00 00: Depth
DCAL.in                       : Caliper from Density Tool
RHOB.g/cc                     : Bulk Density
RHOC.g/cc                     : Density Correction
DPOR.pu                       : Density Porosity
GR.GAPI                       : Gamma Ray
NPOR.pu                       : Neutron Porosity
~Parameter Information Block
~A  Depth       DCAL        RHOB        RHOC        DPOR         GR         NPOR    
# ...
  1236.8000      8.3585      2.1418      0.0931     30.8023    137.6911     19.5564
  1236.9000      8.3585      2.1418      0.0931     30.8023    137.3136     19.6611
  1237.0000      8.3277      2.1612      0.0922     29.6217    137.0778     19.7978
  1237.1000      8.3277      2.1612      0.0922     29.6217    136.9978     19.9543
  1237.2000      8.3277      2.1612      0.0922     29.6217    137.0897     20.1171
  1237.3000      8.2701      2.1993      0.0993     27.3150    137.3679     20.2738
  1237.4000      8.2701      2.1993      0.0993     27.3150    137.8387     20.4143
  1237.5000      8.2059      2.2246      0.1053     25.7813    138.4975     20.5315
  1237.6000      8.2059      2.2246      0.1053     25.7813    139.3233     20.6222
  1237.7000      8.2059      2.2246      0.1053     25.7813    140.2747     20.6864
  1237.8000      8.1957      2.2526      0.1072     24.0846    141.2918     20.7264
  1237.9000      8.1957      2.2526      0.1072     24.0846    142.2999     20.7465
  1238.0000      8.3113      2.2622      0.1009     23.5033    143.2183     20.7510
  1238.1000      8.3113      2.2622      0.1009     23.5033    143.9683     20.7437
  1238.2000      8.3113      2.2622      0.1009     23.5033    144.4821     20.7272
  1238.3000      8.4701      2.2649      0.0821     23.3400    144.7086     20.7029
  1238.4000      8.4701      2.2649      0.0821     23.3400    144.6199     20.6714
  1238.5000      8.5754      2.2617      0.0674     23.5352    144.2128     20.6329
  1238.6000      8.5754      2.2617      0.0674     23.5352    143.5079     20.5885
  1238.7000      8.5754      2.2617      0.0674     23.5352    142.5498     20.5402
  1238.8000      8.6091      2.2529      0.0497     24.0695    141.4027     20.4910
  1238.9000      8.6091      2.2529      0.0497     24.0695    140.1451     20.4452
  1239.0000      8.5516      2.2445      0.0435     24.5739    138.8621     20.4068
  1239.1000      8.5516      2.2445      0.0435     24.5739    137.6353     20.3792
  1239.2000      8.5516      2.2445      0.0435     24.5739    136.5374     20.3638
  1239.3000      8.4605      2.2268      0.0428     25.6471    135.6195     20.3593
  1239.4000      8.4605      2.2268      0.0428     25.6471    134.9087     20.3619
  1239.5000      8.4374      2.2110      0.0466     26.6086    134.4068     20.3656
  1239.6000      8.4374      2.2110      0.0466     26.6086    134.0925     20.3625
  1239.7000      8.4374      2.2110      0.0466     26.6086    133.9296     20.3447
  1239.8000      8.4131      2.1818      0.0550     28.3763    133.8749     20.3055
  1239.9000      8.4131      2.1818      0.0550     28.3763    133.8868     20.2402
  1240.0000      8.2991      2.1598      0.0602     29.7099    133.9325     20.1479
  1240.1000      8.2991      2.1598      0.0602     29.7099    133.9925     20.0318
  1240.2000      8.2991      2.1598      0.0602     29.7099    134.0621     19.8992
  1240.3000      8.1532      2.1251      0.0645     31.8092    134.1464     19.7601
  1240.4000      8.1532      2.1251      0.0645     31.8092    134.2594     19.6272
  1240.5000      8.0934      2.1025      0.0649     33.1808    134.4200     19.5128
  1240.6000      8.0934      2.1025      0.0649     33.1808    134.6437     19.4276
  1240.7000      8.0934      2.1025      0.0649     33.1808    134.9425     19.3781
  1240.8000      8.1347      2.0710      0.0652     35.0904    135.3199     19.3652
  1240.9000      8.1347      2.0710      0.0652     35.0904    135.7693     19.3830
  1241.0000      8.2096      2.0507      0.0690     36.3229    136.2733     19.4190
  1241.1000      8.2096      2.0507      0.0690     36.3229    136.8058     19.4542
  1241.2000      8.2096      2.0507      0.0690     36.3229    137.3340     19.4652
  1241.3000      8.2644      2.0139      0.0844     38.5489    137.8207     19.4265
  1241.4000      8.2644      2.0139      0.0844     38.5489    138.2279     19.3131
  1241.5000      8.3049      1.9795      0.0999     40.6380    138.5210     19.1037
  1241.6000      8.3049      1.9795      0.0999     40.6380    138.6674     18.7843
  1241.7000      8.3049      1.9795      0.0999     40.6380    138.6397     18.3500
  1241.8000      8.3229      1.9088      0.1219     44.9221    138.4169     17.8078
  1241.9000      8.3229      1.9088      0.1219     44.9221    137.9823     17.1769
  1242.0000      8.3205      1.8533      0.1292     48.2824    137.3260     16.4883
  1242.1000      8.3205      1.8533      0.1292     48.2824    136.4462     15.7825
  1242.2000      8.3205      1.8533      0.1292     48.2824    135.3520     15.1053
  1242.3000      8.3697      1.7738      0.1220     53.1023    134.0685     14.5042
  1242.4000      8.3697      1.7738      0.1220     53.1023    132.6383     14.0242
  1242.5000      8.4988      1.7346      0.1053     55.4798    131.1238     13.7042
  1242.6000      8.4988      1.7346      0.1053     55.4798    129.6049     13.5743
  1242.7000      8.4988      1.7346      0.1053     55.4798    128.1717     13.6525
  1242.8000      8.6759      1.7153      0.0708     56.6508    126.9194     13.9442
  1242.9000      8.6759      1.7153      0.0708     56.6508    125.9356     14.4413
  1243.0000      8.7647      1.7374      0.0495     55.3082    125.2912     15.1230
  1243.1000      8.7647      1.7374      0.0495     55.3082    125.0313     15.9577
  1243.2000      8.7647      1.7374      0.0495     55.3082    125.1715     16.9049
  1243.3000      8.6230      1.8283      0.0333     49.7995    125.6969     17.9165
  1243.4000      8.6230      1.8283      0.0333     49.7995    126.5687     18.9409
  1243.5000      8.3963      1.9208      0.0371     44.1948    127.7307     19.9286
  1243.6000      8.3963      1.9208      0.0371     44.1948    129.1192     20.8362
  1243.7000      8.3963      1.9208      0.0371     44.1948    130.6724     21.6298
  1243.8000      8.2560      2.0781      0.0599     34.6618    132.3388     22.2872
  1243.9000      8.2560      2.0781      0.0599     34.6618    134.0784     22.7979
  1244.0000      8.1553      2.1737      0.0791     28.8678    135.8625     23.1629
  1244.1000      8.1553      2.1737      0.0791     28.8678    137.6712     23.3923
  1244.2000      8.1553      2.1737      0.0791     28.8678    139.4850     23.5043
  1244.3000      8.1285      2.2777      0.1002     22.5616    141.2826     23.5219
  1244.4000      8.1285      2.2777      0.1002     22.5616    143.0372     23.4719
  1244.5000      8.2621      2.3188      0.1051     20.0741    144.7146     23.3813
  1244.6000      8.2621      2.3188      0.1051     20.0741    146.2766     23.2766
  1244.7000      8.2621      2.3188      0.1051     20.0741    147.6891     23.1811
  1244.8000      8.5565      2.3502      0.0996     18.1717    148.9250     23.1141
  1244.9000      8.5565      2.3502      0.0996     18.1717    149.9703     23.0893
  1245.0000      8.9335      2.3608      0.0904     17.5290    150.8286     23.1149
  1245.1000      8.9335      2.3608      0.0904     17.5290    151.5192     23.1932
  1245.2000      8.9335      2.3608      0.0904     17.5290    152.0705     23.3216
  1245.3000      9.1301      2.3742      0.0753     16.7161    152.5153     23.4935
  1245.4000      9.1301      2.3742      0.0753     16.7161    152.8822     23.6999
  1245.5000      9.0264      2.3851      0.0670     16.0572    153.1892     23.9304
  1245.6000      9.0264      2.3851      0.0670     16.0572    153.4397     24.1750
  1245.7000      9.0264      2.3851      0.0670     16.0572    153.6242     24.4245
  1245.8000      8.7988      2.4044      0.0588     14.8858    153.7233     24.6716
  1245.9000      8.7988      2.4044      0.0588     14.8858    153.7134     24.9111
  1246.0000      8.7787      2.4175      0.0555     14.0886    153.5780     25.1396
  1246.1000      8.7787      2.4175      0.0555     14.0886    153.3098     25.3553
  1246.2000      8.7787      2.4175      0.0555     14.0886    152.9154     25.5575
  1246.3000      8.8827      2.4352      0.0540     13.0160    152.4176     25.7452
