~Version Information
 VERS.                                  2.0 : CWLS LAS VERSION
 WRAP.                                   NO : WRAPING MODE
 SWARE .                 MController 2.5.0E : SOFTWARE VERSION
~Well Information
 WELL.                                  N/A : WELL
 COMP.                                  N/A : COMPANY
 FLD.                                   N/A : FIELD
 LOC.                                   N/A : LOCATION
 DATE.                                  N/A : DATE(S) LOGGED
 SRVC.                                  N/A : SERVICE COMPANY
 STAT.                                  N/A : STATE
 CNTY.                                  N/A : COUNTY
 CTRY.                                  N/A : COUNTRY
 API.                                   N/A : API NUMBER
 STRT.FT                              94.00 : START DEPTH
 STOP.FT                            1931.00 : STOP DEPTH
 STEP.FT                               1.00 : DEPTH INCREMENT
 NULL.                                -9999 : NULL VALUE
~Curve information
 DEPTH.FT                                   :
 ROP.MIN/FT                                 :
 GAS.UNITS                                  :
~ASCII Log data
# ...
     1294.00        0.367        168.6 
     1295.00        0.233        167.3 
     1296.00        0.200        149.6 
     1297.00        0.200        147.4 
     1298.00        0.200        142.7 
     1299.00        0.200        143.8 
     1300.00        0.167        144.2 
     1301.00        0.200        149.3 
     1302.00        0.167        152.7 
     1303.00        0.300        154.1 
     1304.00        0.267        154.6 
     1305.00        0.233        154.4 
     1306.00        0.317        153.5 
     1307.00        0.233        153.2 
     1308.00        0.300        152.0 
     1309.00        0.267        150.7 
     1310.00        0.233        149.1 
     1311.00        0.300        146.5 
     1312.00        0.267        144.6 
     1313.00        0.233        143.2 
     1314.00        0.333        140.3 
     1315.00        0.333        134.7 
     1316.00        2.783        462.5 
     1317.00        0.267        366.4 
     1318.00        0.233        329.6 
     1319.00        0.167        325.9 
     1320.00        0.167        298.5 
     1321.00        0.233        295.0 
     1322.00        0.267        264.7 
     1323.00        0.283        237.9 
     1324.00        0.200        212.4 
     1325.00        0.167        199.0 
     1326.00        0.167        199.0 
     1327.00        0.200        191.0 
     1328.00        0.300        180.3 
     1329.00        0.267        171.9 
     1330.00        0.200        163.6 
     1331.00        0.267        159.4 
     1332.00        0.267        156.7 
     1333.00        0.267        154.5 
     1334.00        0.267        150.6 
     1335.00        0.233        148.9 
     1336.00        0.233        147.9 
     1337.00        0.217        146.7 
     1338.00        0.200        145.9 
     1339.00        0.233        145.9 
     1340.00        0.233        145.0 
     1341.00        0.200        144.2 
     1342.00        0.200        143.2 
     1343.00        0.267        138.4 
     1344.00        0.167        138.4 
     1345.00        0.267        127.1 
     1346.00        4.317        897.6 
     1347.00        0.267        487.3 
     1348.00        0.250        457.3 
     1349.00        0.200        453.9 
     1350.00        0.233        193.7 
     1351.00        0.200        188.7 
     1352.00        0.233        181.1 
     1353.00        0.233        174.3 
     1354.00        0.200        163.5 
     1355.00        0.167        158.1 
     1356.00        0.167        156.6 
     1357.00        0.167        155.2 
     1358.00        0.133        154.1 
     1359.00        0.133        153.4 
     1360.00        0.167        153.1 
     1361.00        0.233        153.0 
     1362.00        0.267        151.4 
     1363.00        0.200        150.4 
     1364.00        0.300        150.0 
     1365.00        0.250        148.8 
     1366.00        0.200        147.8 
     1367.00        0.167        146.7 
     1368.00        0.167        146.7 
     1369.00        0.200        144.7 
     1370.00        0.167        140.9 
     1371.00        0.133        129.5 
     1372.00        0.200        129.5 
     1373.00        0.233        126.7 
     1374.00        0.267        125.2 
     1375.00        0.133        125.2 
     1376.00        2.550        888.6 
     1377.00        0.367        704.5 
     1378.00        0.467        610.5 
     1379.00        0.500        512.4 
     1380.00        0.400        440.0 
     1381.00        0.200        175.2 
     1382.00        0.217        168.9 
     1383.00        0.200        164.2 
     1384.00        0.233        163.1 
     1385.00        0.200        161.2 
     1386.00        0.200        158.6 
     1387.00        0.233        155.8 
     1388.00        0.200        153.7 
     1389.00        0.233        152.1 
     1390.00        0.233        151.9 
     1391.00        0.233        152.0 
     1392.00        0.233        152.6 
     1393.00        0.400        152.5 
     1394.00        0.467        152.5 
     1395.00        0.250        151.6 
     1396.00        0.167        151.3 
     1397.00        0.167        150.0 
     1398.00        0.167        150.0 
     1399.00        0.233        147.6 
     1400.00        0.233        144.5 
     1401.00        0.167        141.5 
     1402.00        0.300        136.4 
     1403.00        0.267        124.6 
     1404.00        0.233        121.5 
     1405.00        0.200        113.6 
     1406.00        9.983        925.8 
     1407.00        0.367        180.8 
     1408.00        0.333        190.0 
     1409.00        0.333        189.3 
     1410.00        0.283        179.0 
     1411.00        0.333        173.2 
     1412.00        0.300        168.0 
     1413.00        0.267        156.3 
     1414.00        0.300        152.1 
     1415.00        0.233        150.7 
     1416.00        0.167        144.2 
     1417.00        0.200        142.5 
     1418.00        0.233        141.1 
     1419.00        0.233        140.0 
     1420.00        0.233        138.9 
     1421.00        0.233        138.0 
     1422.00        0.233        136.9 
     1423.00        0.233        135.6 
     1424.00        0.217        135.6 
     1425.00        0.233        135.4 
     1426.00        0.267        132.6 
     1427.00        0.200        132.4 
     1428.00        0.233        128.2 
     1429.00        0.200        128.2 
     1430.00        0.267        126.4 
     1431.00        0.233        125.0 
     1432.00        0.267        123.6 
     1433.00        0.267        122.5 
     1434.00        0.267        122.0 
     1435.00        0.300        108.8 
     1436.00        4.600        843.9 
     1437.00        0.400        459.4 
     1438.00        0.367        440.0 
     1439.00        0.300        204.2 
     1440.00        0.267        193.5 
     1441.00        0.333        183.4 
     1442.00        0.267        181.9 
     1443.00        0.267        170.0 
     1444.00        0.267        165.1 
     1445.00        0.250        164.3 
     1446.00        0.200        157.8 
     1447.00        0.300        149.0 
     1448.00        0.233        148.5 
     1449.00        0.267        143.4 
     1450.00        0.267        137.4 
     1451.00        0.267        135.1 
     1452.00        0.233        133.7 
     1453.00        0.200        133.2 
     1454.00        0.233        133.2 
     1455.00        0.133        133.0 
     1456.00        0.167        133.1 
     1457.00        0.300        131.6 
     1458.00        0.333        130.5 
     1459.00        0.283        129.5 
     1460.00        0.233        129.3 
     1461.00        0.233        129.3 
     1462.00        0.233        127.6 
     1463.00        0.267        119.7 
     1464.00        0.233        108.9 
     1465.00        0.200        107.7 
     1466.00        5.133        926.9 
     1467.00        0.333        507.2 
     1468.00        0.300        497.9 
     1469.00        0.300        457.3 
     1470.00        0.300        451.8 
     1471.00        0.200        440.0 
     1472.00        0.200        201.4 
     1473.00        0.367        193.7 
     1474.00        0.300        183.6 
     1475.00        0.300        171.1 
     1476.00        0.333        169.5 
     1477.00        0.350        163.5 
     1478.00        0.233        157.4 
     1479.00        0.333        148.2 
     1480.00        0.333        147.4 
     1481.00        0.267        139.1 
     1482.00        0.200        134.7 
     1483.00        0.367        133.3 
     1484.00        0.333        130.0 
     1485.00        0.333        124.9 
     1486.00        0.233        124.3 
     1487.00        0.200        123.9 
     1488.00        0.367        122.7 
     1489.00        0.417        124.0 
     1490.00        0.233        125.8 
     1491.00        0.400        127.4 
     1492.00        0.200        126.7 
     1493.00        0.233        119.7 
