~Version Information
VERS.                      2.0: CWLS Log ASCII Standard - VERSION 2.0
WRAP.                       NO: One line per depth step
~Well Information Block
STRT.FT                -4.0000: 
STOP.FT              2638.2500: 
STEP.FT                 0.2500: 
NULL.                -999.2500: 
COMP.          Petrogulf Corporation: COMPANY
WELL.            Montoya 6-14V: WELL
FLD.           Purgatorie River: FIELD
LOC.           318' FSL & 882' FWL--: LOCATION
PROV.                       CO: PROVINCE
CNTY.               Las Animas: COUNTRY
SRVC.                         : SERVICE COMPANY
DATE.          Mon May 02 08:32:04 2005: LOG DATE
UWI.      005 071 08020: UNIQUE WELL ID
~Curve Information Block
DEPT.FT            0 000 00 00: Depth
AMP3.mV                       : CBL 3' Amplitude
CCL.                          : Casing Collar Locator
GR.GAPI                       : Gamma Ray
TT3.usec                      : CBL 3' Travel Time
~Parameter Information Block
~A  Depth       AMP3        CCL          GR         TT3     
# ...
   331.0000     82.4095      0.0000     69.5231    254.6449
   331.2500     82.4786      0.0000     66.4071    254.6649
   331.5000     82.4150      0.0000     65.5742    254.6798
   331.7500     82.2343      0.0000     67.4838    254.6867
   332.0000     81.9966      0.0000     71.6179    254.6885
   332.2500     81.7805      0.0000     77.2562    254.6912
   332.5000     81.6597      0.0000     83.9197    254.6984
   332.7500     81.6687      0.0000     91.2124    254.7077
   333.0000     81.7752      0.0000     98.5723    254.7110
   333.2500     81.8942      0.0000    105.2127    254.7006
   333.5000     81.9404      0.0000    110.2521    254.6770
   333.7500     81.8739      0.0000    113.1186    254.6519
   334.0000     81.7142      0.0000    114.1238    254.6411
   334.2500     81.5307      0.0000    114.5385    254.6509
   334.5000     81.4118      0.0000    115.8043    254.6737
   334.7500     81.4203      0.0000    118.4202    254.6955
   335.0000     81.5595      0.0000    121.3926    254.7072
   335.2500     81.7751      0.0000    122.7057    254.7086
   335.5000     81.9879      0.0000    120.6178    254.7035
   335.7500     82.1334      0.0000    114.9047    254.6937
   336.0000     82.1857      0.0000    107.0352    254.6779
   336.2500     82.1544      0.0000     99.3131    254.6577
   336.5000     82.0702      0.0000     93.8207    254.6417
   336.7500     81.9714      0.0000     91.7441    254.6411
   337.0000     81.8893      0.0000     93.1863    254.6587
   337.2500     81.8415      0.0000     97.3608    254.6862
   337.5000     81.8398      0.0000    102.9035    254.7119
   337.7500     81.8915      0.0000    108.2268    254.7280
   338.0000     81.9623      0.0000    112.1709    254.7337
   338.2500     81.8964      0.0000    114.6124    254.7354
   338.5000     81.3602      0.0000    116.2214    254.7596
   338.7500     79.9246      0.0000    117.5391    254.8744
   339.0000     77.2926      0.0000    118.4679    255.1949
   339.2500     73.5290      0.0000    118.4667    255.8295
   339.5000     69.1594      0.0000    116.9967    256.7801
   339.7500     65.1026      0.0000    113.9189    257.8889
   340.0000     62.3332      0.0000    109.6114    258.9140
   340.2500     61.3002      0.0000    104.6360    259.6790
   340.5000     61.6137      0.0000     99.2347    260.1521
   340.7500     62.4066      0.0000     93.3556    260.4084
   341.0000     62.9693     -2.0000     87.2702    260.5489
   341.2500     62.9913      2.0000     81.9386    260.6531
   341.5000     62.4703      0.0000     78.5161    260.7604
   341.7500     61.7275      0.0000     77.5951    260.8379
   342.0000     61.5106      0.0000     79.0690    260.7518
   342.2500     62.7161      0.0000     82.5543    260.3190
   342.5000     65.7217      0.0000     87.5913    259.4551
   342.7500     70.0195      0.0000     93.2917    258.2816
   343.0000     74.5378      0.0000     97.8885    257.0634
   343.2500     78.2725      0.0000     99.0555    256.0439
   343.5000     80.7298      0.0000     95.4399    255.3382
   343.7500     81.9969      0.0000     88.2436    254.9335
   344.0000     82.4882      0.0000     80.7820    254.7433
   344.2500     82.6152      0.0000     75.8630    254.6691
   344.5000     82.6275      0.0000     73.5626    254.6415
   344.7500     82.6284      0.0000     71.8199    254.6293
   345.0000     82.6455      0.0000     69.0040    254.6250
   345.2500     82.6736      0.0000     65.4833    254.6281
   345.5000     82.7044      0.0000     62.8917    254.6361
   345.7500     82.7334      0.0000     62.5624    254.6437
   346.0000     82.7569      0.0000     64.7643    254.6452
   346.2500     82.7706      0.0000     68.8166    254.6384
   346.5000     82.7748      0.0000     73.5226    254.6272
   346.7500     82.7772      0.0000     77.8628    254.6192
   347.0000     82.7865      0.0000     81.7969    254.6197
   347.2500     82.8006      0.0000     86.2715    254.6259
   347.5000     82.8067      0.0000     91.8823    254.6288
   347.7500     82.7936      0.0000     97.5331    254.6231
   348.0000     82.7651      0.0000    101.0130    254.6118
   348.2500     82.7403      0.0000    100.9442    254.6033
   348.5000     82.7410      0.0000     97.5704    254.6044
   348.7500     82.7805      0.0000     91.9331    254.6178
   349.0000     82.8568      0.0000     85.4322    254.6417
   349.2500     82.9524      0.0000     80.1512    254.6706
   349.5000     83.0410      0.0000     78.2250    254.6968
   349.7500     83.0991      0.0000     80.1933    254.7140
   350.0000     83.1174      0.0000     84.3867    254.7208
   350.2500     83.1077      0.0000     88.1128    254.7202
   350.5000     83.0972      0.0000     89.3553    254.7175
   350.7500     83.1101      0.0000     87.7740    254.7169
   351.0000     83.1510      0.0000     84.6126    254.7195
   351.2500     83.2070      0.0000     81.6162    254.7239
   351.5000     83.2639      0.0000     79.9178    254.7284
   351.7500     83.3144      0.0000     79.8813    254.7322
   352.0000     83.3553      0.0000     81.4468    254.7345
   352.2500     83.3842      0.0000     84.0413    254.7363
   352.5000     83.4020      0.0000     86.5096    254.7417
   352.7500     83.4164      0.0000     87.9222    254.7549
   353.0000     83.4380      0.0000     88.4553    254.7749
   353.2500     83.4733      0.0000     89.0411    254.7946
   353.5000     83.5213      0.0000     90.2548    254.8053
   353.7500     83.5739      0.0000     91.8184    254.8035
   354.0000     83.6198      0.0000     92.9529    254.7926
   354.2500     83.6502      0.0000     93.0301    254.7804
   354.5000     83.6637      0.0000     92.2538    254.7747
   354.7500     83.6670      0.0000     91.9388    254.7809
   355.0000     83.6721      0.0000     93.7177    254.7994
   355.2500     83.6889      0.0000     98.0718    254.8240
   355.5000     83.7207      0.0000    103.7522    254.8460
   355.7500     83.7643      0.0000    108.7999    254.8609
   356.0000     83.8148      0.0000    111.9897    254.8702
   356.2500     83.8666      0.0000    113.1403    254.8775
   356.5000     83.9125      0.0000    112.4136    254.8846
   356.7500     83.9446      0.0000    110.0516    254.8907
   357.0000     83.9563      0.0000    107.0414    254.8952
   357.2500     83.9464      0.0000    105.2721    254.8974
   357.5000     83.9213      0.0000    106.0943    254.8963
   357.7500     83.8946      0.0000    108.6242    254.8924
   358.0000     83.8816      0.0000    110.0804    254.8886
   358.2500     83.8931      0.0000    108.2583    254.8894
   358.5000     83.9296      0.0000    103.6931    254.8977
   358.7500     83.9818      0.0000     99.2155    254.9137
   359.0000     84.0366      0.0000     97.3157    254.9357
   359.2500     84.0837      0.0000     98.0829    254.9599
   359.5000     84.1176      0.0000     99.6343    254.9799
   359.7500     84.1320      0.0000     99.9404    254.9877
   360.0000     84.1206      0.0000     98.0116    254.9775
   360.2500     84.0872      0.0000     94.0595    254.9512
   360.5000     84.0482      0.0000     89.2044    254.9185
   360.7500     84.0201      0.0000     84.7938    254.8893
   361.0000     84.0046      0.0000     81.6113    254.8669
   361.2500     83.9951      0.0000     79.6965    254.8498
   361.5000     83.9929      0.0000     78.8377    254.8391
   361.7500     84.0063      0.0000     78.7973    254.8411
   362.0000     84.0356      0.0000     78.9994    254.8588
   362.2500     84.0651      0.0000     78.5939    254.8865
   362.5000     84.0766      0.0000     77.2360    254.9135
   362.7500     84.0658      0.0000     75.5428    254.9335
   363.0000     84.0451      0.0000     74.5704    254.9468
   363.2500     84.0300      0.0000     74.9498    254.9554
   363.5000     84.0235      0.0000     76.4085    254.9585
   363.7500     84.0130      0.0000     77.8488    254.9521
   364.0000     83.9832      0.0000     77.8505    254.9357
   364.2500     83.9316      0.0000     75.2370    254.9155
