~Version Information
VERS.                      2.0: CWLS Log ASCII Standard - VERSION 2.0
WRAP.                       NO: One line per depth step
~Well Information Block
STRT.FT              1736.0000: 
STOP.FT              1964.5000: 
STEP.FT                 0.2500: 
NULL.                -999.2500: 
COMP.          Petrogulf Corporation: COMPANY
WELL.              Royal 8-33R: WELL
FLD.           Purgatorie River: FIELD
LOC.           2401' FSL & 2270' FEL: LOCATION
CNTY.               Las Animas: COUNTY
SRVC.                         : SERVICE COMPANY
DATE.          Mon Apr 26 06:49:48 2004: LOG DATE
UWI.           05 071 08041 00: UNIQUE WELL ID
STAT.                 Colorado: STATE
~Curve Information Block
DEPT.FT            0 000 00 00: Depth
SP.mV                         : DIL Spontaneous Potential
RILD.Ohm-m                    : DIL Deep Resistivity
RILM.Ohm-m                    : DIL Medium Resistivity
RLL3.Ohm-m                    : DIL Shallow Resistivity
GR.GAPI                       : Gamma Ray
~Parameter Information Block
~A  Depth        SP         RILD        RILM        RLL3         GR     
# ...
  1764.0000   2000.0000      8.4650     12.3693   2000.0000    142.0552
  1764.2500   2000.0000      8.7714     12.5630   2000.0000    147.7140
  1764.5000   2000.0000      9.1178     12.7920   2000.0000    157.2946
  1764.7500   2000.0000      9.5024     12.9851   2000.0000    162.6421
  1765.0000   2000.0000      9.9282     13.0693   2000.0000    167.1169
  1765.2500   2000.0000     10.4025     13.0537   2000.0000    167.9379
  1765.5000   2000.0000     10.9353     13.0365   2000.0000    167.6699
  1765.7500   2000.0000     11.5377     13.1501   2000.0000    167.2373
  1766.0000   2000.0000     12.2198     13.5133   2000.0000    165.9959
  1766.2500   2000.0000     12.9902     14.2167   2000.0000    164.0120
  1766.5000   2000.0000     13.8557     15.3260   2000.0000    157.7264
  1766.7500   2000.0000     14.8188     16.8857   2000.0000    150.6078
  1767.0000   2000.0000     15.8747     18.9192   2000.0000    135.3003
  1767.2500   2000.0000     17.0073     21.4312   2000.0000    122.7542
  1767.5000   2000.0000     18.1865     24.4058   2000.0000    102.9291
  1767.7500   2000.0000     19.3658     27.7884   2000.0000     90.5690
  1768.0000   2000.0000     20.4804     31.4327   2000.0000     75.1469
  1768.2500   2000.0000     21.4500     35.0279   2000.0000     67.6615
  1768.5000   2000.0000     22.1876     38.0726   2000.0000     61.7165
  1768.7500   2000.0000     22.6160     39.9848   2000.0000     61.7301
  1769.0000   2000.0000     22.6847     40.3471   2000.0000     67.6597
  1769.2500   2000.0000     22.3775     39.1050   2000.0000     74.9985
  1769.5000   2000.0000     21.7140     36.5519   2000.0000     89.3041
  1769.7500   2000.0000     20.7513     33.1598   2000.0000     99.4335
  1770.0000   2000.0000     19.5841     29.4187   2000.0000    112.2959
  1770.2500   2000.0000     18.3319     25.7459   2000.0000    118.0520
  1770.5000   2000.0000     17.1083     22.4379   2000.0000    122.5362
  1770.7500   2000.0000     15.9891     19.6540   2000.0000    123.6273
  1771.0000   2000.0000     15.0026     17.4314   2000.0000    123.5095
  1771.2500   2000.0000     14.1424     15.7232   2000.0000    122.5138
  1771.5000   2000.0000     13.3888     14.4390   2000.0000    120.3959
  1771.7500   2000.0000     12.7249     13.4762   2000.0000    119.2951
  1772.0000   2000.0000     12.1419     12.7421   2000.0000    118.9347
  1772.2500   2000.0000     11.6379     12.1667   2000.0000    119.6525
  1772.5000   2000.0000     11.2133     11.7087   2000.0000    122.2884
  1772.7500   2000.0000     10.8684     11.3517   2000.0000    125.1235
  1773.0000   2000.0000     10.6023     11.0914   2000.0000    130.5334
  1773.2500   2000.0000     10.4121     10.9198   2000.0000    134.6213
  1773.5000   2000.0000     10.2927     10.8148   2000.0000    141.9120
  1773.7500   2000.0000     10.2354     10.7461   2000.0000    148.0178
  1774.0000   2000.0000     10.2276     10.6934   2000.0000    158.0249
  1774.2500   2000.0000     10.2542     10.6612   2000.0000    163.0706
  1774.5000   2000.0000     10.3012     10.6728   2000.0000    164.0322
  1774.7500   2000.0000     10.3589     10.7481   2000.0000    159.6166
  1775.0000   2000.0000     10.4227     10.8854   2000.0000    148.6319
  1775.2500   2000.0000     10.4920     11.0608   2000.0000    141.4788
  1775.5000   2000.0000     10.5672     11.2417   2000.0000    134.6080
  1775.7500   2000.0000     10.6485     11.4038   2000.0000    132.9127
  1776.0000   2000.0000     10.7379     11.5399   2000.0000    133.5604
  1776.2500   2000.0000     10.8398     11.6558   2000.0000    135.4187
  1776.5000   2000.0000     10.9622     11.7604   2000.0000    139.3292
  1776.7500   2000.0000     11.1143     11.8579   2000.0000    142.2077
  1777.0000   2000.0000     11.3033     11.9465   2000.0000    147.0177
  1777.2500   2000.0000     11.5339     12.0238   2000.0000    150.9904
  1777.5000   2000.0000     11.8091     12.0919   2000.0000    157.8991
  1777.7500   2000.0000     12.1342     12.1592   2000.0000    162.1547
  1778.0000   2000.0000     12.5169     12.2371   2000.0000    166.4651
  1778.2500   2000.0000     12.9613     12.3365   2000.0000    167.9621
  1778.5000   2000.0000     13.4608     12.4643   2000.0000    169.0064
  1778.7500   2000.0000     13.9969     12.6237   2000.0000    168.9851
  1779.0000   2000.0000     14.5551     12.8153   2000.0000    167.3101
  1779.2500   2000.0000     15.1482     13.0387   2000.0000    165.2307
  1779.5000   2000.0000     15.8259     13.2955   2000.0000    162.3641
  1779.7500   2000.0000     16.6526     13.5905   2000.0000    161.6707
  1780.0000   2000.0000     17.6623     13.9340   2000.0000    162.4423
  1780.2500   2000.0000     18.8162     14.3425   2000.0000    163.0986
  1780.5000   2000.0000     19.9880     14.8376   2000.0000    162.6313
  1780.7500   2000.0000     20.9957     15.4434   2000.0000    161.2837
  1781.0000   2000.0000     21.6733     16.1847   2000.0000    158.1405
  1781.2500   2000.0000     21.9457     17.0878   2000.0000    154.9004
  1781.5000   2000.0000     21.8657     18.1828   2000.0000    147.1431
  1781.7500   2000.0000     21.5958     19.5011   2000.0000    140.3828
  1782.0000   2000.0000     21.3549     21.0624   2000.0000    152.6000
  1782.2500   2000.0000     21.3643     22.8513   2000.0000    147.5943
  1782.5000   2000.0000     21.8149     24.8094   2000.0000    144.0919
  1782.7500   2000.0000     22.8529     26.8753   2000.0000    142.8862
  1783.0000   2000.0000     24.5558     29.0693   2000.0000    160.0008
  1783.2500   2000.0000     26.8700     31.5485   2000.0000    156.5579
  1783.5000   2000.0000     29.5135     34.5583   2000.0000    151.0418
  1783.7500   2000.0000     31.9406     38.2913   2000.0000    147.9700
  1784.0000   2000.0000     33.5409     42.7217   2000.0000    158.1351
  1784.2500   2000.0000     34.0436     47.4889   2000.0000    154.2160
  1784.5000   2000.0000     33.7148     51.9285   2000.0000    146.2380
  1784.7500   2000.0000     33.1135     55.3170   2000.0000    140.2100
  1785.0000   2000.0000     32.7288     57.2240   2000.0000    132.3153
  1785.2500   2000.0000     32.8219     57.7293   2000.0000    128.7774
  1785.5000   2000.0000     33.4508     57.3516   2000.0000    126.2672
  1785.7500   2000.0000     34.5566     56.7650   2000.0000    125.9354
  1786.0000   2000.0000     36.0496     56.5376   2000.0000    126.3137
  1786.2500   2000.0000     37.8794     57.0202   2000.0000    126.4160
  1786.5000   2000.0000     40.0715     58.3533   2000.0000    125.0600
  1786.7500   2000.0000     42.7111     60.4764   2000.0000    122.8800
  1787.0000   2000.0000     45.8624     63.0737   2000.0000    118.7961
  1787.2500   2000.0000     49.4404     65.5246   2000.0000    116.6880
  1787.5000   2000.0000     53.0983     67.0458   2000.0000    115.8831
  1787.7500   2000.0000     56.2577     67.1084   2000.0000    117.1578
  1788.0000   2000.0000     58.3659     65.8092   2000.0000    121.7494
  1788.2500   2000.0000     59.2286     63.7674   2000.0000    126.6765
  1788.5000   2000.0000     59.1023     61.6804   2000.0000    136.9958
  1788.7500   2000.0000     58.4908     60.0068   2000.0000    145.4377
  1789.0000   2000.0000     57.8726     58.9241   2000.0000    158.2971
  1789.2500   2000.0000     57.5434     58.4201   2000.0000    164.9635
  1789.5000   2000.0000     57.5674     58.3946   2000.0000    168.4316
  1789.7500   2000.0000     57.7903     58.7584   2000.0000    165.1860
  1790.0000   2000.0000     57.9030     59.5368   2000.0000    153.0621
  1790.2500   2000.0000     57.5666     60.9296   2000.0000    142.6477
  1790.5000   2000.0000     56.5600     63.2521   2000.0000    128.9722
  1790.7500   2000.0000     54.8456     66.7301   2000.0000    123.0911
  1791.0000   2000.0000     52.4944     71.1772   2000.0000    118.0062
  1791.2500   2000.0000     49.5486     75.6470   2000.0000    114.6632
  1791.5000   2000.0000     45.9735     78.3837   2000.0000    106.8354
  1791.7500   2000.0000     41.7789     77.5752   2000.0000    100.4092
