~Version Information
VERS.                      2.0: CWLS Log ASCII Standard - VERSION 2.0
WRAP.                       NO: One line per depth step
~Well Information Block
STRT.FT               245.0000: 
STOP.FT              2464.2000: 
STEP.FT                 0.1000: 
NULL.                -999.2500: 
COMP.          Pioneer Natural Resources: COMPANY
WELL.          Oink Oink 14-36: WELL
FLD.           Purgatoire River: FIELD
LOC.           216' FSL & 263' FWL--: LOCATION
PROV.                 Colorado: PROVINCE
CNTY.               Las Animas: COUNTRY
SRVC.                Patterson: SERVICE COMPANY
DATE.          Wed Jun 08 16:53:09 2005: LOG DATE
UWI.           05 071 08394 00: UNIQUE WELL ID
~Curve Information Block
DEPT.FT            0 000 00 00: Depth
DCAL.in                       : CDL Caliper
RHOB.g/cc                     : CDL Bulk Density
RHOC.g/cc                     : CDL Density Correction
DPOR.pu                       : CDL Density Porosity
NPOR.pu                       : Neutron Porosity
GR.GAPI                       : Gamma Ray
~Parameter Information Block
~A  Depth       DCAL        RHOB        RHOC        DPOR        NPOR         GR     
# ...
   686.6000      8.4341      2.3091      0.2143     20.6579     15.9420    129.9296
   686.7000      8.4341      2.3824      0.2235     16.2160     16.1795    126.4091
   686.8000      8.3821      2.4658      0.3371     11.1659     17.0594    126.8608
   686.9000      8.3821      2.5458      0.3994      6.3132     17.9731    134.7528
   687.0000      8.3673      2.5945      0.3896      3.3627     18.4260    142.6318
   687.1000      8.3673      2.6057      0.3254      2.6872     18.8295    143.2348
   687.2000      8.3673      2.5947      0.3135      3.3523     19.1381    140.3335
   687.3000      8.3645      2.5708      0.2536      4.8002     19.2927    139.0488
   687.4000      8.3645      2.5430      0.1557      6.4849     19.8081    138.6699
   687.5000      8.3597      2.5297      0.1489      7.2885     20.7553    140.7164
   687.6000      8.3597      2.5370      0.1774      6.8504     21.7537    147.0842
   687.7000      8.3597      2.5477      0.1801      6.2013     22.6079    151.1659
   687.8000      8.3397      2.5491      0.1029      6.1169     23.1002    148.8114
   687.9000      8.3397      2.5531      0.0555      5.8709     23.4285    144.0765
   688.0000      8.3107      2.5651      0.1074      5.1446     24.2182    139.2979
   688.1000      8.3107      2.5594      0.1412      5.4889     25.2940    135.5671
   688.2000      8.3107      2.5241      0.0344      7.6304     25.9516    134.8220
   688.3000      8.2953      2.4890     -0.0074      9.7573     25.7848    137.7648
   688.4000      8.2953      2.4815     -0.0333     10.2123     25.0881    141.1349
   688.5000      8.2928      2.4966      0.0367      9.2940     24.7273    140.4460
   688.6000      8.2928      2.5153      0.0339      8.1644     24.7199    137.2280
   688.7000      8.2928      2.5335      0.0069      7.0623     24.2218    135.4747
   688.8000      8.2934      2.5545      0.0404      5.7867     23.2129    135.9783
   688.9000      8.2934      2.5635      0.0889      5.2444     22.4982    137.2053
   689.0000      8.2987      2.5462      0.0547      6.2911     22.1778    137.1667
   689.1000      8.2987      2.5107      0.0258      8.4399     21.8974    134.9032
   689.2000      8.2987      2.4695      0.0369     10.9384     21.5167    131.5974
   689.3000      8.3159      2.4336     -0.0112     13.1126     21.0923    131.0554
   689.4000      8.3159      2.4157      0.0071     14.1999     20.7114    136.1311
   689.5000      8.3422      2.4141      0.0302     14.2956     20.3216    141.7576
   689.6000      8.3422      2.4168      0.0158     14.1352     20.0284    143.4085
   689.7000      8.3422      2.4162      0.0305     14.1700     20.0012    143.1163
   689.8000      8.3607      2.4098      0.0395     14.5588     19.8853    141.0524
   689.9000      8.3607      2.4012      0.0339     15.0772     19.5104    137.8383
   690.0000      8.3676      2.3950      0.0271     15.4571     19.5319    137.2308
   690.1000      8.3676      2.3848      0.0520     16.0733     20.2006    139.2090
   690.2000      8.3676      2.3688      0.0584     17.0414     20.6991    140.9061
   690.3000      8.3714      2.3645      0.0109     17.3023     20.3983    141.0259
   690.4000      8.3714      2.3824      0.0928     16.2200     19.6855    141.0183
   690.5000      8.3681      2.4061      0.0846     14.7833     19.1704    142.6044
   690.6000      8.3681      2.4203      0.0976     13.9227     18.8934    143.1930
   690.7000      8.3681      2.4265      0.0721     13.5428     18.8107    140.5305
   690.8000      8.3544      2.4312      0.0757     13.2607     19.0266    135.8969
   690.9000      8.3544      2.4347      0.0694     13.0471     19.3016    133.2906
   691.0000      8.3455      2.4344      0.0685     13.0675     19.3951    134.1186
   691.1000      8.3455      2.4314      0.0579     13.2459     19.5185    135.0197
   691.2000      8.3455      2.4318      0.0461     13.2223     19.8711    133.0181
   691.3000      8.3403      2.4378      0.0562     12.8589     20.1848    128.7380
   691.4000      8.3403      2.4449      0.0578     12.4282     20.4639    126.6341
   691.5000      8.3197      2.4476      0.0559     12.2676     21.0824    127.6817
   691.6000      8.3197      2.4426      0.0429     12.5717     21.9547    128.9717
   691.7000      8.3197      2.4318      0.0406     13.2237     22.7233    130.1238
   691.8000      8.2713      2.4232      0.0260     13.7475     22.9293    132.4209
   691.9000      8.2713      2.4233      0.0361     13.7417     22.3634    135.1391
   692.0000      8.2181      2.4309      0.0261     13.2811     21.6703    137.0636
   692.1000      8.2181      2.4439      0.0154     12.4923     21.6424    137.9338
   692.2000      8.2181      2.4639      0.0153     11.2786     22.0863    136.6215
   692.3000      8.1908      2.4879      0.0271      9.8247     22.5603    134.5785
   692.4000      8.1908      2.5087      0.0411      8.5643     23.1471    134.3578
   692.5000      8.1847      2.5246      0.0563      7.6022     23.6599    135.9297
   692.6000      8.1847      2.5332      0.0613      7.0800     23.7059    138.6538
   692.7000      8.1847      2.5240      0.0900      7.6384     23.3014    139.3878
   692.8000      8.1818      2.4954      0.0389      9.3725     22.9748    135.3445
   692.9000      8.1818      2.4676      0.0025     11.0522     23.2026    130.0600
   693.0000      8.1697      2.4583      0.0168     11.6183     23.6524    126.7428
   693.1000      8.1697      2.4694      0.0072     10.9475     23.6556    124.0965
   693.2000      8.1697      2.4942      0.0308      9.4449     23.1602    121.6250
   693.3000      8.1498      2.5186      0.0708      7.9665     22.7029    120.6230
   693.4000      8.1498      2.5374      0.0188      6.8244     22.5994    121.9239
   693.5000      8.1365      2.5536      0.0845      5.8454     22.6844    124.0423
   693.6000      8.1365      2.5579      0.1057      5.5799     22.7343    122.4468
   693.7000      8.1365      2.5460      0.0611      6.3019     22.5294    117.2827
   693.8000      8.1329      2.5306      0.0298      7.2385     22.0933    115.9510
   693.9000      8.1329      2.5222      0.0759      7.7455     22.0261    122.9398
   694.0000      8.1326      2.5184      0.0676      7.9772     22.6292    135.3401
   694.1000      8.1326      2.5135      0.0465      8.2742     23.3800    144.2098
   694.2000      8.1326      2.5058      0.0200      8.7373     23.8943    143.4666
   694.3000      8.1300      2.4968      0.0345      9.2859     24.3788    138.2033
   694.4000      8.1300      2.4906      0.0046      9.6632     24.9874    136.8233
   694.5000      8.1226      2.4963      0.0092      9.3141     25.6064    138.4834
   694.6000      8.1226      2.5108      0.0293      8.4345     26.1357    136.5081
   694.7000      8.1226      2.5150      0.0350      8.1817     26.6916    131.7975
   694.8000      8.1111      2.4983      0.0420      9.1961     27.5000    127.3344
   694.9000      8.1111      2.4665      0.0163     11.1217     28.6062    121.4381
   695.0000      8.0998      2.4277      0.0020     13.4730     30.0606    115.9313
   695.1000      8.0998      2.3804     -0.0051     16.3405     31.5555    116.0218
   695.2000      8.0998      2.3375     -0.0755     18.9421     32.0266    120.0054
   695.3000      8.0946      2.3201      0.0006     19.9939     31.2128    124.4802
   695.4000      8.0946      2.3163     -0.0423     20.2222     30.2881    130.3194
   695.5000      8.1153      2.3015     -0.0248     21.1220     29.7307    133.8605
   695.6000      8.1153      2.2773     -0.0528     22.5889     28.4397    133.5206
   695.7000      8.1153      2.2553     -0.0145     23.9223     25.9363    134.4796
   695.8000      8.1746      2.2041      0.1209     27.0232     23.0955    136.0152
   695.9000      8.1746      2.0706      0.0634     35.1171     20.5282    132.6138
   696.0000      8.2581      1.8743     -0.0613     47.0101     18.3630    126.9078
   696.1000      8.2581      1.6990     -0.0945     57.6375     16.5696    126.5791
