~Version Information
VERS.                      2.0: CWLS Log ASCII Standard - VERSION 2.0
WRAP.                       NO: One line per depth step
~Well Information Block
STRT.FT               -13.5000: 
STOP.FT              2474.2500: 
STEP.FT                 0.2500: 
NULL.                -999.2500: 
COMP.          Pioneer Natural Resources: COMPANY
WELL.              Tiaga 23-14: WELL
FLD.           Purgatorie River: FIELD
LOC.           2168' FSL & 2030' FWL--: LOCATION
PROV.                       CO: PROVINCE
CNTY.               Las Animas: COUNTRY
SRVC.                         : SERVICE COMPANY
DATE.          Thu May 12 17:01:37 2005: LOG DATE
UWI.                          : UNIQUE WELL ID
~Curve Information Block
DEPT.FT            0 000 00 00: Depth
TT3.usec                      : CBL 3' Travel Time
AMP3.mV                       : CBL 3' Amplitude
GR.GAPI                       : Gamma Ray
CCL.                          : Casing Collar Locator
~Parameter Information Block
~A  Depth       TT3         AMP3         GR         CCL     
# ...
   154.0000    806.9158      6.2051     63.3528      0.0000
   154.2500    824.6551      6.1649     64.7000      0.0000
   154.5000    839.0858      6.1582     67.4243      0.0000
   154.7500    838.7913      6.2374     71.1141      0.0000
   155.0000    823.6506      6.3840     74.4678      0.0000
   155.2500    802.3766      6.5143     75.7032      0.0000
   155.5000    787.7920      6.5696     73.9291      0.0000
   155.7500    787.4127      6.5734     69.7971      0.0000
   156.0000    799.9614      6.5956     64.7938      0.0000
   156.2500    817.1118      6.6758     60.3610      0.0000
   156.5000    825.9428      6.7839     57.6079      0.0000
   156.7500    819.9268      6.8513     57.1072      0.0000
   157.0000    808.0189      6.8357     58.5625      0.0000
   157.2500    806.1555      6.7563     61.0726      0.0000
   157.5000    816.9816      6.6666     64.0668      0.0000
   157.7500    826.1275      6.5979     67.6401      0.0000
   158.0000    825.9635      6.5373     71.6839      0.0000
   158.2500    823.8436      6.4673     75.0007      0.0000
   158.5000    822.3702      6.4027     75.7200      0.0000
   158.7500    816.6857      6.3664     72.8097      0.0000
   159.0000    806.1633      6.3582     67.1584      0.0000
   159.2500    791.5143      6.3607     60.9875      0.0000
   159.5000    773.8870      6.3588     56.1724      0.0000
   159.7500    758.6711      6.3499     53.2761      0.0000
   160.0000    748.6128      6.3434     51.9047      0.0000
   160.2500    739.7425      6.3468     51.4330      0.0000
   160.5000    728.6078      6.3508     51.3794      0.0000
   160.7500    717.8798      6.3423     51.5919      0.0000
   161.0000    711.4686      6.3271     52.2069      0.0000
   161.2500    709.2403      6.3192     53.2636      0.0000
   161.5000    708.9816      6.3212     54.4258      0.0000
   161.7500    709.1805      6.3299     55.1339      0.0000
   162.0000    709.2474      6.3385     54.9603      0.0000
   162.2500    709.0908      6.3336     54.0253      0.0000
   162.5000    708.8290      6.3096     53.2621      0.0000
   162.7500    708.5978      6.2799     53.8755      0.0000
   163.0000    708.4482      6.2559     56.2836      0.0000
   163.2500    708.3199      6.2271     59.9253      0.0000
   163.5000    708.1211      6.1808     64.0305      0.0000
   163.7500    707.8271      6.1223     67.9906      0.0000
   164.0000    707.4913      6.0662     71.1758      0.0000
   164.2500    707.2303      6.0217     73.2223      0.0000
   164.5000    707.1332      5.9853     74.3713      0.0000
   164.7500    707.1783      5.9450     74.8256      0.0000
   165.0000    707.3306      5.8895     74.0700      0.0000
   165.2500    707.6482      5.8169     71.5963      0.0000
   165.5000    708.5214      5.7450     68.0690      0.0000
   165.7500    711.5033      5.7041     65.0683      0.0000
   166.0000    719.6012      5.7114     63.6328      0.0000
   166.2500    733.4807      5.7604     63.3419      0.0000
   166.5000    745.7765      5.8250     62.8402      0.0000
   166.7500    745.9113      5.8730     61.1542      0.0000
   167.0000    733.5654      5.8831     58.4543      0.0000
   167.2500    718.5353      5.8518     55.6597      0.0000
   167.5000    707.4814      5.7888     53.5574      0.0000
   167.7500    700.5721      5.7167     52.3907      0.0000
   168.0000    697.8536      5.6661     51.9976      0.0000
   168.2500    699.7070      5.6548     51.9382      0.0000
   168.5000    703.6970      5.6849     51.5394      0.0000
   168.7500    706.7913      5.7583     50.2780      0.0000
   169.0000    708.3161      5.8720     48.3036      0.0000
   169.2500    708.9782      6.0022     46.4354      0.0000
   169.5000    709.3821      6.1103     45.6226      0.0000
   169.7500    710.0612      6.1696     46.4468      0.0000
   170.0000    712.2810      6.1866     48.8349      0.0000
   170.2500    717.9495      6.1944     51.9162      0.0000
   170.5000    726.0727      6.2210     54.3162      0.0000
   170.7500    730.2971      6.2649     55.0337      0.0000
   171.0000    726.2118      6.3082     54.2259      0.0000
   171.2500    718.1912      6.3490     52.9727      0.0000
   171.5000    712.5695      6.4041     52.0880      0.0000
   171.7500    710.3952      6.4799     51.4183      0.0000
   172.0000    709.8514      6.5652     50.6132      0.0000
   172.2500    709.7795      6.6494     50.1882      0.0000
   172.5000    709.9343      6.7306     51.2415      0.0000
   172.7500    710.4065      6.8042     54.3203      0.0000
   173.0000    711.7841      6.8483     59.0492      0.0000
   173.2500    716.5472      6.8465     64.5164      0.0000
   173.5000    729.6545      6.8189     69.4396      0.0000
   173.7500    753.2780      6.8028     72.4319      0.0000
   174.0000    780.6852      6.8198     72.9976      0.0000
   174.2500    804.1284      6.8710     72.1354      0.0000
   174.5000    824.6415      6.9405     71.2735      0.0000
   174.7500    843.1863      6.9977     70.7374      0.0000
   175.0000    854.6354      7.0193     69.8475      0.0000
   175.2500    856.3401      7.0137     68.4286      0.0000
   175.5000    848.9006      7.0140     67.4596      0.0000
   175.7500    831.1388      7.0469     67.8182      0.0000
   176.0000    803.3619      7.1105     68.8124      0.0000
   176.2500    770.9860      7.1792     68.6706      0.0000
   176.5000    741.9879      7.2194     66.5390      0.0000
   176.7500    722.3903      7.1877     63.3963      0.0000
   177.0000    712.4182      7.0118     60.8416      0.0000
   177.2500    707.1642      6.6222     59.5140      0.0000
   177.5000    702.0043      6.0878     58.9957      0.0000
   177.7500    698.9064      5.6436     58.8269      0.0000
   178.0000    707.4922      5.4310     59.1070      0.0000
   178.2500    734.4106      5.3680     60.0769      0.0000
   178.5000    773.4985      5.3508     61.4761      0.0000
   178.7500    811.0781      5.3540     62.5243      0.0000
   179.0000    836.4173      5.3690     62.5386      0.0000
   179.2500    846.3336      5.3766     61.5002      2.0000
   179.5000    842.2577      5.3548     59.9044      2.0000
   179.7500    825.2002      5.2993     58.1983     -2.0000
   180.0000    795.6259      5.2667     56.5782      0.0000
   180.2500    757.4101      5.3948     55.0791      0.0000
   180.5000    721.7323      5.7555     53.4959      0.0000
   180.7500    701.7570      6.1738     51.4754      0.0000
   181.0000    699.2108      6.4316     49.0006      0.0000
   181.2500    704.2422      6.5624     46.5112      0.0000
   181.5000    708.6028      6.6886     44.4082      0.0000
   181.7500    711.4116      6.8040     42.7973      0.0000
   182.0000    716.1722      6.8556     41.7089      0.0000
   182.2500    727.5814      6.8537     41.1030      0.0000
   182.5000    746.8585      6.8489     40.6964      0.0000
   182.7500    769.1443      6.8688     40.2122      0.0000
   183.0000    790.9046      6.9109     39.8118      0.0000
   183.2500    812.7936      6.9774     39.9536      0.0000
   183.5000    831.6294      7.0859     40.8287      0.0000
   183.7500    842.6403      7.2369     42.0603      0.0000
   184.0000    846.7418      7.4029     42.9412      0.0000
   184.2500    847.7997      7.5611     43.0303      0.0000
   184.5000    848.1085      7.6916     42.5695      0.0000
   184.7500    848.2487      7.7688     42.1695      0.0000
   185.0000    848.2745      7.7930     42.0759      0.0000
   185.2500    848.3501      7.7914     41.9183      0.0000
   185.5000    848.6476      7.7924     41.1847      0.0000
   185.7500    848.5563      7.8167     39.7699      0.0000
   186.0000    845.8386      7.8712     37.9970      0.0000
   186.2500    837.6779      7.9449     36.1871      0.0000
   186.5000    825.7662      8.0146     34.3892      0.0000
   186.7500    818.6001      8.0549     32.6091      0.0000
   187.0000    820.0597      8.0533     31.1594      0.0000
   187.2500    820.5962      8.0123     30.5617      0.0000
