~Version Information
VERS.                      2.0: CWLS Log ASCII Standard - VERSION 2.0
WRAP.                       NO: One line per depth step
~Well Information Block
STRT.FT               563.6000: 
STOP.FT              2133.0000: 
STEP.FT                 0.1000: 
NULL.                -999.2500: 
COMP.          Petrogulf Corporation: COMPANY
WELL.             State 16-43V: WELL
FLD.           Purgatorie River: FIELD
LOC.           2437' FSL & 734' FEL: LOCATION
CNTY.               Las Animas: COUNTY
SRVC.                         : SERVICE COMPANY
DATE.          Mon Dec 06 06:01:26 2004: LOG DATE
UWI.           05 071 08015 00: UNIQUE WELL ID
STAT.                 Colorado: STATE
~Curve Information Block
DEPT.FT            0 000 00 00: Depth
DCAL.in                       : CDL Caliper
RHOB.g/cc                     : CDL Bulk Density
RHOC.g/cc                     : CDL Density Correction
DPOR.pu                       : CDL Density Porosity
GR.GAPI                       : Gamma Ray
NPOR.pu                       : Neutron Porosity
~Parameter Information Block
~A  Depth       DCAL        RHOB        RHOC        DPOR         GR         NPOR    
# ...
  2118.8000      7.8062      2.5790      0.0254      4.3005   -999.2500     47.9214
  2118.9000      7.8062      2.6052      0.1157      2.7165   -999.2500   -999.2500
  2119.0000      7.7733      2.6166      0.1003      2.0255   -999.2500   -999.2500
  2119.1000      7.7733      2.6277      0.1207      1.3526   -999.2500   -999.2500
  2119.2000      7.7733      2.6519      0.0850     -0.1165   -999.2500   -999.2500
  2119.3000      7.7707      2.6750      0.1823     -1.5173   -999.2500   -999.2500
  2119.4000      7.7707      2.6707      0.1462     -1.2568   -999.2500   -999.2500
  2119.5000      7.7442      2.6381      0.1226      0.7187   -999.2500   -999.2500
  2119.6000      7.7442      2.6049      0.0762      2.7358   -999.2500   -999.2500
  2119.7000      7.7442      2.5944      0.0708      3.3697   -999.2500   -999.2500
  2119.8000      7.8002      2.6125      0.0694      2.2702   -999.2500   -999.2500
  2119.9000      7.8002      2.6403      0.1200      0.5852   -999.2500   -999.2500
  2120.0000      7.7915      2.6498      0.0897      0.0098   -999.2500   -999.2500
  2120.1000      7.7915      2.6475      0.0713      0.1524   -999.2500   -999.2500
  2120.2000      7.7915      2.6525      0.1124     -0.1489   -999.2500   -999.2500
  2120.3000      7.8134      2.6550      0.1399     -0.3057   -999.2500   -999.2500
  2120.4000      7.8134      2.6497      0.0880      0.0168   -999.2500   -999.2500
  2120.5000      7.8306      2.6551      0.0844     -0.3106   -999.2500   -999.2500
  2120.6000      7.8306      2.6715      0.1151     -1.3059   -999.2500   -999.2500
  2120.7000      7.8306      2.6806      0.1067     -1.8541   -999.2500   -999.2500
  2120.8000      7.7464      2.6795      0.1156     -1.7903   -999.2500   -999.2500
  2120.9000      7.7464      2.6742      0.0891     -1.4669   -999.2500   -999.2500
  2121.0000      7.7135      2.6606      0.1254     -0.6418   -999.2500   -999.2500
  2121.1000      7.7135      2.6335      0.0978      0.9978   -999.2500   -999.2500
  2121.2000      7.7135      2.5949      0.1000      3.3382   -999.2500   -999.2500
  2121.3000      7.7758      2.5530      0.0483      5.8795   -999.2500   -999.2500
  2121.4000      7.7758      2.5193      0.0660      7.9235   -999.2500   -999.2500
  2121.5000      7.7970      2.5088     -0.0389      8.5580   -999.2500   -999.2500
  2121.6000      7.7970      2.5357      0.0282      6.9249   -999.2500   -999.2500
  2121.7000      7.7970      2.5865      0.0847      3.8495   -999.2500   -999.2500
  2121.8000      7.7914      2.6358      0.1118      0.8589   -999.2500   -999.2500
  2121.9000      7.7914      2.6766      0.1174     -1.6108   -999.2500   -999.2500
  2122.0000      7.7769      2.7063      0.1682     -3.4097   -999.2500   -999.2500
  2122.1000      7.7769      2.7101      0.1990     -3.6454   -999.2500   -999.2500
  2122.2000      7.7769      2.6783      0.1235     -1.7174   -999.2500   -999.2500
  2122.3000      7.8388      2.6315      0.0834      1.1211   -999.2500   -999.2500
  2122.4000      7.8388      2.6033      0.0713      2.8284   -999.2500   -999.2500
  2122.5000      7.8365      2.6008      0.0617      2.9826   -999.2500   -999.2500
  2122.6000      7.8365      2.6068      0.0769      2.6191   -999.2500   -999.2500
  2122.7000      7.8365      2.6052      0.0763      2.7144   -999.2500   -999.2500
  2122.8000      7.7697      2.5867      0.0674      3.8365   -999.2500   -999.2500
  2122.9000      7.7697      2.5571      0.0325      5.6303   -999.2500   -999.2500
  2123.0000      7.7890      2.5356      0.0680      6.9341   -999.2500   -999.2500
  2123.1000      7.7890      2.5259      0.0460      7.5185   -999.2500   -999.2500
  2123.2000      7.7890      2.5170      0.0440      8.0634   -999.2500   -999.2500
  2123.3000      7.7722      2.5111     -0.0058      8.4196   -999.2500   -999.2500
  2123.4000      7.7722      2.5218      0.0480      7.7725   -999.2500   -999.2500
  2123.5000      7.7743      2.5439      0.0759      6.4326   -999.2500   -999.2500
  2123.6000      7.7743      2.5618      0.0832      5.3467   -999.2500   -999.2500
  2123.7000      7.7743      2.5765      0.0368      4.4519   -999.2500   -999.2500
  2123.8000      7.7807      2.5923      0.0708      3.4957   -999.2500   -999.2500
  2123.9000      7.7807      2.5963      0.1530      3.2519   -999.2500   -999.2500
  2124.0000      7.7929      2.5906      0.0462      3.6020   -999.2500   -999.2500
  2124.1000      7.7929      2.5974      0.0802      3.1895   -999.2500   -999.2500
  2124.2000      7.7929      2.6141      0.1008      2.1777   -999.2500   -999.2500
  2124.3000      7.8208      2.6206      0.0572      1.7847   -999.2500   -999.2500
  2124.4000      7.8208      2.6102      0.0751      2.4145   -999.2500   -999.2500
  2124.5000      7.7807      2.5862      0.0689      3.8669   -999.2500   -999.2500
  2124.6000      7.7807      2.5596      0.0611      5.4769   -999.2500   -999.2500
  2124.7000      7.7807      2.5476      0.0187      6.2060   -999.2500   -999.2500
  2124.8000      7.7418      2.5604      0.0517      5.4320   -999.2500   -999.2500
  2124.9000      7.7418      2.5865      0.0710      3.8476   -999.2500   -999.2500
  2125.0000      7.7363      2.6045      0.0929      2.7559   -999.2500   -999.2500
  2125.1000      7.7363      2.6139      0.0614      2.1903   -999.2500   -999.2500
  2125.2000      7.7363      2.6278      0.0843      1.3445   -999.2500   -999.2500
  2125.3000      7.7913      2.6471      0.1373      0.1744   -999.2500   -999.2500
  2125.4000      7.7913      2.6702      0.0969     -1.2222   -999.2500   -999.2500
  2125.5000      7.7803      2.6864      0.1478     -2.2050   -999.2500   -999.2500
  2125.6000      7.7803      2.6755      0.0942     -1.5430   -999.2500   -999.2500
  2125.7000      7.7803      2.6458      0.0675      0.2522   -999.2500   -999.2500
  2125.8000      7.8284      2.6192      0.0394      1.8669   -999.2500   -999.2500
  2125.9000      7.8284      2.5958      0.0622      3.2872   -999.2500   -999.2500
  2126.0000      7.7861      2.5699      0.0268      4.8569   -999.2500   -999.2500
  2126.1000      7.7861      2.5543      0.0146      5.7985   -999.2500   -999.2500
  2126.2000      7.7861      2.5568      0.0128      5.6459   -999.2500   -999.2500
  2126.3000      7.7908      2.5610      0.0421      5.3913   -999.2500   -999.2500
  2126.4000      7.7908      2.5582      0.0432      5.5648   -999.2500   -999.2500
  2126.5000      7.7540      2.5656      0.0485      5.1138   -999.2500   -999.2500
  2126.6000      7.7540      2.5890      0.0906      3.6946   -999.2500   -999.2500
  2126.7000      7.7540      2.6044      0.1234      2.7607   -999.2500   -999.2500
  2126.8000      7.7686      2.5991      0.0625      3.0869   -999.2500   -999.2500
  2126.9000      7.7686      2.5822      0.0788      4.1097   -999.2500   -999.2500
  2127.0000      7.8193      2.5658      0.0573      5.1049   -999.2500   -999.2500
  2127.1000      7.8193      2.5593      0.0528      5.4957   -999.2500   -999.2500
  2127.2000      7.8193      2.5625      0.0414      5.3060   -999.2500   -999.2500
  2127.3000      7.8242      2.5692      0.0655      4.8953   -999.2500   -999.2500
  2127.4000      7.8242      2.5768      0.0808      4.4389   -999.2500   -999.2500
  2127.5000      7.8226      2.5881      0.0901      3.7498   -999.2500   -999.2500
  2127.6000      7.8226      2.6059      0.0923      2.6757   -999.2500   -999.2500
  2127.7000      7.8226      2.6146      0.1368      2.1483   -999.2500   -999.2500
  2127.8000      7.7830      2.6002      0.0789      3.0203   -999.2500   -999.2500
  2127.9000      7.7830      2.5794      0.0787      4.2767   -999.2500   -999.2500
  2128.0000      7.7767      2.5757      0.0564      4.5015   -999.2500   -999.2500
  2128.1000      7.7767      2.5889      0.1021      3.7060   -999.2500   -999.2500
  2128.2000      7.7767      2.6037      0.0688      2.8034   -999.2500   -999.2500
  2128.3000      7.7299      2.6095      0.0887      2.4536   -999.2500   -999.2500
