~Version Information
VERS.                      2.0: CWLS Log ASCII Standard - VERSION 2.0
WRAP.                       NO: One line per depth step
~Well Information Block
STRT.FT              2983.0000: 
STOP.FT              3214.7500: 
STEP.FT                 0.0500: 
NULL.                -999.2500: 
COMP.          Pioner Natural Resources: COMPANY
WELL.              Vespar 43-7: WELL
FLD.           Purgatoire River: FIELD
LOC.           2338' FSL & 1141' FEL------: LOCATION
PROV.                 Colorado: PROVINCE
CNTY.               Las Animas: COUNTRY
SRVC.                         : SERVICE COMPANY
DATE.          Fri Apr 15 15:31:19 2005: LOG DATE
UWI.                          : UNIQUE WELL ID
~Curve Information Block
DEPT.FT            0 000 00 00: Depth
GR.GAPI                       : Gamma Ray
CCL.                          : Casing Collar Locator
TT3.usec                      : CBL 3' Travel Time
AMP3.mV                       : CBL 3' Amplitude
AMP5.mV                       : CBL 5' Amplitude
~Parameter Information Block
~A  Depth        GR         CCL         TT3         AMP3        AMP5    
  2983.0000   -999.2500   -999.2500   -999.2500   -999.2500    131.1671
  2983.0500   -999.2500   -999.2500   -999.2500   -999.2500    131.1671
  2983.1000   -999.2500   -999.2500   -999.2500   -999.2500    131.1671
  2983.1500   -999.2500   -999.2500   -999.2500   -999.2500    131.1671
  2983.2000   -999.2500   -999.2500   -999.2500   -999.2500    131.1671
  2983.2500   -999.2500   -999.2500   -999.2500   -999.2500    131.2318
  2983.3000   -999.2500   -999.2500   -999.2500   -999.2500    131.2318
  2983.3500   -999.2500   -999.2500   -999.2500   -999.2500    131.2318
  2983.4000   -999.2500   -999.2500   -999.2500   -999.2500    131.2318
  2983.4500   -999.2500   -999.2500   -999.2500   -999.2500    131.2318
  2983.5000   -999.2500   -999.2500   -999.2500   -999.2500    131.5665
  2983.5500   -999.2500   -999.2500   -999.2500   -999.2500    131.5665
  2983.6000   -999.2500   -999.2500   -999.2500   -999.2500    131.5665
  2983.6500   -999.2500   -999.2500   -999.2500   -999.2500    131.5665
  2983.7000   -999.2500   -999.2500   -999.2500   -999.2500    131.5665
  2983.7500   -999.2500   -999.2500   -999.2500   -999.2500    132.1873
  2983.8000   -999.2500   -999.2500   -999.2500   -999.2500    132.1873
  2983.8500   -999.2500   -999.2500   -999.2500   -999.2500    132.1873
  2983.9000   -999.2500   -999.2500   -999.2500   -999.2500    132.1873
  2983.9500   -999.2500   -999.2500   -999.2500   -999.2500    132.1873
  2984.0000   -999.2500   -999.2500    259.7794     79.3553    133.0907
  2984.0500   -999.2500   -999.2500    259.7794     79.3553    133.0907
  2984.1000   -999.2500   -999.2500    259.7794     79.3553    133.0907
  2984.1500   -999.2500   -999.2500    259.7794     79.3553    133.0907
  2984.2000   -999.2500   -999.2500    259.7794     79.3553    133.0907
  2984.2500   -999.2500   -999.2500    259.8074     79.9709    134.2420
  2984.3000   -999.2500   -999.2500    259.8074     79.9709    134.2420
  2984.3500   -999.2500   -999.2500    259.8074     79.9709    134.2420
  2984.4000   -999.2500   -999.2500    259.8074     79.9709    134.2420
  2984.4500   -999.2500   -999.2500    259.8074     79.9709    134.2420
  2984.5000   -999.2500   -999.2500    259.8497     80.5636    135.5682
  2984.5500   -999.2500   -999.2500    259.8497     80.5636    135.5682
  2984.6000   -999.2500   -999.2500    259.8497     80.5636    135.5682
  2984.6500   -999.2500   -999.2500    259.8497     80.5636    135.5682
  2984.7000   -999.2500   -999.2500    259.8497     80.5636    135.5682
  2984.7500   -999.2500   -999.2500    259.8956     81.1643    136.9549
  2984.8000   -999.2500   -999.2500    259.8956     81.1643    136.9549
  2984.8500   -999.2500   -999.2500    259.8956     81.1643    136.9549
  2984.9000   -999.2500   -999.2500    259.8956     81.1643    136.9549
  2984.9500   -999.2500   -999.2500    259.8956     81.1643    136.9549
  2985.0000   -999.2500   -999.2500    259.9359     81.8532    138.2590
  2985.0500   -999.2500   -999.2500    259.9359     81.8532    138.2590
  2985.1000   -999.2500   -999.2500    259.9359     81.8532    138.2590
  2985.1500   -999.2500   -999.2500    259.9359     81.8532    138.2590
  2985.2000   -999.2500   -999.2500    259.9359     81.8532    138.2590
  2985.2500   -999.2500   -999.2500    259.9622     82.6685    139.3677
  2985.3000   -999.2500   -999.2500    259.9622     82.6685    139.3677
  2985.3500   -999.2500   -999.2500    259.9622     82.6685    139.3677
  2985.4000   -999.2500   -999.2500    259.9622     82.6685    139.3677
  2985.4500   -999.2500   -999.2500    259.9622     82.6685    139.3677
  2985.5000   -999.2500   -999.2500    259.9710     83.5231    140.2682
  2985.5500   -999.2500   -999.2500    259.9710     83.5231    140.2682
  2985.6000   -999.2500   -999.2500    259.9710     83.5231    140.2682
  2985.6500   -999.2500   -999.2500    259.9710     83.5231    140.2682
  2985.7000   -999.2500   -999.2500    259.9710     83.5231    140.2682
  2985.7500   -999.2500   -999.2500    259.9677     84.2256    141.0452
  2985.8000   -999.2500   -999.2500    259.9677     84.2256    141.0452
  2985.8500   -999.2500   -999.2500    259.9677     84.2256    141.0452
  2985.9000   -999.2500   -999.2500    259.9677     84.2256    141.0452
  2985.9500   -999.2500   -999.2500    259.9677     84.2256    141.0452
  2986.0000   -999.2500   -999.2500    259.9641     84.5970    141.7945
  2986.0500   -999.2500   -999.2500    259.9641     84.5970    141.7945
  2986.1000   -999.2500   -999.2500    259.9641     84.5970    141.7945
  2986.1500   -999.2500   -999.2500    259.9641     84.5970    141.7945
  2986.2000   -999.2500   -999.2500    259.9641     84.5970    141.7945
  2986.2500   -999.2500   -999.2500    259.9692     84.5832    142.5399
  2986.3000   -999.2500   -999.2500    259.9692     84.5832    142.5399
  2986.3500   -999.2500   -999.2500    259.9692     84.5832    142.5399
  2986.4000   -999.2500   -999.2500    259.9692     84.5832    142.5399
  2986.4500   -999.2500   -999.2500    259.9692     84.5832    142.5399
  2986.5000   -999.2500   -999.2500    259.9816     84.2767    143.2281
  2986.5500   -999.2500   -999.2500    259.9816     84.2767    143.2281
  2986.6000   -999.2500   -999.2500    259.9816     84.2767    143.2281
  2986.6500   -999.2500   -999.2500    259.9816     84.2767    143.2281
  2986.7000   -999.2500   -999.2500    259.9816     84.2767    143.2281
  2986.7500   -999.2500   -999.2500    259.9923     83.8454    143.7745
  2986.8000   -999.2500   -999.2500    259.9923     83.8454    143.7745
  2986.8500   -999.2500   -999.2500    259.9923     83.8454    143.7745
  2986.9000   -999.2500   -999.2500    259.9923     83.8454    143.7745
  2986.9500   -999.2500   -999.2500    259.9923     83.8454    143.7745
  2987.0000   -999.2500   -999.2500    259.9937     83.4320    144.1093
  2987.0500   -999.2500   -999.2500    259.9937     83.4320    144.1093
  2987.1000   -999.2500   -999.2500    259.9937     83.4320    144.1093
  2987.1500   -999.2500   -999.2500    259.9937     83.4320    144.1093
  2987.2000   -999.2500   -999.2500    259.9937     83.4320    144.1093
  2987.2500   -999.2500   -999.2500    259.9857     83.0980    144.2134
  2987.3000   -999.2500   -999.2500    259.9857     83.0980    144.2134
  2987.3500   -999.2500   -999.2500    259.9857     83.0980    144.2134
  2987.4000   -999.2500   -999.2500    259.9857     83.0980    144.2134
  2987.4500   -999.2500   -999.2500    259.9857     83.0980    144.2134
  2987.5000   -999.2500   -999.2500    259.9756     82.8373    144.1394
  2987.5500   -999.2500   -999.2500    259.9756     82.8373    144.1394
  2987.6000   -999.2500   -999.2500    259.9756     82.8373    144.1394
  2987.6500   -999.2500   -999.2500    259.9756     82.8373    144.1394
  2987.7000   -999.2500   -999.2500    259.9756     82.8373    144.1394
  2987.7500   -999.2500   -999.2500    259.9719     82.6188    143.9949
  2987.8000   -999.2500   -999.2500    259.9719     82.6188    143.9949
  2987.8500   -999.2500   -999.2500    259.9719     82.6188    143.9949
  2987.9000   -999.2500   -999.2500    259.9719     82.6188    143.9949
  2987.9500   -999.2500   -999.2500    259.9719     82.6188    143.9949
  2988.0000   -999.2500   -999.2500    259.9778     82.4084    143.8874
  2988.0500   -999.2500   -999.2500    259.9778     82.4084    143.8874
  2988.1000   -999.2500   -999.2500    259.9778     82.4084    143.8874
  2988.1500   -999.2500   -999.2500    259.9778     82.4084    143.8874
  2988.2000   -999.2500   -999.2500    259.9778     82.4084    143.8874
  2988.2500   -999.2500   -999.2500    259.9894     82.1746    143.8747
  2988.3000   -999.2500   -999.2500    259.9894     82.1746    143.8747
  2988.3500   -999.2500   -999.2500    259.9894     82.1746    143.8747
  2988.4000   -999.2500   -999.2500    259.9894     82.1746    143.8747
  2988.4500   -999.2500   -999.2500    259.9894     82.1746    143.8747
  2988.5000   -999.2500   -999.2500    260.0024     81.9087    143.9509
  2988.5500   -999.2500   -999.2500    260.0024     81.9087    143.9509
