~Version Information
 VERS.                                  2.0 : CWLS LAS VERSION
 WRAP.                                   NO : WRAPING MODE
 SWARE .                 MController 2.5.0E : SOFTWARE VERSION
~Well Information
 WELL.                       Parklane 43-34 : WELL
 COMP.             Evergreen Operating Corp : COMPANY
 FLD.                      Purgatorie River : FIELD
 LOC.                NE/SE Sec 34 T32S R66W : LOCATION
 DATE.                          10/04-06/04 : DATE(S) LOGGED
 SRVC.       Blanco Geological Services LLC : SERVICE COMPANY
 STAT.                                   CO : STATE
 CNTY.                           Las Animas : COUNTY
 CTRY.                                  USA : COUNTRY
 API.                       05-071-08162-00 : API NUMBER
 STRT.FT                             467.00 : START DEPTH
 STOP.FT                            2245.00 : STOP DEPTH
 STEP.FT                               1.00 : DEPTH INCREMENT
 NULL.                                -9999 : NULL VALUE
~Curve information
 DEPTH.FT                                   :
 ROP.MIN/FT                                 :
 GAS.UNITS                                  :
~ASCII Log data
# ...
     1067.00        0.067         29.6 
     1068.00        0.183         28.7 
     1069.00        0.133         25.0 
     1070.00        0.200         22.4 
     1071.00        0.200         20.9 
     1072.00        0.167         21.0 
     1073.00        0.167         24.4 
     1074.00        0.200         32.5 
     1075.00        0.167         42.8 
     1076.00        2.550        164.1 
     1077.00        0.200         55.8 
     1078.00        0.167         50.9 
     1079.00        0.167         50.9 
     1080.00        0.233         48.0 
     1081.00        0.167         44.9 
     1082.00        0.133         43.1 
     1083.00        0.100         42.7 
     1084.00        0.100         42.4 
     1085.00        0.067         42.0 
     1086.00        0.100         41.9 
     1087.00        0.167         41.1 
     1088.00        0.167         44.0 
     1089.00        0.133         46.6 
     1090.00        0.167         45.4 
     1091.00        0.167         39.0 
     1092.00        0.200         36.4 
     1093.00        0.167         34.6 
     1094.00        0.133         33.6 
     1095.00        0.150         32.8 
     1096.00        0.100         31.5 
     1097.00        0.067         30.1 
     1098.00        0.133         29.2 
     1099.00        0.100         27.6 
     1100.00        0.100         27.2 
     1101.00        0.167         25.7 
     1102.00        0.100         22.7 
     1103.00        0.133         21.5 
     1104.00        0.133         19.4 
     1105.00        0.200         17.9 
     1106.00        4.850         54.3 
     1107.00        0.233         35.6 
     1108.00        0.200         36.5 
     1109.00        0.217         36.2 
     1110.00        0.267         35.3 
     1111.00        0.433         33.4 
     1112.00        0.167         28.4 
     1113.00        0.167         25.0 
     1114.00        0.067         22.7 
     1115.00        0.167         22.5 
     1116.00        0.167         20.8 
     1117.00        0.200         19.2 
     1118.00        0.167         18.8 
     1119.00        0.233         18.9 
     1120.00        0.167         18.1 
     1121.00        0.200         17.4 
     1122.00        0.167         17.5 
     1123.00        0.233         17.1 
     1124.00        0.200         16.6 
     1125.00        0.217         16.2 
     1126.00        0.233         16.0 
     1127.00        0.200         14.5 
     1128.00        0.200         14.2 
     1129.00        0.233         14.2 
     1130.00        0.200         13.6 
     1131.00        0.233         13.1 
     1132.00        0.267         13.6 
     1133.00        0.233         13.0 
     1134.00        0.233         12.3 
     1135.00        0.200         10.9 
     1136.00        2.583          9.6 
     1137.00        0.267          4.2 
     1138.00        0.133          3.6 
     1139.00        0.200          3.9 
     1140.00        0.233          3.1 
     1141.00        0.167          2.9 
     1142.00        0.133          5.6 
     1143.00        0.133         10.9 
     1144.00        0.133         17.0 
     1145.00        0.100         20.7 
     1146.00        0.100         24.5 
     1147.00        0.100         25.4 
     1148.00        0.100         27.3 
     1149.00        0.217         28.0 
     1150.00        0.167         27.5 
     1151.00        0.133         27.1 
     1152.00        0.133         27.0 
     1153.00        0.233         28.0 
     1154.00        0.233         29.8 
     1155.00        0.200         29.0 
     1156.00        0.200         28.7 
     1157.00        0.233         28.1 
     1158.00        0.200         27.8 
     1159.00        0.200         26.1 
     1160.00        0.200         22.7 
     1161.00        0.200         20.4 
     1162.00        0.200         19.4 
     1163.00        0.233         19.5 
     1164.00        0.200         19.5 
     1165.00        0.217         21.3 
     1166.00        2.867         78.3 
     1167.00        0.200         45.9 
     1168.00        0.167         45.2 
     1169.00        0.183         45.6 
     1170.00        0.167         44.8 
     1171.00        0.133         43.1 
     1172.00        0.133         41.3 
     1173.00        0.167         39.5 
     1174.00        0.167         36.5 
     1175.00        0.167         34.0 
     1176.00        0.233         33.1 
     1177.00        0.200         30.9 
     1178.00        0.200         29.8 
     1179.00        0.133         30.4 
     1180.00        0.167         30.7 
     1181.00        0.167         30.6 
     1182.00        0.167         30.9 
     1183.00        0.200         29.3 
     1184.00        0.167         27.1 
     1185.00        0.167         25.2 
     1186.00        0.200         24.5 
     1187.00        0.300         23.7 
     1188.00        0.217         22.2 
     1189.00        0.167         19.0 
     1190.00        0.200         18.2 
     1191.00        0.167         17.7 
     1192.00        0.133         18.6 
     1193.00        0.167         19.8 
     1194.00        0.133         23.5 
     1195.00        0.167         28.4 
     1196.00        2.350         65.1 
     1197.00        0.200         41.0 
     1198.00        0.333         40.2 
     1199.00        0.200         38.5 
     1200.00        0.133         38.0 
     1201.00        0.133         37.3 
     1202.00        0.133         36.5 
     1203.00        0.367         35.6 
     1204.00        0.167         33.4 
     1205.00        0.167         36.4 
     1206.00        0.133         42.0 
     1207.00        0.133         42.7 
     1208.00        0.200         42.7 
     1209.00        0.200         43.7 
     1210.00        0.200         43.5 
     1211.00        0.133         42.3 
     1212.00        0.133         38.3 
     1213.00        0.117         36.1 
     1214.00        0.100         31.7 
     1215.00        0.100         29.5 
     1216.00        0.067         27.8 
     1217.00        0.100         27.3 
     1218.00        0.100         25.1 
     1219.00        0.067         23.7 
     1220.00        0.133         24.4 
     1221.00        0.100         24.7 
     1222.00        0.100         24.9 
     1223.00        0.100         27.4 
     1224.00        0.100         30.3 
     1225.00        0.100         33.3 
     1226.00        2.917         80.8 
     1227.00        0.167         71.1 
     1228.00        0.100         70.8 
     1229.00        0.133         70.0 
     1230.00        0.233         68.4 
     1231.00        0.300         64.6 
     1232.00        0.267         58.7 
     1233.00        0.267         52.8 
     1234.00        0.200         50.9 
     1235.00        0.267         93.3 
     1236.00        0.233        141.0 
     1237.00        0.200        166.5 
     1238.00        0.250        171.8 
     1239.00        0.200        166.8 
     1240.00        0.200        154.9 
     1241.00        0.167        137.0 
     1242.00        0.167        124.1 
     1243.00        0.200        115.1 
     1244.00        0.233        108.8 
     1245.00        0.267        105.5 
     1246.00        0.233        127.8 
     1247.00        0.267        135.7 
     1248.00        0.233        132.5 
     1249.00        0.167        120.3 
     1250.00        0.267        110.0 
     1251.00        0.300         88.0 
     1252.00        0.283         64.3 
     1253.00        0.267         51.3 
     1254.00        0.267         54.8 
     1255.00        0.267         70.5 
     1256.00        2.850        245.3 
     1257.00        0.333        156.0 
     1258.00        0.300        139.8 
     1259.00        0.233        127.9 
     1260.00        0.300        118.3 
     1261.00        0.333        106.5 
     1262.00        0.367         94.4 
     1263.00        0.367         85.6 
     1264.00        0.300         79.0 
     1265.00        0.267         75.1 
     1266.00        0.283         72.0 
