~Version Information
VERS.                      2.0: CWLS Log ASCII Standard - VERSION 2.0
WRAP.                       NO: One line per depth step
~Well Information Block
STRT.FT               430.0000: 
STOP.FT              2827.0000: 
STEP.FT                 0.1000: 
NULL.                -999.2500: 
COMP.          Pioneer Natural Resources: COMPANY
WELL.           Ei-ei-oh 31-24: WELL
FLD.           Purgatoire River: FIELD
LOC.           235' FNL & 2001' FEL--: LOCATION
PROV.                 Colorado: PROVINCE
CNTY.               Las Animas: COUNTRY
SRVC.                Patterson: SERVICE COMPANY
DATE.          Thu Jun 16 07:14:41 2005: LOG DATE
UWI.           05 071 08403 00: UNIQUE WELL ID
~Curve Information Block
DEPT.FT            0 000 00 00: Depth
DCAL.in                       : CDL Caliper
DPOR.pu                       : CDL Density Porosity
NPOR.pu                       : Neutron Porosity
RHOB.g/cc                     : CDL Bulk Density
RHOC.g/cc                     : CDL Density Correction
GR.GAPI                       : Gamma Ray
~Parameter Information Block
~A  Depth       DCAL        DPOR        NPOR        RHOB        RHOC         GR     
# ...
  2254.0000      7.9821     13.5666     29.9206      2.4262      0.0336    151.7544
  2254.1000      7.9821     20.5124     30.0725      2.3115     -0.0239    129.8730
  2254.2000      7.9821     27.9883     30.6684      2.1882     -0.0510    121.5031
  2254.3000      7.9619     36.2271     31.7787      2.0523     -0.0596    119.3250
  2254.4000      7.9619     45.1899     33.1591      1.9044     -0.1427    112.0487
  2254.5000      7.9493     53.7883     34.5638      1.7625     -0.1527    107.7991
  2254.6000      7.9493     61.4870     35.6410      1.6355     -0.1380    110.8568
  2254.7000      7.9493     68.5593     36.2289      1.5188     -0.1464    110.5532
  2254.8000      7.9742     74.7366     36.4333      1.4168     -0.1011    103.6660
  2254.9000      7.9742     78.7679     36.5190      1.3503     -0.0182     88.8546
  2255.0000      8.1559     79.7824     36.6562      1.3336      0.0736     71.7005
  2255.1000      8.1559     78.2415     36.6715      1.3590      0.0946     61.3593
  2255.2000      8.1559     74.1383     36.3596      1.4267      0.1034     61.5771
  2255.3000      8.6741     66.1865     35.7342      1.5579      0.1238     78.1285
  2255.4000      8.6741     54.7666     34.9011      1.7464      0.2372    100.7768
  2255.5000      9.6786     43.6138     34.1562      1.9304      0.3441    107.8023
  2255.6000      9.6786     36.2513     33.8802      2.0519      0.3697     99.3393
  2255.7000      9.6786     33.1496     34.3517      2.1030      0.3724     94.9166
  2255.8000     11.0384     33.5845     35.2323      2.0959      0.3768     98.6236
  2255.9000     11.0384     36.6458     35.8002      2.0453      0.2481     95.5513
  2256.0000     12.0958     40.6730     36.1766      1.9789      0.1345     86.1551
  2256.1000     12.0958     45.2798     36.7331      1.9029      0.1254     85.8729
  2256.2000     12.0958     52.3416     37.0364      1.7864      0.0857     95.7145
  2256.3000     12.3462     62.4934     36.7950      1.6189      0.0171    102.3944
  2256.4000     12.3462     72.9185     36.4386      1.4468     -0.0297    104.3629
  2256.5000     12.0008     79.8717     36.3871      1.3321     -0.0519    107.5831
  2256.6000     12.0008     82.1263     36.7714      1.2949      0.0211    104.4786
  2256.7000     12.0008     81.9117     37.3801      1.2985      0.1091     87.7444
  2256.8000     11.7630     82.1217     37.8222      1.2950      0.0955     71.8541
  2256.9000     11.7630     83.2751     37.8547      1.2760      0.0684     69.3238
  2257.0000     11.9402     83.8764     37.5455      1.2660      0.0674     73.9385
  2257.1000     11.9402     82.4309     37.1488      1.2899      0.0645     78.8204
  2257.2000     11.9402     78.6879     36.9504      1.3517      0.0962     78.4241
  2257.3000     12.3120     73.8581     36.9612      1.4313      0.1279     68.5025
  2257.4000     12.3120     69.9387     36.7131      1.4960      0.1581     57.3421
  2257.5000     12.7232     68.4134     35.8956      1.5212      0.1674     56.3963
  2257.6000     12.7232     69.0218     35.0408      1.5111      0.1125     64.3410
  2257.7000     12.7232     69.7455     34.7723      1.4992      0.0889     72.3230
  2257.8000     13.0209     68.0119     34.7648      1.5278      0.0246     74.6656
  2257.9000     13.0209     62.4660     34.1925      1.6193      0.0359     70.0138
  2258.0000     12.8855     54.1585     32.8085      1.7564      0.0763     60.3676
  2258.1000     12.8855     45.2305     31.4194      1.9037      0.1335     55.8604
  2258.2000     12.8855     36.7251     30.7378      2.0440      0.1991     63.4801
  2258.3000     12.1083     28.1125     30.4038      2.1861      0.1874     81.6117
  2258.4000     12.1083     19.2915     29.7585      2.3317      0.2323     99.4514
  2258.5000     10.7246     11.9923     28.5423      2.4521      0.2498    105.6665
  2258.6000     10.7246      7.3841     27.3463      2.5282      0.2134    104.7333
  2258.7000     10.7246      4.8370     26.8588      2.5702      0.1891    102.2870
  2258.8000      9.1942      3.8344     26.8605      2.5867      0.1567    100.8318
  2258.9000      9.1942      4.2471     27.0978      2.5799      0.0502    105.9792
  2259.0000      8.3166      5.2868     27.5604      2.5628      0.0407    119.8852
  2259.1000      8.3166      6.4447     27.9486      2.5437      0.0553    137.0960
  2259.2000      8.3166      8.2781     28.2123      2.5134      0.0453    147.8734
  2259.3000      8.0844     11.2395     28.4198      2.4645      0.0170    149.4293
  2259.4000      8.0844     14.8757     28.4970      2.4046      0.0200    139.7405
  2259.5000      8.0810     17.8918     28.6361      2.3548     -0.0223    119.8981
  2259.6000      8.0810     19.2737     28.7513      2.3320     -0.0039    108.2106
  2259.7000      8.0810     19.3496     28.4623      2.3307      0.0019    116.9486
  2259.8000      8.1556     18.0844     28.1540      2.3516     -0.0042    135.1654
  2259.9000      8.1556     14.4373     28.2597      2.4118      0.0328    146.4083
  2260.0000      8.2515      8.9659     28.4965      2.5021      0.1738    145.0686
  2260.1000      8.2515      4.5894     28.3234      2.5743      0.2672    134.3729
  2260.2000      8.2515      3.1174     27.4564      2.5986      0.2419    125.5592
  2260.3000      8.3042      3.3564     26.3660      2.5946      0.2633    124.5151
  2260.4000      8.3042      3.6752     25.7548      2.5894      0.2584    116.7646
  2260.5000      8.3683      4.1177     25.7494      2.5821      0.2566     94.0048
  2260.6000      8.3683      5.1866     25.9710      2.5644      0.1801     82.4525
  2260.7000      8.3683      5.9707     26.1841      2.5515      0.1050     96.1965
  2260.8000      8.4550      5.1941     26.2658      2.5643      0.0663    112.6450
  2260.9000      8.4550      3.4004     26.0991      2.5939      0.0749    117.3823
  2261.0000      8.4121      2.6428     25.6783      2.6064      0.1094    120.1293
  2261.1000      8.4121      3.7024     24.6979      2.5889      0.0584    128.9149
  2261.2000      8.4121      4.7313     23.2189      2.5719      0.0428    141.5032
  2261.3000      8.2332      4.1789     22.2978      2.5810      0.0191    151.3392
  2261.4000      8.2332      2.5920     22.4435      2.6072      0.0592    144.8161
  2261.5000      8.0734      0.8857     22.7929      2.6354      0.0479    116.3005
  2261.6000      8.0734     -0.8937     22.6695      2.6647      0.0537     88.8328
  2261.7000      8.0734     -2.7911     22.4405      2.6961      0.0564     84.6894
  2261.8000      7.9993     -4.2879     22.7391      2.7208      0.0534     93.6460
  2261.9000      7.9993     -4.4549     23.5715      2.7235      0.0704     95.3268
  2262.0000      7.9792     -3.2265     24.3115      2.7032      0.0184     89.5751
  2262.1000      7.9792     -2.1282     24.7095      2.6851      0.0242     88.3066
  2262.2000      7.9792     -2.1189     25.2219      2.6850      0.0326     95.4698
  2262.3000      7.9781     -2.5549     26.2024      2.6922      0.0501    104.9578
  2262.4000      7.9781     -2.5849     27.3166      2.6927      0.0401    107.3934
  2262.5000      7.9769     -1.6600     28.0211      2.6774      0.0838     99.2114
  2262.6000      7.9769      0.5484     28.4218      2.6410      0.0587     95.7394
  2262.7000      7.9769      2.8600     28.9189      2.6028     -0.0358    106.7471
  2262.8000      7.9720      3.9006     29.3669      2.5856      0.0466    116.6671
  2262.9000      7.9720      4.7185     29.4114      2.5721      0.0290    117.3372
  2263.0000      7.9681      6.4263     29.5439      2.5440     -0.0313    116.2439
  2263.1000      7.9681      8.6126     30.0743      2.5079      0.0196    120.1472
  2263.2000      7.9681     10.9937     30.2266      2.4686     -0.0036    132.5820
  2263.3000      7.9618     13.2494     29.8604      2.4314     -0.0342    149.5206
  2263.4000      7.9618     14.9502     29.6849      2.4033      0.0339    159.8386
  2263.5000      7.9512     16.1536     29.7359      2.3835      0.0105    155.4002
