~Version Information
 VERS.                                  2.0 : CWLS LAS VERSION
 WRAP.                                   NO : WRAPING MODE
 SWARE .                 MController 2.5.0J : SOFTWARE VERSION
~Well Information
 WELL.                       Costello 44-24 : WELL
 COMP.    Pioneer Natural Resources USA Inc : COMPANY
 FLD.                      Purgatoire River : FIELD
 LOC.                SE/SE Sec 24 T32S R67W : LOCATION
 DATE.                            7/10/2005 : DATE(S) LOGGED
 SRVC.       BLANCO Geological Services LLC : SERVICE COMPANY
 STAT.                                   CO : STATE
 CNTY.                           Las Animas : COUNTY
 CTRY.                                  USA : COUNTRY
 API.                       05-071-08413-00 : API NUMBER
 STRT.FT                             305.00 : START DEPTH
 STOP.FT                            2545.00 : STOP DEPTH
 STEP.FT                               1.00 : DEPTH INCREMENT
 NULL.                                 999 : NULL VALUE
~Curve information
 DEPTH.FT                                   :
 ROP.MIN/FT                                 :
 GAS.UNITS                                  :
~ASCII Log data
# ...
       705.0         0.20         13.9 
       706.0         0.23         23.0 
       707.0         0.17         28.5 
       708.0         0.20         31.3 
       709.0         0.17         32.5 
       710.0         0.20         32.2 
       711.0         0.17         30.5 
       712.0         0.17         30.5 
       713.0         0.20         29.2 
       714.0         0.25         28.0 
       715.0         0.60         27.1 
       716.0         2.37         60.3 
       717.0         0.55         98.2 
       718.0         0.37         69.0 
       719.0         0.27         57.7 
       720.0         0.17         37.6 
       721.0         0.13         31.6 
       722.0         0.10         29.6 
       723.0         0.13         22.6 
       724.0         0.10         21.4 
       725.0         0.13         17.5 
       726.0         0.10         15.5 
       727.0         0.17         15.7 
       728.0         0.13         13.4 
       729.0         0.13         12.3 
       730.0         0.13         11.4 
       731.0         0.23         11.5 
       732.0         0.17         11.4 
       733.0         0.17         11.1 
       734.0         0.10         10.8 
       735.0         0.10         10.8 
       736.0         0.07         10.8 
       737.0         0.10         10.4 
       738.0         0.10         10.4 
       739.0         0.25         11.2 
       740.0         0.23         12.4 
       741.0         0.20         12.4 
       742.0         0.20         12.3 
       743.0         0.27         12.2 
       744.0         0.20         10.3 
       745.0         0.20          9.1 
       746.0         1.85          8.4 
       747.0         0.50         14.0 
       748.0         0.30         25.4 
       749.0         0.17         27.9 
       750.0         0.17         27.0 
       751.0         0.20         24.6 
       752.0         0.30         20.4 
       753.0         0.23         14.3 
       754.0         0.23          8.0 
       755.0         0.17          8.0 
       756.0         0.27          8.0 
       757.0         0.30          6.2 
       758.0         0.33          4.5 
       759.0         0.22          4.6 
       760.0         0.27          4.1 
       761.0         0.20          3.8 
       762.0         0.23          3.7 
       763.0         0.20          3.4 
       764.0         0.23          3.4 
       765.0         0.17          3.3 
       766.0         0.17          3.6 
       767.0         0.13          3.3 
       768.0         0.13          3.3 
       769.0         0.17          3.1 
       770.0         0.13          3.4 
       771.0         0.17          3.2 
       772.0         0.17          3.6 
       773.0         0.20          3.0 
       774.0         0.20          3.0 
       775.0         0.20          3.0 
       776.0         2.35         11.7 
       777.0         0.30         19.7 
       778.0         0.17         19.7 
       779.0         0.17         21.2 
       780.0         0.30         19.3 
       781.0         0.17         42.1 
       782.0         0.17         84.7 
       783.0         0.18        145.5 
       784.0         0.20        185.5 
       785.0         0.20        199.0 
       786.0         0.20        219.4 
       787.0         0.20        225.7 
       788.0         0.20        226.7 
       789.0         0.20        224.1 
       790.0         0.17        220.3 
       791.0         0.20        216.8 
       792.0         0.20        212.9 
       793.0         0.20        209.5 
       794.0         0.17        205.9 
       795.0         0.20        205.9 
       796.0         0.23        202.3 
       797.0         0.23        200.5 
       798.0         0.27        197.7 
       799.0         0.18        197.4 
       800.0         0.17        195.9 
       801.0         0.17        195.0 
       802.0         0.20        194.6 
       803.0         0.17        193.8 
       804.0         0.17        194.1 
       805.0         0.17        192.8 
       806.0         2.42       1352.8 
       807.0         0.27       1394.7 
       808.0         0.50       1210.3 
       809.0         0.23        739.3 
       810.0         0.43        574.9 
       811.0         0.23        440.0 
       812.0         0.17        248.4 
       813.0         0.17        244.0 
       814.0         0.13        218.9 
       815.0         0.17        216.7 
       816.0         0.17        210.2 
       817.0         0.20        204.5 
       818.0         0.17        198.3 
       819.0         0.23        196.8 
       820.0         0.22        183.2 
       821.0         0.17        176.8 
       822.0         0.17        170.7 
       823.0         0.20        166.7 
       824.0         0.17        163.2 
       825.0         0.20        160.5 
       826.0         0.17        158.9 
       827.0         0.17        155.9 
       828.0         0.17        152.0 
       829.0         0.13        149.9 
       830.0         0.13        149.9 
       831.0         0.13        148.2 
       832.0         0.17        147.5 
       833.0         0.17        145.6 
       834.0         0.17        144.0 
       835.0         0.07        144.0 
       836.0         1.58        184.4 
       837.0         0.30        284.4 
       838.0         0.90        782.2 
       839.0         0.37        516.5 
       840.0         0.37        240.9 
       841.0         0.30        234.9 
       842.0         0.20        210.5 
       843.0         0.17        208.4 
       844.0         0.22        189.1 
       845.0         0.13        169.3 
       846.0         0.10        164.0 
       847.0         0.10        157.1 
       848.0         0.10        157.1 
       849.0         0.13        152.0 
       850.0         0.10        145.9 
       851.0         0.10        141.3 
       852.0         0.13        136.7 
       853.0         0.13        134.0 
       854.0         0.10        137.0 
       855.0         0.10        137.0 
       856.0         0.17        142.5 
       857.0         0.17        147.1 
       858.0         0.13        149.3 
       859.0         0.17        149.5 
       860.0         0.17        146.9 
       861.0         0.17        146.9 
       862.0         0.13        145.3 
       863.0         0.17        143.4 
       864.0         0.20        139.3 
       865.0         0.13        135.7 
       866.0         2.42        391.4 
       867.0         0.33        444.5 
       868.0         0.23        398.6 
       869.0         0.20        388.9 
       870.0         0.23        322.0 
       871.0         0.20        315.5 
       872.0         0.18        269.9 
       873.0         0.17        233.1 
       874.0         0.17        214.9 
       875.0         0.17        184.4 
       876.0         0.13        178.9 
       877.0         0.13        165.4 
       878.0         0.17        156.7 
       879.0         0.10        147.3 
       880.0         0.07        139.8 
       881.0         0.17        137.0 
       882.0         0.13        133.0 
       883.0         0.17        128.5 
       884.0         0.17        122.8 
       885.0         0.17        120.2 
       886.0         0.13        119.0 
       887.0         0.17        118.4 
       888.0         0.20        117.2 
       889.0         0.20        115.6 
       890.0         0.17        113.2 
       891.0         0.20        113.2 
       892.0         0.20        111.5 
       893.0         0.28        109.9 
       894.0         0.17        106.6 
       895.0         0.17        102.6 
       896.0         6.27        377.6 
       897.0         0.50         67.6 
       898.0         0.10         67.6 
       899.0         0.23         72.1 
       900.0         0.10         74.6 
       901.0         0.33         82.2 
       902.0         0.10         82.2 
       903.0         0.13         86.5 
       904.0         0.10         86.5 
