~Version Information
VERS.                      2.0: CWLS Log ASCII Standard - VERSION 2.0
WRAP.                       NO: One line per depth step
~Well Information Block
STRT.FT               520.0000: 
STOP.FT              1105.5000: 
STEP.FT                 0.1000: 
NULL.                -999.2500: 
COMP.          Pioneer Natural Resources: COMPANY
WELL.            Redland 23-24: WELL
FLD.           Purgatoire River: FIELD
LOC.           2356' FSL & 1880' FWL: LOCATION
PROV.                 Colorado: PROVINCE
CNTY.               Las Animas: COUNTRY
SRVC.                Patterson: SERVICE COMPANY
DATE.          Mon Mar 21 07:08:20 2005: LOG DATE
UWI.           05 071 08221 00: UNIQUE WELL ID
~Curve Information Block
DEPT.FT            0 000 00 00: Depth
DCAL.in                       : CDL Caliper
RHOB.g/cc                     : CDL Bulk Density
RHOC.g/cc                     : CDL Density Correction
DPOR.pu                       : CDL Density Porosity
GR.GAPI                       : Gamma Ray
NPOR.pu                       : Neutron Porosity
~Parameter Information Block
~A  Depth       DCAL        RHOB        RHOC        DPOR         GR         NPOR    
# ...
   712.0000      7.8914      2.5964      0.0429      3.2474     70.3539     21.8807
   712.1000      7.8914      2.6097      0.0679      2.4432     70.9341     21.8502
   712.2000      7.8914      2.6058      0.0015      2.6800     73.2235     21.0866
   712.3000      7.9068      2.5827      0.0626      4.0772     75.8395     20.6847
   712.4000      7.9068      2.5411      0.0290      6.6000     75.1596     20.8162
   712.5000      7.9265      2.4927     -0.0040      9.5323     71.3082     20.7902
   712.6000      7.9265      2.4590     -0.0050     11.5738     67.2766     19.9998
   712.7000      7.9265      2.4563     -0.0402     11.7420     64.4575     19.1471
   712.8000      7.9536      2.4835      0.0412     10.0899     61.4345     19.4485
   712.9000      7.9536      2.5153      0.0299      8.1659     56.0998     20.5159
   713.0000      7.9354      2.5351      0.0569      6.9656     49.0821     20.9778
   713.1000      7.9354      2.5491      0.0881      6.1175     44.2922     21.0258
   713.2000      7.9354      2.5600      0.1132      5.4516     44.9890     21.3297
   713.3000      7.9224      2.5637      0.0919      5.2297     49.0527     21.0042
   713.4000      7.9224      2.5650      0.0938      5.1520     51.3280     19.9652
   713.5000      7.8436      2.5694      0.0778      4.8850     48.7972     19.5492
   713.6000      7.8436      2.5678      0.0994      4.9837     42.9592     19.9232
   713.7000      7.8436      2.5496      0.0292      6.0830     38.3294     20.2330
   713.8000      7.8202      2.5231      0.0042      7.6937     37.4288     19.7538
   713.9000      7.8202      2.5087     -0.0150      8.5610     38.6837     18.3176
   714.0000      7.8327      2.5271     -0.0920      7.4461     39.4362     16.8417
   714.1000      7.8327      2.5715      0.0470      4.7592     39.5350     16.2260
   714.2000      7.8327      2.5966      0.0626      3.2375     39.1870     16.3918
   714.3000      7.8595      2.5777      0.0381      4.3848     37.8116     16.8879
   714.4000      7.8595      2.5371     -0.0089      6.8413     37.8109     17.2526
   714.5000      7.9036      2.5035      0.0097      8.8783     41.6302     16.9991
   714.6000      7.9036      2.4881     -0.0435      9.8107     46.4264     16.2533
   714.7000      7.9036      2.4960     -0.0564      9.3341     49.7576     15.7073
   714.8000      7.9366      2.5193      0.0096      7.9220     51.9427     15.7654
   714.9000      7.9366      2.5364      0.0147      6.8874     52.5184     16.6191
   715.0000      7.9394      2.5400      0.0285      6.6661     50.5813     17.6772
   715.1000      7.9394      2.5421      0.0020      6.5418     47.1727     17.8096
   715.2000      7.9394      2.5464      0.0504      6.2798     44.3687     17.1425
   715.3000      7.9102      2.5461      0.0335      6.2948     43.2871     16.4484
   715.4000      7.9102      2.5434     -0.0014      6.4596     42.9058     15.9812
   715.5000      7.8715      2.5400      0.0281      6.6654     43.3630     16.2579
   715.6000      7.8715      2.5315     -0.0038      7.1827     45.3285     17.5117
   715.7000      7.8715      2.5207      0.0253      7.8358     46.4682     18.8618
   715.8000      7.8555      2.5137      0.0216      8.2605     45.6454     19.3646
   715.9000      7.8555      2.5103     -0.0021      8.4655     44.7478     19.1470
   716.0000      7.8612      2.5032      0.0520      8.8990     44.6337     18.9438
   716.1000      7.8612      2.4951     -0.0273      9.3893     44.5711     19.1201
   716.2000      7.8612      2.4995     -0.0250      9.1202     45.6069     19.2318
   716.3000      7.8761      2.5113      0.0316      8.4062     47.7596     18.4118
   716.4000      7.8761      2.5201      0.0032      7.8702     49.6523     16.7808
   716.5000      7.9134      2.5326     -0.0070      7.1156     50.6187     15.5518
   716.6000      7.9134      2.5524      0.0325      5.9169     50.3315     15.6675
   716.7000      7.9134      2.5680      0.0331      4.9713     49.3786     16.8136
   716.8000      7.9244      2.5689      0.0418      4.9140     48.3408     17.7739
   716.9000      7.9244      2.5594     -0.0001      5.4895     47.4425     17.8150
   717.0000      7.9039      2.5513      0.0395      5.9813     47.8257     17.4001
   717.1000      7.9039      2.5486      0.0072      6.1428     48.4604     17.2701
   717.2000      7.9039      2.5473      0.0505      6.2218     47.8196     17.4535
   717.3000      7.9092      2.5330      0.0623      7.0902     46.7160     17.5646
   717.4000      7.9092      2.4993     -0.0093      9.1306     46.7054     17.6410
   717.5000      7.9071      2.4715     -0.0625     10.8163     48.5085     17.6881
   717.6000      7.9071      2.4823     -0.0208     10.1623     49.3619     17.2611
   717.7000      7.9071      2.5288      0.0433      7.3436     47.3858     16.2872
   717.8000      7.9112      2.5790      0.0629      4.3061     45.5936     15.3922
   717.9000      7.9112      2.6138      0.0515      2.1942     46.2092     15.1822
   718.0000      7.9185      2.6354      0.0303      0.8857     47.6831     15.6258
   718.1000      7.9185      2.6458      0.0362      0.2571     48.4360     16.0197
   718.2000      7.9185      2.6455      0.0877      0.2712     49.0389     15.8631
   718.3000      7.9215      2.6393      0.0585      0.6491     51.3223     15.5307
   718.4000      7.9215      2.6335      0.0316      0.9988     56.6533     15.6816
   718.5000      7.8947      2.6311      0.0634      1.1466     61.2177     16.5547
   718.6000      7.8947      2.6229      0.0705      1.6400     60.3593     17.6561
   718.7000      7.8947      2.6061      0.0034      2.6635     58.5250     18.0566
   718.8000      7.8529      2.5935      0.0555      3.4239     59.4362     17.8698
   718.9000      7.8529      2.5872      0.0049      3.8076     60.7044     18.1081
   719.0000      7.8550      2.5772      0.0546      4.4121     62.3716     18.8257
   719.1000      7.8550      2.5615      0.0209      5.3637     64.1697     19.3882
   719.2000      7.8550      2.5493     -0.0013      6.1036     63.9164     19.5593
   719.3000      7.8530      2.5439      0.0445      6.4283     61.7727     19.4414
   719.4000      7.8530      2.5377      0.0478      6.8034     59.4975     19.1180
   719.5000      7.8633      2.5308      0.0480      7.2236     60.3375     19.0141
   719.6000      7.8633      2.5238      0.0224      7.6510     62.9788     19.5747
   719.7000      7.8633      2.5161      0.0096      8.1179     60.7329     20.3197
   719.8000      7.9023      2.5164     -0.0186      8.0969     55.1107     20.6180
   719.9000      7.9023      2.5247      0.0530      7.5946     53.0930     20.8116
   720.0000      7.8859      2.5303      0.0318      7.2534     54.3185     21.0876
   720.1000      7.8859      2.5346      0.0335      6.9920     54.7604     21.4062
   720.2000      7.8859      2.5428      0.0287      6.4984     55.2707     21.8707
   720.3000      7.9094      2.5499      0.0609      6.0675     58.8569     22.4384
   720.4000      7.9094      2.5492      0.0495      6.1094     64.7728     22.5239
   720.5000      7.9079      2.5414      0.0530      6.5805     68.5112     21.8267
   720.6000      7.9079      2.5311      0.0618      7.2064     66.9202     21.1649
   720.7000      7.9079      2.5209      0.0633      7.8238     62.1720     21.0570
   720.8000      7.9039      2.5151      0.0470      8.1731     58.3223     21.2765
   720.9000      7.9039      2.5265      0.0108      7.4848     55.6272     21.6316
   721.0000      7.8856      2.5497      0.0892      6.0814     53.4641     21.7047
   721.1000      7.8856      2.5551      0.0439      5.7499     53.0912     21.1686
   721.2000      7.8856      2.5398      0.0342      6.6816     55.3690     20.7007
   721.3000      7.9020      2.5260      0.0287      7.5152     59.6120     21.2471
   721.4000      7.9020      2.5235      0.0655      7.6682     63.2617     22.3313
   721.5000      7.8907      2.5289     -0.0066      7.3422     64.3282     22.6608
