~Version Information
VERS.                      2.0: CWLS Log ASCII Standard - VERSION 2.0
WRAP.                       NO: One line per depth step
~Well Information Block
STRT.FT                -7.0000: 
STOP.FT              2736.0000: 
STEP.FT                 0.2500: 
NULL.                -999.2500: 
COMP.          Pioneer Natural Resources: COMPANY
WELL.              Getem 21-23: WELL
FLD.           Purgatorie River: FIELD
LOC.           2623' FWL & 790' FNL----: LOCATION
PROV.                       CO: PROVINCE
CNTY.               Las Animas: COUNTRY
SRVC.          Patterson Wireline: SERVICE COMPANY
DATE.          Mon Jun 27 09:57:55 2005: LOG DATE
UWI.           05 071 08411 00: UNIQUE WELL ID
~Curve Information Block
DEPT.FT            0 000 00 00: Depth
CCL.                          : Casing Collar Locator
TT3.usec                      : CBL 3' Travel Time
AMP3.mV                       : CBL 3' Amplitude
GR.GAPI                       : Gamma Ray
~Parameter Information Block
~A  Depth       CCL         TT3         AMP3         GR     
# ...
  1634.5000      0.0000    819.8452      5.6864     69.9740
  1634.7500      0.0000    816.9024      5.6194     71.1052
  1635.0000      0.0000    817.1478      5.4616     69.8157
  1635.2500      0.0000    820.6358      5.2772     68.2016
  1635.5000      0.0000    826.6764      5.1586     69.4151
  1635.7500      0.0000    833.7880      5.1530     75.7355
  1636.0000      0.0000    840.1270      5.2308     86.9553
  1636.2500      0.0000    844.4548      5.3357    100.3925
  1636.5000      0.0000    846.6682      5.4349    112.6570
  1636.7500      0.0000    847.3909      5.4997    121.7634
  1637.0000      0.0000    847.1381      5.4845    127.8819
  1637.2500      0.0000    845.5988      5.3711    132.4471
  1637.5000      0.0000    841.1876      5.2138    136.8058
  1637.7500      0.0000    831.2712      5.0996    141.2981
  1638.0000      0.0000    813.9940      5.0677    144.9101
  1638.2500      0.0000    791.1270      5.0869    145.8137
  1638.5000      0.0000    768.6039      5.0972    143.0083
  1638.7500      0.0000    752.9452      5.0510    137.7090
  1639.0000      0.0000    747.5284      4.9351    132.7467
  1639.2500      0.0000    752.8113      4.7901    130.4560
  1639.5000      0.0000    767.6035      4.7050    131.1870
  1639.7500      0.0000    788.0025      4.7593    133.4072
  1640.0000      0.0000    807.4827      4.9480    134.9250
  1640.2500      0.0000    820.7575      5.1711    134.4363
  1640.5000      0.0000    826.8127      5.3163    132.5690
  1640.7500      0.0000    827.4576      5.3536    131.5034
  1641.0000      0.0000    824.5389      5.3476    133.2011
  1641.2500      0.0000    819.4275      5.3849    137.6909
  1641.5000      0.0000    813.6158      5.4953    143.1271
  1641.7500      0.0000    808.2454      5.6348    147.5064
  1642.0000      0.0000    803.0724      5.7282    150.0701
  1642.2500      0.0000    796.4084      5.7218    151.0902
  1642.5000      0.0000    786.5169      5.6161    150.6864
  1642.7500      0.0000    773.5739      5.4702    148.1524
  1643.0000      0.0000    760.1927      5.3729    142.7032
  1643.2500      0.0000    749.0699      5.3820    134.8007
  1643.5000      0.0000    739.7299      5.4755    126.0830
  1643.7500      0.0000    728.0825      5.5674    117.5989
  1644.0000      0.0000    709.9048      5.5742    108.8064
  1644.2500      0.0000    685.7565      5.4757     98.9302
  1644.5000      0.0000    663.2763      5.3296     88.8528
  1644.7500      0.0000    653.0848      5.2361     81.1235
  1645.0000      0.0000    659.8965      5.2781     78.3278
  1645.2500      0.0000    678.0552      5.4802     81.6166
  1645.5000      0.0000    697.0893      5.8067     90.3622
  1645.7500      0.0000    710.2540      6.1797    102.5082
  1646.0000      0.0000    716.8989      6.5033    114.9281
  1646.2500      0.0000    719.2860      6.6992    123.9727
  1646.5000      0.0000    719.5214      6.7380    126.7242
  1646.7500      0.0000    718.7861      6.6399    122.5248
  1647.0000      0.0000    717.7158      6.4469    113.3133
  1647.2500      0.0000    716.8317      6.1952    102.3119
  1647.5000      0.0000    716.8606      5.9072     92.5316
  1647.7500      0.0000    718.7280      5.5979     86.3487
  1648.0000      0.0000    723.0676      5.2819     85.5457
  1648.2500      0.0000    729.3549      4.9778     90.7091
  1648.5000      0.0000    735.6433      4.7142    100.5456
  1648.7500      0.0000    739.8405      4.5261    112.3895
  1649.0000      0.0000    741.8593      4.4414    123.6667
  1649.2500      0.0000    744.3084      4.4769    132.6517
  1649.5000      0.0000    750.3426      4.6404    137.8986
  1649.7500      0.0000    760.4761      4.9172    137.9712
  1650.0000      0.0000    771.7822      5.2554    132.7493
  1650.2500      0.0000    780.4020      5.5883    124.6697
  1650.5000      0.0000    784.4786      5.8802    117.5969
  1650.7500      0.0000    784.3152      6.1335    114.3270
  1651.0000      0.0000    780.1281      6.3516    115.4875
  1651.2500      0.0000    770.3122      6.5259    120.2159
  1651.5000      0.0000    752.0378      6.6570    126.9538
  1651.7500      0.0000    723.9222      6.7541    133.8748
  1652.0000      0.0000    689.4691      6.8051    139.4471
  1652.2500      0.0000    658.5365      6.7710    142.7697
  1652.5000      0.0000    643.2510      6.6303    143.4369
  1652.7500      0.0000    649.8842      6.4255    141.6242
  1653.0000      0.0000    674.6696      6.2415    138.4031
  1653.2500      0.0000    708.4197      6.1180    135.3772
  1653.5000      0.0000    743.9442      6.0046    133.6784
  1653.7500      0.0000    777.5013      5.8326    133.2490
  1654.0000      0.0000    805.5706      5.6009    132.8538
  1654.2500      0.0000    824.1417      5.3565    130.9295
  1654.5000      0.0000    831.3854      5.1290    127.1125
  1654.7500      2.0000    829.3655      4.9283    123.2100
  1655.0000      2.0000    823.1133      4.7842    122.0493
  1655.2500      0.0000    817.8882      4.7583    124.7779
  1655.5000      0.0000    816.2294      4.9173    129.4461
  1655.7500      0.0000    817.4766      5.2881    132.6773
  1656.0000      0.0000    820.2031      5.8146    132.7325
  1656.2500      0.0000    823.7064      6.3621    130.6246
  1656.5000      0.0000    826.2855      6.7957    128.4096
  1656.7500      0.0000    823.4285      7.0597    127.2819
  1657.0000      0.0000    809.6011      7.1766    127.5779
  1657.2500      0.0000    783.3165      7.1906    129.4960
  1657.5000      0.0000    750.8243      7.1238    132.8625
  1657.7500      0.0000    722.8703      6.9727    136.7552
  1658.0000      0.0000    705.2662      6.7371    140.0619
  1658.2500      0.0000    693.2641      6.4557    142.1680
  1658.5000      0.0000    676.8645      6.2031    142.8710
  1658.7500      0.0000    650.7592      6.0357    142.0420
  1659.0000      0.0000    618.3582      5.9346    139.7527
  1659.2500      0.0000    588.8185      5.8169    136.7183
  1659.5000      0.0000    572.0865      5.6132    134.3591
  1659.7500      0.0000    574.0215      5.3361    133.8524
  1660.0000      0.0000    592.6929      5.0723    134.7923
  1660.2500      0.0000    619.6822      4.9010    135.1456
  1660.5000      0.0000    646.3745      4.8249    133.0324
  1660.7500      0.0000    669.2083      4.7883    128.6601
  1661.0000      0.0000    690.4595      4.7538    124.3236
  1661.2500      0.0000    715.1074      4.7327    122.4199
  1661.5000      0.0000    745.1937      4.7439    123.6686
  1661.7500      0.0000    776.1658      4.7833    127.2029
  1662.0000      0.0000    799.9065      4.8466    131.5759
  1662.2500      0.0000    811.6962      4.9604    135.2010
  1662.5000      0.0000    813.4622      5.1659    136.5575
  1662.7500      0.0000    811.1392      5.4758    135.0002
  1663.0000      0.0000    810.2652      5.8574    131.6321
  1663.2500      0.0000    813.6221      6.2514    128.9557
  1663.5000      0.0000    821.0435      6.5966    129.1240
  1663.7500      0.0000    830.3359      6.8434    132.0650
  1664.0000      0.0000    838.7860      6.9646    135.2524
  1664.2500      0.0000    844.6959      6.9684    135.7550
  1664.5000      0.0000    847.9306      6.9052    132.8863
  1664.7500      0.0000    849.3024      6.8450    128.7927
  1665.0000      0.0000    849.6599      6.8317    126.5182
  1665.2500      0.0000    849.4063      6.8468    127.6251
  1665.5000      0.0000    848.4312      6.8152    131.4164
  1665.7500      0.0000    846.2618      6.6450    135.7802
  1666.0000      0.0000    842.1886      6.2797    138.4583
  1666.2500      0.0000    835.0389      5.7364    137.9955
  1666.5000      0.0000    822.6748      5.1133    134.0566
  1666.7500      0.0000    802.5788      4.5552    126.9984
  1667.0000      0.0000    774.4197      4.1955    117.4101
  1667.2500      0.0000    741.5487      4.1085    106.2212
  1667.5000      0.0000    707.6232      4.2929     94.8113
  1667.7500      0.0000    672.8234      4.6765     84.5938
