~Version Information
VERS.                      2.0: CWLS Log ASCII Standard - VERSION 2.0
WRAP.                       NO: One line per depth step
~Well Information Block
STRT.FT                -4.2500: 
STOP.FT              2500.7500: 
STEP.FT                 0.2500: 
NULL.                -999.2500: 
COMP.          Pioneer Natural Resources: COMPANY
WELL.          Cock-a-doodle-doo 44-27: WELL
FLD.           Purgatoire River: FIELD
LOC.           163' FSL & 54' FEL--: LOCATION
PROV.                 Colorado: PROVINCE
CNTY.               Las Animas: COUNTRY
SRVC.                Patterson: SERVICE COMPANY
DATE.          Wed Jul 06 10:56:34 2005: LOG DATE
UWI.                071 08429 : UNIQUE WELL ID
~Curve Information Block
DEPT.FT            0 000 00 00: Depth
CCL.                          : Casing Collar Locator
TT3.usec                      : CBL 3' Travel Time
AMP3.mV                       : CBL 3' Amplitude
GR.GAPI                       : Gamma Ray
~Parameter Information Block
~A  Depth       CCL         TT3         AMP3         GR     
# ...
  1000.7500      0.0000    721.0128     11.1135     72.9884
  1001.0000      0.0000    730.1863     11.1943     70.4222
  1001.2500      0.0000    735.7399     11.2489     68.7340
  1001.5000      0.0000    738.2641     11.2828     68.1283
  1001.7500      0.0000    739.0835     11.2979     68.8276
  1002.0000      0.0000    739.2395     11.2927     71.0302
  1002.2500      0.0000    739.1996     11.2712     74.4472
  1002.5000      0.0000    738.9526     11.2512     78.0981
  1002.7500      0.0000    738.0858     11.2575     80.5829
  1003.0000      0.0000    735.8831     11.3039     80.8326
  1003.2500      0.0000    731.7346     11.3873     78.9666
  1003.5000      0.0000    725.8786     11.5088     76.2760
  1003.7500      0.0000    719.7344     11.6994     74.0564
  1004.0000      0.0000    714.9899     12.0083     72.5698
  1004.2500      0.0000    712.0753     12.4575     71.2575
  1004.5000      0.0000    709.6942     13.0208     69.6859
  1004.7500      0.0000    705.8687     13.6524     68.0407
  1005.0000      0.0000    698.9091     14.3212     66.6847
  1005.2500      0.0000    687.7600     14.9985     65.4707
  1005.5000      0.0000    673.2927     15.6248     63.8963
  1005.7500      0.0000    660.2018     16.1105     61.9230
  1006.0000      0.0000    655.5334     16.3783     60.1456
  1006.2500      0.0000    662.9074     16.4073     59.0465
  1006.5000      0.0000    678.4351     16.2400     58.5457
  1006.7500      0.0000    693.0314     15.9480     58.3964
  1007.0000      0.0000    697.5714     15.5883     58.6153
  1007.2500      0.0000    686.0435     15.1918     59.2947
  1007.5000      0.0000    657.8577     14.7882     60.1460
  1007.7500      0.0000    620.7696     14.4290     60.5176
  1008.0000      0.0000    589.6611     14.1595     60.0337
  1008.2500      0.0000    576.3617     13.9607     59.0626
  1008.5000      0.0000    578.4744     13.7398     58.4409
  1008.7500      0.0000    582.0486     13.3927     58.8742
  1009.0000      0.0000    576.8724     12.8605     60.5587
  1009.2500      0.0000    566.0727     12.1389     63.1169
  1009.5000      0.0000    560.9503     11.2935     65.8208
  1009.7500      0.0000    570.9324     10.4704     68.0129
  1010.0000      0.0000    598.3834      9.8242     69.5153
  1010.2500      0.0000    638.0639      9.4097     70.8581
  1010.5000     -2.0000    679.3013      9.1682     73.2156
  1010.7500      2.0000    710.0367      9.0077     77.8419
  1011.0000      0.0000    721.0745      8.8774     85.0929
  1011.2500      0.0000    710.6579      8.7907     93.8207
  1011.5000      0.0000    687.9697      8.8051    101.9504
  1011.7500      0.0000    669.5534      8.9668    107.9067
  1012.0000      0.0000    668.2753      9.2557    111.4192
  1012.2500      0.0000    684.9155      9.5963    112.9431
  1012.5000      0.0000    710.2654      9.9182    112.6553
  1012.7500      0.0000    733.3608     10.1926    110.3593
  1013.0000      0.0000    747.1514     10.4210    106.3133
  1013.2500      0.0000    749.0754     10.6171    101.6943
  1013.5000      0.0000    739.4246     10.7988     97.7778
  1013.7500      0.0000    719.8557     10.9768     94.7963
  1014.0000      0.0000    693.2946     11.1460     92.1884
  1014.2500      0.0000    665.3105     11.2880     89.8474
  1014.5000      0.0000    644.0072     11.3867     88.3351
  1014.7500      0.0000    635.3925     11.4452     87.7747
  1015.0000      0.0000    638.3141     11.4881     87.3645
  1015.2500      0.0000    645.9872     11.5433     86.3631
  1015.5000      0.0000    652.1768     11.6211     85.1914
  1015.7500      0.0000    654.3251     11.7119     85.3662
  1016.0000      0.0000    652.6685     11.7993     88.4439
  1016.2500      0.0000    649.5656     11.8708     94.7897
  1016.5000      0.0000    649.7097     11.9195    102.9203
  1016.7500      0.0000    657.5450     11.9395    110.1254
  1017.0000      0.0000    671.6220     11.9222    114.1551
  1017.2500      0.0000    682.8643     11.8613    114.4883
  1017.5000      0.0000    681.4639     11.7629    112.0879
  1017.7500      0.0000    666.0104     11.6486    108.1748
  1018.0000      0.0000    645.0920     11.5449    103.2733
  1018.2500      0.0000    628.9839     11.4702     97.4036
  1018.5000      0.0000    618.7457     11.4322     91.2534
  1018.7500      0.0000    604.5661     11.4338     86.8000
  1019.0000      0.0000    576.8150     11.4741     86.1600
  1019.2500      0.0000    537.8656     11.5384     89.8151
  1019.5000      0.0000    501.6065     11.5918     96.3352
  1019.7500      0.0000    482.5376     11.5974    103.6665
  1020.0000      0.0000    486.7118     11.5423    110.3379
  1020.2500      0.0000    511.3140     11.4405    115.6539
  1020.5000      0.0000    548.7480     11.3145    119.1855
  1020.7500      0.0000    588.8641     11.1805    120.4892
  1021.0000      0.0000    620.3890     11.0514    119.7286
  1021.2500      0.0000    635.3602     10.9458    118.4806
  1021.5000      0.0000    633.3453     10.8894    119.1628
  1021.7500      0.0000    619.7001     10.8996    123.1703
  1022.0000      0.0000    600.4171     10.9677    129.7625
  1022.2500      0.0000    579.7491     11.0633    136.8158
  1022.5000      0.0000    560.5610     11.1589    142.3061
  1022.7500      0.0000    543.7500     11.2415    145.2631
  1023.0000      0.0000    526.7914     11.3026    145.8951
  1023.2500      0.0000    504.9182     11.3306    144.9453
  1023.5000      0.0000    475.7216     11.3220    142.8090
  1023.7500      0.0000    442.6555     11.2907    139.3087
  1024.0000      0.0000    412.9725     11.2572    134.2944
  1024.2500      0.0000    392.1029     11.2324    128.3636
  1024.5000      0.0000    380.5410     11.2138    122.7227
  1024.7500      0.0000    375.4158     11.1959    118.1793
  1025.0000      0.0000    373.5769     11.1788    114.5642
  1025.2500      0.0000    373.1126     11.1671    111.3292
  1025.5000      0.0000    373.1754     11.1649    108.3634
  1025.7500      0.0000    373.3694     11.1765    106.1668
  1026.0000      0.0000    373.4681     11.2063    105.5758
  1026.2500      0.0000    373.4427     11.2501    107.2269
  1026.5000      0.0000    373.7457     11.2903    110.7811
  1026.7500      0.0000    375.8495     11.3070    114.6077
  1027.0000      0.0000    383.0057     11.2974    116.7002
  1027.2500      0.0000    400.1159     11.2805    116.2243
  1027.5000      0.0000    430.9364     11.2760    114.1356
  1027.7500      0.0000    473.1467     11.2850    112.2837
  1028.0000      0.0000    516.2816     11.2957    111.9901
  1028.2500      0.0000    546.4455     11.3039    113.3624
  1028.5000      0.0000    553.9407     11.3193    115.4637
  1028.7500      0.0000    537.1119     11.3533    116.7775
  1029.0000      0.0000    501.8801     11.4063    115.8676
  1029.2500      0.0000    459.6960     11.4660    112.3617
  1029.5000      0.0000    423.7301     11.5215    107.6570
  1029.7500      0.0000    404.0254     11.5787    104.4666
  1030.0000      0.0000    405.0898     11.6589    105.2645
  1030.2500      0.0000    426.0756     11.7721    110.7405
  1030.5000      0.0000    460.4154     11.8904    119.4470
  1030.7500      0.0000    496.2043     11.9474    128.9017
  1031.0000      0.0000    521.6377     11.8616    137.1120
  1031.2500      0.0000    533.1297     11.5664    143.0683
  1031.5000      0.0000    537.8380     11.0390    146.0379
  1031.7500      0.0000    547.4323     10.3213    145.0302
  1032.0000      0.0000    568.7424      9.5181    139.3317
  1032.2500      0.0000    599.0349      8.7607    129.2413
  1032.5000      0.0000    629.2330      8.1480    115.9271
  1032.7500      0.0000    651.5305      7.7036    100.9048
  1033.0000      0.0000    664.3046      7.3787     86.1526
  1033.2500      0.0000    670.8748      7.1046     74.5454
  1033.5000      0.0000    674.9954      6.8530     69.2069
  1033.7500      0.0000    677.9453      6.6475     71.5018
  1034.0000      0.0000    679.0018      6.5231     79.5377
