~Version Information
VERS.                      2.0: CWLS Log ASCII Standard - VERSION 2.0
WRAP.                       NO: One line per depth step
~Well Information Block
STRT.FT               660.8000: 
STOP.FT              2375.1000: 
STEP.FT                 0.1000: 
NULL.                -999.2500: 
COMP.          Petrogulf Corporation: COMPANY
WELL.             State 16-34V: WELL
FLD.           Purgatorie River: FIELD
LOC.           1146' FSL & 1393' FEL: LOCATION
CNTY.               Las Animas: COUNTY
SRVC.                         : SERVICE COMPANY
DATE.          Sat Jun 07 20:51:20 2003: LOG DATE
UWI.           05 071 07724 00: UNIQUE WELL ID
STAT.                 Colorado: STATE
~Curve Information Block
DEPT.FT            0 000 00 00: Depth
DCAL.in                       : Caliper from Density Tool
RHOB.g/cc                     : Bulk Density
RHOC.g/cc                     : Density Correction
DPOR.pu                       : Density Porosity
GR.GAPI                       : Gamma Ray
NPOR.pu                       : Neutron Porosity
~Parameter Information Block
~A  Depth       DCAL        RHOB        RHOC        DPOR         GR         NPOR    
# ...
  2024.0000      8.0505      2.4380      0.0368     12.8487    116.4426     23.6484
  2024.1000      8.0505      2.4380      0.0368     12.8487    116.9810     23.6260
  2024.2000      8.0505      2.4380      0.0368     12.8487    117.5265     23.6158
  2024.3000      8.0762      2.4504      0.0463     12.0970    118.0683     23.6202
  2024.4000      8.0762      2.4504      0.0463     12.0970    118.5889     23.6381
  2024.5000      8.0380      2.4610      0.0578     11.4570    119.0672     23.6653
  2024.6000      8.0380      2.4610      0.0578     11.4570    119.4773     23.6948
  2024.7000      8.0380      2.4610      0.0578     11.4570    119.7893     23.7178
  2024.8000      7.9894      2.4766      0.0812     10.5095    119.9735     23.7250
  2024.9000      7.9894      2.4766      0.0812     10.5095    120.0065     23.7079
  2025.0000      7.9862      2.4848      0.0996     10.0105    119.8764     23.6598
  2025.1000      7.9862      2.4848      0.0996     10.0105    119.5873     23.5762
  2025.2000      7.9862      2.4848      0.0996     10.0105    119.1595     23.4545
  2025.3000      7.9954      2.4913      0.1285      9.6208    118.6308     23.2946
  2025.4000      7.9954      2.4913      0.1285      9.6208    118.0492     23.0972
  2025.5000      7.9607      2.4906      0.1462      9.6627    117.4670     22.8642
  2025.6000      7.9607      2.4906      0.1462      9.6627    116.9328     22.5984
  2025.7000      7.9607      2.4906      0.1462      9.6627    116.4831     22.3035
  2025.8000      7.9167      2.4813      0.1650     10.2214    116.1401     21.9847
  2025.9000      7.9167      2.4813      0.1650     10.2214    115.9094     21.6493
  2026.0000      7.9521      2.4704      0.1701     10.8863    115.7831     21.3067
  2026.1000      7.9521      2.4704      0.1701     10.8863    115.7435     20.9686
  2026.2000      7.9521      2.4704      0.1701     10.8863    115.7679     20.6479
  2026.3000      8.0422      2.4502      0.1657     12.1067    115.8327     20.3579
  2026.4000      8.0422      2.4502      0.1657     12.1067    115.9175     20.1105
  2026.5000      8.1350      2.4376      0.1567     12.8706    116.0057     19.9148
  2026.6000      8.1350      2.4376      0.1567     12.8706    116.0845     19.7765
  2026.7000      8.1350      2.4376      0.1567     12.8706    116.1448     19.6971
  2026.8000      8.2277      2.4257      0.1407     13.5962    116.1822     19.6742
  2026.9000      8.2277      2.4257      0.1407     13.5962    116.1980     19.7022
  2027.0000      8.2764      2.4242      0.1327     13.6865    116.1988     19.7741
  2027.1000      8.2764      2.4242      0.1327     13.6865    116.1982     19.8824
  2027.2000      8.2764      2.4242      0.1327     13.6865    116.2182     20.0207
  2027.3000      8.3005      2.4303      0.1301     13.3137    116.2856     20.1843
  2027.4000      8.3005      2.4303      0.1301     13.3137    116.4284     20.3704
  2027.5000      8.2836      2.4370      0.1356     12.9074    116.6722     20.5777
  2027.6000      8.2836      2.4370      0.1356     12.9074    117.0325     20.8054
  2027.7000      8.2836      2.4370      0.1356     12.9074    117.5134     21.0520
  2027.8000      8.2665      2.4452      0.1536     12.4140    118.1034     21.3144
  2027.9000      8.2665      2.4452      0.1536     12.4140    118.7792     21.5873
  2028.0000      8.2512      2.4469      0.1702     12.3070    119.5066     21.8623
  2028.1000      8.2512      2.4469      0.1702     12.3070    120.2490     22.1284
  2028.2000      8.2512      2.4469      0.1702     12.3070    120.9718     22.3727
  2028.3000      8.2208      2.4415      0.1986     12.6366    121.6467     22.5809
  2028.4000      8.2208      2.4415      0.1986     12.6366    122.2549     22.7389
  2028.5000      8.1896      2.4309      0.2177     13.2778    122.7906     22.8330
  2028.6000      8.1896      2.4309      0.2177     13.2778    123.2575     22.8520
  2028.7000      8.1896      2.4309      0.2177     13.2778    123.6660     22.7874
  2028.8000      8.2215      2.4015      0.2433     15.0627    124.0295     22.6345
  2028.9000      8.2215      2.4015      0.2433     15.0627    124.3615     22.3927
  2029.0000      8.3374      2.3716      0.2566     16.8708    124.6707     22.0660
  2029.1000      8.3374      2.3716      0.2566     16.8708    124.9613     21.6633
  2029.2000      8.3374      2.3716      0.2566     16.8708    125.2319     21.1971
  2029.3000      8.5438      2.3133      0.2691     20.4078    125.4782     20.6834
  2029.4000      8.5438      2.3133      0.2691     20.4078    125.6927     20.1395
  2029.5000      8.7588      2.2688      0.2722     23.1048    125.8667     19.5831
  2029.6000      8.7588      2.2688      0.2722     23.1048    125.9895     19.0305
  2029.7000      8.7588      2.2688      0.2722     23.1048    126.0490     18.4953
  2029.8000      9.0195      2.2017      0.2686     27.1713    126.0290     17.9870
  2029.9000      9.0195      2.2017      0.2686     27.1713    125.9062     17.5117
  2030.0000      9.3156      2.1606      0.2605     29.6607    125.6516     17.0716
  2030.1000      9.3156      2.1606      0.2605     29.6607    125.2295     16.6664
  2030.2000      9.3156      2.1606      0.2605     29.6607    124.6046     16.2940
  2030.3000      9.2388      2.1076      0.2380     32.8750    123.7480     15.9524
  2030.4000      9.2388      2.1076      0.2380     32.8750    122.6440     15.6402
  2030.5000      8.7356      2.0779      0.2160     34.6726    121.2980     15.3580
  2030.6000      8.7356      2.0779      0.2160     34.6726    119.7404     15.1084
  2030.7000      8.7356      2.0779      0.2160     34.6726    118.0254     14.8963
  2030.8000      8.3643      2.0408      0.1763     36.9194    116.2274     14.7271
  2030.9000      8.3643      2.0408      0.1763     36.9194    114.4307     14.6059
  2031.0000      8.3467      2.0201      0.1507     38.1773    112.7189     14.5347
  2031.1000      8.3467      2.0201      0.1507     38.1773    111.1636     14.5111
  2031.2000      8.3467      2.0201      0.1507     38.1773    109.8161     14.5270
  2031.3000      8.4791      1.9905      0.1254     39.9702    108.7000     14.5671
  2031.4000      8.4791      1.9905      0.1254     39.9702    107.8110     14.6098
  2031.5000      8.4901      1.9664      0.1227     41.4292    107.1184     14.6283
  2031.6000      8.4901      1.9664      0.1227     41.4292    106.5708     14.5933
  2031.7000      8.4901      1.9664      0.1227     41.4292    106.1032     14.4762
  2031.8000      8.3136      1.9130      0.1400     44.6686    105.6435     14.2523
  2031.9000      8.3136      1.9130      0.1400     44.6686    105.1220     13.9043
  2032.0000      8.2370      1.8629      0.1603     47.7004    104.4751     13.4245
  2032.1000      8.2370      1.8629      0.1603     47.7004    103.6523     12.8163
  2032.2000      8.2370      1.8629      0.1603     47.7004    102.6178     12.0944
  2032.3000      8.2568      1.7711      0.1899     53.2649    101.3535     11.2832
  2032.4000      8.2568      1.7711      0.1899     53.2649     99.8593     10.4153
  2032.5000      8.2203      1.7052      0.2020     57.2600     98.1489      9.5282
  2032.6000      8.2203      1.7052      0.2020     57.2600     96.2475      8.6626
  2032.7000      8.2203      1.7052      0.2020     57.2600     94.1920      7.8594
  2032.8000      8.2143      1.6125      0.2023     62.8763     92.0246      7.1573
  2032.9000      8.2143      1.6125      0.2023     62.8763     89.7929      6.5909
  2033.0000      8.4537      1.5633      0.1911     65.8622     87.5494      6.1889
  2033.1000      8.4537      1.5633      0.1911     65.8622     85.3513      5.9722
  2033.2000      8.4537      1.5633      0.1911     65.8622     83.2617      5.9531
  2033.3000      8.8202      1.5235      0.1654     68.2742     81.3495      6.1348
  2033.4000      8.8202      1.5235      0.1654     68.2742     79.6886      6.5124
  2033.5000      8.8532      1.5285      0.1501     67.9723     78.3555      7.0731
