~Version Information
VERS.                      2.0: CWLS Log ASCII Standard - VERSION 2.0
WRAP.                       NO: One line per depth step
~Well Information Block
STRT.FT               360.0000: 
STOP.FT              1622.7500: 
STEP.FT                 0.2500: 
NULL.                -999.2500: 
COMP.          Pioneer Natural Resources: COMPANY
WELL.                Eric 42-9: WELL
FLD.           Purgatoire River: FIELD
LOC.           2050' FNL & 850' FEL: LOCATION
PROV.                 Colorado: PROVINCE
CNTY.               Las Animas: COUNTRY
SRVC.                Patterson: SERVICE COMPANY
DATE.          Sun Oct 31 17:26:46 2004: LOG DATE
UWI.           05 071 07999 00: UNIQUE WELL ID
~Curve Information Block
DEPT.FT            0 000 00 00: Depth
SN.Ohm-m                      : IEL Short Normal
SP.mV                         : IEL Spontaneous Potential
DIR.Ohm-m                     : IEL Induction Resistivity
GR.GAPI                       : Gamma Ray
~Parameter Information Block
~A  Depth        SN          SP         DIR          GR     
# ...
   862.5000   2000.0000   2100.0000      7.6044    131.4763
   862.7500   2000.0000   2100.0000      7.5409    130.9723
   863.0000   2000.0000   2100.0000      7.4905    128.7809
   863.2500   2000.0000   2100.0000      7.4578    126.3647
   863.5000   2000.0000   2100.0000      7.4474    121.1339
   863.7500   2000.0000   2100.0000      7.4613    116.7118
   864.0000   2000.0000   2100.0000      7.4979    109.8818
   864.2500   2000.0000   2100.0000      7.5547    106.2570
   864.5000   2000.0000   2100.0000      7.6343    103.5931
   864.7500   2000.0000   2100.0000      7.7442    103.9108
   865.0000   2000.0000   2100.0000      7.8937    107.2422
   865.2500   2000.0000   2100.0000      8.0884    110.9690
   865.5000   2000.0000   2100.0000      8.3279    117.5673
   865.7500   2000.0000   2100.0000      8.6068    121.4732
   866.0000   2000.0000   2100.0000      8.9175    124.4963
   866.2500   2000.0000   2100.0000      9.2517    123.9965
   866.5000   2000.0000   2100.0000      9.6027    120.0079
   866.7500   2000.0000   2100.0000      9.9667    116.1404
   867.0000   2000.0000   2100.0000     10.3445    110.2821
   867.2500   2000.0000   2100.0000     10.7410    107.0601
   867.5000   2000.0000   2100.0000     11.1620    103.7774
   867.7500   2000.0000   2100.0000     11.6081    102.6531
   868.0000   2000.0000   2100.0000     12.0674    102.5925
   868.2500   2000.0000   2100.0000     12.5099    103.6776
   868.5000   2000.0000   2100.0000     12.8926    106.6956
   868.7500   2000.0000   2100.0000     13.1770    109.0577
   869.0000   2000.0000   2100.0000     13.3497    111.7718
   869.2500   2000.0000   2100.0000     13.4328    112.4777
   869.5000   2000.0000   2100.0000     13.4731    111.8535
   869.7500   2000.0000   2100.0000     13.5209    110.6213
   870.0000   2000.0000   2100.0000     13.6101    107.8693
   870.2500   2000.0000   2100.0000     13.7506    105.4567
   870.5000   2000.0000   2100.0000     13.9343    101.2811
   870.7500   2000.0000   2100.0000     14.1493     98.5516
   871.0000   2000.0000   2100.0000     14.3917     95.0826
   871.2500   2000.0000   2100.0000     14.6678     93.0933
   871.5000   2000.0000   2100.0000     14.9872     89.9757
   871.7500   2000.0000   2100.0000     15.3536     87.5736
   872.0000   2000.0000   2100.0000     15.7586     83.6257
   872.2500   2000.0000   2100.0000     16.1817     81.0349
   872.5000   2000.0000   2100.0000     16.5910     77.6962
   872.7500   2000.0000   2100.0000     16.9465     76.1292
   873.0000   2000.0000   2100.0000     17.2070     75.3167
   873.2500   2000.0000   2100.0000     17.3429     76.0222
   873.5000   2000.0000   2100.0000     17.3477     78.8303
   873.7500   2000.0000   2100.0000     17.2409    122.2511
   874.0000   2000.0000   2100.0000     17.0563    128.8632
   874.2500     47.2014   2100.0000     16.8255    133.1554
   874.5000     22.6931   2100.0000     16.5683    138.9472
   874.7500     16.5082    -22.7004     16.2941    142.1993
   875.0000     17.6483     -8.9057     16.0098    145.8765
   875.2500     20.5732      2.5668     15.7274    147.3940
   875.5000     22.9895     11.2718     15.4640    148.1152
   875.7500     24.2658     17.3006     15.2386    147.5320
   876.0000     24.5875     21.1141     15.0697    145.3131
   876.2500     24.4738     23.3192     14.9772    143.2808
   876.5000     24.3925     24.4845     14.9855    139.9863
   876.7500     24.5853     25.0425     15.1229    137.7515
   877.0000     25.0835     25.2727     15.4179    134.1964
   877.2500     25.8192     25.3322     15.8964    131.6012
   877.5000     26.7248     25.2999     16.5788    127.4772
   877.7500     27.7729     25.2147     17.4767    124.6409
   878.0000     28.9789     25.0981     18.5845    120.0506
   878.2500     30.3970     24.9652     19.8711    116.6308
   878.5000     32.1020     24.8290     21.2804    111.3064
   878.7500     34.1421     24.6997     22.7464    107.9977
   879.0000     36.4795     24.5861     24.2128    103.3837
   879.2500     38.9660     24.4966     25.6347    100.1158
   879.5000     41.3809     24.4417     26.9618     94.4645
   879.7500     43.5126     24.4366     28.1329     90.4107
   880.0000     45.2337     24.4996     29.1035     84.7885
   880.2500     46.5255     24.6472     29.8744     81.9587
   880.5000     47.4457     24.8853     30.4786     80.0445
   880.7500     48.0712     25.2019     30.9352     80.5376
   881.0000     48.4519     25.5658     31.2235     83.3873
   881.2500     48.5923     25.9348     31.3062     86.1208
   881.5000     48.4660     26.2695     31.1693     90.6760
   881.7500     48.0514     26.5454     30.8356     93.6141
   882.0000     47.3602     26.7581     30.3447     97.1538
   882.2500     46.4390     26.9197     29.7363     98.7563
   882.5000     45.3620     27.0497     29.0536    100.3724
   882.7500     44.2266     27.1660     28.3527    101.1116
   883.0000     43.1319     27.2786     27.6970    101.3675
   883.2500     42.1358     27.3884     27.1350    100.7374
   883.5000     41.2341     27.4884     26.6743     99.2592
   883.7500     40.3903     27.5681     26.2709     98.9465
   884.0000     39.5818     27.6179     25.8425    101.1473
   884.2500     38.8121     27.6328     25.3126    104.5409
   884.5000     38.0844     27.6147     24.6557    110.7010
   884.7500     37.3721     27.5725     23.9054    113.6721
   885.0000     36.6135     27.5217     23.1183    114.0668
   885.2500     35.7287     27.4814     22.3371    111.7338
   885.5000     34.6453     27.4721     21.5862    106.7459
   885.7500     33.3163     27.5117     20.8830    103.8976
   886.0000     31.7299     27.6130     20.2354    101.1770
   886.2500     29.9159     27.7806     19.6253    100.0533
   886.5000     27.9494     28.0110     19.0053     98.9866
   886.7500     25.9373     28.2927     18.3234     99.1241
   887.0000     23.9872     28.6081     17.5573    102.1614
   887.2500     22.1776     28.9362     16.7277    106.7726
   887.5000     20.5506     29.2554     15.8837    117.3144
   887.7500     19.1244     29.5476     15.0763    125.6877
   888.0000     17.9115     29.8006     14.3409    137.6723
   888.2500     16.9237     30.0109     13.6931    143.9285
   888.5000     16.1596     30.1832     13.1337    149.3075
   888.7500     15.5806     30.3276     12.6551    149.8853
   889.0000     15.1075     30.4560     12.2450    146.2966
   889.2500     14.6528     30.5784     11.8880    141.5800
   889.5000     14.1653     30.7008     11.5655    133.5959
   889.7500     13.6504     30.8246     11.2597    129.4756
   890.0000     13.1529     30.9485     10.9589    126.9146
   890.2500     12.7207     31.0698     10.6601    127.7128
   890.5000     12.3771     31.1857     10.3676    132.2293
   890.7500     12.1184     31.2946     10.0874    137.1055
   891.0000     11.9232     31.3962      9.8234    145.8753
   891.2500     11.7594     31.4914      9.5773    151.4981
   891.5000     11.5930     31.5820      9.3510    157.9068
   891.7500     11.4050     31.6697      9.1490    160.3741
   892.0000     11.2000     31.7565      8.9763    160.9941
   892.2500     10.9955     31.8436      8.8338    159.2435
   892.5000     10.8055     31.9327      8.7153    154.0798
   892.7500     10.6365     32.0253      8.6090    150.0184
   893.0000     10.4898     32.1232      8.5040    144.7951
   893.2500     10.3602     32.2279      8.3967    142.2212
   893.5000     10.2368     32.3407      8.2921    139.3201
   893.7500     10.1142     32.4628      8.1988    137.8743
   894.0000      9.9994     32.5958      8.1229    136.8663
   894.2500      9.9011     32.7424      8.0636    137.4299
   894.5000      9.8062     32.9063      8.0143    140.7995
   894.7500      9.6765     33.0916      7.9665    144.7754
   895.0000      9.4756     33.3007      7.9143    152.2963
   895.2500      9.2020     33.5334      7.8557    157.0730
   895.5000      8.8938     33.7852      7.7910    161.4835
   895.7500      8.6009     34.0483      7.7210    161.7804
