~Version Information
VERS.                      2.0: CWLS Log ASCII Standard - VERSION 2.0
WRAP.                       NO: One line per depth step
~Well Information Block
STRT.FT                 3.0000: 
STOP.FT              1884.7500: 
STEP.FT                 0.2500: 
NULL.                -999.2500: 
COMP.          Pioneer Natural Resources: COMPANY
WELL.          Blackjack 32-11 Tr: WELL
FLD.           Purgatoire River: FIELD
LOC.           2066' FNL & 1453' FEL: LOCATION
PROV.                 Colorado: PROVINCE
CNTY.               Las Animas: COUNTRY
SRVC.                Patterson: SERVICE COMPANY
DATE.          Fri Aug 19 11:07:11 2005: LOG DATE
UWI.           05 071 08310 00: UNIQUE WELL ID
~Curve Information Block
DEPT.FT            0 000 00 00: Depth
CCL.                          : Casing Collar Locator
TT3.usec                      : CBL 3' Travel Time
AMP3.mV                       : CBL 3' Amplitude
GR.GAPI                       : Gamma Ray
~Parameter Information Block
~A  Depth       CCL         TT3         AMP3         GR     
# ...
   371.5000      0.0000    727.2559     11.6135     55.6169
   371.7500      0.0000    727.2790     11.6930     58.0689
   372.0000      0.0000    727.3641     11.7683     60.4160
   372.2500      0.0000    727.4764     11.8352     62.5010
   372.5000      0.0000    727.5838     11.8957     64.2627
   372.7500      0.0000    727.6604     11.9598     65.9037
   373.0000      0.0000    727.6851     12.0359     67.6073
   373.2500      0.0000    727.6615     12.1225     69.0595
   373.5000      0.0000    727.6377     12.2094     69.6561
   373.7500      0.0000    727.7429     12.2894     69.3896
   374.0000      0.0000    728.2765     12.3654     69.1387
   374.2500      0.0000    729.8853     12.4450     69.7659
   374.5000      0.0000    733.5033     12.5333     71.1969
   374.7500      0.0000    739.7134     12.6368     72.6269
   375.0000      0.0000    747.9031     12.7763     73.4063
   375.2500      0.0000    756.4052     12.9812     73.5858
   375.5000      0.0000    763.9468     13.2505     73.7290
   375.7500      0.0000    770.8133     13.5142     74.1711
   376.0000      0.0000    778.1299     13.6613     74.4070
   376.2500      0.0000    785.9809     13.6324     73.5013
   376.5000      0.0000    792.5400     13.4757     71.2737
   376.7500      0.0000    795.0567     13.2993     68.7856
   377.0000      0.0000    791.5753     13.1816     67.4597
   377.2500      0.0000    782.1694     13.1358     67.8279
   377.5000      0.0000    769.3547     13.1170     69.0726
   377.7500      0.0000    757.1548     13.0286     69.6300
   378.0000      0.0000    748.5596     12.7349     68.4709
   378.2500      0.0000    743.5635     12.1374     66.0743
   378.5000      0.0000    740.8942     11.2784     64.0176
   378.7500      0.0000    742.7097     10.3503     63.5110
   379.0000      0.0000    756.1691      9.5579     64.4084
   379.2500      0.0000    787.3213      8.9766     65.5216
   379.5000      0.0000    832.7329      8.5700     65.6200
   379.7500      0.0000    879.9274      8.2982     64.0951
   380.0000      0.0000    917.9915      8.1501     60.9736
   380.2500     -3.0000    945.8991      8.1046     56.8632
   380.5000     -3.0000    970.1401      8.1242     53.0933
   380.7500      3.0000    996.5206      8.1788     51.3033
   381.0000      0.0000   1022.4930      8.2633     52.2812
   381.2500      0.0000   1033.8203      8.4115     55.3618
   381.5000      0.0000   1012.9312      8.6983     59.1651
   381.7500      0.0000    956.4592      9.1945     62.7190
   382.0000      0.0000    881.9761      9.8922     65.9417
   382.2500      0.0000    814.2353     10.6840     69.3939
   382.5000      0.0000    767.6639     11.4138     73.4256
   382.7500      0.0000    742.4785     11.9543     77.2655
   383.0000      0.0000    731.7944     12.2711     79.2579
   383.2500      0.0000    728.8621     12.4355     78.3593
   383.5000      0.0000    729.7917     12.5627     75.2675
   383.7500      0.0000    732.9053     12.7245     71.9915
   384.0000      0.0000    737.1017     12.9152     70.4379
   384.2500      0.0000    740.9312     13.0850     71.2737
   384.5000      0.0000    743.1124     13.1922     73.7626
   384.7500      0.0000    743.6752     13.2239     76.4765
   385.0000      0.0000    744.6198     13.1789     78.2911
   385.2500      0.0000    749.0024     13.0473     78.9784
   385.5000      0.0000    758.7063     12.8256     78.9615
   385.7500      0.0000    772.9337     12.5516     78.6017
   386.0000      0.0000    789.2352     12.3078     77.8821
   386.2500      0.0000    805.5756     12.1775     76.7049
   386.5000      0.0000    820.4761     12.1939     75.2025
   386.7500      0.0000    831.7095     12.3268     73.6271
   387.0000      0.0000    836.4755     12.5103     72.0888
   387.2500      0.0000    833.4987     12.6834     70.5357
   387.5000      0.0000    824.5574     12.8133     68.9217
   387.7500      0.0000    813.5645     12.8879     67.3211
   388.0000      0.0000    803.7101     12.8970     65.9442
   388.2500      0.0000    795.6534     12.8325     65.0717
   388.5000      0.0000    788.7805     12.7074     64.9172
   388.7500      0.0000    783.0427     12.5651     65.5196
   389.0000      0.0000    778.1801     12.4559     66.7283
   389.2500      0.0000    772.2538     12.4085     68.2054
   389.5000      0.0000    763.2062     12.4228     69.5300
   389.7500      0.0000    751.7195     12.4812     70.4840
   390.0000      0.0000    740.9497     12.5597     71.1791
   390.2500      0.0000    733.4793     12.6380     71.7794
   390.5000      0.0000    729.5455     12.7098     72.2322
   390.7500      0.0000    727.9448     12.7788     72.4674
   391.0000      0.0000    727.6464     12.8436     72.7503
   391.2500      0.0000    728.5187     12.8900     73.5397
   391.5000      0.0000    731.1702     12.9029     74.9204
   391.7500      0.0000    736.3198     12.8798     76.3721
   392.0000      0.0000    743.8810     12.8340     77.2187
   392.2500      0.0000    752.4221     12.7885     77.3365
   392.5000      0.0000    759.7010     12.7659     77.3083
   392.7500      0.0000    763.8514     12.7744     77.7169
   393.0000      0.0000    764.0148     12.8010     78.3148
   393.2500      0.0000    760.2211     12.8226     78.1630
   393.5000      0.0000    753.3447     12.8221     76.7552
   393.7500      0.0000    745.2050     12.7916     74.8362
   394.0000      0.0000    738.1176     12.7264     73.8657
   394.2500      0.0000    734.0685     12.6296     74.5815
   394.5000      0.0000    734.6071     12.5207     76.1321
   394.7500      0.0000    741.4179     12.4304     76.8448
   395.0000      0.0000    755.9739     12.3835     75.9635
   395.2500      0.0000    777.6133     12.3876     74.3191
   395.5000      0.0000    802.1891     12.4331     73.0762
   395.7500      0.0000    823.7288     12.4928     72.2798
   396.0000      0.0000    837.8608     12.5249     71.0355
   396.2500      0.0000    843.3030     12.4876     68.7630
   396.5000      0.0000    840.6178     12.3640     65.8139
   396.7500      0.0000    831.1501     12.1722     63.1480
   397.0000      0.0000    817.6508     11.9521     61.8188
   397.2500      0.0000    804.1531     11.7431     62.5591
   397.5000      0.0000    793.3718     11.5725     65.3864
   397.7500      0.0000    784.7369     11.4536     69.5346
   398.0000      0.0000    776.2302     11.3861     73.8891
   398.2500      0.0000    767.2527     11.3558     77.4860
   398.5000      0.0000    758.5118     11.3378     79.6308
   398.7500      0.0000    750.3608     11.3038     79.8240
   399.0000      0.0000    742.7838     11.2362     77.8876
   399.2500      0.0000    736.2697     11.1406     74.2201
   399.5000      0.0000    731.5625     11.0431     69.7835
   399.7500      0.0000    728.8119     10.9736     65.7407
   400.0000      0.0000    727.4871     10.9507     62.9324
   400.2500      0.0000    726.9182     10.9768     61.3985
   400.5000      0.0000    726.6863     11.0407     60.3017
   400.7500      0.0000    726.6318     11.1241     58.5693
   401.0000      0.0000    726.6838     11.2085     55.8379
   401.2500      0.0000    726.7428     11.2730     52.8332
   401.5000      0.0000    726.7001     11.2888     50.7209
   401.7500      0.0000    726.5244     11.2336     49.9114
   402.0000      0.0000    726.2831     11.1194     49.6044
   402.2500      0.0000    726.0682     10.9933     48.8303
   402.5000      0.0000    725.9140     10.8979     47.7872
   402.7500      0.0000    725.7939     10.8391     47.6380
   403.0000      0.0000    725.6800     10.7959     49.0173
   403.2500      0.0000    725.5891     10.7539     51.2156
   403.5000      0.0000    725.5686     10.7205     52.8915
   403.7500      0.0000    725.6413     10.7125     53.2306
   404.0000      0.0000    725.7660     10.7350     52.4442
   404.2500      0.0000    725.8577     10.7705     51.5512
   404.5000      0.0000    725.8530     10.7902     51.6878
   404.7500      0.0000    725.7526     10.7797     53.1980
