~Version Information
VERS.                      2.0: CWLS Log ASCII Standard - VERSION 2.0
WRAP.                       NO: One line per depth step
~Well Information Block
STRT.FT               472.0000: 
STOP.FT              2430.5000: 
STEP.FT                 0.2500: 
NULL.                -999.2500: 
COMP.          Pioneer Natural Resources: COMPANY
WELL.          Flying Horse 12-11: WELL
FLD.           Purgatoire River: FIELD
LOC.           2428' FNL & 308' FWL: LOCATION
PROV.                 Colorado: PROVINCE
CNTY.               Las Animas: COUNTRY
SRVC.                Patterson: SERVICE COMPANY
DATE.          Sun May 29 11:58:35 2005: LOG DATE
UWI.           05 071 08378 00: UNIQUE WELL ID
~Curve Information Block
DEPT.FT            0 000 00 00: Depth
SN.Ohm-m                      : IEL Short Normal
SP.mV                         : IEL Spontaneous Potential
DIR.Ohm-m                     : IEL Induction Resistivity
GR.GAPI                       : Gamma Ray
~Parameter Information Block
~A  Depth        SN          SP         DIR          GR     
# ...
  1108.5000   2000.0000   2000.0000     10.6352    139.7149
  1108.7500   2000.0000   2000.0000     10.3703    137.3770
  1109.0000   2000.0000   2000.0000     10.0866    132.4609
  1109.2500   2000.0000   2000.0000      9.8158    129.0571
  1109.5000   2000.0000   2000.0000      9.5912    124.7493
  1109.7500   2000.0000   2000.0000      9.4421    122.6380
  1110.0000   2000.0000   2000.0000      9.3887    120.8563
  1110.2500   2000.0000   2000.0000      9.4379    120.8900
  1110.5000   2000.0000   2000.0000      9.5831    123.3131
  1110.7500   2000.0000   2000.0000      9.8071    126.3739
  1111.0000   2000.0000   2000.0000     10.0890    131.5793
  1111.2500   2000.0000   2000.0000     10.4139    134.1381
  1111.5000   2000.0000   2000.0000     10.7787    135.0576
  1111.7500   2000.0000   2000.0000     11.1918    133.6434
  1112.0000   2000.0000   2000.0000     11.6660    129.3790
  1112.2500   2000.0000   2000.0000     12.2102    125.8661
  1112.5000   2000.0000   2000.0000     12.8275    120.9260
  1112.7500   2000.0000   2000.0000     13.5200    118.4747
  1113.0000   2000.0000   2000.0000     14.2964    116.3605
  1113.2500   2000.0000   2000.0000     15.1757    115.6303
  1113.5000   2000.0000   2000.0000     16.1815    114.4786
  1113.7500   2000.0000   2000.0000     17.3304    113.0654
  1114.0000   2000.0000   2000.0000     18.6227    108.9723
  1114.2500   2000.0000   2000.0000     20.0414    104.3676
  1114.5000   2000.0000   2000.0000     21.5602     94.3670
  1114.7500   2000.0000   2000.0000     23.1549     86.2904
  1115.0000   2000.0000   2000.0000     24.8072     74.3786
  1115.2500   2000.0000   2000.0000     26.4950     67.9225
  1115.5000   2000.0000   2000.0000     28.1754     61.4619
  1115.7500   2000.0000   2000.0000     29.7776     58.9513
  1116.0000   2000.0000   2000.0000     31.2239     56.5145
  1116.2500   2000.0000   2000.0000     32.4611     55.2332
  1116.5000   2000.0000   2000.0000     33.4646     54.0871
  1116.7500   2000.0000   2000.0000     34.1950     54.5172
  1117.0000   2000.0000   2000.0000     34.5497     57.9923
  1117.2500   2000.0000   2000.0000     34.3734     62.2237
  1117.5000   2000.0000   2000.0000     33.5403     70.2117
  1117.7500   2000.0000   2000.0000     32.0471     75.4644
  1118.0000   2000.0000   2000.0000     30.0299     81.6416
  1118.2500   2000.0000   2000.0000     27.7074     84.4009
  1118.5000   2000.0000   2000.0000     25.3082     87.1332
  1118.7500   2000.0000   2000.0000     23.0240     88.5322
  1119.0000   2000.0000   2000.0000     20.9860     90.6915
  1119.2500   2000.0000   2000.0000     19.2546     92.5770
  1119.5000   2000.0000   2000.0000     17.8285     96.9843
  1119.7500   2000.0000   2000.0000     16.6681    101.4009
  1120.0000   2000.0000   2000.0000     15.7241    110.0939
  1120.2500   2000.0000   2000.0000     14.9593    116.6349
  1120.5000   2000.0000   2000.0000     14.3560    126.2337
  1120.7500   2000.0000   2000.0000     13.9076    131.8686
  1121.0000   2000.0000   2000.0000     13.6052    138.2930
  1121.2500   2000.0000   2000.0000     13.4291    140.7432
  1121.5000   2000.0000   2000.0000     13.3512    141.3105
  1121.7500   2000.0000   2000.0000     13.3455    140.0062
  1122.0000   2000.0000   2000.0000     13.4001    137.0153
  1122.2500   2000.0000   2000.0000     13.5222    135.0891
  1122.5000   2000.0000   2000.0000     13.7334    132.5451
  1122.7500   2000.0000   2000.0000     14.0605    130.6552
  1123.0000   2000.0000   2000.0000     14.5245    126.4930
  1123.2500   2000.0000   2000.0000     15.1361    122.4593
  1123.5000   2000.0000   2000.0000     15.8945    114.9398
  1123.7500   2000.0000   2000.0000     16.7915    109.8732
  1124.0000   2000.0000   2000.0000     17.8121    104.1417
  1124.2500   2000.0000   2000.0000     18.9311    102.2680
  1124.5000   2000.0000   2000.0000     20.1082    102.1105
  1124.7500   2000.0000   2000.0000     21.2940    102.9399
  1125.0000   2000.0000   2000.0000     22.4467    104.1972
  1125.2500   2000.0000   2000.0000     23.5467    104.9077
  1125.5000   2000.0000   2000.0000     24.5858    106.7716
  1125.7500   2000.0000   2000.0000     25.5334    109.2136
  1126.0000   2000.0000   2000.0000     26.3161    114.6515
  1126.2500   2000.0000   2000.0000     26.8495    118.5797
  1126.5000   2000.0000   2000.0000     27.1035    122.8077
  1126.7500   2000.0000   2000.0000     27.1268    123.5947
  1127.0000   2000.0000   2000.0000     26.9954    121.2580
  1127.2500   2000.0000   2000.0000     26.7412    117.6497
  1127.5000   2000.0000   2000.0000     26.3404    110.4636
  1127.7500   2000.0000   2000.0000     25.7705    105.5798
  1128.0000   2000.0000   2000.0000     25.0717     99.7355
  1128.2500   2000.0000   2000.0000     24.3489     97.1331
  1128.5000   2000.0000   2000.0000     23.7140     94.8560
  1128.7500   2000.0000   2000.0000     23.2254     94.4213
  1129.0000   2000.0000   2000.0000     22.8691     96.1564
  1129.2500   2000.0000   2000.0000     22.5808     99.1887
  1129.5000   2000.0000   2000.0000     22.2838    105.6723
  1129.7500   2000.0000   2000.0000     21.9156    110.2262
  1130.0000   2000.0000   2000.0000     21.4326    116.0551
  1130.2500   2000.0000   2000.0000     20.8086    119.1379
  1130.5000   2000.0000   2000.0000     20.0443    123.0508
  1130.7500   2000.0000   2000.0000     19.1819    125.4736
  1131.0000   2000.0000   2000.0000     18.2990    128.7899
  1131.2500   2000.0000   2000.0000     17.4788    130.4773
  1131.5000   2000.0000   2000.0000     16.7763    131.8089
  1131.7500   2000.0000   2000.0000     16.2047    132.0699
  1132.0000   2000.0000   2000.0000     15.7422    132.4023
  1132.2500   2000.0000   2000.0000     15.3520    133.1528
  1132.5000   2000.0000   2000.0000     15.0014    135.9953
  1132.7500   2000.0000   2000.0000     14.6749    139.5015
  1133.0000   2000.0000   2000.0000     14.3742    147.1392
  1133.2500   2000.0000   2000.0000     14.1092    152.9154
  1133.5000   2000.0000   2000.0000     13.8894    159.9391
  1133.7500   2000.0000   2000.0000     13.7193    162.0905
  1134.0000   2000.0000   2000.0000     13.6004    160.7013
  1134.2500   2000.0000   2000.0000     13.5355    157.4931
  1134.5000   2000.0000   2000.0000     13.5290    151.9349
  1134.7500   2000.0000   2000.0000     13.5850    149.0481
  1135.0000   2000.0000   2000.0000     13.7034    146.4434
  1135.2500   2000.0000   2000.0000     13.8783    145.2489
  1135.5000   2000.0000   2000.0000     14.0990    143.0558
  1135.7500   2000.0000   2000.0000     14.3543    141.1192
  1136.0000   2000.0000   2000.0000     14.6338    137.7845
  1136.2500   2000.0000   2000.0000     14.9274    135.2292
  1136.5000   2000.0000   2000.0000     15.2190    130.1553
  1136.7500   2000.0000   2000.0000     15.4856    125.6099
  1137.0000   2000.0000   2000.0000     15.7052    117.5237
  1137.2500   2000.0000   2000.0000     15.8735    112.0964
  1137.5000   2000.0000   2000.0000     16.0122    105.5093
  1137.7500   2000.0000   2000.0000     16.1617    102.9321
  1138.0000   2000.0000   2000.0000     16.3600    102.5577
  1138.2500   2000.0000   2000.0000     16.6241    104.5490
  1138.5000   2000.0000   2000.0000     16.9412    109.3673
  1138.7500   2000.0000   2000.0000     17.2743    112.1649
  1139.0000   2000.0000   2000.0000     17.5769    113.0811
  1139.2500   2000.0000   2000.0000     17.8083    111.1767
  1139.5000   2000.0000   2000.0000     17.9410    106.8173
  1139.7500   2000.0000   2000.0000     17.9617    104.9794
  1140.0000   2000.0000   2000.0000     17.8668    106.0992
  1140.2500   2000.0000   2000.0000     17.6620    109.3544
  1140.5000   2000.0000   2000.0000     17.3622    115.9758
  1140.7500   2000.0000   2000.0000     16.9895    119.9551
  1141.0000   2000.0000   2000.0000     16.5699    123.1858
  1141.2500   2000.0000   2000.0000     16.1286    123.3389
  1141.5000   2000.0000   2000.0000     15.6867    122.4241
  1141.7500   2000.0000   2000.0000     15.2608    122.7280
