~Version Information
VERS.                      2.0: CWLS Log ASCII Standard - VERSION 2.0
WRAP.                       NO: One line per depth step
~Well Information Block
STRT.FT               920.0000: 
STOP.FT              3300.2000: 
STEP.FT                 0.1000: 
NULL.                -999.2500: 
COMP.          Pioneer Natural Resources: COMPANY
WELL.              Vespar 43-7: WELL
FLD.           Purgatoire River: FIELD
LOC.           2338' FSL & 1141' FEL: LOCATION
PROV.                 Colorado: PROVINCE
CNTY.               Las Animas: COUNTRY
SRVC.                Patterson: SERVICE COMPANY
DATE.          Wed Jan 26 13:38:02 2005: LOG DATE
UWI.           05 071 07955 00: UNIQUE WELL ID
~Curve Information Block
DEPT.FT            0 000 00 00: Depth
DCAL.in                       : CDL Caliper
RHOB.g/cc                     : CDL Bulk Density
RHOC.g/cc                     : CDL Density Correction
DPOR.pu                       : CDL Density Porosity
NPOR.pu                       : Neutron Porosity
GR.GAPI                       : Gamma Ray
~Parameter Information Block
~A  Depth       DCAL        RHOB        RHOC        DPOR        NPOR         GR     
# ...
  2648.0000      8.2069      2.4382      0.0176     12.8382     22.2509    142.3745
  2648.1000      8.2069      2.4789      0.0727     10.3714     22.4750    145.3520
  2648.2000      8.2069      2.5433      0.1526      6.4663     22.5050    144.4932
  2648.3000      8.2057      2.5884      0.2035      3.7307     22.8025    140.5092
  2648.4000      8.2057      2.5869      0.2163      3.8225     23.0463    141.4125
  2648.5000      8.2146      2.5369      0.1755      6.8529     23.0213    148.8410
  2648.6000      8.2146      2.4658      0.1030     11.1637     23.1160    154.8233
  2648.7000      8.2146      2.4134      0.1009     14.3412     23.3347    153.6294
  2648.8000      8.2375      2.3870      0.1273     15.9370     23.2614    146.4208
  2648.9000      8.2375      2.3493      0.1398     18.2251     22.8891    139.4122
  2649.0000      8.2675      2.2563      0.1244     23.8582     22.5311    138.2930
  2649.1000      8.2675      2.1070      0.0028     32.9109     22.4633    141.5887
  2649.2000      8.2675      1.9593     -0.1193     41.8636     22.5812    144.8433
  2649.3000      8.2947      1.8801     -0.1082     46.6601     22.6227    148.5931
  2649.4000      8.2947      1.8898     -0.0314     46.0739     22.8068    152.1335
  2649.5000      8.3181      1.9791      0.0401     40.6625     23.1046    152.9725
  2649.6000      8.3181      2.1316      0.2718     31.4155     23.1713    154.1431
  2649.7000      8.3181      2.3061      0.4285     20.8420     23.2697    154.4978
  2649.8000      8.3292      2.4488      0.5572     12.1910     23.6302    149.8571
  2649.9000      8.3292      2.5318      0.5748      7.1652     24.0272    143.8107
  2650.0000      8.3310      2.5538      0.5603      5.8285     24.2795    140.6601
  2650.1000      8.3310      2.5040      0.5680      8.8515     24.3079    140.2908
  2650.2000      8.3310      2.3666      0.4722     17.1749     24.0766    143.9349
  2650.3000      8.3261      2.1759      0.3345     28.7309     23.6920    147.9560
  2650.4000      8.3261      2.0080      0.1791     38.9065     23.2136    145.4940
  2650.5000      8.3225      1.9267      0.1375     43.8372     22.5582    141.6596
  2650.6000      8.3225      1.9617      0.1272     41.7125     21.7565    145.2952
  2650.7000      8.3225      2.1045      0.2407     33.0600     21.2304    152.8640
  2650.8000      8.3653      2.3021      0.4142     21.0847     21.0271    158.1733
  2650.9000      8.3653      2.4822      0.6433     10.1721     20.4251    160.5238
  2651.0000      8.4607      2.6004      0.6972      3.0079     19.4603    158.0481
  2651.1000      8.4607      2.6651      0.6932     -0.9168     19.0460    149.6674
  2651.2000      8.4607      2.6974      0.7105     -2.8749     19.3853    138.4230
  2651.3000      8.5173      2.6935      0.5629     -2.6348     19.8872    128.9210
  2651.4000      8.5173      2.6570      0.3510     -0.4267     20.1902    122.5763
  2651.5000      8.3979      2.6210      0.1991      1.7598     20.3506    118.6888
  2651.6000      8.3979      2.6098      0.1774      2.4379     20.3800    115.4935
  2651.7000      8.3979      2.6142      0.1991      2.1669     20.3732    110.5020
  2651.8000      8.1531      2.6108      0.1349      2.3738     20.5928    103.6925
  2651.9000      8.1531      2.5928      0.0953      3.4637     20.9805     99.9873
  2652.0000      8.0004      2.5841      0.0303      3.9926     21.4387    101.1833
  2652.1000      8.0004      2.6105      0.0624      2.3918     22.0933    100.7032
  2652.2000      8.0004      2.6682      0.0548     -1.1053     22.8997     95.3627
  2652.3000      7.9640      2.7280      0.1583     -4.7290     23.7040     89.1953
  2652.4000      7.9640      2.7538      0.1299     -6.2929     24.5339     85.5666
  2652.5000      7.9623      2.7350      0.1348     -5.1492     25.4394     83.0117
  2652.6000      7.9623      2.6948      0.0902     -2.7151     26.3711    119.0829
  2652.7000      7.9623      2.6734      0.0046     -1.4194     27.2981    116.3700
  2652.8000      7.9647      2.6872      0.0996     -2.2569     28.1086    118.7907
  2652.9000      7.9647      2.6958      0.1272     -2.7749     28.7438    119.4846
  2653.0000      7.9684      2.6633      0.0829     -0.8051     29.0600    115.4968
  2653.1000      7.9684      2.6094      0.0043      2.4582     28.7054    110.5079
  2653.2000      7.9684      2.5668      0.0194      5.0448     27.7192    107.9819
  2653.3000      7.9702      2.5466      0.0234      6.2638     26.5505    111.9761
  2653.4000      7.9702      2.5503      0.0050      6.0421     25.7204    121.0107
  2653.5000      7.9657      2.5710      0.0399      4.7868     25.0430    130.6595
  2653.6000      7.9657      2.5897      0.0656      3.6531     23.8111    140.6235
  2653.7000      7.9657      2.5919      0.0766      3.5182     22.2891    145.5303
  2653.8000      7.9631      2.5831      0.0444      4.0556     21.4317    140.6266
  2653.9000      7.9631      2.5698      0.0902      4.8617     21.2526    133.0754
  2654.0000      7.9640      2.5488      0.0367      6.1308     20.9785    128.7777
  2654.1000      7.9640      2.5261      0.0150      7.5079     20.3644    124.3537
  2654.2000      7.9640      2.5187      0.0134      7.9599     19.6643    119.1672
  2654.3000      7.9644      2.5375      0.0273      6.8174     18.9152    116.8953
  2654.4000      7.9644      2.5722      0.0681      4.7171     17.8461    117.1765
  2654.5000      7.9653      2.5972      0.0777      3.1988     16.4551    115.2495
  2654.6000      7.9653      2.6040      0.0495      2.7905     15.2532    110.6719
  2654.7000      7.9653      2.6049      0.0159      2.7315     14.7505    108.3037
  2654.8000      7.9667      2.6041      0.0608      2.7843     15.4772    111.0451
  2654.9000      7.9667      2.5891      0.0181      3.6911     18.5096    115.4651
  2655.0000      7.9666      2.5610      0.0184      5.3911     25.0137    116.9578
  2655.1000      7.9666      2.5380      0.0269      6.7883     33.6918    115.7736
  2655.2000      7.9666      2.5315      0.0543      7.1810     40.8467    116.6729
  2655.3000      7.9667      2.5370      0.0265      6.8502     45.0705    123.1864
  2655.4000      7.9667      2.5425      0.0573      6.5131     48.1238    129.3222
  2655.5000      7.9717      2.5509     -0.0040      6.0057     51.5011    126.2029
  2655.6000      7.9717      2.5749      0.0599      4.5505     54.8583    115.9917
  2655.7000      7.9717      2.6040      0.0820      2.7892     57.3025    108.2784
  2655.8000      7.9818      2.6203      0.0765      1.7983     58.5861    109.2289
  2655.9000      7.9818      2.6261      0.0778      1.4471     59.0524    115.2271
  2656.0000      7.9887      2.6342      0.0560      0.9576     59.1138    116.6101
  2656.1000      7.9887      2.6464      0.0937      0.2182     11.3326    114.2020
  2656.2000      7.9887      2.6477      0.0738      0.1384     11.1810    115.2063
  2656.3000      7.9914      2.6353     -0.0140      0.8919     11.0584    115.5742
  2656.4000      7.9914      2.6241      0.0083      1.5725     11.2674    111.1479
  2656.5000      7.9947      2.6092      0.0298      2.4727     12.4633    109.6913
  2656.6000      7.9947      2.5788      0.0099      4.3127     14.1306    117.6616
  2656.7000      7.9947      2.5457     -0.0152      6.3216     14.9202    130.2142
  2656.8000      8.0045      2.5228     -0.0053      7.7070     14.6378    139.4487
  2656.9000      8.0045      2.5115      0.0021      8.3953     14.4251    140.7807
  2657.0000      8.0216      2.5097      0.0437      8.5020     15.2023    138.9951
  2657.1000      8.0216      2.5098      0.0523      8.4988     16.5503    141.5449
  2657.2000      8.0216      2.5097      0.0262      8.5000     17.5509    148.1074
  2657.3000      8.0350      2.5208      0.0021      7.8300     17.9246    157.9083
  2657.4000      8.0350      2.5433      0.0511      6.4668     17.5331    165.6554
  2657.5000      8.0390      2.5620      0.0831      5.3331     16.6204    162.5464
