~Version Information
VERS.                      2.0: CWLS Log ASCII Standard - VERSION 2.0
WRAP.                       NO: One line per depth step
~Well Information Block
STRT.FT                30.0000: 
STOP.FT              2789.0000: 
STEP.FT                 0.1000: 
NULL.                -999.2500: 
COMP.          Pioneer Natural Resources: COMPANY
WELL.          Rabbit Bush Federal 44-19: WELL
FLD.           Purgatorie River: FIELD
LOC.           826' FSL & 1127' FEL: LOCATION
CNTY.               Las Animas: COUNTY
SRVC.                Patterson: SERVICE COMPANY
DATE.          Mon Aug 28 10:56:57 2006: LOG DATE
UWI.           05-071-08149-00: UNIQUE WELL ID
STAT.                 Colorado: STATE
~Curve Information Block
DEPT.FT            0 000 00 00: Depth
DCAL.in                       : CDL Caliper
RHOB.g/cc                     : CDL Bulk Density
RHOC.g/cc                     : CDL Density Correction
DPOR.pu                       : CDL Density Porosity
GR.GAPI                       : Gamma Ray
NPOR.pu                       : Neutron Porosity
~Parameter Information Block
~A  Depth       DCAL        RHOB        RHOC        DPOR         GR         NPOR    
# ...
  2026.8000      7.9217      2.6176      0.1603      1.9643    106.9206     18.6083
  2026.9000      7.9217      2.6319      0.1752      1.0988    105.4238     19.1201
  2027.0000      7.9252      2.6285      0.1445      1.3052     99.4772     19.8124
  2027.1000      7.9252      2.6219      0.1336      1.7032     93.1540     20.0975
  2027.2000      7.9252      2.6176      0.1499      1.9619     91.3013     19.7998
  2027.3000      7.9256      2.6083      0.1345      2.5249     92.2652     19.2187
  2027.4000      7.9256      2.6076      0.1045      2.5680     90.9258     18.8352
  2027.5000      7.9223      2.6317      0.1301      1.1113     88.4376     18.8375
  2027.6000      7.9223      2.6555      0.2236     -0.3309     88.7139     19.1206
  2027.7000      7.9223      2.6462      0.1553      0.2289     89.5636     19.4775
  2027.8000      7.9175      2.6203      0.1097      1.8015     87.9203     19.7798
  2027.9000      7.9175      2.6075      0.1448      2.5729     84.7861     20.1216
  2028.0000      7.9140      2.6007      0.1253      2.9897     82.3518     20.4378
  2028.1000      7.9140      2.5839      0.1087      4.0059     82.4767     20.5655
  2028.2000      7.9140      2.5649      0.0681      5.1591     84.7183     20.6714
  2028.3000      7.9128      2.5594      0.0742      5.4918     85.4142     20.8128
  2028.4000      7.9128      2.5751      0.0466      4.5399     83.6179     20.6658
  2028.5000      7.9078      2.6080      0.0598      2.5436     82.2550     20.2710
  2028.6000      7.9078      2.6367      0.1074      0.8054     82.3054     20.0358
  2028.7000      7.9078      2.6412      0.1226      0.5332     83.2918     19.9322
  2028.8000      7.9002      2.6309      0.1051      1.1562     85.3505     19.7324
  2028.9000      7.9002      2.6263      0.1093      1.4359     86.6454     19.4585
  2029.0000      7.8948      2.6302      0.1010      1.1985     86.3953     19.2291
  2029.1000      7.8948      2.6363      0.1185      0.8319     87.0122     19.3147
  2029.2000      7.8948      2.6421      0.1026      0.4759     88.4772     19.6874
  2029.3000      7.8920      2.6435      0.1473      0.3960     87.9775     19.8167
  2029.4000      7.8920      2.6335      0.0771      1.0003     85.8669     19.4665
  2029.5000      7.8994      2.6144      0.0615      2.1589     86.2850     18.9381
  2029.6000      7.8994      2.5954      0.0712      3.3093     91.4735     18.5149
  2029.7000      7.8994      2.5837      0.0906      4.0176     98.0950     18.3808
  2029.8000      7.9131      2.5853     -0.0035      3.9222    101.5821     18.6845
  2029.9000      7.9131      2.5975      0.0599      3.1794    102.4660     19.1530
  2030.0000      7.9130      2.6017      0.0998      2.9252    102.9102     19.2949
  2030.1000      7.9130      2.5949      0.0444      3.3392    102.4617     19.0885
  2030.2000      7.9130      2.5991      0.0430      3.0844    100.2924     18.8736
  2030.3000      7.9031      2.6168      0.1151      2.0108     96.7049     18.8074
  2030.4000      7.9031      2.6274      0.1263      1.3719     94.5115     18.7111
  2030.5000      7.8959      2.6284      0.0837      1.3106     95.5131     18.4995
  2030.6000      7.8959      2.6290      0.1056      1.2720     96.7327     18.3020
  2030.7000      7.8959      2.6206      0.1306      1.7810     97.2770     18.2145
  2030.8000      7.8915      2.5973      0.0853      3.1955     97.9134     18.1941
  2030.9000      7.8915      2.5762      0.0577      4.4727     98.0131     18.1732
  2031.0000      7.8904      2.5661      0.0963      5.0841     98.5064     18.1381
  2031.1000      7.8904      2.5589      0.0618      5.5184     99.6393     17.9887
  2031.2000      7.8904      2.5535      0.0421      5.8459    101.0449     17.7558
  2031.3000      7.8915      2.5484      0.0537      6.1572    101.5402     17.6462
  2031.4000      7.8915      2.5446      0.0141      6.3872     99.8931     17.6576
  2031.5000      7.8934      2.5491      0.0763      6.1159     98.6842     17.7348
  2031.6000      7.8934      2.5494      0.0853      6.0995     99.9389     17.9224
  2031.7000      7.8934      2.5342      0.0348      7.0185    102.4550     18.1376
  2031.8000      7.8954      2.5146      0.0671      8.2067    104.6498     18.3338
  2031.9000      7.8954      2.5021      0.0819      8.9662    106.9985     18.5414
  2032.0000      7.8946      2.5086      0.0645      8.5688    110.2316     18.4698
  2032.1000      7.8946      2.5415      0.1249      6.5786    112.4955     18.0012
  2032.2000      7.8946      2.5824      0.1587      4.0972    112.8349     17.6882
  2032.3000      7.8914      2.6090      0.1525      2.4839    112.0121     17.9132
  2032.4000      7.8914      2.6212      0.1486      1.7432    110.1252     18.4155
  2032.5000      7.8903      2.6325      0.1432      1.0599    107.4706     18.8688
  2032.6000      7.8903      2.6479      0.2001      0.1246    106.0393     19.0858
  2032.7000      7.8903      2.6619      0.1800     -0.7206    107.8261     19.1841
  2032.8000      7.8964      2.6626      0.1349     -0.7662    109.6554     19.3879
  2032.9000      7.8964      2.6362      0.1587      0.8389    107.2354     19.4333
  2033.0000      7.9059      2.5918      0.0795      3.5253    101.8311     19.0114
  2033.1000      7.9059      2.5604      0.0462      5.4318     97.1684     18.5974
  2033.2000      7.9059      2.5538      0.0281      5.8333     95.1209     18.6006
  2033.3000      7.9101      2.5546      0.1017      5.7794     95.6052     18.7051
  2033.4000      7.9101      2.5439      0.0724      6.4277     97.3297     18.6059
  2033.5000      7.9031      2.5185      0.1343      7.9712     97.4130     18.4142
  2033.6000      7.9031      2.4891      0.0841      9.7540     94.5747     18.4802
  2033.7000      7.9031      2.4732      0.1182     10.7168     91.1868     18.5800
  2033.8000      7.8921      2.4768      0.0848     10.4989     88.2098     18.3122
  2033.9000      7.8921      2.4933      0.1420      9.4985     86.8624     18.1108
  2034.0000      7.8896      2.5182      0.0927      7.9898     89.4228     18.2349
  2034.1000      7.8896      2.5507      0.1416      6.0177     93.7232     18.4215
  2034.2000      7.8896      2.5762      0.1415      4.4745     97.0800     18.6639
  2034.3000      7.8944      2.5810      0.1219      4.1843    100.0340     19.1017
  2034.4000      7.8944      2.5756      0.1011      4.5111    102.6466     19.6543
  2034.5000      7.8992      2.5798      0.1214      4.2567    103.1996     20.1036
  2034.6000      7.8992      2.5995      0.0983      3.0627    101.9665     20.3527
  2034.7000      7.8992      2.6178      0.1298      1.9489    100.0052     20.4951
  2034.8000      7.9073      2.6146      0.1394      2.1427     97.8026     20.6642
  2034.9000      7.9073      2.6002      0.0594      3.0197     97.9430     20.7925
  2035.0000      7.9189      2.5884      0.1447      3.7357    101.1939     20.6593
  2035.1000      7.9189      2.5629      0.0817      5.2817    101.6824     20.3324
  2035.2000      7.9189      2.5238      0.0251      7.6473     95.6902     20.1680
  2035.3000      7.9215      2.4997      0.0405      9.1074     88.2880     20.1360
  2035.4000      7.9215      2.5000      0.0746      9.0913     85.5850     19.9180
  2035.5000      7.9109      2.5168      0.0713      8.0735     87.5503     19.4846
  2035.6000      7.9109      2.5410      0.0798      6.6033     89.0025     19.0595
  2035.7000      7.9109      2.5568      0.1356      5.6511     86.5846     18.8147
  2035.8000      7.9034      2.5550      0.1139      5.7568     84.4156     18.7225
  2035.9000      7.9034      2.5450      0.0985      6.3614     87.3033     18.7909
  2036.0000      7.9021      2.5339      0.1256      7.0391     92.5012     19.1639
  2036.1000      7.9021      2.5177      0.0778      8.0206     96.1848     19.5534
  2036.2000      7.9021      2.4980      0.0558      9.2105     98.2079     19.3800
  2036.3000      7.9047      2.4819      0.0677     10.1870     98.4813     18.6730
