~Version Information
VERS.                      2.0: CWLS Log ASCII Standard - VERSION 2.0
WRAP.                       NO: One line per depth step
~Well Information Block
STRT.FT               580.0000: 
STOP.FT              1756.0000: 
STEP.FT                 0.1000: 
NULL.                -999.2500: 
COMP.          Pioneer Natural Resources: COMPANY
WELL.          Lookout Point 31-23 Tr: WELL
FLD.           Purgatoire River: FIELD
LOC.           541' FNL & 1768' FEL: LOCATION
PROV.                 Colorado: PROVINCE
CNTY.               Las Animas: COUNTRY
SRVC.                Patterson: SERVICE COMPANY
DATE.          Mon Jan 24 07:20:20 2005: LOG DATE
UWI.           05 071 08260 00: UNIQUE WELL ID
~Curve Information Block
DEPT.FT            0 000 00 00: Depth
DCAL.in                       : CDL Caliper
DPOR.pu                       : CDL Density Porosity
GR.GAPI                       : Gamma Ray
NPOR.pu                       : Neutron Porosity
RHOB.g/cc                     : CDL Bulk Density
RHOC.g/cc                     : CDL Density Correction
~Parameter Information Block
~A  Depth       DCAL        DPOR         GR         NPOR        RHOB        RHOC    
# ...
   733.6000      7.9961      6.7994    112.1945      6.4379      2.5378      0.0705
   733.7000      7.9961      7.6735    108.7084      5.6555      2.5234      0.0699
   733.8000      7.9949      8.0968    106.9599      4.7823      2.5164      0.0486
   733.9000      7.9949      6.7870    105.0555      4.5138      2.5380      0.0508
   734.0000      7.9937      4.2777    101.9258      4.5737      2.5794      0.0960
   734.1000      7.9937      2.2911     98.0491      4.3115      2.6122      0.0926
   734.2000      7.9937      1.3649     93.3254      3.5553      2.6275      0.0898
   734.3000      7.9933      0.9922     88.8292      2.8601      2.6336      0.1036
   734.4000      7.9933      0.8969     86.7740      3.1036      2.6352      0.0909
   734.5000      7.9907      0.6791     85.0390      3.9244      2.6388      0.0976
   734.6000      7.9907     -0.0795     79.8278      4.6468      2.6513      0.1011
   734.7000      7.9907     -1.4004     72.6945      5.4740      2.6731      0.0976
   734.8000      7.9824     -3.3144     68.5551      6.5455      2.7047      0.0590
   734.9000      7.9824     -5.0271     69.9977      7.4129      2.7329      0.1072
   735.0000      7.9765     -4.6159     74.7352      7.8719      2.7262      0.0871
   735.1000      7.9765     -1.8808     78.0699      8.0003      2.6810      0.0107
   735.2000      7.9765      1.0191     78.6017      7.8558      2.6332      0.0231
   735.3000      7.9829      2.6208     78.2388      7.5937      2.6068      0.0163
   735.4000      7.9829      3.3459     78.1094      7.3818      2.5948      0.0431
   735.5000      7.9933      4.3752     78.6857      7.2865      2.5778      0.0733
   735.6000      7.9933      5.8145     81.5817      7.2749      2.5541      0.0670
   735.7000      7.9933      6.3261     86.0904      6.9507      2.5456      0.0247
   735.8000      8.0051      5.4809     89.2427      6.3818      2.5596      0.0838
   735.9000      8.0051      4.8666     90.2821      6.4363      2.5697      0.0947
   736.0000      8.0121      5.4249     92.3515      7.1300      2.5605      0.0881
   736.1000      8.0121      6.0047     98.5194      7.5755      2.5509      0.0775
   736.2000      8.0121      5.9755    106.5138      7.5767      2.5514      0.0968
   736.3000      8.0051      6.4030    113.0146      7.6212      2.5444      0.0890
   736.4000      8.0051      7.7195    115.3540      7.9229      2.5226      0.0590
   736.5000      7.9966      8.7330    113.8327      8.4520      2.5059      0.0554
   736.6000      7.9966      8.7838    110.5819      9.1429      2.5051      0.0569
   736.7000      7.9966      8.8102    106.6689      9.5751      2.5046      0.0888
   736.8000      7.9935      8.9878    105.2271      9.6206      2.5017      0.0205
   736.9000      7.9935      8.1794    107.1126      9.6698      2.5150      0.0564
   737.0000      7.9930      6.6342    109.2163      9.9463      2.5405      0.0980
   737.1000      7.9930      5.5152    110.5509     10.2133      2.5590      0.0573
   737.2000      7.9930      4.8677    109.2063     10.2746      2.5697      0.0529
   737.3000      7.9931      4.6485    105.9658     10.2738      2.5733      0.1135
   737.4000      7.9931      5.2689    105.3871     10.3096      2.5631      0.0464
   737.5000      7.9927      6.2978    105.7611     10.1277      2.5461      0.0766
   737.6000      7.9927      6.8401    104.7723      9.6352      2.5371      0.0326
   737.7000      7.9927      6.8912    105.1511      9.2587      2.5363      0.0750
   737.8000      7.9928      7.1502    109.4396      9.2448      2.5320      0.0450
   737.9000      7.9928      7.7596    113.8929      9.2827      2.5220      0.0318
   738.0000      7.9947      8.4749    113.3475      9.2412      2.5102      0.0763
   738.1000      7.9947      8.7017    107.8323      9.1848      2.5064      0.0353
   738.2000      7.9947      7.3618    102.2115      9.1950      2.5285      0.0437
   738.3000      7.9961      4.2775    100.3162      9.3264      2.5794      0.0866
   738.4000      7.9961      0.6611    101.0387      9.4337      2.6391      0.1216
   738.5000      7.9959     -2.4131    102.1806      9.3889      2.6898      0.1391
   738.6000      7.9959     -5.2206    102.1711      9.4001      2.7361      0.1194
   738.7000      7.9959     -8.2498    100.4668      9.5564      2.7861      0.1323
   738.8000      7.9947    -10.6836     97.9794      9.6034      2.8263      0.1830
   738.9000      7.9947    -11.6731     95.6595      9.5385      2.8426      0.1392
   739.0000      7.9942    -11.3201     94.0952      9.4984      2.8368      0.1224
   739.1000      7.9942     -9.5392     92.1082      9.5599      2.8074      0.1094
   739.2000      7.9942     -6.6550     90.3825      9.8008      2.7598      0.0285
   739.3000      7.9942     -4.3007     92.7507     10.1861      2.7210     -0.0171
   739.4000      7.9942     -3.3274     97.3134     10.5122      2.7049      0.0072
   739.5000      7.9942     -2.3481     98.8240     10.6367      2.6887      0.0536
   739.6000      7.9942     -0.2511     97.1131     10.6249      2.6541      0.0025
   739.7000      7.9942      1.8816     94.8087     10.6787      2.6190      0.0255
   739.8000      7.9938      2.9682     93.7417     10.8542      2.6010      0.0777
   739.9000      7.9938      3.6938     93.6472     11.0532      2.5891      0.1042
   740.0000      7.9934      5.0180     96.0625     11.1811      2.5672      0.0812
   740.1000      7.9934      6.3983    103.1564     11.1943      2.5444      0.0216
   740.2000      7.9934      6.7501    108.3405     11.1478      2.5386      0.0526
   740.3000      7.9920      5.7796    104.8070     11.1924      2.5546      0.0241
   740.4000      7.9920      3.6214     97.9557     11.3379      2.5902      0.0618
   740.5000      7.9854      1.3127     97.9650     11.3951      2.6283      0.1292
   740.6000      7.9854      0.3936    104.2245     11.2795      2.6435      0.1230
   740.7000      7.9854      0.9752    107.5025     11.0602      2.6339      0.0567
   740.8000      7.9748      2.1469    105.9141     10.7728      2.6146      0.1217
   740.9000      7.9748      3.4096    104.6798     10.5239      2.5937      0.0717
   741.0000      7.9692      4.5050    104.9286     10.5276      2.5757      0.0683
   741.1000      7.9692      5.3662    103.2818     10.7139      2.5615      0.0116
   741.2000      7.9692      5.6452     99.5871     10.9137      2.5569      0.0176
   741.3000      7.9698      5.3585     96.3204     11.1222      2.5616      0.0362
   741.4000      7.9698      5.5946     95.8362     11.2855      2.5577      0.0204
   741.5000      7.9722      6.6584     99.6738     11.3171      2.5401     -0.0164
   741.6000      7.9722      7.2781    106.2794     11.2785      2.5299      0.0039
   741.7000      7.9722      6.9659    108.5873     11.3654      2.5351      0.0688
   741.8000      7.9719      6.5791    102.7924     11.5838      2.5414      0.0452
   741.9000      7.9719      6.5309     95.0424     11.7129      2.5422      0.0481
   742.0000      7.9690      6.8017     91.3713     11.7038      2.5378      0.0956
   742.1000      7.9690      6.8615     92.3579     11.7298      2.5368      0.0339
   742.2000      7.9690      6.1605     95.0906     11.8721      2.5484      0.0397
   742.3000      7.9665      5.5607     95.9741     11.9763      2.5582      0.0537
   742.4000      7.9665      5.8380     95.6080     11.9486      2.5537      0.0600
   742.5000      7.9662      6.2416     98.0847     11.8687      2.5470      0.0043
   742.6000      7.9662      6.1154    102.2600     11.8632      2.5491      0.0444
   742.7000      7.9662      6.1586    102.0198     11.9648      2.5484      0.0449
   742.8000      7.9674      6.8419     97.5942     12.0808      2.5371      0.0416
   742.9000      7.9674      6.9359     92.5798     12.1647      2.5356     -0.0170
   743.0000      7.9666      5.5201     90.1447     12.2926      2.5589      0.0569
   743.1000      7.9666      3.8924     92.4870     12.5114      2.5858      0.0982
