~Version Information
VERS.                      2.0: CWLS Log ASCII Standard - VERSION 2.0
WRAP.                       NO: One line per depth step
~Well Information Block
STRT.FT               548.0000: 
STOP.FT              1916.0000: 
STEP.FT                 0.2500: 
NULL.                -999.2500: 
COMP.          Pioneer Natural Resources: COMPANY
WELL.          Blackjack 32-11 Tr: WELL
FLD.           Purgatorie River: FIELD
LOC.           2066' FNL & 1453' FEL: LOCATION
PROV.                 Colorado: PROVINCE
CNTY.               Las Animas: COUNTRY
SRVC.                Patterson: SERVICE COMPANY
DATE.          Tue Aug 16 12:08:23 2005: LOG DATE
UWI.                          : UNIQUE WELL ID
~Curve Information Block
DEPT.FT            0 000 00 00: Depth
SN.Ohm-m                      : IEL Short Normal
SP.mV                         : IEL Spontaneous Potential
DIR.Ohm-m                     : IEL Induction Resistivity
GR.GAPI                       : Gamma Ray
~Parameter Information Block
~A  Depth        SN          SP         DIR          GR     
# ...
  1084.0000   2000.0000   2000.0000      8.9390    143.3602
  1084.2500   2000.0000   2000.0000      8.9732    145.3714
  1084.5000   2000.0000   2000.0000      8.3858    148.4406
  1084.7500   2000.0000   2000.0000      8.4623    141.8775
  1085.0000   2000.0000   2000.0000      8.5803    137.1387
  1085.2500   2000.0000   2000.0000      8.1980    143.9612
  1085.5000   2000.0000   2000.0000      8.1617    140.9137
  1085.7500   2000.0000   2000.0000      8.3065    137.3433
  1086.0000   2000.0000   2000.0000      8.1512    140.9622
  1086.2500   2000.0000   2000.0000      8.1493    137.0540
  1086.5000   2000.0000   2000.0000      8.1181    142.2424
  1086.7500   2000.0000   2000.0000      8.0544    146.1232
  1087.0000   2000.0000   2000.0000      8.2804    139.0304
  1087.2500   2000.0000   2000.0000      8.3335    129.4472
  1087.5000   2000.0000   2000.0000      7.9814    145.9841
  1087.7500   2000.0000   2000.0000      8.0822    141.7942
  1088.0000   2000.0000   2000.0000      7.9669    135.7801
  1088.2500   2000.0000   2000.0000      8.0940    134.7564
  1088.5000   2000.0000   2000.0000      8.2115    140.5739
  1088.7500   2000.0000   2000.0000      8.3531    136.2151
  1089.0000   2000.0000   2000.0000      8.4454    134.6978
  1089.2500   2000.0000   2000.0000      8.6650    137.2381
  1089.5000   2000.0000   2000.0000      9.1593    133.2256
  1089.7500   2000.0000   2000.0000      8.9292    142.4927
  1090.0000   2000.0000   2000.0000      9.3021    152.4177
  1090.2500   2000.0000   2000.0000      9.6708    147.8365
  1090.5000   2000.0000   2000.0000      9.9255    140.0567
  1090.7500   2000.0000   2000.0000     10.2278    135.5954
  1091.0000   2000.0000   2000.0000     10.2505    136.3714
  1091.2500   2000.0000   2000.0000     10.2286    137.7329
  1091.5000   2000.0000   2000.0000     10.4830    131.4433
  1091.7500   2000.0000   2000.0000     10.6624    134.9488
  1092.0000   2000.0000   2000.0000     10.5765    130.8611
  1092.2500   2000.0000   2000.0000     10.4354    128.4726
  1092.5000   2000.0000   2000.0000     10.2785    132.1896
  1092.7500   2000.0000   2000.0000     10.4098    129.8049
  1093.0000   2000.0000   2000.0000     10.2581    121.7723
  1093.2500   2000.0000   2000.0000     10.2696    124.3716
  1093.5000   2000.0000   2000.0000      9.6509    138.5409
  1093.7500   2000.0000   2000.0000      9.8636    145.1537
  1094.0000   2000.0000   2000.0000     10.6518    140.9069
  1094.2500   2000.0000   2000.0000      9.9227    145.0587
  1094.5000   2000.0000   2000.0000     10.1271    141.8546
  1094.7500   2000.0000   2000.0000      9.5552    142.7269
  1095.0000   2000.0000   2000.0000      9.7772    142.0698
  1095.2500   2000.0000   2000.0000      9.6483    144.3659
  1095.5000   2000.0000   2000.0000      9.5761    144.1769
  1095.7500   2000.0000   2000.0000      9.7895    150.1815
  1096.0000   2000.0000   2000.0000     10.1830    151.4760
  1096.2500   2000.0000   2000.0000     10.9595    141.8886
  1096.5000   2000.0000   2000.0000     10.7282    141.0830
  1096.7500   2000.0000   2000.0000     10.9602    144.7150
  1097.0000   2000.0000   2000.0000     12.0842    138.2860
  1097.2500   2000.0000   2000.0000     12.5434    138.5869
  1097.5000   2000.0000   2000.0000     13.3810    136.7269
  1097.7500   2000.0000   2000.0000     14.3726    125.8055
  1098.0000   2000.0000   2000.0000     15.7784    114.0595
  1098.2500   2000.0000   2000.0000     17.8675    110.4941
  1098.5000   2000.0000   2000.0000     18.2372    100.2999
  1098.7500   2000.0000   2000.0000     19.7938     90.5821
  1099.0000   2000.0000   2000.0000     26.5639     90.4016
  1099.2500   2000.0000   2000.0000     28.4041     87.4074
  1099.5000   2000.0000   2000.0000     32.2204     83.9215
  1099.7500   2000.0000   2000.0000     29.3952     83.1438
  1100.0000   2000.0000   2000.0000     27.8154     84.1700
  1100.2500   2000.0000   2000.0000     38.5522     79.6338
  1100.5000   2000.0000   2000.0000     43.2508     73.7586
  1100.7500   2000.0000   2000.0000     43.6034     69.0474
  1101.0000   2000.0000   2000.0000     33.7595     71.8495
  1101.2500   2000.0000   2000.0000     41.8571     67.9855
  1101.5000   2000.0000   2000.0000     28.6506     73.4439
  1101.7500   2000.0000   2000.0000     38.4106     69.3112
  1102.0000   2000.0000   2000.0000     41.4450     82.2058
  1102.2500   2000.0000   2000.0000     42.4434     81.1779
  1102.5000   2000.0000   2000.0000     36.3412     76.3274
  1102.7500   2000.0000   2000.0000     33.3476     75.9385
  1103.0000   2000.0000   2000.0000     32.1519     76.5582
  1103.2500   2000.0000   2000.0000     27.2779     84.0541
  1103.5000   2000.0000   2000.0000     26.2160     92.4836
  1103.7500   2000.0000   2000.0000     24.6169    100.2528
  1104.0000   2000.0000   2000.0000     21.4122    118.7683
  1104.2500   2000.0000   2000.0000     20.8267    126.7143
  1104.5000   2000.0000   2000.0000     19.6653    127.8227
  1104.7500   2000.0000   2000.0000     17.6516    119.2693
  1105.0000   2000.0000   2000.0000     18.6360    133.1098
  1105.2500   2000.0000   2000.0000     17.1529    139.6778
  1105.5000   2000.0000   2000.0000     15.8984    141.8614
  1105.7500   2000.0000   2000.0000     16.0379    136.6301
  1106.0000   2000.0000   2000.0000     15.6513    127.9648
  1106.2500   2000.0000   2000.0000     14.8611    131.2860
  1106.5000   2000.0000   2000.0000     14.9416    146.8718
  1106.7500   2000.0000   2000.0000     15.7476    145.9208
  1107.0000   2000.0000   2000.0000     15.1412    139.8344
  1107.2500   2000.0000   2000.0000     15.4773    137.4278
  1107.5000   2000.0000   2000.0000     14.6958    128.3101
  1107.7500   2000.0000   2000.0000     14.6261    127.9799
  1108.0000   2000.0000   2000.0000     14.5755    140.3977
  1108.2500   2000.0000   2000.0000     15.1156    131.4843
  1108.5000   2000.0000   2000.0000     14.9641    133.5724
  1108.7500   2000.0000   2000.0000     15.1921    133.8724
  1109.0000   2000.0000   2000.0000     16.2055    136.1670
  1109.2500   2000.0000   2000.0000     16.6510    135.6182
  1109.5000   2000.0000   2000.0000     18.4692    145.5994
  1109.7500   2000.0000   2000.0000     17.7145    154.2012
  1110.0000   2000.0000   2000.0000     18.5248    147.0669
  1110.2500   2000.0000   2000.0000     16.5375    140.5993
  1110.5000   2000.0000   2000.0000     15.5587    131.9621
  1110.7500   2000.0000   2000.0000     15.5136    136.1363
  1111.0000   2000.0000   2000.0000     15.8116    128.1810
  1111.2500   2000.0000   2000.0000     16.5551    114.8980
  1111.5000   2000.0000   2000.0000     15.9604    107.2499
  1111.7500   2000.0000   2000.0000     15.6279    114.1706
  1112.0000   2000.0000   2000.0000     15.5721    118.6520
  1112.2500   2000.0000   2000.0000     15.5528    116.3635
  1112.5000   2000.0000   2000.0000     15.2124    118.6422
  1112.7500   2000.0000   2000.0000     15.1904    122.3505
  1113.0000   2000.0000   2000.0000     15.6791    133.1247
  1113.2500   2000.0000   2000.0000     15.2624    135.9568
  1113.5000   2000.0000   2000.0000     13.8069    150.0404
  1113.7500   2000.0000   2000.0000     14.8504    153.7992
  1114.0000   2000.0000   2000.0000     14.0593    154.4057
  1114.2500   2000.0000   2000.0000     13.3874    146.7704
  1114.5000   2000.0000   2000.0000     13.0088    141.1610
  1114.7500   2000.0000   2000.0000     12.4116    140.4283
  1115.0000   2000.0000   2000.0000     12.5601    135.3730
  1115.2500   2000.0000   2000.0000     12.2009    139.1600
  1115.5000   2000.0000   2000.0000     11.3937    156.6645
  1115.7500   2000.0000   2000.0000     11.3143    156.6654
  1116.0000   2000.0000   2000.0000     10.8223    156.7175
  1116.2500   2000.0000   2000.0000     11.0759    160.0389
  1116.5000   2000.0000   2000.0000     11.1421    160.3936
  1116.7500   2000.0000   2000.0000     11.2216    151.6537
  1117.0000   2000.0000   2000.0000     10.2770    150.2434
  1117.2500   2000.0000   2000.0000     10.4940    149.6609
