~Version Information
VERS.                      2.0: CWLS Log ASCII Standard - VERSION 2.0
WRAP.                       NO: One line per depth step
~Well Information Block
STRT.FT               250.0000: 
STOP.FT              1573.7500: 
STEP.FT                 0.2500: 
NULL.                -999.2500: 
COMP.          Pioneer Natural Resources: COMPANY
WELL.          Big Cat Federal 44-1: WELL
FLD.           Purgatoire River: FIELD
LOC.           197' FSL & 973' FEL--: LOCATION
CNTY.               Las Animas: COUNTY
SRVC.                Patterson: SERVICE COMPANY
DATE.          Sun Apr 23 14:54:11 2006: LOG DATE
UWI.           05 071 08042 00: UNIQUE WELL ID
STAT.                 Colorado: STATE
~Curve Information Block
DEPT.FT            0 000 00 00: Depth
DIR.Ohm-m                     : IEL Induction Resistivity
GR.GAPI                       : Gamma Ray
~Parameter Information Block
~A  Depth       DIR          GR     
# ...
   361.5000     16.6458     98.6144
   361.7500     17.3204    102.5374
   362.0000     17.9214    106.2276
   362.2500     18.3836    107.1454
   362.5000     18.6788    107.0714
   362.7500     18.8338    106.7594
   363.0000     18.9200    106.6121
   363.2500     19.0215    106.6455
   363.5000     19.2055    106.3911
   363.7500     19.5103    105.9430
   364.0000     19.9474    105.1943
   364.2500     20.5075    104.8211
   364.5000     21.1658    104.3929
   364.7500     21.8881    104.0700
   365.0000     22.6433    103.4088
   365.2500     23.4168    102.8389
   365.5000     24.2187    101.7715
   365.7500     25.0794    100.8386
   366.0000     26.0370     98.7360
   366.2500     27.1249     96.5607
   366.5000     28.3606     91.8608
   366.7500     29.7362     88.0034
   367.0000     31.2095     82.2081
   367.2500     32.6966     78.9979
   367.5000     34.0740     75.6150
   367.7500     35.1928     74.2081
   368.0000     35.9142     73.1959
   368.2500     36.1563     73.2951
   368.5000     35.9324     74.6466
   368.7500     35.3549     76.2920
   369.0000     34.5892     79.7849
   369.2500     33.7793     82.5945
   369.5000     32.9844     86.3339
   369.7500     32.1531     87.4301
   370.0000     31.1454     85.8701
   370.2500     29.8027     83.1472
   370.5000     28.0413     78.9073
   370.7500     25.9164     77.5038
   371.0000     23.6020     79.3032
   371.2500     21.3047     83.4772
   371.5000     19.1836     93.5335
   371.7500     17.3212    101.5815
   372.0000     15.7375    113.0175
   372.2500     14.4154    119.0635
   372.5000     13.3194    125.2901
   372.7500     12.4076    127.9419
   373.0000     11.6392    130.5522
   373.2500     10.9810    131.6746
   373.5000     10.4119    132.4673
   373.7500      9.9228    132.2643
   374.0000      9.5135    130.6474
   374.2500      9.1860    128.7363
   374.5000      8.9397    125.0863
   374.7500      8.7669    122.5987
   375.0000      8.6530    119.7511
   375.2500      8.5776    118.9505
   375.5000      8.5202    119.7792
   375.7500      8.4669    121.4597
   376.0000      8.4153    124.6871
   376.2500      8.3753    126.7971
   376.5000      8.3640    129.6598
   376.7500      8.3976    131.3603
   377.0000      8.4846    133.0833
   377.2500      8.6214    133.1893
   377.5000      8.7913    131.5260
   377.7500      8.9674    129.6085
   378.0000      9.1191    126.7370
   378.2500      9.2218    125.4981
   378.5000      9.2645    125.4193
   378.7500      9.2506    126.7198
   379.0000      9.1926    130.2963
   379.2500      9.1038    132.9804
   379.5000      8.9939    135.5757
   379.7500      8.8686    135.6309
   380.0000      8.7339    133.6127
   380.2500      8.6008    131.8037
   380.5000      8.4842    129.8094
   380.7500      8.3991    129.2361
   381.0000      8.3549    129.2937
   381.2500      8.3516    129.7729
   381.5000      8.3797    131.1974
   381.7500      8.4228    132.7595
   382.0000      8.4633    135.7724
   382.2500      8.4902    137.5666
   382.5000      8.5039    138.6777
   382.7500      8.5139    138.2656
   383.0000      8.5324    137.0107
   383.2500      8.5670    136.4487
   383.5000      8.6201    136.1822
   383.7500      8.6903    135.9605
   384.0000      8.7762    134.8295
   384.2500      8.8775    133.3996
   384.5000      8.9933    130.3292
   384.7500      9.1189    127.8184
   385.0000      9.2449    123.8375
   385.2500      9.3595    121.3780
   385.5000      9.4541    118.3541
   385.7500      9.5269    116.9005
   386.0000      9.5823    115.9070
   386.2500      9.6255    116.3067
   386.5000      9.6565    118.6596
   386.7500      9.6690    121.1399
   387.0000      9.6532    125.2524
   387.2500      9.6027    127.5425
   387.5000      9.5222    129.1745
   387.7500      9.4286    128.7097
   388.0000      9.3473    126.0798
   388.2500      9.3027    123.8209
   388.5000      9.3116    121.0364
   388.7500      9.3801    119.8297
   389.0000      9.5056    118.4496
   389.2500      9.6803    117.4013
   389.5000      9.8939    115.5275
   389.7500     10.1358    114.3919
   390.0000     10.3964    113.5011
   390.2500     10.6673    113.4924
   390.5000     10.9413    113.5777
   390.7500     11.2104    113.0571
   391.0000     11.4646    111.0007
   391.2500     11.6917    109.1459
   391.5000     11.8796    106.6544
   391.7500     12.0211    105.6189
   392.0000     12.1181    105.4775
   392.2500     12.1825    106.5969
   392.5000     12.2315    110.2836
   392.7500     12.2796    113.6746
   393.0000     12.3307    118.5289
   393.2500     12.3777    120.6227
   393.5000     12.4062    121.4500
   393.7500     12.4027    120.8785
   394.0000     12.3605    119.5378
   394.2500     12.2819    118.6816
   394.5000     12.1779    117.0521
   394.7500     12.0651    115.3141
   395.0000     11.9611    111.9266
   395.2500     11.8796    109.9245
   395.5000     11.8281    108.5044
   395.7500     11.8071    108.5085
   396.0000     11.8131    108.6448
   396.2500     11.8411    108.2017
   396.5000     11.8871    106.8362
   396.7500     11.9488    105.9918
   397.0000     12.0255    105.6033
   397.2500     12.1170    106.0009
   397.5000     12.2211    107.1616
   397.7500     12.3313    107.9265
   398.0000     12.4366    108.2415
   398.2500     12.5242    107.4592
   398.5000     12.5826    104.9083
   398.7500     12.6020    103.0483
   399.0000     12.5733    101.4857
   399.2500     12.4903    101.5011
   399.5000     12.3549    102.5694
   399.7500     12.1819    103.7305
   400.0000     11.9963    106.1970
   400.2500     11.8271    108.2465
   400.5000     11.7000    111.2527
   400.7500     11.6331    112.7962
   401.0000     11.6356    113.9581
   401.2500     11.7070    113.5930
   401.5000     11.8372    110.4690
   401.7500     12.0063    106.5128
   402.0000     12.1873     98.8111
   402.2500     12.3532     93.6563
   402.5000     12.4881     87.8280
   402.7500     12.5949     85.9545
   403.0000     12.6926     86.4823
   403.2500     12.8036     88.6826
   403.5000     12.9381     93.6006
   403.7500     13.0873     97.4170
   404.0000     13.2253    103.5633
   404.2500     13.3217    107.7841
   404.5000     13.3553    113.7074
   404.7500     13.3250    117.0011
   405.0000     13.2519    120.8251
   405.2500     13.1705    122.8577
   405.5000     13.1155    125.3610
   405.7500     13.1093    126.4741
   406.0000     13.1569    126.8228
   406.2500     13.2465    126.1092
   406.5000     13.3543    123.9020
   406.7500     13.4500    121.9846
   407.0000     13.5022    119.3255
   407.2500     13.4855    118.3031
   407.5000     13.3891    118.2323
   407.7500     13.2201    118.6228
   408.0000     13.0009    118.2648
   408.2500     12.7599    116.7812
   408.5000     12.5238    113.0684
   408.7500     12.3115    110.5939
   409.0000     12.1322    108.9554
   409.2500     11.9849    109.9591
   409.5000     11.8600    114.0877
   409.7500     11.7440    117.4179
   410.0000     11.6236    121.2307
   410.2500     11.4906    122.5337
   410.5000     11.3420    123.2408
   410.7500     11.1798    123.4597
   411.0000     11.0085    123.8533
   411.2500     10.8349    124.0811
   411.5000     10.6678    124.0457
   411.7500     10.5192    123.6124
   412.0000     10.4025    122.4292
   412.2500     10.3291    121.6882
   412.5000     10.3039    121.6660
   412.7500     10.3223    122.7010
   413.0000     10.3703    125.3578
   413.2500     10.4271    127.0973
   413.5000     10.4704    128.1574
   413.7500     10.4828    127.3165
   414.0000     10.4567    124.1207
   414.2500     10.3968    121.5476
   414.5000     10.3158    118.4740
   414.7500     10.2264    117.3708
   415.0000     10.1329    117.2697
   415.2500     10.0286    118.1624
   415.5000      9.8999    120.5607
   415.7500      9.7359    122.4866
   416.0000      9.5362    125.0699
   416.2500      9.3138    126.1428
   416.5000      9.0920    126.4831
   416.7500      8.8977    126.2073
   417.0000      8.7541    126.1802
