~Version Information
VERS.                      2.0: CWLS Log ASCII Standard - VERSION 2.0
WRAP.                       NO: One line per depth step
~Well Information Block
STRT.FT                 0.0000: 
STOP.FT              1439.5000: 
STEP.FT                 0.2500: 
NULL.                -999.2500: 
COMP.          Petrogulf Corporation: COMPANY
WELL.          Robinson 15-12R: WELL
FLD.           Purgatorie River: FIELD
LOC.           1752' FNL & 561' FWL: LOCATION
PROV.                 Colorado: PROVINCE
CNTY.               Las Animas: COUNTRY
SRVC.                Patterson: SERVICE COMPANY
DATE.          Tue Oct 04 09:17:52 2005: LOG DATE
UWI.                          : UNIQUE WELL ID
~Curve Information Block
DEPT.FT            0 000 00 00: Depth
GR.GAPI                       : Gamma Ray
CCL.                          : Casing Collar Locator
TT3.usec                      : CBL 3' Travel Time
AMP3.mV                       : CBL 3' Amplitude
~Parameter Information Block
~A  Depth        GR         CCL         TT3         AMP3    
# ...
   670.0000     96.5788      0.0000    825.0746     10.2691
   670.2500     96.1802      0.0000    862.3226      9.2976
   670.5000     95.5781      0.0000    870.2065      8.4934
   670.7500     94.3692      0.0000    860.1287      7.8054
   671.0000     92.4713      0.0000    853.7855      7.1800
   671.2500     90.5784      0.0000    853.7517      6.5888
   671.5000     90.0303      0.0000    853.0432      6.0260
   671.7500     91.5414      0.0000    849.7615      5.5194
   672.0000     93.9725      0.0000    843.4402      5.1158
   672.2500     95.0540      0.0000    832.4001      4.8338
   672.5000     93.5623      0.0000    817.3931      4.6368
   672.7500     90.3163      0.0000    802.1001      4.4368
   673.0000     86.8675      0.0000    790.0493      4.1366
   673.2500     83.7613      0.0000    783.5861      3.7157
   673.5000     80.4640      0.0000    782.9614      3.2659
   673.7500     76.6097      0.0000    787.4819      2.8946
   674.0000     72.7498      0.0000    800.1712      2.6067
   674.2500     69.7694      0.0000    824.1588      2.3301
   674.5000     67.9569      0.0000    857.1503      2.0310
   674.7500     67.0217      0.0000    897.7643      1.7545
   675.0000     67.0351      0.0000    945.1570      1.5727
   675.2500     68.9289      0.0000    992.5176      1.5304
   675.5000     73.7291      0.0000   1038.6909      1.6315
   675.7500     81.5139      0.0000   1081.6707      1.8622
   676.0000     91.3764      0.0000   1091.1530      2.2208
   676.2500    102.1146      0.0000   1036.5157      2.7029
   676.5000    112.5833      0.0000    938.1756      3.2766
   676.7500    121.6164      0.0000    850.4712      3.9166
   677.0000    128.1613      0.0000    804.5173      4.6065
   677.2500    131.8258      0.0000    792.9730      5.3056
   677.5000    133.2208      0.0000    795.4630      5.9852
   677.7500    133.3751      0.0000    798.8566      6.6471
   678.0000    132.6296      0.0000    798.8245      7.2720
   678.2500    130.4132      0.0000    793.9938      7.8355
   678.5000    126.3121      0.0000    783.8931      8.3765
   678.7500    121.0612      0.0000    771.2413      8.9481
   679.0000    116.2583      0.0000    760.7018      9.5506
   679.2500    113.3285      0.0000    752.4572     10.1994
   679.5000    112.9146      0.0000    737.0511     10.9890
   679.7500    114.8265      0.0000    695.8874     12.0090
   680.0000    118.0771      0.0000    616.6727     13.2173
   680.2500    121.1183      0.0000    517.4789     14.4368
   680.5000    122.5701      0.0000    436.5826     15.5073
   680.7500    122.0558      0.0000    391.0742     16.4233
   681.0000    120.4528      0.0000    368.6918     17.2628
   681.2500    119.2798      0.0000    355.0722     18.0250
   681.5000    119.5674      0.0000    347.4010     18.6104
   681.7500    120.9958      0.0000    348.1943     18.8888
   682.0000    122.0714      0.0000    359.6534     18.7495
   682.2500    121.2218      0.0000    383.9336     18.1578
   682.5000    117.8566      0.0000    426.2950     17.1652
   682.7500    112.6874      0.0000    497.4483     15.8779
   683.0000    107.2626      0.0000    604.8211     14.4375
   683.2500    103.0654      0.0000    730.8706     12.9771
   683.5000    100.7781      0.0000    832.4808     11.5929
   683.7500    100.2129      0.0000    880.4188     10.3496
   684.0000    100.7792      0.0000    884.3810      9.2721
   684.2500    101.8672      0.0000    871.3976      8.3368
   684.5000    102.7530      0.0000    859.4230      7.4859
   684.7500    102.3117      0.0000    852.9513      6.6814
   685.0000     99.2251      0.0000    849.1762      5.9547
   685.2500     92.8772      0.0000    842.0912      5.3716
   685.5000     84.0863      0.0000    823.4223      4.9673
   685.7500     74.6733      0.0000    789.5049      4.7387
   686.0000     66.2528      0.0000    751.8171      4.6635
   686.2500     59.5947      0.0000    727.8130      4.7028
   686.5000     54.8653      0.0000    719.6396      4.8000
   686.7500     51.8499      0.0000    717.2399      4.9072
   687.0000     49.9009      0.0000    712.5003      5.0241
   687.2500     48.2399      0.0000    702.0844      5.1844
   687.5000     46.5641      0.0000    689.6913      5.3969
   687.7500     45.1921      0.0000    682.3201      5.6260
   688.0000     44.6152      0.0000    683.6989      5.8221
   688.2500     44.9866      0.0000    696.9909      5.9497
   688.5000     45.9699      0.0000    725.1021      5.9991
   688.7500     47.0733      0.0000    763.2746      5.9877
   689.0000     48.2406      0.0000    799.3867      5.9444
   689.2500     50.0936      0.0000    823.5935      5.8815
   689.5000     53.4026      0.0000    832.8284      5.7889
   689.7500     58.1991      0.0000    831.2017      5.6627
   690.0000     63.4308      0.0000    828.9246      5.5277
   690.2500     67.4692      0.0000    833.0829      5.4147
   690.5000     68.9712      0.0000    840.6594      5.3284
   690.7500     67.5838      0.0000    845.7842      5.2514
   691.0000     64.2075      0.0000    847.1238      5.1652
   691.2500     60.5051      0.0000    845.3904      5.0661
   691.5000     57.7795      0.0000    839.2769      4.9695
   691.7500     56.2246      0.0000    825.2783      4.8890
   692.0000     55.3007      0.0000    800.5721      4.8175
   692.2500     54.6363      0.0000    768.5703      4.7351
   692.5000     54.3589      0.0000    743.7336      4.6368
   692.7500     54.6359      0.0000    742.2070      4.5438
   693.0000     55.1629      0.0000    761.6050      4.4760
   693.2500     55.3673      0.0000    781.7255      4.4334
   693.5000     55.0580      0.0000    784.2122      4.4120
   693.7500     54.5778      0.0000    758.7334      4.4040
   694.0000     54.3124      0.0000    705.3331      4.3946
   694.2500     54.3166      0.0000    648.5699      4.3656
   694.5000     54.4174      0.0000    627.6850      4.2625
   694.7500     54.4342      0.0000    654.6764      3.9774
   695.0000     54.1963      0.0000    701.7357      3.4744
   695.2500     53.4325      0.0000    735.5417      2.9920
   695.5000     51.8432      0.0000    743.2711      2.8863
   695.7500     49.3941      0.0000    731.8262      3.1304
   696.0000     46.3863      0.0000    722.4662      3.3690
   696.2500     43.1596      0.0000    731.9252      3.4572
   696.5000     39.9786      0.0000    752.9017      3.4778
   696.7500     37.3785      0.0000    770.1046      3.4750
   697.0000     36.2859     -2.0000    779.6183      3.4495
   697.2500     37.3600      0.0000    782.5441      3.3874
   697.5000     40.1434      0.0000    783.8375      3.2414
   697.7500     43.0920      0.0000    789.3618      3.0363
   698.0000     44.6433      0.0000    790.9573      2.9951
   698.2500     44.3012      0.0000    777.5103      3.3136
   698.5000     42.7677      0.0000    755.9330      3.7784
   698.7500     41.2901      0.0000    741.4789      4.0048
   699.0000     40.9430      0.0000    739.8054      3.9387
   699.2500     42.1043      0.0000    745.1338      3.7551
   699.5000     44.2520      0.0000    749.8669      3.5844
   699.7500     46.3655      0.0000    751.7844      3.4757
   700.0000     47.7108      0.0000    752.1503      3.4092
   700.2500     48.1271      0.0000    752.1002      3.3497
   700.5000     47.6093      0.0000    751.9794      3.3037
   700.7500     46.0764      0.0000    751.8177      3.2944
   701.0000     43.7428      0.0000    751.6441      3.3194
   701.2500     41.3557      0.0000    751.5140      3.3618
   701.5000     39.7355      0.0000    751.4136      3.4147
   701.7500     39.2382      0.0000    751.2028      3.4678
   702.0000     39.9946      0.0000    750.4739      3.4948
   702.2500     42.5074      0.0000    748.0620      3.4720
   702.5000     47.4313      0.0000    742.3052      3.3965
   702.7500     54.4700      0.0000    734.3112      3.2935
   703.0000     61.7509      0.0000    730.1367      3.2056
   703.2500     66.6960      0.0000    733.9855      3.1662
