~Version Information
VERS.                      2.0: CWLS Log ASCII Standard - VERSION 2.0
WRAP.                       NO: One line per depth step
~Well Information Block
STRT.FT               506.1000: 
STOP.FT              2140.0000: 
STEP.FT                 0.1000: 
NULL.                -999.2500: 
COMP.          Petrogulf Corporation: COMPANY
WELL.            Montoya 1-44R: WELL
FLD.           Purgatorie River: FIELD
LOC.           658' FSL & 1052' FWL: LOCATION
CNTY.               Las Animas: COUNTY
SRVC.                         : SERVICE COMPANY
DATE.          Tue Nov 16 04:33:40 2004: LOG DATE
UWI.           05 071 08239 00: UNIQUE WELL ID
STAT.                 Colorado: STATE
~Curve Information Block
DEPT.FT            0 000 00 00: Depth
DCAL.in                       : CDL Caliper
RHOB.g/cc                     : CDL Bulk Density
RHOC.g/cc                     : CDL Density Correction
DPOR.pu                       : CDL Density Porosity
GR.GAPI                       : Gamma Ray
NPOR.pu                       : Neutron Porosity
~Parameter Information Block
~A  Depth       DCAL        RHOB        RHOC        DPOR         GR         NPOR    
# ...
  1197.3000      8.1053      2.5999      0.0162      3.0343    132.5189     23.2176
  1197.4000      8.1053      2.5979      0.0350      3.1570    140.4751     24.6363
  1197.5000      8.1063      2.5754      0.0201      4.5185    144.6554     25.8252
  1197.6000      8.1063      2.5418      0.0128      6.5562    140.7257     26.3927
  1197.7000      8.1063      2.5197      0.0008      7.8990    133.8841     26.6489
  1197.8000      8.1062      2.5203      0.0189      7.8576    132.6064     26.6286
  1197.9000      8.1062      2.5359      0.0267      6.9148    136.7657     26.7502
  1198.0000      8.1070      2.5573      0.0355      5.6205    139.6462     27.0366
  1198.1000      8.1070      2.5789      0.0742      4.3116    138.3946     27.0418
  1198.2000      8.1070      2.5883      0.0426      3.7404    134.6031     27.0105
  1198.3000      8.1053      2.5792      0.0364      4.2916    130.5309     27.2408
  1198.4000      8.1053      2.5593      0.0222      5.4961    129.6690     27.5177
  1198.5000      8.1010      2.5480     -0.0164      6.1822    131.7270     27.9641
  1198.6000      8.1010      2.5583     -0.0205      5.5576    129.6074     28.6551
  1198.7000      8.1010      2.5756      0.0298      4.5075    123.0539     29.1158
  1198.8000      8.0995      2.5842      0.0195      3.9868    122.2970     29.0097
  1198.9000      8.0995      2.5938      0.0211      3.4064    129.6623     28.6654
  1199.0000      8.1010      2.6058      0.0811      2.6777    137.3481     28.4251
  1199.1000      8.1010      2.6043      0.0218      2.7669    143.3369     28.2854
  1199.2000      8.1010      2.5927      0.0389      3.4724    149.1314     28.3515
  1199.3000      8.1007      2.5911      0.0237      3.5722    150.4766     28.5518
  1199.4000      8.1007      2.5994      0.0399      3.0646    144.0208     28.8876
  1199.5000      8.0971      2.5961      0.0314      3.2674    135.0449     29.3779
  1199.6000      8.0971      2.5798     -0.0151      4.2518    131.4047     29.1977
  1199.7000      8.0971      2.5733     -0.0270      4.6475    135.2830     28.0303
  1199.8000      8.0978      2.5936     -0.0521      3.4185    142.1342     27.0608
  1199.9000      8.0978      2.6388      0.0139      0.6791    147.3507     27.2446
  1200.0000      8.1061      2.6855      0.0314     -2.1507    148.7993     28.1570
  1200.1000      8.1061      2.7090      0.0758     -3.5766    146.2818     29.0621
  1200.2000      8.1061      2.7061      0.0442     -3.4004    142.3337     29.7100
  1200.3000      8.1121      2.6918      0.0219     -2.5311    139.9058     29.6267
  1200.4000      8.1121      2.6747      0.0507     -1.4972    140.5564     28.5838
  1200.5000      8.1074      2.6468      0.0460      0.1941    140.8581     27.7299
  1200.6000      8.1074      2.6066     -0.0238      2.6295    138.5927     27.9088
  1200.7000      8.1074      2.5686     -0.0011      4.9325    139.7813     28.3512
  1200.8000      8.0992      2.5434     -0.0752      6.4593    145.7663     28.3785
  1200.9000      8.0992      2.5353     -0.0921      6.9522    148.7455     28.5857
  1201.0000      8.0966      2.5442     -0.0607      6.4129    146.9632     28.9516
  1201.1000      8.0966      2.5550      0.0465      5.7554    144.8056     28.6741
  1201.2000      8.0966      2.5551     -0.0309      5.7498    142.7558     28.0042
  1201.3000      8.1042      2.5652     -0.0346      5.1400    139.6661     27.6121
  1201.4000      8.1042      2.5983      0.0474      3.1317    137.3283     27.8462
  1201.5000      8.1094      2.6285      0.0601      1.3009    140.4709     28.5555
  1201.6000      8.1094      2.6307      0.0829      1.1673    147.9979     28.9548
  1201.7000      8.1094      2.6048      0.0550      2.7411    149.7551     28.7089
  1201.8000      8.1021      2.5718      0.0339      4.7416    141.2794     28.5300
  1201.9000      8.1021      2.5540      0.0028      5.8205    130.9220     28.8180
  1202.0000      8.0951      2.5535      0.0498      5.8494    124.3621     29.1469
  1202.1000      8.0951      2.5586      0.0611      5.5402    121.5779     28.9319
  1202.2000      8.0951      2.5584      0.0718      5.5501    125.4657     27.9360
  1202.3000      8.0976      2.5498      0.0680      6.0722    135.9948     26.8370
  1202.4000      8.0976      2.5255      0.0944      7.5476    145.2294     26.3746
  1202.5000      8.0992      2.4706      0.0743     10.8710    145.2180     26.5182
  1202.6000      8.0992      2.3952      0.0131     15.4400    137.2256     26.9514
  1202.7000      8.0992      2.3267     -0.0029     19.5933    128.3997     27.5598
  1202.8000      8.1024      2.2582      0.0250     23.7447    121.3386     28.3994
  1202.9000      8.1024      2.1621      0.0076     29.5694    115.8559     29.5267
  1203.0000      8.1098      2.0486     -0.0554     36.4474    113.0294     30.6300
  1203.1000      8.1098      1.9632     -0.0796     41.6229    113.0466     31.5235
  1203.2000      8.1098      1.9284     -0.0031     43.7348    115.5954     32.0341
  1203.3000      8.1089      1.9250      0.0292     43.9422    119.8670     31.4182
  1203.4000      8.1089      1.9399      0.0363     43.0384    124.2510     30.2195
  1203.5000      8.1048      1.9869      0.0507     40.1862    126.1711     29.9758
  1203.6000      8.1048      2.0715      0.1803     35.0589    124.8566     30.5953
  1203.7000      8.1048      2.1757      0.2234     28.7478    123.3432     30.7002
  1203.8000      8.1034      2.2826      0.2359     22.2649    123.7616     30.2523
  1203.9000      8.1034      2.3823      0.2635     16.2266    124.9258     30.1125
  1204.0000      8.1016      2.4597      0.2120     11.5360    126.2719     30.1034
  1204.1000      8.1016      2.5042      0.1538      8.8372    129.7116     29.7040
  1204.2000      8.1016      2.5219      0.0917      7.7606    133.3011     28.8891
  1204.3000      8.0961      2.5282      0.0997      7.3847    130.9339     28.0657
  1204.4000      8.0961      2.5320      0.0674      7.1512    124.1332     27.3560
  1204.5000      8.0937      2.5380      0.0626      6.7897    121.4124     26.4437
  1204.6000      8.0937      2.5486      0.0657      6.1443    122.0677     25.4490
  1204.7000      8.0937      2.5634      0.0920      5.2464    118.4250     24.9986
  1204.8000      8.1015      2.5852      0.0886      3.9267    112.8152     25.3099
  1204.9000      8.1015      2.6154      0.1136      2.0991    114.4111     25.2832
  1205.0000      8.1087      2.6480      0.1058      0.1242    122.7174     23.8006
  1205.1000      8.1087      2.6763      0.1038     -1.5930    128.6958     21.9674
  1205.2000      8.1087      2.6918      0.1170     -2.5326    127.6048     21.2786
  1205.3000      8.1051      2.6895      0.1273     -2.3919    122.7218     21.3779
  1205.4000      8.1051      2.6783      0.1227     -1.7179    116.4442     21.7027
  1205.5000      8.1004      2.6737      0.0765     -1.4363    110.9941     22.2980
  1205.6000      8.1004      2.6707      0.1094     -1.2529    112.1069     23.0698
  1205.7000      8.1004      2.6532      0.0544     -0.1926    118.5558     23.4476
  1205.8000      8.0970      2.6278      0.0295      1.3462    120.4907     22.8350
  1205.9000      8.0970      2.6064      0.0258      2.6423    115.1582     22.0848
  1206.0000      8.0979      2.5885      0.0230      3.7296    112.4053     22.2864
  1206.1000      8.0979      2.5689      0.0473      4.9131    117.7828     22.9690
  1206.2000      8.0979      2.5480      0.0386      6.1837    125.1798     23.1568
  1206.3000      8.1029      2.5369      0.0172      6.8544    128.3337     22.6714
  1206.4000      8.1029      2.5444      0.0155      6.3985    126.7650     21.8541
  1206.5000      8.1058      2.5673      0.0487      5.0100    123.0665     21.2434
  1206.6000      8.1058      2.5980      0.0661      3.1521    122.0514     20.9366
  1206.7000      8.1058      2.6232      0.0967      1.6232    125.7006     20.6514
  1206.8000      8.1067      2.6312      0.0954      1.1390    132.2168     20.8972
