~Version Information
VERS.                      2.0: CWLS Log ASCII Standard - VERSION 2.0
WRAP.                       NO: One line per depth step
~Well Information Block
STRT.FT                -6.2500: 
STOP.FT              2316.0000: 
STEP.FT                 0.2500: 
NULL.                -999.2500: 
COMP.          Pioneer Natural Resources: COMPANY
WELL.             Trimax 44-23: WELL
FLD.           Purgatorie River: FIELD
LOC.           527' FSL & 1064' FEL------: LOCATION
PROV.                       CO: PROVINCE
CNTY.               Las Animas: COUNTRY
SRVC.          Patterson Wireline: SERVICE COMPANY
DATE.          Sat Mar 19 11:18:53 2005: LOG DATE
UWI.           05 071 08326 00: UNIQUE WELL ID
~Curve Information Block
DEPT.FT            0 000 00 00: Depth
CCL.                          : Casing Collar Locator
TT3.usec                      : CBL 3' Travel Time
AMP3.mV                       : CBL 3' Amplitude
GR.GAPI                       : Gamma Ray
~Parameter Information Block
~A  Depth       CCL         TT3         AMP3         GR     
# ...
  1367.2500      0.0000    751.7520      8.6934     61.0108
  1367.5000      0.0000    751.8094      8.7823     64.3990
  1367.7500      0.0000    753.9546      8.6897     68.0358
  1368.0000      0.0000    757.0869      8.4892     73.5839
  1368.2500      0.0000    760.8868      8.3532     82.3204
  1368.5000      0.0000    765.6633      8.3921     93.5851
  1368.7500      0.0000    771.2677      8.5655    105.2577
  1369.0000      0.0000    776.6386      8.7573    115.3136
  1369.2500      0.0000    780.6418      8.9190    122.9515
  1369.5000      0.0000    782.9750      9.1058    128.6876
  1369.7500      0.0000    784.0854      9.3693    133.4680
  1370.0000      0.0000    784.5533      9.6597    137.5200
  1370.2500      0.0000    784.7432      9.8751    140.1551
  1370.5000      0.0000    784.8340      9.9864    140.8199
  1370.7500      0.0000    784.9128     10.0633    140.1785
  1371.0000      0.0000    784.9046     10.1650    139.9438
  1371.2500      0.0000    784.3104     10.2511    141.5959
  1371.5000      0.0000    781.7853     10.2412    145.1637
  1371.7500      0.0000    774.9308     10.1300    149.2276
  1372.0000      0.0000    761.0759      9.9926    152.1155
  1372.2500      0.0000    739.3654      9.8788    152.9667
  1372.5000      0.0000    712.6857      9.7622    151.7618
  1372.7500      0.0000    686.7227      9.6123    148.8670
  1373.0000      0.0000    665.6724      9.4651    144.9324
  1373.2500      0.0000    648.5773      9.3801    141.0351
  1373.5000      0.0000    630.9886      9.3588    138.2984
  1373.7500      0.0000    610.4987      9.3575    136.8963
  1374.0000      0.0000    589.3911      9.3666    135.6623
  1374.2500      0.0000    571.8068      9.4230    133.2264
  1374.5000      0.0000    560.0453      9.5306    129.5869
  1374.7500      0.0000    553.8914      9.6238    126.2665
  1375.0000      0.0000    551.7650      9.6514    124.7565
  1375.2500      0.0000    551.6289      9.6681    125.0424
  1375.5000      0.0000    551.4567      9.7882    125.8955
  1375.7500      0.0000    549.4477     10.0474    126.2911
  1376.0000      0.0000    544.0825     10.3514    126.0791
  1376.2500      0.0000    534.8914     10.5609    125.6147
  1376.5000      0.0000    524.0023     10.5903    125.2732
  1376.7500      0.0000    516.0851     10.4380    125.2642
  1377.0000      0.0000    514.8878     10.1743    125.5764
  1377.2500      0.0000    519.5982      9.9055    126.0312
  1377.5000      0.0000    526.1999      9.7068    126.4767
  1377.7500      0.0000    532.9470      9.5722    126.9289
  1378.0000      0.0000    543.3645      9.4365    127.5590
  1378.2500      0.0000    563.1654      9.2420    128.5592
  1378.5000      0.0000    594.2608      8.9802    129.8602
  1378.7500      0.0000    631.4579      8.6909    130.9409
  1379.0000      0.0000    664.7250      8.4414    131.0566
  1379.2500      0.0000    685.2524      8.3023    129.7420
  1379.5000      0.0000    690.5572      8.3182    127.1687
  1379.7500      0.0000    684.8442      8.4850    124.3503
  1380.0000      0.0000    674.8611      8.7532    123.0488
  1380.2500      0.0000    665.4073      9.0577    124.7397
  1380.5000      0.0000    658.3955      9.3440    128.9613
  1380.7500      0.0000    654.9134      9.5555    133.0248
  1381.0000      0.0000    656.6728      9.6011    134.0107
  1381.2500      0.0000    665.0469      9.3670    131.0623
  1381.5000      0.0000    678.7347      8.8117    125.5977
  1381.7500      0.0000    692.7870      8.0622    119.9117
  1382.0000      0.0000    700.7695      7.3678    116.1183
  1382.2500      0.0000    698.8027      6.8980    115.7380
  1382.5000      0.0000    687.9351      6.6022    119.0343
  1382.7500      0.0000    673.6088      6.3102    124.4034
  1383.0000      0.0000    663.3173      5.9407    128.9952
  1383.2500      0.0000    662.8813      5.5580    130.4987
  1383.5000      0.0000    672.6663      5.2624    128.5725
  1383.7500     -1.0000    687.9403      5.0905    124.6710
  1384.0000      0.0000    703.9641      5.0184    120.7545
  1384.2500      0.0000    719.3525      5.0330    118.2279
  1384.5000      0.0000    733.4389      5.1889    117.4692
  1384.7500      0.0000    743.0148      5.5765    117.6212
  1385.0000      0.0000    744.4332      6.2174    116.9294
  1385.2500      0.0000    738.0433      7.0284    113.9250
  1385.5000      0.0000    728.6058      7.9231    108.6883
  1385.7500      0.0000    721.1593      8.8812    103.0188
  1386.0000      0.0000    716.9211      9.8568     99.2031
  1386.2500      0.0000    713.7991     10.6885     98.3370
  1386.5000      0.0000    710.9383     11.1860     99.7361
  1386.7500      0.0000    711.3188     11.2770    102.0784
  1387.0000      0.0000    718.4484     11.0315    104.9997
  1387.2500      0.0000    731.7119     10.5812    109.1694
  1387.5000      0.0000    746.3911     10.0496    114.8646
  1387.7500      0.0000    757.3156      9.5350    120.9397
  1388.0000      0.0000    761.4639      9.1095    125.2199
  1388.2500      0.0000    757.9005      8.8123    125.5371
  1388.5000      0.0000    746.3577      8.6448    120.7697
  1388.7500      0.0000    727.3130      8.5871    111.8872
  1389.0000      0.0000    704.9869      8.6214    102.2201
  1389.2500      0.0000    688.8817      8.7316     95.8060
  1389.5000      0.0000    687.7788      8.8829     94.8034
  1389.7500      0.0000    700.4167      9.0198     98.5953
  1390.0000      0.0000    715.0682      9.1096    105.1997
  1390.2500      0.0000    719.8311      9.1921    112.9682
  1390.5000      0.0000    711.3245      9.3698    121.0052
  1390.7500      0.0000    693.2523      9.7258    128.6460
  1391.0000      0.0000    670.1462     10.2446    134.9719
  1391.2500      0.0000    645.0790     10.8026    138.9093
  1391.5000      0.0000    621.7748     11.2264    140.0216
  1391.7500      0.0000    605.8936     11.3771    139.2663
  1392.0000      0.0000    603.0068     11.2266    138.4160
  1392.2500      0.0000    615.0601     10.8859    138.2802
  1392.5000      0.0000    638.0032     10.5560    137.8784
  1392.7500      0.0000    662.9792     10.4076    135.7665
  1393.0000      0.0000    681.5103     10.4680    131.9820
  1393.2500      0.0000    690.5924     10.6075    128.3684
  1393.5000      0.0000    692.9711     10.6415    127.0066
  1393.7500      0.0000    693.6561     10.4659    128.3498
  1394.0000      0.0000    696.8700     10.1325    130.8256
  1394.2500      0.0000    704.5718      9.8113    132.1812
  1394.5000      0.0000    715.7072      9.6644    131.0852
  1394.7500      0.0000    726.8290      9.7272    127.4860
  1395.0000      0.0000    734.3797      9.8909    122.1918
  1395.2500      0.0000    736.7756      9.9876    116.8401
  1395.5000      0.0000    734.9344      9.8982    113.7646
  1395.7500      0.0000    731.8783      9.6076    114.6586
  1396.0000      0.0000    731.4919      9.1955    119.0249
  1396.2500      0.0000    736.0025      8.7969    124.4474
  1396.5000      0.0000    744.0689      8.5507    128.4779
  1396.7500      0.0000    752.2858      8.5347    130.0142
  1397.0000      0.0000    758.7464      8.7102    129.1542
  1397.2500      0.0000    764.1529      8.9282    126.3829
  1397.5000      0.0000    769.6429      9.0185    122.2415
  1397.7500      0.0000    774.9458      8.9058    117.6057
  1398.0000      0.0000    778.8941      8.6661    113.8104
  1398.2500      0.0000    780.5336      8.4737    112.1053
  1398.5000      0.0000    779.0291      8.4717    112.9891
  1398.7500      0.0000    773.0210      8.6656    116.0987
  1399.0000      0.0000    760.9965      8.9295    120.3328
  1399.2500      0.0000    742.7765      9.1056    123.8145
  1399.5000      0.0000    720.5024      9.1005    124.2337
  1399.7500      0.0000    697.8974      8.9223    120.1087
  1400.0000      0.0000    679.2207      8.6640    112.2958
  1400.2500      0.0000    669.3375      8.4545    104.1704
  1400.5000      0.0000    673.0432      8.3841     99.7326
