~Version Information
VERS.                      2.0: CWLS Log ASCII Standard - VERSION 2.0
WRAP.                       NO: One line per depth step
~Well Information Block
STRT.FT                 1.5000: 
STOP.FT              1895.2500: 
STEP.FT                 0.2500: 
NULL.                -999.2500: 
COMP.          Petrogulf Corporation: COMPANY
WELL.             State 16-32R: WELL
FLD.           Purgatorie River: FIELD
LOC.           1849' FNL & 1677' FEL: LOCATION
CNTY.               Las Animas: COUNTY
SRVC.                         : SERVICE COMPANY
DATE.          Thu May 20 08:40:19 2004: LOG DATE
UWI.           05 071 08033 00: UNIQUE WELL ID
STAT.                 Colorado: STATE
~Curve Information Block
DEPT.FT            0 000 00 00: Depth
GR.GAPI                       : Gamma Ray
CCL.                          : Casing Collar Locator
TT3.usec                      : CBL 3' Travel Time
AMP3.mV                       : CBL 3' Amplitude
~Parameter Information Block
~A  Depth        GR         CCL         TT3         AMP3    
# ...
  1241.0000    118.4179      0.0000    350.1905     35.9897
  1241.2500    116.0226      0.0000    366.7094     32.1088
  1241.5000    113.4408      0.0000    353.0598     30.1947
  1241.7500    110.4957      0.0000    324.6546     30.5710
  1242.0000    107.5298      0.0000    304.2383     32.0650
  1242.2500    104.9156     -2.0000    296.1972     33.4990
  1242.5000    103.0916     -2.0000    294.3764     34.5008
  1242.7500    102.6495      0.0000    295.0676     34.9586
  1243.0000    103.6946      0.0000    299.6693     34.5532
  1243.2500    105.2075      0.0000    311.9694     33.3347
  1243.5000    105.6498      0.0000    329.3586     32.5712
  1243.7500    104.4155      0.0000    337.5194     34.1039
  1244.0000    102.5649      0.0000    326.5660     38.1740
  1244.2500    102.1696      0.0000    306.3628     42.6363
  1244.5000    104.8637      0.0000    291.6646     45.0817
  1244.7500    110.4809      0.0000    285.5280     45.0925
  1245.0000    116.6839      0.0000    283.8875     44.0359
  1245.2500    120.3332      0.0000    283.5811     43.2750
  1245.5000    119.8512      0.0000    283.5226     43.1309
  1245.7500    116.3532      0.0000    283.4975     43.2510
  1246.0000    112.5960      0.0000    283.4737     43.2364
  1246.2500    111.1083      0.0000    283.4381     42.8487
  1246.5000    112.9922      0.0000    283.3820     42.0227
  1246.7500    117.5895      0.0000    283.3047     40.8465
  1247.0000    122.7636      0.0000    283.2133     39.5181
  1247.2500    125.7953      0.0000    283.1297     38.2644
  1247.5000    124.7315      0.0000    283.0851     37.2322
  1247.7500    119.4979      0.0000    283.0883     36.4755
  1248.0000    111.9738      0.0000    283.1142     35.9891
  1248.2500    104.9391      0.0000    283.1412     35.6928
  1248.5000    100.6288      0.0000    283.1777     35.5157
  1248.7500     99.9098      0.0000    283.2385     35.5081
  1249.0000    102.4925      0.0000    283.3145     35.7942
  1249.2500    107.6358      0.0000    283.3725     36.5171
  1249.5000    114.3687      0.0000    283.3643     37.8330
  1249.7500    121.2215      0.0000    283.1036     39.8932
  1250.0000    126.4161      0.0000    281.8230     42.7384
  1250.2500    128.7705      0.0000    277.8606     46.1357
  1250.5000    128.5523      0.0000    270.0167     49.6665
  1250.7500    127.4261      0.0000    260.0654     53.0158
  1251.0000    127.3816      0.0000    251.9396     56.0378
  1251.2500    129.5132      0.0000    247.6433     58.6388
  1251.5000    133.5150      0.0000    246.1669     60.7804
  1251.7500    137.9226      0.0000    245.8598     62.5234
  1252.0000    141.0773      0.0000    245.8796     64.0304
  1252.2500    142.4397      0.0000    245.9884     65.5347
  1252.5000    142.8880      0.0000    246.1323     67.1905
  1252.7500    143.4018      0.0000    246.2830     68.9593
  1253.0000    143.7065      0.0000    246.4179     70.6434
  1253.2500    142.8104      0.0000    246.5187     71.9793
  1253.5000    140.8190      0.0000    246.5726     72.7903
  1253.7500    139.4752      0.0000    246.5844     73.0829
  1254.0000    140.4334      0.0000    246.5842     73.0211
  1254.2500    143.4687      0.0000    246.6076     72.8510
  1254.5000    146.8166      0.0000    246.6613     72.7754
  1254.7500    148.9102      0.0000    246.7216     72.8567
  1255.0000    149.5762      0.0000    246.7649     73.0201
  1255.2500    150.0397      0.0000    246.7777     73.1139
  1255.5000    151.9181      0.0000    246.7521     72.9920
  1255.7500    155.7418      0.0000    246.6930     72.5581
  1256.0000    160.1967      0.0000    246.6270     71.7834
  1256.2500    163.0032      0.0000    246.5886     70.7647
  1256.5000    162.7772      0.0000    246.5850     69.6310
  1256.7500    160.0740      0.0000    246.5887     68.2971
  1257.0000    156.5947      0.0000    246.5782     66.5091
  1257.2500    153.5932      0.0000    246.5659     64.2792
  1257.5000    151.2520      0.0000    246.5992     62.0342
  1257.7500    149.2007      0.0000    246.9039     60.1065
  1258.0000    147.0307      0.0000    248.3432     58.3120
  1258.2500    144.4045      0.0000    252.6711     56.1639
  1258.5000    141.1539      0.0000    261.0390     53.2833
  1258.7500    137.4092      0.0000    271.4421     49.6516
  1259.0000    133.5511      0.0000    279.7593     45.6592
  1259.2500    130.1339      0.0000    284.0575     41.8765
  1259.5000    127.8902      0.0000    285.5325     38.7411
  1259.7500    127.6621      0.0000    285.9136     36.4670
  1260.0000    129.9501      0.0000    286.0222     35.1280
  1260.2500    134.2303      0.0000    286.0549     34.7520
  1260.5000    138.8307      0.0000    286.0408     35.2672
  1260.7500    142.0962      0.0000    286.0162     36.3872
  1261.0000    143.9870      0.0000    285.9946     37.8040
  1261.2500    146.2011      0.0000    285.7537     39.5538
  1261.5000    150.3280      0.0000    284.3951     41.9748
  1261.7500    155.9265      0.0000    280.1412     45.1968
  1262.0000    160.5680      0.0000    271.8109     48.8798
  1262.2500    161.7434      0.0000    261.3466     52.5587
  1262.5000    158.6518      0.0000    252.8605     55.9891
  1262.7500    152.2181      0.0000    248.4005     59.0483
  1263.0000    143.8377      0.0000    246.8926     61.5781
  1263.2500    134.6286      0.0000    246.6096     63.4996
  1263.5000    125.8481      0.0000    246.6544     64.9289
  1263.7500    119.3047      0.0000    246.7639     66.1131
  1264.0000    116.5619      0.0000    246.8864     67.2987
  1264.2500    117.5628      0.0000    247.0119     68.6059
  1264.5000    120.1811      0.0000    247.1344     70.0015
  1264.7500    121.3307      0.0000    247.2470     71.3598
  1265.0000    118.9950      0.0000    247.3435     72.5266
  1265.2500    113.7978      0.0000    247.4166     73.4091
  1265.5000    108.6969      0.0000    247.4609     74.0290
  1265.7500    106.9085      0.0000    247.4820     74.4862
  1266.0000    109.9298      0.0000    247.5018     74.8811
  1266.2500    117.0394      0.0000    247.5454     75.2719
  1266.5000    125.9161      0.0000    247.6165     75.6868
  1266.7500    133.7326      0.0000    247.6916     76.1163
  1267.0000    138.5464      0.0000    247.7449     76.5104
  1267.2500    140.2195      0.0000    247.7735     76.8540
  1267.5000    140.0215      0.0000    247.7913     77.1983
  1267.7500    139.3743      0.0000    247.8044     77.5419
  1268.0000    138.9297      0.0000    247.8097     77.7974
  1268.2500    138.6138      0.0000    247.8099     77.9395
  1268.5000    138.3821      0.0000    247.8125     78.0372
  1268.7500    138.7334      0.0000    247.8183     78.1348
  1269.0000    140.1282      0.0000    247.8189     78.1859
  1269.2500    142.0055      0.0000    247.8054     78.1035
  1269.5000    143.0553      0.0000    247.7776     77.8758
  1269.7500    142.7095      0.0000    247.7436     77.5822
  1270.0000    141.7527      0.0000    247.7110     77.2925
  1270.2500    140.9614      0.0000    247.6846     77.0228
  1270.5000    139.6804      0.0000    247.6666     76.7726
  1270.7500    136.5663      0.0000    247.6515     76.5428
  1271.0000    131.7964      0.0000    247.6273     76.3307
  1271.2500    127.7913      0.0000    247.5906     76.1430
  1271.5000    127.0491      0.0000    247.5523     75.9875
  1271.7500    129.3640      0.0000    247.5238     75.8328
  1272.0000    131.8430      0.0000    247.5029     75.6424
  1272.2500    131.8515      0.0000    247.4809     75.4437
  1272.5000    129.3672      0.0000    247.4477     75.2724
  1272.7500    126.1688      0.0000    247.3888     75.0529
  1273.0000    123.3614      0.0000    247.2995     74.5731
  1273.2500    120.5089      0.0000    247.2026     73.6657
  1273.5000    117.0100      0.0000    247.1339     72.4762
  1273.7500    113.3707      0.0000    247.1138     71.3332
  1274.0000    110.5734      0.0000    247.1363     70.3577
  1274.2500    108.6186      0.0000    247.1770     69.4903
