~Version Information
VERS.                      2.0: CWLS Log ASCII Standard - VERSION 2.0
WRAP.                       NO: One line per depth step
~Well Information Block
STRT.FT               423.0000: 
STOP.FT              2306.0000: 
STEP.FT                 0.1000: 
NULL.                -999.2500: 
COMP.          Pioneer Natural Resources: COMPANY
WELL.             Culver 14-12: WELL
FLD.           Purgatoire River: FIELD
LOC.           913' FSL & 1140' FWL: LOCATION
PROV.                 Colorado: PROVINCE
CNTY.               Las Animas: COUNTRY
SRVC.                Patterson: SERVICE COMPANY
DATE.          Tue Jun 07 09:21:05 2005: LOG DATE
UWI.           05 071 08386 00: UNIQUE WELL ID
~Curve Information Block
DEPT.FT            0 000 00 00: Depth
DCAL.in                       : CDL Caliper
RHOB.g/cc                     : CDL Bulk Density
RHOC.g/cc                     : CDL Density Correction
DPOR.pu                       : CDL Density Porosity
GR.GAPI                       : Gamma Ray
NPOR.pu                       : Neutron Porosity
~Parameter Information Block
~A  Depth       DCAL        RHOB        RHOC        DPOR         GR         NPOR    
   423.0000      5.1064      2.2352      0.0970     25.1371    115.2659     21.8906
   423.1000      5.1064      2.2435      0.1763     24.6393    110.3896     21.7241
   423.2000      5.1064      2.2523      0.1356     24.1059    105.5228     21.9363
   423.3000      5.0977      2.2518      0.1100     24.1321    101.8728     22.2279
   423.4000      5.0977      2.2459      0.1150     24.4925    101.5243     22.0895
   423.5000      5.0929      2.2446      0.0834     24.5695    102.7063     21.5746
   423.6000      5.0929      2.2500      0.1533     24.2410    101.9949     21.3006
   423.7000      5.0929      2.2547      0.1513     23.9601     97.8808     21.2511
   423.8000      5.0973      2.2581      0.1079     23.7487     96.1454     20.9050
   423.9000      5.0973      2.2639      0.1222     23.3980    100.0798     20.2695
   424.0000      5.1019      2.2669      0.1510     23.2205    104.8817     19.2785
   424.1000      5.1019      2.2581      0.1558     23.7486    107.0392     17.7945
   424.2000      5.1019      2.2392      0.1299     24.8983    104.9155     16.7589
   424.3000      5.0946      2.2207      0.1083     26.0165     98.1121     16.9837
   424.4000      5.0946      2.2092      0.1089     26.7140     90.6070     18.2386
   424.5000      5.0943      2.2082      0.0866     26.7758     84.4574     19.5604
   424.6000      5.0943      2.2204      0.0991     26.0363     78.4259     19.6564
   424.7000      5.0943      2.2411      0.1521     24.7814     74.2193     18.9388
   424.8000      5.1001      2.2579      0.1678     23.7643     72.1829     18.8982
   424.9000      5.1001      2.2592      0.1424     23.6874     71.4676     19.3806
   425.0000      5.1045      2.2480      0.1163     24.3610     71.5869     19.3848
   425.1000      5.1045      2.2367      0.1143     25.0459     71.4873     19.0206
   425.2000      5.1045      2.2293      0.1187     25.4942     70.5118     19.0737
   425.3000      5.0947      2.2243      0.1045     25.7979     69.0954     19.3797
   425.4000      5.0947      2.2251      0.1117     25.7488     69.0322     19.4547
   425.5000      5.0995      2.2339      0.1644     25.2204     70.8101     19.3712
   425.6000      5.0995      2.2411      0.1726     24.7808     71.8255     18.9805
   425.7000      5.0995      2.2504      0.0989     24.2200     70.9019     18.1909
   425.8000      5.1058      2.2741      0.1147     22.7845     68.4611     17.2337
   425.9000      5.1058      2.2897      0.2190     21.8354     64.2096     16.2604
   426.0000      5.1049      2.2736      0.1276     22.8116     61.1984     15.5086
   426.1000      5.1049      2.2482      0.1651     24.3493     60.3179     15.3380
   426.2000      5.1049      2.2435      0.1246     24.6341     58.0094     15.8432
   426.3000      5.0989      2.2612      0.1383     23.5633     55.5712     16.5714
   426.4000      5.0989      2.2747      0.1997     22.7461     54.7725     17.0481
   426.5000      5.0965      2.2651      0.1390     23.3296     55.3286     17.3296
   426.6000      5.0965      2.2477      0.1440     24.3797     59.9960     17.3319
   426.7000      5.0965      2.2343      0.1490     25.1956     66.4581     16.7931
   426.8000      5.0921      2.2213      0.0898     25.9794     65.6883     16.3841
   426.9000      5.0921      2.2181      0.1277     26.1739     56.6281     16.8711
   427.0000      5.0735      2.2362      0.1213     25.0760     49.2362     17.5448
   427.1000      5.0735      2.2693      0.1736     23.0710     49.5806     17.4989
   427.2000      5.0735      2.2942      0.1920     21.5618     55.0464     16.8614
   427.3000      5.0912      2.2945      0.1638     21.5484     61.2365     15.8442
   427.4000      5.0912      2.2731      0.1917     22.8405     65.0375     14.9668
   427.5000      5.1004      2.2441      0.1558     24.5998     66.3329     14.9186
   427.6000      5.1004      2.2288      0.1085     25.5286     67.8087     15.2496
   427.7000      5.1004      2.2349      0.1218     25.1554     69.5506     15.1015
   427.8000      5.1009      2.2453      0.1421     24.5253     69.6828     14.7678
   427.9000      5.1009      2.2477      0.1065     24.3812     70.1105     14.6554
   428.0000      5.0972      2.2463      0.1295     24.4676     72.2859     14.5361
   428.1000      5.0972      2.2493      0.1205     24.2838     71.2359     14.5628
   428.2000      5.0972      2.2607      0.1480     23.5963     63.8373     14.6323
   428.3000      5.0940      2.2742      0.1429     22.7739     56.2392     14.3089
   428.4000      5.0940      2.2822      0.1562     22.2909     53.8063     13.7693
   428.5000      5.0945      2.2831      0.1482     22.2369     55.9003     13.3764
   428.6000      5.0945      2.2757      0.1463     22.6861     59.8260     13.6434
   428.7000      5.0945      2.2553      0.1208     23.9229     62.0823     14.8500
   428.8000      5.0982      2.2283      0.0894     25.5599     63.0729     15.7758
   428.9000      5.0982      2.2109      0.1258     26.6108     63.6619     15.5517
   429.0000      5.1038      2.2054      0.1096     26.9429     62.0189     15.0988
   429.1000      5.1038      2.2018      0.1484     27.1666     59.5408     14.9934
   429.2000      5.1038      2.1985      0.1031     27.3656     57.4626     15.0412
   429.3000      5.0974      2.2055      0.1276     26.9415     54.4750     15.1145
   429.4000      5.0974      2.2237      0.1239     25.8362     53.1395     15.4951
   429.5000      5.0895      2.2451      0.1340     24.5399     54.7071     16.2978
   429.6000      5.0895      2.2606      0.2034     23.6026     55.1383     16.8523
   429.7000      5.0895      2.2599      0.2082     23.6431     52.9663     16.9466
   429.8000      5.1017      2.2492      0.1249     24.2917     52.0459     17.0870
   429.9000      5.1017      2.2465      0.1322     24.4526     53.2195     17.5298
   430.0000      5.1027      2.2491      0.1634     24.2988     53.6272     17.7122
   430.1000      5.1027      2.2378      0.1553     24.9797     53.5055     17.4141
   430.2000      5.1027      2.2093      0.1016     26.7091     52.3327     17.2949
   430.3000      5.1051      2.1846      0.0721     28.2038     48.8250     17.1356
   430.4000      5.1051      2.1847      0.1032     28.2015     45.5785     16.6438
   430.5000      5.0948      2.1976      0.1619     27.4199     44.2316     16.3746
   430.6000      5.0948      2.1989      0.1409     27.3400     43.9007     16.3996
   430.7000      5.0948      2.1965      0.1246     27.4840     44.8355     16.5134
   430.8000      5.0991      2.2101      0.1258     26.6589     44.7131     16.6021
   430.9000      5.0991      2.2325      0.1829     25.3015     41.4945     16.5475
   431.0000      5.0983      2.2434      0.1543     24.6400     39.1542     16.6215
   431.1000      5.0983      2.2399      0.1538     24.8562     40.4835     17.0340
   431.2000      5.0983      2.2319      0.1654     25.3383     42.5510     17.7388
   431.3000      5.0974      2.2288      0.1164     25.5292     43.0166     18.5043
   431.4000      5.0974      2.2339      0.1381     25.2190     43.7165     18.7291
   431.5000      5.1030      2.2353      0.1743     25.1352     45.0200     18.1365
   431.6000      5.1030      2.2259      0.0880     25.7040     45.7365     17.3187
   431.7000      5.1030      2.2186      0.1338     26.1469     46.5460     16.8959
   431.8000      5.1068      2.2219      0.0958     25.9428     47.4729     17.1230
   431.9000      5.1068      2.2274      0.1815     25.6107     48.3037     17.5318
   432.0000      5.0999      2.2210      0.1497     26.0020     49.0468     17.1462
   432.1000      5.0999      2.2071      0.1400     26.8395     48.3811     16.0618
   432.2000      5.0999      2.1990      0.1382     27.3319     47.7717     15.1774
   432.3000      5.1026      2.1983      0.1050     27.3776     49.3963     14.6688
   432.4000      5.1026      2.1990      0.1149     27.3325     51.5886     14.6263
   432.5000      5.1065      2.1974      0.1040     27.4280     52.1860     15.6187
