~Version Information
VERS.                      2.0: CWLS Log ASCII Standard - VERSION 2.0
WRAP.                       NO: One line per depth step
~Well Information Block
STRT.FT               580.0000: 
STOP.FT              2729.7000: 
STEP.FT                 0.1000: 
NULL.                -999.2500: 
COMP.          Pioneer Natural Resources: COMPANY
WELL.          Sand Pebbles 13-33: WELL
FLD.           Purgatoire River: FIELD
LOC.           1883' FSL & 63' FWL----: LOCATION
PROV.                 Colorado: PROVINCE
CNTY.               Las Animas: COUNTRY
SRVC.                Patterson: SERVICE COMPANY
DATE.          Mon Mar 14 07:33:33 2005: LOG DATE
UWI.           05 071 08224 00: UNIQUE WELL ID
~Curve Information Block
DEPT.FT            0 000 00 00: Depth
DCAL.in                       : CDL Caliper
RHOB.g/cc                     : CDL Bulk Density
RHOC.g/cc                     : CDL Density Correction
DPOR.pu                       : CDL Density Porosity
NPOR.pu                       : Neutron Porosity
GR.GAPI                       : Gamma Ray
~Parameter Information Block
~A  Depth       DCAL        RHOB        RHOC        DPOR        NPOR         GR     
   580.0000      8.1463      2.3661     -0.1549     17.2044     41.4570     78.1969
   580.1000      8.1463      2.3516     -0.1612     18.0830     41.6502     86.4545
   580.2000      8.1463      2.3338     -0.1943     19.1662     42.0374     91.4544
   580.3000      8.1472      2.3342     -0.2784     19.1385     42.1367     87.2107
   580.4000      8.1472      2.3646     -0.1649     17.2954     42.2483     76.4459
   580.5000      8.1472      2.3865     -0.0969     15.9686     42.5643     67.8558
   580.6000      8.1472      2.3778     -0.1979     16.4976     42.7150     65.4573
   580.7000      8.1472      2.3716     -0.2292     16.8745     42.4885     66.1097
   580.8000      8.1479      2.3837     -0.1646     16.1386     42.2964     66.1263
   580.9000      8.1479      2.3918     -0.1717     15.6506     42.3881     65.3992
   581.0000      8.1478      2.3850     -0.1184     16.0592     42.5520     64.8087
   581.1000      8.1478      2.3722     -0.1802     16.8361     42.6681     64.9254
   581.2000      8.1478      2.3651     -0.2196     17.2693     42.7354     67.2061
   581.3000      8.1460      2.3597     -0.1535     17.5958     42.7005     71.8251
   581.4000      8.1460      2.3438     -0.1938     18.5598     42.5425     74.7443
   581.5000      8.1444      2.3288     -0.2432     19.4646     42.3490     73.4555
   581.6000      8.1444      2.3243     -0.1676     19.7412     42.2637     71.1504
   581.7000      8.1444      2.3171     -0.1995     20.1756     42.3845     70.1366
   581.8000      8.1436      2.3131     -0.2246     20.4172     42.5665     71.0820
   581.9000      8.1436      2.3338     -0.2313     19.1623     42.5688     74.2640
   582.0000      8.1440      2.3699     -0.1529     16.9756     42.4759     77.1606
   582.1000      8.1440      2.3880     -0.1570     15.8759     42.5758     77.8929
   582.2000      8.1440      2.3751     -0.1151     16.6607     42.9367     77.3314
   582.3000      8.1443      2.3437     -0.1572     18.5649     43.3505     76.9553
   582.4000      8.1443      2.3207     -0.2008     19.9602     43.4552     75.1887
   582.5000      8.1441      2.3257     -0.1996     19.6535     43.2804     71.5125
   582.6000      8.1441      2.3498     -0.1678     18.1919     43.3975     68.0168
   582.7000      8.1441      2.3715     -0.1278     16.8773     43.9683     67.6151
   582.8000      8.1441      2.3779     -0.1134     16.4929     44.5097     69.4725
   582.9000      8.1441      2.3671     -0.1484     17.1472     44.6740     69.3753
   583.0000      8.1438      2.3563     -0.1995     17.7980     44.4106     67.3762
   583.1000      8.1438      2.3672     -0.1174     17.1395     43.9894     66.5959
   583.2000      8.1438      2.3941     -0.1268     15.5086     43.7134     68.3708
   583.3000      8.1448      2.4181     -0.1056     14.0530     43.6814     70.2572
   583.4000      8.1448      2.4313     -0.1020     13.2539     43.9830     71.0890
   583.5000      8.1458      2.4341     -0.1181     13.0873     44.4861     73.2413
   583.6000      8.1458      2.4205     -0.1352     13.9081     44.7217     77.3643
   583.7000      8.1458      2.3841     -0.1502     16.1146     44.4113     81.0704
   583.8000      8.1454      2.3376     -0.2189     18.9309     43.8396     81.5998
   583.9000      8.1454      2.3098     -0.2222     20.6203     43.3268     81.4982
   584.0000      8.1427      2.3188     -0.2204     20.0749     42.8971     85.0659
   584.1000      8.1427      2.3519     -0.1536     18.0694     42.5906     89.1806
   584.2000      8.1427      2.3845     -0.1901     16.0898     42.5140     89.0192
   584.3000      8.1415      2.4035     -0.1235     14.9395     42.6306     83.0868
   584.4000      8.1415      2.3975     -0.1189     15.3028     42.8755     74.8775
   584.5000      8.1445      2.3726     -0.1733     16.8134     43.0140     72.3058
   584.6000      8.1445      2.3567     -0.2174     17.7753     42.8431     75.3502
   584.7000      8.1445      2.3651     -0.1792     17.2650     42.5321     76.5195
   584.8000      8.1469      2.3948     -0.1650     15.4645     42.3482     75.5427
   584.9000      8.1469      2.4365     -0.1037     12.9403     42.3704     76.8916
   585.0000      8.1467      2.4657     -0.0792     11.1679     42.4472     78.7024
   585.1000      8.1467      2.4591     -0.1342     11.5693     42.5488     77.5157
   585.2000      8.1467      2.4300     -0.1984     13.3315     42.8937     75.1586
   585.3000      8.1455      2.4134     -0.1803     14.3384     43.2613     72.6783
   585.4000      8.1455      2.4228     -0.1646     13.7727     43.1654     69.5139
   585.5000      8.1448      2.4386     -0.1352     12.8145     42.6983     66.8755
   585.6000      8.1448      2.4363     -0.1523     12.9514     42.4553     65.6158
   585.7000      8.1448      2.4232     -0.2129     13.7485     42.6510     66.3412
   585.8000      8.1445      2.4122     -0.1237     14.4147     43.0194     68.8371
   585.9000      8.1445      2.3916     -0.1789     15.6629     43.3490     70.5447
   586.0000      8.1442      2.3612     -0.2145     17.5022     43.5244     69.8915
   586.1000      8.1442      2.3408     -0.2257     18.7396     43.6919     68.3615
   586.2000      8.1442      2.3425     -0.2125     18.6344     43.9928     67.5522
   586.3000      8.1433      2.3561     -0.1350     17.8115     44.2228     68.5825
   586.4000      8.1433      2.3661     -0.2067     17.2075     44.2699     71.6529
   586.5000      8.1422      2.3652     -0.1101     17.2613     44.3783     76.1665
   586.6000      8.1422      2.3491     -0.1990     18.2379     44.5330     81.3374
   586.7000      8.1422      2.3286     -0.1731     19.4783     44.3790     84.7312
   586.8000      8.1436      2.3148     -0.1875     20.3161     44.1615     84.6403
   586.9000      8.1436      2.3182     -0.2380     20.1079     44.2779     83.5889
   587.0000      8.1466      2.3437     -0.1657     18.5642     44.5770     83.8807
   587.1000      8.1466      2.3698     -0.1460     16.9800     44.8485     84.2667
   587.2000      8.1466      2.3802     -0.1591     16.3497     44.8801     83.5054
   587.3000      8.1479      2.3816     -0.1476     16.2668     44.4743     80.9419
   587.4000      8.1479      2.3815     -0.1280     16.2736     43.8818     78.5947
   587.5000      8.1483      2.3833     -0.1284     16.1630     43.6500     79.3369
   587.6000      8.1483      2.3917     -0.1856     15.6529     43.9951     81.4328
   587.7000      8.1483      2.3987     -0.0854     15.2289     44.6117     80.1179
   587.8000      8.1480      2.3879     -0.1634     15.8848     44.8632     75.7975
   587.9000      8.1480      2.3619     -0.1582     17.4597     44.3021     76.3071
   588.0000      8.1464      2.3337     -0.1553     19.1718     43.1822     84.9180
   588.1000      8.1464      2.3166     -0.1940     20.2078     42.1701     94.9559
   588.2000      8.1464      2.3181     -0.1450     20.1133     41.6871     97.7504
   588.3000      8.1446      2.3351     -0.1671     19.0840     41.7195     92.0936
   588.4000      8.1446      2.3668     -0.1298     17.1630     41.9890     85.8134
   588.5000      8.1453      2.4030     -0.0945     14.9702     42.0206     83.2966
   588.6000      8.1453      2.4199     -0.0691     13.9438     41.6960     80.9704
   588.7000      8.1453      2.4137     -0.1446     14.3195     41.3589     78.2507
   588.8000      8.1476      2.4032     -0.1202     14.9576     40.9559     75.8221
   588.9000      8.1476      2.3992     -0.1416     15.1991     40.4341     73.2388
   589.0000      8.1467      2.3987     -0.1060     15.2310     40.1422     72.8268
   589.1000      8.1467      2.3983     -0.1361     15.2575     40.1821     75.2068
   589.2000      8.1467      2.4023     -0.1420     15.0120     40.4423     78.2516
   589.3000      8.1449      2.4120     -0.1224     14.4240     40.7555     79.9499
   589.4000      8.1449      2.4249     -0.1712     13.6439     40.9866     79.0232
   589.5000      8.1472      2.4350     -0.1054     13.0292     41.0881     74.9938
