~Version Information
VERS.                      2.0: CWLS Log ASCII Standard - VERSION 2.0
WRAP.                       NO: One line per depth step
~Well Information Block
STRT.FT                -8.0000: 
STOP.FT              1540.2500: 
STEP.FT                 0.2500: 
NULL.                -999.2500: 
COMP.          Pioneer Natural Resources: COMPANY
WELL.           Telna 24-22 Tr: WELL
FLD.           Purgatorie River: FIELD
LOC.           748' FSL & 1931' FWL--: LOCATION
PROV.                       CO: PROVINCE
CNTY.               Las Animas: COUNTRY
SRVC.          Patterson Wireline: SERVICE COMPANY
DATE.          Fri May 06 12:29:21 2005: LOG DATE
UWI.           05 071 08304 00: UNIQUE WELL ID
~Curve Information Block
DEPT.FT            0 000 00 00: Depth
CCL.                          : Casing Collar Locator
TT3.usec                      : CBL 3' Travel Time
AMP3.mV                       : CBL 3' Amplitude
GR.GAPI                       : Gamma Ray
~Parameter Information Block
~A  Depth       CCL         TT3         AMP3         GR     
# ...
   193.0000      0.0000    872.2801      5.8501     59.4216
   193.2500      0.0000    871.8102      5.7917     59.4442
   193.5000      0.0000    871.4800      5.7892     56.6451
   193.7500      0.0000    871.2501      5.8265     52.1109
   194.0000      0.0000    871.0529      5.8617     47.9361
   194.2500      0.0000    870.8371      5.8483     45.6353
   194.5000      0.0000    870.5770      5.7692     45.0952
   194.7500      0.0000    870.2690      5.6569     45.0529
   195.0000      0.0000    869.9359      5.5709     44.5528
   195.2500      0.0000    869.6209      5.5433     43.8136
   195.5000      0.0000    869.3698      5.5441     43.7317
   195.7500      0.0000    869.2145      5.5079     44.7608
   196.0000      0.0000    869.1701      5.4032     46.4855
   196.2500      0.0000    869.2346      5.2722     48.3433
   196.5000      0.0000    869.3825      5.1968     50.5827
   196.7500      0.0000    869.5641      5.2200     54.2902
   197.0000      0.0000    869.7278      5.3026     60.5150
   197.2500      0.0000    869.8549      5.3649     69.4272
   197.5000      0.0000    869.9610      5.3670     79.9709
   197.7500      0.0000    869.9396      5.3350     90.0723
   198.0000      0.0000    869.2091      5.3079     97.5531
   198.2500      0.0000    866.3123      5.2801    101.2901
   198.5000      0.0000    859.1639      5.2098    101.5744
   198.7500      0.0000    846.8089      5.0665     99.5853
   199.0000      0.0000    831.9540      4.8579     96.8146
   199.2500      0.0000    821.0664      4.6311     94.6061
   199.5000      0.0000    820.2122      4.4584     93.5010
   199.7500      0.0000    830.2923      4.3951     93.0121
   200.0000      0.0000    847.3282      4.4290     92.4555
   200.2500      0.0000    867.1931      4.4851     91.8614
   200.5000      2.0000    888.8008      4.4974     91.8335
   200.7500      2.0000    912.3140      4.4700     92.8465
   201.0000      0.0000    935.1451      4.4665     94.9550
   201.2500      0.0000    950.7293      4.5447     97.9188
   201.5000      0.0000    952.2957      4.6979    101.3024
   201.7500      0.0000    938.8453      4.8562    104.5757
   202.0000      0.0000    917.0881      4.9498    107.3069
   202.2500      0.0000    896.4764      4.9781    109.2544
   202.5000      0.0000    882.6210      5.0035    110.2002
   202.7500      0.0000    875.6151      5.0681    109.6895
   203.0000      0.0000    872.8898      5.1398    107.1055
   203.2500      0.0000    872.1144      5.1558    102.3767
   203.5000      0.0000    872.0671      5.0984     96.6472
   203.7500      0.0000    872.3188      5.0139     91.8540
   204.0000      0.0000    872.8708      4.9627     89.3301
   204.2500      0.0000    873.9442      4.9655     88.9770
   204.5000      0.0000    875.8160      4.9948     89.8419
   204.7500      0.0000    878.4064      5.0059     91.1319
   205.0000      0.0000    880.8724      4.9768     92.4822
   205.2500      0.0000    881.9011      4.9260     93.5608
   205.5000      0.0000    880.8002      4.8956     93.6882
   205.7500      0.0000    878.1926      4.9136     92.0651
   206.0000      0.0000    875.4111      4.9718     88.7067
   206.2500      0.0000    873.4019      5.0410     85.1454
   206.5000      0.0000    872.3486      5.1045     83.6562
   206.7500      0.0000    871.9990      5.1667     85.4662
   207.0000      0.0000    872.0581      5.2304     89.7629
   207.2500      0.0000    872.4429      5.2760     94.3262
   207.5000      0.0000    873.5267      5.2726     97.0750
   207.7500      0.0000    876.2265      5.2060     97.3975
   208.0000      0.0000    881.4848      5.0972     96.3164
   208.2500      0.0000    889.1566      4.9972     95.3943
   208.5000      0.0000    897.2535      4.9582     95.4080
   208.7500      0.0000    902.6490      5.0011     96.0357
   209.0000      0.0000    902.9819      5.1061     96.5662
   209.2500      0.0000    898.2526      5.2267     96.6419
   209.5000      0.0000    890.9075      5.3091     96.3930
   209.7500      0.0000    884.4857      5.3137     96.1341
   210.0000      0.0000    881.8823      5.2418     95.9098
   210.2500      0.0000    884.2583      5.1424     95.3154
   210.5000      0.0000    890.8350      5.0760     94.0007
   210.7500      0.0000    899.3928      5.0586     92.3715
   211.0000      0.0000    907.4026      5.0503     91.4417
   211.2500      0.0000    913.2723      5.0055     91.7694
   211.5000      0.0000    916.7840      4.9280     92.5966
   211.7500      0.0000    918.5474      4.8667     92.1982
   212.0000      0.0000    919.2888      4.8599     89.2803
   212.2500      0.0000    919.6143      4.8950     84.1802
   212.5000      0.0000    919.9901      4.9227     78.6743
   212.7500      0.0000    920.3945      4.9047     74.7183
   213.0000      0.0000    919.5283      4.8434     73.4353
   213.2500      0.0000    914.6641      4.7714     74.8421
   213.5000      0.0000    903.6080      4.7172     77.9621
   213.7500      0.0000    887.6335      4.6905     81.2903
   214.0000      0.0000    871.6464      4.7005     83.4876
   214.2500      0.0000    860.8603      4.7641     83.7904
   214.5000      0.0000    858.1384      4.8746     82.0891
   214.7500      0.0000    863.8450      4.9798     79.1108
   215.0000      0.0000    875.6171      5.0229     76.4935
   215.2500      0.0000    888.2466      5.0055     76.0823
   215.5000      0.0000    896.4603      4.9810     78.6470
   215.7500      0.0000    898.7910      4.9876     83.3146
   216.0000      0.0000    897.8960      5.0140     88.3294
   216.2500      0.0000    897.1114      5.0401     92.1131
   216.5000      0.0000    897.4586      5.0832     93.7397
   216.7500      0.0000    898.0617      5.1794     93.1535
   217.0000      0.0000    898.4221      5.3292     91.2103
   217.2500      0.0000    899.3470      5.4838     89.1683
   217.5000      0.0000    901.8386      5.5889     87.9328
   217.7500      0.0000    905.7917      5.6282     87.6249
   218.0000      0.0000    910.0065      5.6273     87.6875
   218.2500      0.0000    913.2002      5.6231     87.5890
   218.5000      0.0000    914.8509      5.6278     87.5058
   218.7500      0.0000    915.1852      5.6192     87.9089
   219.0000      0.0000    914.5987      5.5773     88.3818
   219.2500      0.0000    913.1288      5.5282     87.4568
   219.5000      0.0000    910.3328      5.5269     84.0761
   219.7500      0.0000    905.7541      5.5894     79.0629
   220.0000      0.0000    899.6974      5.6598     74.8220
   220.2500      0.0000    893.3732      5.6681     73.6687
   220.5000      0.0000    887.9255      5.6130     76.4024
   220.7500      0.0000    883.6089      5.5671     81.9452
   221.0000      0.0000    880.4510      5.5910     87.9853
   221.2500      0.0000    879.3463      5.6606     92.3806
   221.5000      0.0000    881.5591      5.6962     94.4565
   221.7500      0.0000    886.8794      5.6554     94.9583
   222.0000      0.0000    892.7480      5.5761     94.8641
   222.2500      0.0000    895.9636      5.5221     94.8033
   222.5000      0.0000    895.9974      5.5063     95.3854
   222.7500      0.0000    897.1345      5.4917     97.0345
   223.0000      0.0000    906.8756      5.4575     99.2977
   223.2500      0.0000    929.9617      5.4312    100.9756
   223.5000      0.0000    961.3519      5.4429    101.0283
   223.7500      0.0000    985.7571      5.4804     99.0464
   224.0000      0.0000    988.0935      5.5122     95.1867
   224.2500      0.0000    966.4460      5.5305     90.2773
   224.5000      0.0000    933.3675      5.5459     85.7897
   224.7500      0.0000    904.5515      5.5568     83.0408
   225.0000      0.0000    888.3258      5.5519     82.2367
   225.2500      0.0000    884.9279      5.5396     82.5800
   225.5000      0.0000    891.9558      5.5478     83.2855
   225.7500      0.0000    908.7682      5.5931     84.1576
   226.0000      0.0000    936.0489      5.6659     85.1753
   226.2500      0.0000    970.6069      5.7499     85.9671
