~Version Information
VERS.                      2.0: CWLS Log ASCII Standard - VERSION 2.0
WRAP.                       NO: One line per depth step
~Well Information Block
STRT.FT                -8.2500: 
STOP.FT               871.5000: 
STEP.FT                 0.2500: 
NULL.                -999.2500: 
COMP.          Pioneer Natural Resources: COMPANY
WELL.             Tomcat 32-10: WELL
FLD.           Purgatorie River: FIELD
LOC.           2286' FNL & 2463' FEL------: LOCATION
PROV.                       CO: PROVINCE
CNTY.               Las Animas: COUNTRY
SRVC.          Patterson Wireline: SERVICE COMPANY
DATE.          Mon Mar 28 09:03:25 2005: LOG DATE
UWI.           05 071 08301 00: UNIQUE WELL ID
~Curve Information Block
DEPT.FT            0 000 00 00: Depth
CCL.                          : Casing Collar Locator
TT3.usec                      : CBL 3' Travel Time
AMP3.mV                       : CBL 3' Amplitude
GR.GAPI                       : Gamma Ray
~Parameter Information Block
~A  Depth       CCL         TT3         AMP3         GR     
# ...
   594.7500      0.0000    760.7437      6.4607     88.3733
   595.0000      0.0000    759.9655      6.5372     86.9897
   595.2500      0.0000    760.8604      6.6404     86.4512
   595.5000      0.0000    764.1046      6.7454     87.3993
   595.7500      0.0000    768.2374      6.8159     89.6440
   596.0000      0.0000    771.2753      6.8272     92.3556
   596.2500      0.0000    772.1177      6.7822     94.6264
   596.5000      0.0000    770.5593      6.7071     95.9308
   596.7500      0.0000    766.9412      6.6327     96.4333
   597.0000      0.0000    762.4372      6.5764     96.8956
   597.2500      0.0000    759.1927      6.5382     97.8617
   597.5000      0.0000    759.1503      6.5110     98.9340
   597.7500      0.0000    762.3772      6.4918     99.3055
   598.0000      0.0000    766.8767      6.4826     99.0098
   598.2500      0.0000    770.0527      6.4821     99.3175
   598.5000      0.0000    770.0966      6.4807    101.7751
   598.7500      0.0000    766.3973      6.4664    106.7746
   599.0000      0.0000    759.5970      6.4367    112.8124
   599.2500      0.0000    751.5255      6.4051    117.1797
   599.5000      0.0000    744.4770      6.3905    117.7027
   599.7500      0.0000    740.0294      6.4001    114.2289
   600.0000      0.0000    738.5173      6.4237    108.6796
   600.2500      0.0000    739.4320      6.4445    103.6142
   600.5000      0.0000    741.8439      6.4537    100.4449
   600.7500      0.0000    744.4111      6.4552     98.8877
   601.0000      0.0000    745.6852      6.4613     98.0914
   601.2500      0.0000    745.0429      6.4813     97.8768
   601.5000      0.0000    743.1835      6.5112     98.4769
   601.7500      0.0000    741.3792      6.5359     99.6730
   602.0000      0.0000    740.3823      6.5472    101.0446
   602.2500      0.0000    740.1639      6.5552    102.6824
   602.5000      0.0000    740.3510      6.5733    104.7990
   602.7500      0.0000    740.6049      6.5960    106.9086
   603.0000      0.0000    740.7206      6.5997    108.0763
   603.2500      0.0000    740.6219      6.5688    107.8059
   603.5000      0.0000    740.3406      6.5113    106.2697
   603.7500      0.0000    739.9508      6.4483    104.0412
   604.0000      0.0000    739.4940      6.3950    101.8284
   604.2500      0.0000    738.9512      6.3535    100.1560
   604.5000      0.0000    738.2635      6.3176     99.3538
   604.7500      0.0000    737.3414      6.2822     99.9274
   605.0000      0.0000    736.0106      6.2523    102.1960
   605.2500      0.0000    734.0427      6.2396    105.2198
   605.5000      0.0000    731.4719      6.2499    106.9390
   605.7500      0.0000    728.9919      6.2721    106.0604
   606.0000      0.0000    727.7601      6.2858    103.4157
   606.2500      0.0000    728.5703      6.2795    101.1008
   606.5000      0.0000    731.3751      6.2588    100.4498
   606.7500      0.0000    735.8167      6.2331    100.9260
   607.0000      0.0000    741.6760      6.1998    100.9565
   607.2500      0.0000    747.9847      6.1432     99.8588
   607.5000      0.0000    751.9775      6.0492     98.7100
   607.7500      0.0000    750.5353      5.9213     99.1395
   608.0000      0.0000    743.6938      5.7860    101.5278
   608.2500      0.0000    735.8381      5.6846    104.5485
   608.5000      0.0000    732.7792      5.6567    106.1483
   608.7500      0.0000    738.4814      5.7235    104.7741
   609.0000      0.0000    754.1403      5.8784     99.9633
   609.2500      0.0000    777.7686      6.0885     92.2275
   609.5000      0.0000    803.4881      6.3060     82.7288
   609.7500      0.0000    822.9575      6.4893     73.1731
   610.0000      0.0000    829.3787      6.6201     65.5969
   610.2500      0.0000    821.0852      6.7052     61.6194
   610.5000      0.0000    802.2098      6.7619     61.6013
   610.7500      0.0000    780.2037      6.8072     64.5816
   611.0000      0.0000    761.4028      6.8589     69.0211
   611.2500      0.0000    747.9865      6.9293     73.6649
   611.5000      0.0000    739.2909      7.0082     78.0568
   611.7500      0.0000    735.5640      7.0550     82.6078
   612.0000      0.0000    738.7297      7.0265     88.1056
   612.2500      0.0000    748.6836      6.9166     94.7146
   612.5000      0.0000    760.2287      6.7650    101.1198
   612.7500      0.0000    765.6543      6.6208    104.9498
   613.0000      0.0000    761.0443      6.5065    104.6444
   613.2500     -2.0000    749.8224      6.4203    100.8804
   613.5000     -2.0000    740.4708      6.3585     95.8274
   613.7500     -2.0000    741.1125      6.3238     91.2906
   614.0000      0.0000    754.9346      6.3267     88.0316
   614.2500      0.0000    778.4368      6.3931     86.4327
   614.5000      0.0000    803.0733      6.5516     86.9144
   614.7500      0.0000    820.0610      6.7852     89.4865
   615.0000      0.0000    825.6763      7.0085     93.2745
   615.2500      0.0000    822.3574      7.1259     96.7556
   615.5000      0.0000    814.0728      7.1131     98.6974
   615.7500      0.0000    801.3237      7.0275     99.1511
   616.0000      0.0000    782.2302      6.9513     99.3959
   616.2500      0.0000    757.9122      6.9343    100.5164
   616.5000      0.0000    734.0287      6.9729    102.1075
   616.7500      0.0000    716.2991      7.0275    102.6683
   617.0000      0.0000    706.3187      7.0617    101.0739
   617.2500      0.0000    702.1566      7.0663     97.3909
   617.5000      0.0000    701.5063      7.0554     92.6496
   617.7500      0.0000    703.6080      7.0489     88.4298
   618.0000      0.0000    709.0424      7.0607     86.4302
   618.2500      0.0000    718.1970      7.0958     87.5895
   618.5000      0.0000    729.5522      7.1526     91.1736
   618.7500      0.0000    739.4559      7.2246     94.9905
   619.0000      0.0000    744.3997      7.3005     96.9169
   619.2500      0.0000    743.9474      7.3711     96.3309
   619.5000      0.0000    740.9106      7.4400     94.0530
   619.7500      0.0000    738.4908      7.5195     91.1851
   620.0000      0.0000    737.9872      7.6112     88.2851
   620.2500      0.0000    739.2413      7.6964     85.4643
   620.5000      0.0000    742.2684      7.7519     82.8796
   620.7500      0.0000    747.6804      7.7728     80.9794
   621.0000      0.0000    755.3084      7.7796     80.1187
   621.2500      0.0000    762.6214      7.8012     79.7908
   621.5000      0.0000    765.6009      7.8477     78.7277
   621.7500      0.0000    762.1979      7.8977     76.2306
   622.0000      0.0000    754.4632      7.9176     72.9430
   622.2500      0.0000    746.4418      7.8911     69.8676
   622.5000      0.0000    740.4571      7.8285     67.0882
   622.7500      0.0000    735.8604      7.7515     64.0084
   623.0000      0.0000    730.6374      7.6771     60.4812
   623.2500      0.0000    723.6348      7.6099     57.1102
   623.5000      0.0000    715.5985      7.5482     54.5062
   623.7500      0.0000    708.5621      7.4935     52.6529
   624.0000      0.0000    704.4791      7.4551     51.0434
   624.2500      0.0000    704.3875      7.4386     49.3162
   624.5000      0.0000    708.3495      7.4307     47.7320
   624.7500      0.0000    715.4337      7.4027     47.0563
   625.0000      0.0000    723.7606      7.3302     47.7960
   625.2500      0.0000    731.2192      7.2118     49.4177
   625.5000      0.0000    736.6466      7.0695     50.5063
   625.7500      0.0000    740.3694      6.9348     49.8676
   626.0000      0.0000    743.7585      6.8265     47.4019
   626.2500      0.0000    748.1797      6.7340     44.0012
   626.5000      0.0000    753.7239      6.6177     40.9339
   626.7500      0.0000    758.6511      6.4295     39.2972
   627.0000      0.0000    761.1089      6.1453     39.6090
   627.2500      0.0000    762.2429      5.7948     41.6630
   627.5000      0.0000    766.6747      5.4643     44.7469
   627.7500      0.0000    778.7255      5.2581     48.0313
   628.0000      0.0000    798.5296      5.2351     51.0757
