~Version Information
VERS.                      2.0: CWLS Log ASCII Standard - VERSION 2.0
WRAP.                       NO: One line per depth step
~Well Information Block
STRT.FT               964.0000: 
STOP.FT              2440.0000: 
STEP.FT                 0.2500: 
NULL.                -999.2500: 
COMP.          Petrogulf Corporation: COMPANY
WELL.              Hand 8-44 V: WELL
FLD.           Purgatorie River: FIELD
LOC.           1076' FEL & 820' FSL: LOCATION
CNTY.               Las Animas: COUNTY
SRVC.                         : SERVICE COMPANY
DATE.          Fri Nov 21 11:54:17 2003: LOG DATE
UWI.                          : UNIQUE WELL ID
STAT.                 Colorado: STATE
~Curve Information Block
DEPT.FT            0 000 00 00: Depth
SP.mV                         : IEL Spontaneous Potential
DIR.Ohm-m                     : IEL Induction Resistivity
GR.GAPI                       : Gamma Ray
~Parameter Information Block
~A  Depth        SP         DIR          GR     
# ...
  2174.7500   -126.2488     10.5393     86.5665
  2175.0000   -126.6665     11.8481     87.8424
  2175.2500   -126.9332     14.8690     87.4179
  2175.5000   -127.0977     22.8542     86.1770
  2175.7500   -127.2487     62.7908     85.7633
  2176.0000   -127.4730 100000.0000     86.6740
  2176.2500   -127.8193 100000.0000     88.3896
  2176.5000   -128.2792 100000.0000     92.1646
  2176.7500   -128.7928 100000.0000     94.9833
  2177.0000   -129.2808 100000.0000     98.6575
  2177.2500   -129.6893 100000.0000    100.2285
  2177.5000   -130.0256 100000.0000    100.7930
  2177.7500   -130.3697 100000.0000    100.0935
  2178.0000   -130.8522 100000.0000     98.5566
  2178.2500   -131.6075 100000.0000     98.1140
  2178.5000   -132.7173 100000.0000     98.8924
  2178.7500   -134.1682 100000.0000     99.7472
  2179.0000   -135.8461 100000.0000    100.0165
  2179.2500   -137.5770 100000.0000     99.2547
  2179.5000   -139.2003 100000.0000     97.2455
  2179.7500   -140.6393 100000.0000     95.6434
  2180.0000   -141.9383 100000.0000     93.1061
  2180.2500   -143.2497 100000.0000     91.4797
  2180.5000   -144.7827 100000.0000     89.1442
  2180.7500   -146.7448 100000.0000     87.3290
  2181.0000   -149.3097 100000.0000     83.7080
  2181.2500   -152.6247 100000.0000     80.9923
  2181.5000   -156.8420      9.2164     77.9279
  2181.7500   -162.1432      1.7694     77.2528
  2182.0000   -168.7411      0.7665     78.1106
  2182.2500   -176.8531      0.4065     79.2505
  2182.5000   -186.6356      0.2352     81.1575
  2182.7500   -198.0612      0.1477     82.8820
  2183.0000   -210.7585      0.1038     86.8230
  2183.2500   -223.9038      0.0825     89.9446
  2183.5000   -236.2710      0.0723     93.4901
  2183.7500   -246.4566      0.0668     94.3791
  2184.0000   -253.1897      0.0625     94.0778
  2184.2500   -255.6171      0.0577     93.6302
  2184.5000   -253.4999      0.0523     93.3154
  2184.7500   -247.2569      0.0476     93.1068
  2185.0000   -237.7917      0.0447     91.8878
  2185.2500   -226.1548      0.0446     90.0780
  2185.5000   -213.2561      0.0479     85.9815
  2185.7500   -199.8172      0.0554     82.9098
  2186.0000   -186.5103      0.0677     79.1920
  2186.2500   -174.0501      0.0852     77.9606
  2186.5000   -163.0942      0.1086     78.3693
  2186.7500   -154.0585      0.1387     79.9130
  2187.0000   -147.0274      0.1775     83.2046
  2187.2500   -141.7949      0.2278     85.4327
  2187.5000   -137.9633      0.2928     88.1108
  2187.7500   -135.0653      0.3754     89.4004
  2188.0000   -132.7093      0.4790     91.0946
  2188.2500   -130.6799      0.6089     92.4633
  2188.5000   -128.9227      0.7787     95.1770
  2188.7500   -127.4430      1.0206     97.2813
  2189.0000   -126.2283      1.4072    100.2976
  2189.2500   -125.2484      2.1151    101.7754
  2189.5000   -124.4868      3.6766    102.4982
  2189.7500   -123.9353      8.7093    101.9181
  2190.0000   -123.5593    296.9652    100.2302
  2190.2500   -123.2875 100000.0000     99.1730
  2190.5000   -123.0493 100000.0000     97.9974
  2190.7500   -122.8214 100000.0000     97.1990
  2191.0000   -122.6258 100000.0000     95.5158
  2191.2500   -122.4804 100000.0000     94.0254
  2191.5000   -122.3631 100000.0000     91.0297
  2191.7500   -122.2340 100000.0000     88.1548
  2192.0000   -122.0783 100000.0000     82.0804
  2192.2500   -121.9155 100000.0000     77.1428
  2192.5000   -121.7784 100000.0000     69.7607
  2192.7500   -121.6960 100000.0000     65.7102
  2193.0000   -121.6887 100000.0000     61.7853
  2193.2500   -121.7652 100000.0000     60.6280
  2193.5000   -121.9178 100000.0000     60.3852
  2193.7500   -122.1226 100000.0000     60.4877
  2194.0000   -122.3375 100000.0000     59.7010
  2194.2500   -122.4959 100000.0000     58.1252
  2194.5000   -122.5194 100000.0000     54.6139
  2194.7500   -122.3577 100000.0000     52.3112
  2195.0000   -122.0247    192.8451     50.2428
  2195.2500   -121.5925     79.7029     50.0492
  2195.5000   -121.1500     51.0108     51.2423
  2195.7500   -120.7625     37.7285     52.8556
  2196.0000   -120.4511     30.2646     56.5016
  2196.2500   -120.1910     25.8068     59.6239
  2196.5000   -119.9229     23.1839     64.3446
  2196.7500   -119.5768     21.7823     66.5550
  2197.0000   -119.1015     21.2092     66.9768
  2197.2500   -118.4908     21.1588     65.0987
  2197.5000   -117.7867     21.3677     60.2983
  2197.7500   -117.0590     21.6238     57.1721
  2198.0000   -116.3760     21.7862     54.4517
  2198.2500   -115.7829     21.7801     53.9585
  2198.5000   -115.2905     21.5704     53.8885
  2198.7500   -114.8714     21.1478     53.8176
  2199.0000   -114.4692     20.5334     54.3798
  2199.2500   -114.0251     19.7798     55.9482
  2199.5000   -113.5092     18.9536     60.4451
  2199.7500   -112.9286     18.1117     64.4501
  2200.0000   -112.3118     17.2893     71.1478
  2200.2500   -111.6983     16.5022     75.9161
  2200.5000   -111.1505     15.7577     83.5903
  2200.7500   -110.7609     15.0625     89.0151
  2201.0000   -110.6143     14.4241     97.0988
  2201.2500   -110.7289     13.8473    101.7918
  2201.5000   -111.0414     13.3321    106.4324
  2201.7500   -111.4461     12.8746    107.7550
  2202.0000   -111.8361     12.4708    108.8439
  2202.2500   -112.1119     12.1195    110.5779
  2202.5000   -112.1786     11.8218    115.8832
  2202.7500   -111.9572     11.5798    120.3104
  2203.0000   -111.4046     11.3949    125.1612
  2203.2500   -110.5243     11.2675    125.8335
  2203.5000   -109.3650     11.1987    123.2120
  2203.7500   -108.0169     11.1897    120.5017
  2204.0000   -106.6098     11.2407    117.7636
  2204.2500   -105.2942     11.3486    117.5501
  2204.5000   -104.1955     11.5043    119.0177
  2204.7500   -103.3693     11.6918    120.3278
  2205.0000   -102.7931     11.8889    121.6923
  2205.2500   -102.3953     12.0672    122.0404
  2205.5000   -102.0963     12.1948    122.1517
  2205.7500   -101.8353     12.2413    122.3944
  2206.0000   -101.5802     12.1865    123.4135
  2206.2500   -101.3346     12.0298    124.2207
  2206.5000   -101.1476     11.7934    124.6030
  2206.7500   -101.1117     11.5167    124.1206
  2207.0000   -101.3224     11.2428    123.2343
  2207.2500   -101.8160     11.0049    123.3241
  2207.5000   -102.5352     10.8177    124.8934
  2207.7500   -103.3521     10.6779    126.3620
  2208.0000   -104.1306     10.5711    127.7514
  2208.2500   -104.7796     10.4794    127.5315
  2208.5000   -105.2705     10.3852    125.1041
  2208.7500   -105.6261     10.2739    122.1353
  2209.0000   -105.9007     10.1372    116.4472
  2209.2500   -106.1607      9.9800    112.8419
  2209.5000   -106.4587      9.8211    109.5173
  2209.7500   -106.8106      9.6873    108.9777
  2210.0000   -107.1988      9.6011    109.4540
  2210.2500   -107.6064      9.5733    109.4851
  2210.5000   -108.0448      9.6042    107.7823
  2210.7500   -108.5406      9.6892    105.4879
  2211.0000   -109.0929      9.8233    101.5011
  2211.2500   -109.6402     10.0018     99.3622
  2211.5000   -110.0633     10.2172     97.8778
  2211.7500   -110.2226     10.4589     98.1929
  2212.0000   -110.0177     10.7150    100.3900
  2212.2500   -109.4541     10.9747    102.5812
  2212.5000   -108.6760     11.2298    105.9701
  2212.7500   -107.9219     11.4741    107.8780
  2213.0000   -107.4124     11.7034    109.9376
  2213.2500   -107.2478     11.9171    110.7165
  2213.5000   -107.3855     12.1203    111.0015
  2213.7500   -107.6863     12.3221    110.7487
  2214.0000   -107.9641     12.5309    110.0356
  2214.2500   -108.0087     12.7492    109.4420
  2214.5000   -107.6062     12.9724    108.4365
  2214.7500   -106.5772     13.1916    107.6490
  2215.0000   -104.8272     13.3996    105.9979
  2215.2500   -102.4008     13.5972    104.4481
  2215.5000    -99.5262     13.7965    101.6423
  2215.7500    -96.5928     14.0170     99.6285
  2216.0000    -94.0084     14.2738     96.3079
  2216.2500    -91.9944     14.5666     93.7838
