~Version Information
VERS.                      2.0: CWLS Log ASCII Standard - VERSION 2.0
WRAP.                       NO: One line per depth step
~Well Information Block
STRT.FT               270.0000: 
STOP.FT              1771.7000: 
STEP.FT                 0.1000: 
NULL.                -999.2500: 
COMP.          Pioneer Natural Resources: COMPANY
WELL.           Labrador 34-30: WELL
FLD.           Purgatoire River: FIELD
LOC.           926' FSL & 2080' FEL: LOCATION
PROV.                 Colorado: PROVINCE
CNTY.               Las Animas: COUNTRY
SRVC.                Patterson: SERVICE COMPANY
DATE.          Mon Dec 06 08:24:34 2004: LOG DATE
UWI.           05 071 08202 00: UNIQUE WELL ID
~Curve Information Block
DEPT.FT            0 000 00 00: Depth
DCAL.in                       : CDL Caliper
RHOB.g/cc                     : CDL Bulk Density
RHOC.g/cc                     : CDL Density Correction
DPOR.pu                       : CDL Density Porosity
NPOR.pu                       : Neutron Porosity
GR.GAPI                       : Gamma Ray
~Parameter Information Block
~A  Depth       DCAL        RHOB        RHOC        DPOR        NPOR         GR     
# ...
   759.6000      8.2395      2.4575      0.0739     11.6657     23.3528    134.3018
   759.7000      8.2395      2.4711      0.0983     10.8436     23.4174    131.0573
   759.8000      8.2382      2.4645      0.0853     11.2397     23.3316    130.8599
   759.9000      8.2382      2.4376      0.0627     12.8754     22.9344    132.1622
   760.0000      8.2384      2.4131      0.0416     14.3582     22.6333    131.9698
   760.1000      8.2384      2.4042      0.0713     14.8982     22.5568    132.0496
   760.2000      8.2384      2.4076      0.0885     14.6903     22.4697    132.7015
   760.3000      8.2404      2.4094      0.1142     14.5828     22.3140    129.7296
   760.4000      8.2404      2.4029      0.0708     14.9774     22.1509    122.8757
   760.5000      8.2426      2.3951      0.1055     15.4512     21.8385    119.3990
   760.6000      8.2426      2.3853      0.1208     16.0452     21.3284    122.3499
   760.7000      8.2426      2.3729      0.0982     16.7938     21.1351    124.2178
   760.8000      8.2445      2.3702      0.0895     16.9604     21.3159    120.6893
   760.9000      8.2445      2.3849      0.1115     16.0640     21.2390    116.5555
   761.0000      8.2446      2.4119      0.1311     14.4311     20.8441    117.8896
   761.1000      8.2446      2.4343      0.1396     13.0702     20.6730    125.5374
   761.2000      8.2446      2.4300      0.1343     13.3313     20.8139    132.0123
   761.3000      8.2457      2.3930      0.0743     15.5739     20.7481    129.2811
   761.4000      8.2457      2.3472      0.0015     18.3532     20.2906    119.8647
   761.5000      8.2497      2.3172      0.0380     20.1720     20.1334    114.6712
   761.6000      8.2497      2.3025      0.0384     21.0613     20.5505    117.0098
   761.7000      8.2497      2.3012     -0.0079     21.1406     20.6675    120.1963
   761.8000      8.2552      2.3250     -0.0188     19.6994     20.1832    120.4444
   761.9000      8.2552      2.3651      0.0640     17.2691     19.8125    119.9995
   762.0000      8.2512      2.3856      0.1085     16.0253     19.8148    118.0513
   762.1000      8.2512      2.3755      0.0922     16.6338     19.7883    114.6704
   762.2000      8.2512      2.3700      0.0467     16.9679     19.4423    114.8900
   762.3000      8.2318      2.4020      0.1230     15.0323     19.1707    117.3987
   762.4000      8.2318      2.4642      0.2050     11.2577     19.4450    117.4712
   762.5000      8.2156      2.5297      0.2446      7.2900     19.9930    116.6463
   762.6000      8.2156      2.5741      0.2565      4.6011     20.3405    117.7879
   762.7000      8.2156      2.5884      0.1979      3.7304     20.5685    120.5467
   762.8000      8.2115      2.5819      0.1792      4.1287     20.9105    122.8049
   762.9000      8.2115      2.5698      0.1375      4.8624     21.3393    122.8046
   763.0000      8.2109      2.5625      0.1275      5.3052     21.7593    118.8239
   763.1000      8.2109      2.5558      0.1069      5.7119     22.1540    109.6602
   763.2000      8.2109      2.5483      0.0679      6.1616     22.5639    100.8341
   763.3000      8.2078      2.5508      0.0819      6.0134     22.8532    100.2354
   763.4000      8.2078      2.5572      0.0922      5.6270     22.8353    107.8391
   763.5000      8.2070      2.5443      0.0268      6.4056     22.5695    116.3169
   763.6000      8.2070      2.5119      0.0005      8.3714     22.1315    120.3308
   763.7000      8.2070      2.4838      0.0180     10.0725     21.7297    120.1199
   763.8000      8.2126      2.4676      0.0547     11.0526     21.4748    116.6171
   763.9000      8.2126      2.4543      0.0586     11.8576     21.1775    112.3261
   764.0000      8.2212      2.4427      0.0717     12.5613     20.7587    111.1821
   764.1000      8.2212      2.4352      0.0679     13.0155     20.4566    112.6887
   764.2000      8.2212      2.4306      0.1074     13.2988     20.7255    114.3670
   764.3000      8.2295      2.4201      0.1188     13.9359     21.3075    117.4638
   764.4000      8.2295      2.3971      0.0699     15.3255     21.3479    121.0926
   764.5000      8.2239      2.3718      0.0661     16.8601     20.9243    123.5987
   764.6000      8.2239      2.3627      0.0295     17.4108     20.7039    125.4333
   764.7000      8.2239      2.3753      0.1050     16.6500     20.6827    125.0378
   764.8000      8.2047      2.3905      0.0764     15.7275     20.4486    122.9506
   764.9000      8.2047      2.3896      0.0943     15.7808     20.1082    123.6663
   765.0000      8.1926      2.3731      0.0629     16.7810     20.0981    126.4247
   765.1000      8.1926      2.3527      0.0580     18.0170     20.6313    126.4119
   765.2000      8.1926      2.3323      0.0805     19.2521     21.3643    124.7920
   765.3000      8.1912      2.3070      0.0536     20.7901     21.5703    126.0617
   765.4000      8.1912      2.2800      0.0697     22.4222     21.2092    127.6020
   765.5000      8.1915      2.2666      0.0368     23.2336     20.7674    125.3190
   765.6000      8.1915      2.2763      0.0923     22.6499     20.5611    122.1625
   765.7000      8.1915      2.2974      0.0973     21.3715     20.8050    121.5106
   765.8000      8.1852      2.3174      0.0902     20.1585     21.2833    121.9677
   765.9000      8.1852      2.3365      0.0878     18.9999     21.3467    120.7846
   766.0000      8.1713      2.3566      0.0941     17.7809     20.9306    118.1011
   766.1000      8.1713      2.3775      0.0896     16.5135     20.6673    118.0999
   766.2000      8.1713      2.3995      0.1156     15.1840     20.7338    123.5599
   766.3000      8.1529      2.4195      0.1156     13.9692     20.7290    131.2052
   766.4000      8.1529      2.4355      0.0771     13.0021     20.6711    134.5186
   766.5000      8.1400      2.4507      0.1152     12.0806     21.0594    130.9780
   766.6000      8.1400      2.4694      0.0822     10.9472     21.6984    125.4331
   766.7000      8.1400      2.4912      0.1158      9.6243     21.9686    124.7017
   766.8000      8.1360      2.5069      0.0727      8.6703     21.9249    129.5557
   766.9000      8.1360      2.5078      0.0466      8.6176     21.9473    135.4435
   767.0000      8.1387      2.4928      0.0667      9.5271     22.1586    137.1489
   767.1000      8.1387      2.4743      0.0139     10.6475     22.3634    131.5598
   767.2000      8.1387      2.4739      0.0033     10.6726     22.4832    122.2629
   767.3000      8.1452      2.4924      0.0556      9.5512     22.6460    116.7247
   767.4000      8.1452      2.5093      0.0363      8.5277     22.7957    119.2476
   767.5000      8.1499      2.5129      0.0920      8.3119     22.8287    126.7088
   767.6000      8.1499      2.5092      0.0042      8.5322     22.7238    131.0876
   767.7000      8.1499      2.5140      0.0170      8.2428     22.4888    129.4552
   767.8000      8.1553      2.5261      0.0557      7.5115     22.2933    126.5317
   767.9000      8.1553      2.5281      0.0723      7.3891     22.3305    124.1827
   768.0000      8.1627      2.5183      0.0550      7.9845     22.3548    121.3377
   768.1000      8.1627      2.5124      0.0464      8.3372     22.0267    121.0010
   768.2000      8.1627      2.5170      0.0166      8.0606     21.5107    123.8838
   768.3000      8.1715      2.5254      0.0548      7.5497     21.3327    125.5132
   768.4000      8.1715      2.5323      0.0475      7.1326     21.5415    123.5329
   768.5000      8.1792      2.5378      0.0667      6.8015     21.7980    120.7094
   768.6000      8.1792      2.5442      0.0197      6.4110     22.0834    120.9822
   768.7000      8.1792      2.5467      0.0841      6.2583     22.3482    121.7347
   768.8000      8.1828      2.5329      0.1045      7.0972     22.2318    120.2752
   768.9000      8.1828      2.5146      0.0203      8.2069     21.7091    119.9642
   769.0000      8.1786      2.5193      0.0685      7.9203     21.2887    121.2953
   769.1000      8.1786      2.5427      0.0966      6.5037     21.2325    120.0534
