~Version Information
VERS.                      2.0: CWLS Log ASCII Standard - VERSION 2.0
WRAP.                       NO: One line per depth step
~Well Information Block
STRT.FT               -10.0000: 
STOP.FT              2544.2500: 
STEP.FT                 0.2500: 
NULL.                -999.2500: 
COMP.          Pioneer Natural Resources: COMPANY
WELL.            Cortina 23-25: WELL
FLD.           Purgatorie River: FIELD
LOC.           2344' FWL  & 2526' FSL------: LOCATION
PROV.                       CO: PROVINCE
CNTY.               Las Animas: COUNTRY
SRVC.          Patterson Wireline: SERVICE COMPANY
DATE.          Fri Apr 01 11:50:55 2005: LOG DATE
UWI.           05 071 08340 00: UNIQUE WELL ID
~Curve Information Block
DEPT.FT            0 000 00 00: Depth
CCL.                          : Casing Collar Locator
TT3.usec                      : CBL 3' Travel Time
AMP3.mV                       : CBL 3' Amplitude
GR.GAPI                       : Gamma Ray
~Parameter Information Block
~A  Depth       CCL         TT3         AMP3         GR     
# ...
   660.0000      0.0000    818.0982      5.7949    100.9786
   660.2500     -2.0000    805.9106      5.7711    102.2227
   660.5000     -2.0000    794.0092      5.7474    103.9064
   660.7500      0.0000    783.6647      5.7953    104.7344
   661.0000      0.0000    774.3261      5.9739    103.9339
   661.2500      0.0000    766.5128      6.2988    101.3439
   661.5000      0.0000    762.1110      6.7201     97.4514
   661.7500      0.0000    762.0166      7.1263     93.3748
   662.0000      0.0000    764.8158      7.4098     90.5175
   662.2500      0.0000    768.1556      7.5473     89.9831
   662.5000      0.0000    770.6437      7.5999     92.2316
   662.7500      0.0000    772.2398      7.6351     97.1213
   663.0000      0.0000    773.6357      7.6685    104.1521
   663.2500      0.0000    775.7927      7.6760    112.7041
   663.5000      0.0000    779.7765      7.6413    122.0183
   663.7500      0.0000    786.1956      7.5856    131.0418
   664.0000      0.0000    793.9820      7.5605    138.7337
   664.2500      0.0000    799.9085      7.6109    144.6841
   664.5000      0.0000    800.6855      7.7411    149.0950
   664.7500      0.0000    796.2878      7.9111    152.1203
   665.0000      0.0000    790.2294      8.0633    153.5366
   665.2500      0.0000    785.8360      8.1494    153.0275
   665.5000      0.0000    783.1750      8.1432    150.4764
   665.7500      0.0000    780.0973      8.0452    146.1032
   666.0000      0.0000    774.9244      7.8838    140.6851
   666.2500      0.0000    767.4006      7.7054    135.5289
   666.5000      0.0000    758.2628      7.5505    131.8223
   666.7500      0.0000    748.9330      7.4335    129.7521
   667.0000      0.0000    741.2115      7.3458    128.3268
   667.2500      0.0000    736.7581      7.2699    126.3824
   667.5000      0.0000    736.7990      7.1912    124.0027
   667.7500      0.0000    741.6151      7.1078    122.7272
   668.0000      0.0000    749.5317      7.0397    123.9345
   668.2500      0.0000    756.8130      7.0209    127.0402
   668.5000      0.0000    759.3430      7.0727    129.7863
   668.7500      0.0000    754.7794      7.1839    130.4625
   669.0000      0.0000    743.7593      7.3169    129.3212
   669.2500      0.0000    729.7008      7.4300    127.4472
   669.5000      0.0000    717.1520      7.4933    124.8497
   669.7500      0.0000    709.6376      7.4952    120.6228
   670.0000      0.0000    708.7938      7.4423    114.7908
   670.2500      0.0000    714.9211      7.3613    108.7969
   670.5000      0.0000    727.2797      7.2958    103.8623
   670.7500      0.0000    743.6319      7.2899     99.7741
   671.0000      0.0000    760.4835      7.3555     95.8147
   671.2500      0.0000    774.4103      7.4571     92.2553
   671.5000      0.0000    783.2062      7.5399     90.1800
   671.7500      0.0000    786.4468      7.5785     89.7990
   672.0000      0.0000    785.8956      7.5972     89.4204
   672.2500      0.0000    784.5537      7.6378     86.5691
   672.5000      0.0000    784.0408      7.7108     80.3074
   672.7500      0.0000    783.5468      7.7801     72.3428
   673.0000      0.0000    782.3105      7.8000     65.7296
   673.2500      0.0000    781.9570      7.7622     62.4899
   673.5000      0.0000    785.1102      7.7061     62.4521
   673.7500      0.0000    792.6019      7.6853     64.1644
   674.0000      0.0000    803.0538      7.7236     66.4925
   674.2500      0.0000    814.3082      7.8035     69.1015
   674.5000      0.0000    824.3372      7.8859     71.8469
   674.7500      0.0000    831.5519      7.9385     74.6606
   675.0000      0.0000    835.7297      7.9497     78.2785
   675.2500      0.0000    838.8122      7.9280     84.1450
   675.5000      0.0000    843.7395      7.8928     92.7894
   675.7500      0.0000    851.8259      7.8628    102.5513
   676.0000      0.0000    861.5620      7.8489    110.2961
   676.2500      0.0000    870.0114      7.8534    113.3696
   676.5000      0.0000    875.1176      7.8733    111.1276
   676.7500      0.0000    876.8542      7.9026    105.2661
   677.0000      0.0000    876.4990      7.9328     98.8633
   677.2500      0.0000    874.7132      7.9534     94.4072
   677.5000      0.0000    870.4874      7.9548     92.0346
   677.7500      0.0000    862.5623      7.9333     89.7090
   678.0000      0.0000    851.7724      7.8932     85.4561
   678.2500      0.0000    841.1213      7.8422     79.4684
   678.5000      0.0000    833.3931      7.7846     73.9221
   678.7500      0.0000    829.2893      7.7210     70.9523
   679.0000      0.0000    827.8421      7.6541     71.1407
   679.2500      0.0000    827.8138      7.5927     73.8557
   679.5000      0.0000    828.4098      7.5476     78.3490
   679.7500      0.0000    828.9938      7.5188     83.9594
   680.0000      0.0000    828.6094      7.4887     89.6218
   680.2500      0.0000    826.3489      7.4381     94.0658
   680.5000      0.0000    822.7017      7.3699     96.8534
   680.7500      0.0000    820.2463      7.3086     98.9632
   681.0000      0.0000    822.0518      7.2706    102.0300
   681.2500      0.0000    828.9931      7.2437    106.6428
   681.5000      0.0000    838.7190      7.2014    111.2736
   681.7500      0.0000    847.0093      7.1316    113.4262
   682.0000      0.0000    850.1743      7.0434    112.2516
   682.2500      0.0000    846.9227      6.9514    109.6144
   682.5000      0.0000    838.6041      6.8636    108.2861
   682.7500      0.0000    827.9662      6.7875    109.5739
   683.0000      0.0000    817.7620      6.7408    112.8569
   683.2500      0.0000    809.9918      6.7407    116.6392
   683.5000      0.0000    805.3588      6.7783    119.4792
   683.7500      0.0000    803.0723      6.8159    120.4665
   684.0000      0.0000    801.8421      6.8187    119.6283
   684.2500      0.0000    801.2786      6.7884    117.9786
   684.5000      0.0000    801.6649      6.7562    116.8337
   684.7500      0.0000    802.2314      6.7410    116.8089
   685.0000      0.0000    800.8307      6.7270    117.3664
   685.2500      0.0000    796.1371      6.6877    117.2709
   685.5000      0.0000    789.1127      6.6229    115.5619
   685.7500      0.0000    781.2089      6.5573    112.1817
   686.0000      0.0000    772.4036      6.5053    107.6406
   686.2500      0.0000    762.7079      6.4581    102.1022
   686.5000      0.0000    754.5073      6.4072     95.0585
   686.7500      0.0000    751.3613      6.3640     86.1744
   687.0000      0.0000    754.5750      6.3434     76.2025
   687.2500      0.0000    761.7902      6.3415     66.6559
   687.5000      0.0000    768.6597      6.3413     58.7734
   687.7500      0.0000    772.0576      6.3379     53.2448
   688.0000      0.0000    772.5454      6.3431     50.8158
   688.2500      0.0000    773.5766      6.3639     52.4687
   688.5000      0.0000    777.6372      6.3882     58.4227
   688.7500      0.0000    783.4055      6.3994     67.0639
   689.0000      0.0000    786.9219      6.3959     75.5827
   689.2500      0.0000    784.8306      6.3855     82.2644
   689.5000      0.0000    776.5278      6.3683     88.2111
   689.7500      0.0000    764.5677      6.3399     96.3810
   690.0000      0.0000    753.3928      6.3081    108.4181
   690.2500      0.0000    746.5009      6.2910    122.2235
   690.5000      0.0000    744.2639      6.2981    132.8757
   690.7500      0.0000    744.6038      6.3234    136.3074
   691.0000      0.0000    745.2127      6.3557    132.3932
   691.2500      0.0000    744.7123      6.3877    124.7626
   691.5000      0.0000    742.4588      6.4140    117.7969
   691.7500      0.0000    738.4247      6.4292    113.6477
   692.0000      0.0000    733.7237      6.4370    111.6851
   692.2500      0.0000    730.7394      6.4557    110.0420
   692.5000      0.0000    731.8982      6.5040    107.3100
   692.7500      0.0000    737.8906      6.5761    103.2648
   693.0000      0.0000    747.0707      6.6420     98.7505
   693.2500      0.0000    756.3128      6.6755     95.0975
