~Version Information
VERS.                      2.0: CWLS Log ASCII Standard - VERSION 2.0
WRAP.                       NO: One line per depth step
~Well Information Block
STRT.FT               250.0000: 
STOP.FT              1573.7000: 
STEP.FT                 0.1000: 
NULL.                -999.2500: 
COMP.          Pioneer Natural Resources: COMPANY
WELL.          Big Cat Federal 44-1: WELL
FLD.           Purgatoire River: FIELD
LOC.           197' FSL & 973' FEL--: LOCATION
CNTY.               Las Animas: COUNTY
SRVC.                Patterson: SERVICE COMPANY
DATE.          Mon Apr 24 08:33:37 2006: LOG DATE
UWI.           05 071 08042 00: UNIQUE WELL ID
STAT.                 Colorado: STATE
~Curve Information Block
DEPT.FT            0 000 00 00: Depth
DCAL.in                       : CDL Caliper
RHOB.g/cc                     : CDL Bulk Density
RHOC.g/cc                     : CDL Density Correction
DPOR.pu                       : CDL Density Porosity
NPOR.pu                       : Neutron Porosity
GR.GAPI                       : Gamma Ray
~Parameter Information Block
~A  Depth       DCAL        RHOB        RHOC        DPOR        NPOR         GR     
# ...
  1286.8000      7.8752      2.6015      0.0446      2.9406     16.3069     83.4960
  1286.9000      7.8752      2.5962      0.0557      3.2598     15.9617     90.8325
  1287.0000      7.8717      2.5834      0.0355      4.0379     15.6736     93.1854
  1287.1000      7.8717      2.5715      0.0007      4.7599     15.7078     89.3887
  1287.2000      7.8717      2.5685      0.0210      4.9388     16.0784     83.7829
  1287.3000      7.8685      2.5743     -0.0052      4.5900     16.5479     81.1322
  1287.4000      7.8685      2.5815      0.0269      4.1492     16.7422     81.8542
  1287.5000      7.8665      2.5810      0.0540      4.1827     16.4226     84.5614
  1287.6000      7.8665      2.5756      0.0438      4.5121     15.8841     87.5361
  1287.7000      7.8665      2.5757      0.0746      4.5030     15.5564     88.7331
  1287.8000      7.8711      2.5773      0.0662      4.4073     15.3440     88.0547
  1287.9000      7.8711      2.5726      0.0231      4.6905     15.3536     88.1820
  1288.0000      7.8782      2.5672      0.0045      5.0202     15.8169     87.6912
  1288.1000      7.8782      2.5648     -0.0020      5.1654     16.2629     84.6945
  1288.2000      7.8782      2.5624      0.0017      5.3061     16.2791     81.5569
  1288.3000      7.8819      2.5599      0.0603      5.4612     16.0681     78.6593
  1288.4000      7.8819      2.5596      0.0215      5.4776     15.8114     77.0026
  1288.5000      7.8852      2.5659      0.0157      5.0991     15.5859     82.2168
  1288.6000      7.8852      2.5779      0.0279      4.3690     15.6652     93.9759
  1288.7000      7.8852      2.5829      0.0770      4.0637     16.1943    100.8519
  1288.8000      7.8872      2.5702      0.0227      4.8359     16.6622     95.6357
  1288.9000      7.8872      2.5498     -0.0231      6.0725     16.5992     85.8366
  1289.0000      7.8841      2.5313      0.0453      7.1935     16.1714     82.2891
  1289.1000      7.8841      2.5134     -0.0114      8.2796     15.7036     85.1053
  1289.2000      7.8841      2.5098     -0.0347      8.4996     15.6171     85.8934
  1289.3000      7.8818      2.5298     -0.0189      7.2861     15.9869     83.5745
  1289.4000      7.8818      2.5521      0.0584      5.9346     16.2258     83.9236
  1289.5000      7.8838      2.5612      0.0141      5.3844     16.0710     86.3219
  1289.6000      7.8838      2.5691      0.0243      4.9046     15.8519     88.1158
  1289.7000      7.8838      2.5787      0.0608      4.3219     15.6930     92.7593
  1289.8000      7.8863      2.5795      0.0335      4.2701     15.4528    100.2085
  1289.9000      7.8863      2.5727      0.0429      4.6863     15.2497    101.1518
  1290.0000      7.8860      2.5640      0.0436      5.2145     15.3818     92.6371
  1290.1000      7.8860      2.5569      0.0428      5.6419     15.8189     84.2190
  1290.2000      7.8860      2.5578      0.0150      5.5881     16.2404     81.5180
  1290.3000      7.8873      2.5661      0.0242      5.0848     16.5397     81.2404
  1290.4000      7.8873      2.5747      0.0173      4.5624     16.8682     80.7718
  1290.5000      7.8898      2.5864      0.0283      3.8538     17.1891     81.5163
  1290.6000      7.8898      2.6038      0.0726      2.7970     17.4332     83.7463
  1290.7000      7.8898      2.6158      0.0943      2.0707     17.6016     87.1161
  1290.8000      7.8877      2.6126      0.0640      2.2687     17.6903     92.1663
  1290.9000      7.8877      2.6000      0.0541      3.0279     17.7319     93.6899
  1291.0000      7.8837      2.5938      0.0487      3.4066     17.6295     88.6486
  1291.1000      7.8837      2.5994      0.0898      3.0696     17.5892     83.1534
  1291.2000      7.8837      2.6021      0.0958      2.9000     17.8555     82.5546
  1291.3000      7.8841      2.5913      0.0857      3.5591     17.8972     85.3827
  1291.4000      7.8841      2.5780      0.0503      4.3626     17.2127     88.4464
  1291.5000      7.8874      2.5727      0.0747      4.6865     16.3606     93.4338
  1291.6000      7.8874      2.5639      0.0816      5.2187     15.8369    100.6332
  1291.7000      7.8874      2.5525     -0.0029      5.9081     15.6152    106.2069
  1291.8000      7.8877      2.5611      0.0131      5.3851     15.7195    107.8237
  1291.9000      7.8877      2.5934      0.0359      3.4277     16.0718    105.2949
  1292.0000      7.8886      2.6298      0.0766      1.2225     16.3631    100.6082
  1292.1000      7.8886      2.6497      0.0589      0.0205     16.3558     98.9258
  1292.2000      7.8886      2.6440      0.1000      0.3616     16.3760     98.1239
  1292.3000      7.8916      2.6188      0.0866      1.8915     16.8728     92.1294
  1292.4000      7.8916      2.5909      0.0393      3.5788     17.4583     87.7106
  1292.5000      7.8915      2.5647      0.0475      5.1712     17.4337     92.0162
  1292.6000      7.8915      2.5202      0.0399      7.8645     17.1474     99.2182
  1292.7000      7.8915      2.4508     -0.0021     12.0702     17.2347    101.4043
  1292.8000      7.8891      2.3726     -0.0198     16.8126     17.3827     98.4780
  1292.9000      7.8891      2.2973     -0.0307     21.3777     17.1108     94.2736
  1293.0000      7.8908      2.2281     -0.0458     25.5676     16.4692     92.1548
  1293.1000      7.8908      2.1719     -0.0820     28.9774     15.7474     92.8759
  1293.2000      7.8908      2.1393     -0.1011     30.9523     15.0746     93.0585
  1293.3000      7.8942      2.1297     -0.0497     31.5334     14.4096     92.2048
  1293.4000      7.8942      2.1315     -0.0123     31.4243     13.5163     90.8748
  1293.5000      7.8969      2.1461     -0.0235     30.5390     12.4640     89.8222
  1293.6000      7.8969      2.1847      0.0442     28.1993     11.8071     93.9882
  1293.7000      7.8969      2.2351      0.1784     25.1442     11.6027    106.7614
  1293.8000      7.9022      2.2637      0.2191     23.4115     11.3870    121.9537
  1293.9000      7.9022      2.2522      0.2116     24.1084     11.1272    128.6168
  1294.0000      7.9098      2.2075      0.1249     26.8181     11.0869    127.9247
  1294.1000      7.9098      2.1404      0.0854     30.8876     11.2394    127.0386
  1294.2000      7.9098      2.0501      0.0676     36.3583     11.3932    126.2782
  1294.3000      7.9178      1.9446     -0.0610     42.7537     11.3882    125.7168
  1294.4000      7.9178      1.8427     -0.0501     48.9291     10.9952    128.5963
  1294.5000      7.9305      1.7396     -0.0740     55.1757     10.0429    133.0943
  1294.6000      7.9305      1.6214     -0.1068     62.3368      8.7345    130.9429
  1294.7000      7.9305      1.5094     -0.1675     69.1278      7.4296    120.1127
  1294.8000      7.9479      1.4445     -0.1776     73.0608      6.2487    107.4474
  1294.9000      7.9479      1.4306     -0.0174     73.9058      5.2467     99.2355
  1295.0000      7.9614      1.4383      0.0488     73.4351      4.5353     94.8017
  1295.1000      7.9614      1.4569      0.0794     72.3104      4.0629     90.9390
  1295.2000      7.9614      1.4930      0.0872     70.1225      3.7757     88.2147
  1295.3000      7.9750      1.5404      0.1241     67.2459      3.7060     88.9372
  1295.4000      7.9750      1.5734      0.1824     65.2491      3.7384     92.1982
  1295.5000      7.9900      1.5724      0.1393     65.3101      3.7608     95.9158
  1295.6000      7.9900      1.5429      0.1264     67.0954      3.7579     98.3812
  1295.7000      7.9900      1.5024      0.1103     69.5522      3.6947     97.0555
  1295.8000      7.9811      1.4726      0.0638     71.3561      3.5672     93.3749
  1295.9000      7.9811      1.4687      0.0958     71.5924      3.4041     92.9359
  1296.0000      7.9428      1.4811      0.0982     70.8427      3.1847     98.4075
  1296.1000      7.9428      1.4900      0.0818     70.3048      2.9033    103.5870
  1296.2000      7.9428      1.4951      0.0390     69.9941      2.7037    102.3514
  1296.3000      7.9186      1.5156      0.0314     68.7497      2.7620     97.6811
