~Version Information
VERS.                      2.0: CWLS Log ASCII Standard - VERSION 2.0
WRAP.                       NO: One line per depth step
~Well Information Block
STRT.FT                 0.5000: 
STOP.FT              1575.0000: 
STEP.FT                 0.2500: 
NULL.                -999.2500: 
COMP.          Evergreen Operating Corporation: COMPANY
WELL.                Eric 42-9: WELL
FLD.           Purgatorie River: FIELD
LOC.           2050' FNL & 850' FEL: LOCATION
PROV.                 Colorado: PROVINCE
CNTY.               Las Animas: COUNTRY
SRVC.                         : SERVICE COMPANY
DATE.          Tue Nov 09 16:28:59 2004: LOG DATE
UWI.           05 071 07999 00: UNIQUE WELL ID
~Curve Information Block
DEPT.FT            0 000 00 00: Depth
LTEN.lb                       : Surface Line Tension
TT3.usec                      : CBL 3' Travel Time
AMP3.mV                       : CBL 3' Amplitude
ATT3.db/ft                    : CBL 3' Attenuation
GR.GAPI                       : Gamma Ray
CCL.                          : Casing Collar Locator
~Parameter Information Block
~A  Depth       LTEN        TT3         AMP3        ATT3         GR         CCL     
# ...
  1320.5000    764.7358    632.1738      6.5227     -7.7495     93.8237      0.0000
  1320.7500    761.4264    574.8251      6.4313     -7.7904     92.8514      0.0000
  1321.0000    758.1132    526.9619      6.3421     -7.8308     89.6354      0.0000
  1321.2500    755.9416    497.9537      6.2823     -7.8582     85.8669      0.0000
  1321.5000    755.8692    488.1717      6.2684     -7.8647     83.8828      0.0000
  1321.7500    757.7819    493.1808      6.3055     -7.8476     84.5630      0.0000
  1322.0000    760.6459    509.4468      6.3777     -7.8146     86.8623      0.0000
  1322.2500    763.3660    535.4161      6.4504     -7.7818     89.3136      0.0000
  1322.5000    765.1631    569.2891      6.4988     -7.7601     91.5671      0.0000
  1322.7500    765.4693    607.8010      6.5304     -7.7461     94.3404      0.0000
  1323.0000    764.2905    646.5036      6.5708     -7.7283     98.2329      0.0000
  1323.2500    762.6590    678.6619      6.6349     -7.7001    102.9184      0.0000
  1323.5000    762.0290    694.1420      6.7189     -7.6637    107.2987      0.0000
  1323.7500    763.0593    683.9713      6.8137     -7.6231    110.0368      0.0000
  1324.0000    765.2507    650.4631      6.9160     -7.5800    110.0565      0.0000
  1324.2500    767.6008    612.3454      7.0310     -7.5322    106.9751      0.0000
  1324.5000    769.2931    595.3192      7.1726     -7.4745    101.2470      0.0000
  1324.7500    769.8739    613.5038      7.3516     -7.4031     93.8360      0.0000
  1325.0000    769.1736    659.3092      7.5520     -7.3253     85.7729      0.0000
  1325.2500    767.4760    711.5503      7.7218     -7.2609     78.0970      0.0000
  1325.5000    765.7576    752.2684      7.8082     -7.2287     71.9925      0.0000
  1325.7500    765.1321    775.9836      7.8001     -7.2317     68.5256      0.0000
  1326.0000    765.7477    786.6871      7.7305     -7.2577     68.0217      0.0000
  1326.2500    766.7313    790.4839      7.6416     -7.2911     69.8229      0.0000
  1326.5000    767.3677    791.4305      7.5500     -7.3261     72.6742      0.0000
  1326.7500    767.7753    791.3283      7.4422     -7.3677     75.2751      0.0000
  1327.0000    768.3027    790.8882      7.3092     -7.4199     76.6938      0.0000
  1327.2500    768.9032    790.4724      7.1782     -7.4723     76.6426      0.0000
  1327.5000    769.4034    790.2726      7.0958     -7.5057     75.4771      0.0000
  1327.7500    769.9099    790.2729      7.0871     -7.5092     73.8178      0.0000
  1328.0000    770.6002    790.3093      7.1452     -7.4856     72.0961      0.0000
  1328.2500    771.2340    790.1895      7.2543     -7.4417     70.4085      0.0000
  1328.5000    771.2115    789.7956      7.4064     -7.3816     68.7676      0.0000
  1328.7500    770.3276    789.1427      7.5948     -7.3089     67.4301      0.0000
  1329.0000    769.2264    788.3818      7.8012     -7.2313     66.9613      0.0000
  1329.2500    768.6462    787.7321      7.9904     -7.1619     67.9882      0.0000
  1329.5000    768.3558    787.3723      8.1047     -7.1208     70.8128      0.0000
  1329.7500    767.4023    787.3892      8.0687     -7.1337     75.0606      0.0000
  1330.0000    765.4376    787.8027      7.8369     -7.2181     79.5832      0.0000
  1330.2500    763.3129    788.5826      7.4559     -7.3624     83.0281      0.0000
  1330.5000    762.1190    789.5724      7.0599     -7.5204     84.9618      0.0000
  1330.7500    762.0212    790.3747      6.7793     -7.6378     86.3753      0.0000
  1331.0000    762.4211    790.2710      6.6616     -7.6885     88.6342      0.0000
  1331.2500    762.9371    788.3222      6.6767     -7.6820     91.8650      0.0000
  1331.5000    763.6391    783.8759      6.7718     -7.6410     94.7120      0.0000
  1331.7500    764.4623    777.3943      6.9076     -7.5835     95.8668      0.0000
  1332.0000    764.9022    770.7581      7.0555     -7.5222     95.5103      0.0000
  1332.2500    764.4842    766.2363      7.1777     -7.4725     94.9058      0.0000
  1332.5000    763.4719    764.8636      7.2147     -7.4576     94.7715      0.0000
  1332.7500    762.9232    766.0124      7.1083     -7.5006     94.4253      0.0000
  1333.0000    763.8103    768.3697      6.8589     -7.6040     92.5479      0.0000
  1333.2500    766.1138    770.6060      6.5602     -7.7329     88.6376      0.0000
  1333.5000    768.8517    771.2070      6.3533     -7.8257     83.6360      0.0000
  1333.7500    770.7939    768.7698      6.3285     -7.8370     79.1835      0.0000
  1334.0000    771.1204    762.9719      6.4628     -7.7762     76.5386      0.0000
  1334.2500    769.8394    754.4201      6.6433     -7.6965     76.2202      0.0000
  1334.5000    767.8027    743.5095      6.7410     -7.6542     78.0769      0.0000
  1334.7500    766.0658    730.9942      6.6765     -7.6821     81.1993      0.0000
  1335.0000    765.0591    720.1863      6.4456     -7.7840     84.1422      0.0000
  1335.2500    764.4576    716.3036      6.1075     -7.9399     85.8047      0.0000
  1335.5000    763.7601    721.4821      5.7480     -8.1156     86.1017      0.0000
  1335.7500    762.8105    731.3570      5.4454     -8.2722     85.6058      0.0000
  1336.0000    761.8727    737.1880      5.2625     -8.3711     84.7227      0.0000
  1336.2500    761.4895    729.8326      5.2478     -8.3792     83.5010      0.0000
  1336.5000    762.2123    703.2177      5.4167     -8.2875     82.0613      0.0000
  1336.7500    764.2089    658.9720      5.7275     -8.1259     80.7990      0.0000
  1337.0000    767.0054    609.1155      6.0924     -7.9471     80.1795      0.0000
  1337.2500    769.6237    570.6033      6.4113     -7.7994     80.6157      0.0000
  1337.5000    770.9855    554.2192      6.5968     -7.7168     82.4341      3.0000
  1337.7500    770.4357    558.7805      6.5985     -7.7161     85.6045      0.0000
  1338.0000    768.3184    576.3906      6.4369     -7.7879     89.4802      0.0000
  1338.2500    766.1492    601.3912      6.1959     -7.8984     92.9776      0.0000
  1338.5000    765.6895    631.1591      5.9562     -8.0126     95.1204      0.0000
  1338.7500    767.3621    659.2645      5.7538     -8.1127     95.5682      0.0000
  1339.0000    769.6462    673.8887      5.6208     -8.1804     94.8377      0.0000
  1339.2500    770.3786    666.0248      5.6240     -8.1787     93.8908      0.0000
  1339.5000    768.7215    636.3258      5.8187     -8.0802     93.2611      0.0000
  1339.7500    765.7498    592.9553      6.1758     -7.9077     92.5786      0.0000
  1340.0000    763.3359    546.1776      6.5776     -7.7253     91.1891      0.0000
  1340.2500    762.7424    505.5677      6.8818     -7.5944     89.1805      0.0000
  1340.5000    763.9993    478.0325      6.9958     -7.5468     87.4567      0.0000
  1340.7500    766.0191    465.3974      6.9205     -7.5781     86.7528      0.0000
  1341.0000    767.2671    464.1873      6.7399     -7.6547     86.8139      0.0000
  1341.2500    766.8164    468.3443      6.5596     -7.7332     86.6241      0.0000
  1341.5000    764.9901    472.7608      6.4453     -7.7841     85.3841      0.0000
  1341.7500    762.8893    475.7085      6.4076     -7.8010     83.2824      0.0000
  1342.0000    761.4059    478.9920      6.4242     -7.7936     81.4376      0.0000
  1342.2500    760.7757    486.2096      6.4617     -7.7767     81.1099      0.0000
  1342.5000    760.7698    500.1840      6.4861     -7.7658     82.6599      0.0000
  1342.7500    761.0458    520.2549      6.4703     -7.7729     84.9144      0.0000
  1343.0000    761.4675    540.8392      6.4096     -7.8002     85.7189      0.0000
  1343.2500    762.2273    554.7914      6.3270     -7.8377     83.6325      0.0000
  1343.5000    763.5599    561.1019      6.2624     -7.8674     79.2345      0.0000
  1343.7500    765.2911    567.7739      6.2543     -7.8712     74.5264      0.0000
  1344.0000    766.7255    584.1010      6.3260     -7.8382     71.1430      0.0000
  1344.2500    767.0310    610.9044      6.4744     -7.7711     69.4360      0.0000
