~Version Information
VERS.                      2.0: CWLS Log ASCII Standard - VERSION 2.0
WRAP.                       NO: One line per depth step
~Well Information Block
STRT.FT               754.6000: 
STOP.FT              2329.0000: 
STEP.FT                 0.1000: 
NULL.                -999.2500: 
COMP.          Petrogulf Corporation: COMPANY
WELL.           Anderson 18-42: WELL
FLD.           Purgatoire River: FIELD
LOC.           1668' FNL & 1110' FEL: LOCATION
CNTY.               Las Animas: COUNTY
SRVC.                         : SERVICE COMPANY
DATE.          Tue Dec 16 12:18:55 2003: LOG DATE
UWI.                          : UNIQUE WELL ID
STAT.                 Colorado: STATE
~Curve Information Block
DEPT.FT            0 000 00 00: Depth
DCAL.in                       : CDL Caliper
RHOB.g/cc                     : CDL Bulk Density
RHOC.g/cc                     : CDL Density Correction
DPOR.pu                       : CDL Density Porosity
NPOR.pu                       : Neutron Porosity
GR.GAPI                       : Gamma Ray
~Parameter Information Block
~A  Depth       DCAL        RHOB        RHOC        DPOR        NPOR         GR     
# ...
  1599.4000      8.1322      2.5891      0.0611      3.6899     24.5930     92.1425
  1599.5000      8.1262      2.5844      0.0549      3.9783     24.4830     92.7761
  1599.6000      8.1262      2.5738      0.0320      4.6178     24.6682     88.8583
  1599.7000      8.1262      2.5636      0.0226      5.2393     24.8719     80.3118
  1599.8000      8.1218      2.5435      0.0372      6.4526     24.5841     73.7557
  1599.9000      8.1218      2.5130      0.0197      8.3052     23.7571     75.6788
  1600.0000      8.1191      2.4858     -0.0172      9.9488     22.7813     81.1394
  1600.1000      8.1191      2.4683      0.0227     11.0103     21.8644     81.8533
  1600.2000      8.1191      2.4590     -0.0467     11.5757     21.1618     76.9980
  1600.3000      8.0957      2.4637     -0.0048     11.2934     20.7959     69.6952
  1600.4000      8.0957      2.4806      0.0018     10.2678     20.5834     63.3136
  1600.5000      8.1173      2.4982      0.0321      9.1998     20.2560     62.1225
  1600.6000      8.1173      2.5078      0.0401      8.6200     19.8146     66.0660
  1600.7000      8.1173      2.5075      0.0307      8.6377     19.4422     69.8834
  1600.8000      8.1240      2.5029      0.0160      8.9153     19.2451     69.4560
  1600.9000      8.1240      2.4998     -0.0010      9.1046     19.2287     69.2560
  1601.0000      8.1225      2.4970      0.0194      9.2703     19.4537     73.6164
  1601.1000      8.1225      2.4896      0.0052      9.7235     19.7557     77.0671
  1601.2000      8.1225      2.4754      0.0091     10.5805     19.6802     73.0238
  1601.3000      8.1237      2.4602     -0.0413     11.5012     19.0808     64.0069
  1601.4000      8.1237      2.4505     -0.0157     12.0920     18.1867     58.7409
  1601.5000      8.1234      2.4414      0.0177     12.6431     17.3308     59.7451
  1601.6000      8.1234      2.4200      0.0356     13.9418     16.6713     62.0646
  1601.7000      8.1234      2.3922     -0.0143     15.6220     16.0536     60.9877
  1601.8000      8.1224      2.3826      0.0174     16.2035     15.4124     56.5702
  1601.9000      8.1224      2.3900      0.0890     15.7584     14.9950     51.1965
  1602.0000      8.1392      2.3928      0.0325     15.5878     15.0247     44.8670
  1602.1000      8.1392      2.3922      0.0197     15.6252     15.3164     37.8180
  1602.2000      8.1392      2.3977      0.0391     15.2934     15.4065     35.0742
  1602.3000      8.1245      2.4036      0.0373     14.9311     15.0629     39.7940
  1602.4000      8.1245      2.4043      0.0570     14.8892     14.5721     45.8856
  1602.5000      8.1281      2.4046      0.0134     14.8730     14.2932     46.4418
  1602.6000      8.1281      2.4082      0.0526     14.6520     14.2401     43.2890
  1602.7000      8.1281      2.4087      0.0301     14.6257     14.3854     42.2377
  1602.8000      8.1252      2.4049      0.0117     14.8572     14.6620     46.2648
  1602.9000      8.1252      2.4044      0.0146     14.8828     14.8606     52.7370
  1603.0000      8.1240      2.4077      0.0452     14.6859     14.7852     58.0665
  1603.1000      8.1240      2.4066      0.0524     14.7493     14.5649     60.3998
  1603.2000      8.1240      2.3991      0.0399     15.2061     14.2434     59.1669
  1603.3000      8.1234      2.3863      0.0370     15.9794     13.7756     56.3651
  1603.4000      8.1234      2.3665     -0.0042     17.1808     13.4945     54.7816
  1603.5000      8.1198      2.3464     -0.0070     18.4019     13.4505     53.6321
  1603.6000      8.1198      2.3407     -0.0345     18.7456     13.3979     50.2745
  1603.7000      8.1198      2.3513      0.0253     18.1011     13.3803     44.5043
  1603.8000      8.1191      2.3605      0.0351     17.5477     13.4536     37.3226
  1603.9000      8.1191      2.3588      0.0110     17.6506     13.3167     32.9781
  1604.0000      8.1180      2.3571      0.0131     17.7545     12.9011     34.0653
  1604.1000      8.1180      2.3579      0.0545     17.7008     12.7569     35.3661
  1604.2000      8.1180      2.3514      0.0260     18.0945     13.1052     33.6096
  1604.3000      8.1183      2.3431     -0.0066     18.6029     13.4739     31.7946
  1604.4000      8.1183      2.3459      0.0057     18.4301     13.5612     32.1922
  1604.5000      8.1032      2.3553      0.0552     17.8587     13.3415     33.3917
  1604.6000      8.1032      2.3594      0.0142     17.6100     12.8712     34.3081
  1604.7000      8.1032      2.3563      0.0336     17.8029     12.4161     35.8342
  1604.8000      8.1210      2.3478      0.0349     18.3171     12.0876     37.1364
  1604.9000      8.1210      2.3391      0.0352     18.8452     11.7103     37.1797
  1605.0000      8.1230      2.3382      0.0054     18.8961     11.3643     36.4051
  1605.1000      8.1230      2.3454      0.0321     18.4624     11.2838     35.1074
  1605.2000      8.1230      2.3551      0.0387     17.8751     11.3924     34.4569
  1605.3000      8.1208      2.3646      0.0398     17.2983     11.6343     33.8271
  1605.4000      8.1208      2.3687      0.0551     17.0460     12.0114     32.3771
  1605.5000      8.1114      2.3621      0.0557     17.4479     12.3301     33.0523
  1605.6000      8.1114      2.3455      0.0451     18.4535     12.3473     36.5123
  1605.7000      8.1114      2.3242      0.0245     19.7479     12.0586     38.2201
  1605.8000      8.1180      2.3068      0.0100     20.8006     11.6180     34.9692
  1605.9000      8.1180      2.2989      0.0137     21.2801     11.1964     31.0884
  1606.0000      8.1237      2.2988     -0.0226     21.2848     11.0400     30.6427
  1606.1000      8.1237      2.3034      0.0429     21.0090     11.0576     32.1205
  1606.2000      8.1237      2.3088      0.0454     20.6811     10.9752     35.1363
  1606.3000      8.1219      2.3162      0.0175     20.2298     11.0025     38.8179
  1606.4000      8.1219      2.3308      0.0298     19.3462     11.3919     40.5690
  1606.5000      8.1235      2.3516      0.0636     18.0849     11.8282     39.1055
  1606.6000      8.1235      2.3708      0.0582     16.9241     11.9381     35.4432
  1606.7000      8.1235      2.3789      0.0890     16.4292     11.8353     32.1953
  1606.8000      8.1165      2.3729      0.0778     16.7946     11.8110     30.1368
  1606.9000      8.1165      2.3647     -0.0004     17.2938     11.8814     28.8838
  1607.0000      8.1103      2.3648      0.0530     17.2855     11.7264     29.7583
  1607.1000      8.1103      2.3614      0.0535     17.4931     11.2398     31.4461
  1607.2000      8.1103      2.3453      0.0146     18.4681     10.7821     31.6344
  1607.3000      8.1187      2.3306     -0.0261     19.3555     10.6211     30.5162
  1607.4000      8.1187      2.3272      0.0241     19.5639     10.7371     28.4056
  1607.5000      8.1191      2.3242      0.0270     19.7473     11.0694     28.5515
  1607.6000      8.1191      2.3130      0.0488     20.4214     11.3348     34.3497
  1607.7000      8.1191      2.3010     -0.0182     21.1505     11.2072     41.1321
  1607.8000      8.1228      2.2995      0.0165     21.2438     10.9650     41.1290
  1607.9000      8.1228      2.3078      0.0210     20.7381     10.9881     36.1161
  1608.0000      8.1200      2.3170      0.0395     20.1829     11.1094     32.7224
  1608.1000      8.1200      2.3210      0.0346     19.9385     11.0963     32.0761
  1608.2000      8.1200      2.3267      0.0154     19.5966     11.0057     32.5816
  1608.3000      8.1208      2.3437      0.0576     18.5646     11.0417     34.3245
  1608.4000      8.1208      2.3682      0.0370     17.0763     11.2120     38.5076
  1608.5000      8.1202      2.3857      0.0483     16.0166     11.3145     43.0970
  1608.6000      8.1202      2.3863      0.0161     15.9801     11.2147     44.4636
  1608.7000      8.1202      2.3777      0.0369     16.5045     11.0945     43.5170
  1608.8000      8.1197      2.3738      0.0219     16.7375     11.2728     43.2025
  1608.9000      8.1197      2.3762      0.0617     16.5951     11.4179     44.3781
