~Version Information
VERS.                      2.0: CWLS Log ASCII Standard - VERSION 2.0
WRAP.                       NO: One line per depth step
~Well Information Block
STRT.FT               545.0000: 
STOP.FT              1922.0000: 
STEP.FT                 0.2500: 
NULL.                -999.2500: 
COMP.          Pioneer Natural Resources: COMPANY
WELL.            Summers 21-19: WELL
FLD.           Purgatoire River: FIELD
LOC.           900' FNL & 1950' FWL: LOCATION
PROV.                 Colorado: PROVINCE
CNTY.               Las Animas: COUNTRY
SRVC.                Patterson: SERVICE COMPANY
DATE.          Sat Oct 15 03:34:13 2005: LOG DATE
UWI.           05 071 08315 00: UNIQUE WELL ID
~Curve Information Block
DEPT.FT            0 000 00 00: Depth
SN.Ohm-m                      : IEL Short Normal
SP.mV                         : IEL Spontaneous Potential
DIR.Ohm-m                     : IEL Induction Resistivity
GR.GAPI                       : Gamma Ray
~Parameter Information Block
~A  Depth        SN          SP         DIR          GR     
# ...
  1516.5000     22.5145    -93.1542     19.3274    119.2863
  1516.7500     21.9769    -93.0800     19.2225    123.3046
  1517.0000     21.5694    -93.1128     19.2303    129.3751
  1517.2500     21.3240    -93.2154     19.3099    132.4044
  1517.5000     21.2131    -93.3352     19.4275    134.0836
  1517.7500     21.1710    -93.4210     19.5591    132.9411
  1518.0000     21.1659    -93.4420     19.6867    127.8626
  1518.2500     21.2357    -93.3990     19.7957    122.6357
  1518.5000     21.4731    -93.3195     19.8789    113.4158
  1518.7500     21.9257    -93.2411     19.9428    107.2869
  1519.0000     22.5301    -93.1914     20.0109     99.1727
  1519.2500     23.2017    -93.1781     20.1206     94.6512
  1519.5000     23.8949    -93.1927     20.3097     89.2135
  1519.7500     24.5388    -93.2219     20.5946     86.4946
  1520.0000     25.0437    -93.2559     20.9531     83.5300
  1520.2500     25.3674    -93.2913     21.3292     81.9183
  1520.5000     25.4811    -93.3303     21.6629     79.3759
  1520.7500     25.3715    -93.3787     21.9265     77.3746
  1521.0000     25.1332    -93.4404     22.1341     73.7269
  1521.2500     24.9183    -93.5170     22.3222     70.8354
  1521.5000     24.7966    -93.6102     22.5258     66.0627
  1521.7500     24.7429    -93.7237     22.7663     62.9015
  1522.0000     24.7290    -93.8582     23.0507     58.6432
  1522.2500     24.7724    -94.0089     23.3741     56.2334
  1522.5000     24.8850    -94.1701     23.7257     53.2730
  1522.7500     25.0496    -94.3397     24.1014     51.6799
  1523.0000     25.2718    -94.5162     24.5187     49.5844
  1523.2500     25.5818    -94.6932     25.0121     48.1567
  1523.5000     25.9855    -94.8623     25.6030     45.7093
  1523.7500     26.4538    -95.0215     26.2591     43.8625
  1524.0000     26.9608    -95.1773     26.8814     40.8799
  1524.2500     27.5011    -95.3366     27.3472     38.8325
  1524.5000     28.0635    -95.4949     27.5923     35.9095
  1524.7500     28.6412    -95.6326     27.6509     34.2896
  1525.0000     29.2481    -95.7216     27.6078     32.7419
  1525.2500     29.8560    -95.7365     27.5129     32.4016
  1525.5000     30.3669    -95.6613     27.3440     32.9306
  1525.7500     30.7023    -95.4905     27.0450     34.0327
  1526.0000     30.8466    -95.2296     26.6052     37.2393
  1526.2500     30.7694    -94.9020     26.1053     40.8493
  1526.5000     30.4042    -94.5507     25.6853     49.3002
  1526.7500     29.7363    -94.2239     25.4640     57.1790
  1527.0000     28.8563    -93.9527     25.4764     71.4912
  1527.2500     27.9397    -93.7415     25.6644     81.2011
  1527.5000     27.1684    -93.5795     25.9162     92.3441
  1527.7500     26.6326    -93.4568     26.1259     95.5716
  1528.0000     26.3130    -93.3678     26.2338     92.9268
  1528.2500     26.1544    -93.3020     26.2303     87.0803
  1528.5000     26.1334    -93.2388     26.1407     75.5908
  1528.7500     26.2652    -93.1548     26.0050     73.9259
  1529.0000     26.5567    -93.0364     25.8632     65.2659
  1529.2500     26.9501    -92.8853     25.7427     62.4910
  1529.5000     27.3194    -92.7162     25.6560     63.1885
  1529.7500     27.5141    -92.5529     25.6054     71.7287
  1530.0000     27.3985    -92.4253     25.5885     80.2672
  1530.2500     26.9385    -92.3637     25.5963     86.1796
  1530.5000     26.2821    -92.3895     25.6097     91.8755
  1530.7500     25.6655    -92.5071     25.6043     92.1210
  1531.0000     25.2622    -92.6976     25.5651     87.0400
  1531.2500     25.1507    -92.9136     25.5027     81.4112
  1531.5000     25.3385    -93.0735     25.4523     73.1469
  1531.7500     25.7570    -93.0672     25.4492     69.2792
  1532.0000     26.2441    -92.7959     25.4956     66.2601
  1532.2500     26.6124    -92.2494     25.5477     65.2552
  1532.5000     26.8065    -91.5497     25.5387     63.6167
  1532.7500     26.9101    -90.8869     25.4297     61.9831
  1533.0000     26.9958    -90.3910     25.2461     58.9157
  1533.2500     27.0752    -90.0706     25.0615     56.8348
  1533.5000     27.1387    -89.8610     24.9382     54.2433
  1533.7500     27.1500    -89.7054     24.8701     53.1514
  1534.0000     27.0461    -89.5870     24.7739     53.0104
  1534.2500     26.7590    -89.5124     24.5431     54.1491
  1534.5000     26.2390    -89.4859     24.1326     57.3978
  1534.7500     25.5239    -89.4994     23.5975     59.8773
  1535.0000     24.7799    -89.5388     23.0502     62.5111
  1535.2500     24.1522    -89.5930     22.5852     63.0027
  1535.5000     23.6223    -89.6560     22.2398     62.1730
  1535.7500     23.1225    -89.7247     22.0020     61.3213
  1536.0000     22.6748    -89.7961     21.8376     60.9515
  1536.2500     22.3487    -89.8679     21.7143     61.7863
  1536.5000     22.1782    -89.9399     21.6141     64.7183
  1536.7500     22.1568    -90.0152     21.5365     67.3823
  1537.0000     22.2649    -90.0990     21.4918     71.2190
  1537.2500     22.4705    -90.1965     21.4899     72.9392
  1537.5000     22.7361    -90.3094     21.5275     73.5302
  1537.7500     23.0531    -90.4300     21.5894     72.6007
  1538.0000     23.4337    -90.5393     21.6636     69.8507
  1538.2500     23.8603    -90.6175     21.7602     67.6452
  1538.5000     24.2881    -90.6572     21.9129     64.5802
  1538.7500     24.7046    -90.6682     22.1569     62.9756
  1539.0000     25.1190    -90.6665     22.4983     61.3484
  1539.2500     25.4976    -90.6581     22.8966     60.7433
  1539.5000     25.7762    -90.6336     23.2756     60.5027
  1539.7500     25.9260    -90.5793     23.5580     60.8130
  1540.0000     25.9759    -90.4944     23.7048     62.1726
  1540.2500     25.9624    -90.3942     23.7296     63.9097
  1540.5000     25.8897    -90.3012     23.6828     68.1468
  1540.7500     25.7679    -90.2363     23.6221     71.8501
  1541.0000     25.6456    -90.2170     23.5886     76.9359
  1541.2500     25.5767    -90.2584     23.5985     78.4613
  1541.5000     25.5810    -90.3694     23.6449     76.2723
  1541.7500     25.6233    -90.5455     23.7051     72.2299
  1542.0000     25.6307    -90.7643     23.7501     64.8528
  1542.2500     25.5891    -90.9900     23.7546     60.5784
  1542.5000     25.5930    -91.1879     23.7071     56.2519
  1542.7500     25.7345    -91.3379     23.6156     54.6687
  1543.0000     25.9911    -91.4395     23.5052     54.1564
  1543.2500     26.2604    -91.5054     23.4030     55.4621
  1543.5000     26.4794    -91.5545     23.3211     60.7499
  1543.7500     26.6344    -91.6071     23.2535     66.3669
  1544.0000     26.6659    -91.6832     23.1914     76.0792
  1544.2500     26.5401    -91.7999     23.1402     81.8372
  1544.5000     26.3872    -91.9676     23.1208     87.2490
  1544.7500     26.3752    -92.1853     23.1519     88.1993
  1545.0000     26.4850    -92.4392     23.2320     86.0921
  1545.2500     26.5577    -92.7059     23.3373     83.2511
  1545.5000     26.5340    -92.9574     23.4380     78.9614
  1545.7500     26.5006    -93.1658     23.5183     77.0363
  1546.0000     26.5077    -93.3106     23.5844     75.8552
  1546.2500     26.5041    -93.3896     23.6538     75.7657
  1546.5000     26.4452    -93.4195     23.7395     75.9390
  1546.7500     26.3590    -93.4228     23.8409     76.1792
  1547.0000     26.2962    -93.4136     23.9453     76.7929
  1547.2500     26.2618    -93.3982     24.0359     77.0924
  1547.5000     26.2580    -93.3845     24.1029     76.2304
  1547.7500     26.3430    -93.3851     24.1526     74.1885
  1548.0000     26.5720    -93.4132     24.2076     68.9209
  1548.2500     26.9299    -93.4761     24.2986     64.5125
  1548.5000     27.3530    -93.5728     24.4507     57.8637
  1548.7500     27.8035    -93.6958     24.6718     54.1730
  1549.0000     28.3064    -93.8375     24.9451     51.0351
  1549.2500     28.8941    -93.9964     25.2306     51.0711
  1549.5000     29.5145    -94.1748     25.4758     54.2125
  1549.7500     30.0249    -94.3673     25.6338     57.6871
