~Version Information
VERS.                      2.0: CWLS Log ASCII Standard - VERSION 2.0
WRAP.                       NO: One line per depth step
~Well Information Block
STRT.FT                 0.0000: 
STOP.FT              1916.0000: 
STEP.FT                 0.1000: 
NULL.                -999.2500: 
COMP.          Pioneer Natural Resources: COMPANY
WELL.          Blackjack 32-11 Tr: WELL
FLD.           Purgatorie River: FIELD
LOC.           2066' FNL & 1453' FEL: LOCATION
PROV.                 Colorado: PROVINCE
CNTY.               Las Animas: COUNTRY
SRVC.                Patterson: SERVICE COMPANY
DATE.          Tue Aug 16 12:08:23 2005: LOG DATE
UWI.                          : UNIQUE WELL ID
~Curve Information Block
DEPT.FT            0 000 00 00: Depth
DCAL.in                       : CDL Caliper
RHOB.g/cc                     : CDL Bulk Density
RHOC.g/cc                     : CDL Density Correction
DPOR.pu                       : CDL Density Porosity
GR.GAPI                       : Gamma Ray
NPOR.pu                       : Neutron Porosity
~Parameter Information Block
~A  Depth       DCAL        RHOB        RHOC        DPOR         GR         NPOR    
# ...
   748.8000      8.1103      2.5335      0.0608      7.0602    119.9289     27.0630
   748.9000      8.1103      2.5138      0.0431      8.2519    123.1101     27.6583
   749.0000      8.0936      2.5173     -0.0136      8.0440    121.3238     27.9639
   749.1000      8.0936      2.5443      0.1003      6.4065    115.3893     27.8582
   749.2000      8.0936      2.5719      0.0876      4.7319    110.8101     27.7448
   749.3000      8.0797      2.5919      0.0998      3.5194    109.4886     27.9316
   749.4000      8.0797      2.6106      0.1278      2.3866    108.1748     28.1363
   749.5000      8.0616      2.6258      0.1447      1.4675    104.6012     27.9776
   749.6000      8.0616      2.6346      0.1519      0.9307    101.6055     27.5458
   749.7000      8.0616      2.6413      0.1477      0.5295    102.9044     27.1298
   749.8000      8.0383      2.6447      0.1748      0.3184    108.1222     26.8718
   749.9000      8.0383      2.6310      0.1877      1.1487    113.6537     26.8074
   750.0000      7.9967      2.5952      0.0965      3.3238    116.6644     26.7583
   750.1000      7.9967      2.5554      0.0724      5.7348    118.1211     26.5756
   750.2000      7.9967      2.5335      0.0081      7.0591    119.3758     26.4120
   750.3000      7.9415      2.5350      0.0704      6.9675    120.5007     26.2141
   750.4000      7.9415      2.5414      0.0846      6.5822    123.9462     25.8591
   750.5000      7.9880      2.5368      0.0489      6.8607    130.4789     25.5532
   750.6000      7.9880      2.5306      0.0681      7.2368    137.0892     25.5706
   750.7000      7.9880      2.5383      0.0679      6.7675    141.2885     25.9161
   750.8000      8.0376      2.5625      0.0803      5.3023    142.8103     26.3932
   750.9000      8.0376      2.5933      0.1525      3.4373    142.7496     26.7988
   751.0000      8.1098      2.6164      0.1809      2.0385    141.4991     26.9941
   751.1000      8.1098      2.6222      0.1632      1.6863    138.7415     26.9663
   751.2000      8.1098      2.6097      0.1695      2.4400    134.6432     26.8089
   751.3000      8.0644      2.5878      0.1308      3.7672    129.0883     26.6490
   751.4000      8.0644      2.5687      0.1165      4.9264    121.1309     26.5713
   751.5000      8.0221      2.5587      0.0905      5.5350    111.8607     26.4881
   751.6000      8.0221      2.5607      0.0631      5.4150    104.6636     26.1475
   751.7000      8.0221      2.5716      0.0805      4.7543    100.7438     25.4042
   751.8000      8.0047      2.5776      0.0766      4.3887     96.7842     24.3584
   751.9000      8.0047      2.5660      0.0609      5.0920     90.3405     23.3492
   752.0000      8.0499      2.5423      0.0417      6.5262     83.6446     22.8313
   752.1000      8.0499      2.5276      0.0384      7.4190     78.5481     22.8580
   752.2000      8.0499      2.5309      0.0521      7.2211     75.0191     22.9751
   752.3000      8.0408      2.5380      0.0823      6.7895     74.0860     22.9207
   752.4000      8.0408      2.5377      0.0584      6.8034     75.6007     22.7900
   752.5000      8.0317      2.5341      0.0689      7.0229     77.4122     22.6881
   752.6000      8.0317      2.5314      0.0644      7.1875     77.9482     22.5261
   752.7000      8.0317      2.5290      0.0828      7.3325     77.0101     22.2168
   752.8000      8.0559      2.5278      0.0374      7.4088     77.2206     21.9320
   752.9000      8.0559      2.5321      0.0599      7.1454     80.2209     21.8448
   753.0000      8.0692      2.5446      0.0206      6.3855     83.5188     21.9468
   753.1000      8.0692      2.5635      0.0569      5.2409     85.5271     22.2551
   753.2000      8.0692      2.5790      0.0684      4.3048     86.9285     22.7385
   753.3000      8.1017      2.5796      0.0972      4.2654     87.1442     23.0529
   753.4000      8.1017      2.5646      0.0720      5.1777     87.3721     23.0054
   753.5000      8.0862      2.5463      0.0702      6.2861     89.8673     22.8756
   753.6000      8.0862      2.5400      0.0329      6.6682     93.8378     23.0713
   753.7000      8.0862      2.5530      0.0357      5.8771     99.4106     23.6677
   753.8000      8.0637      2.5762      0.0906      4.4754    108.3194     24.3781
   753.9000      8.0637      2.5880      0.0792      3.7588    117.7438     25.0218
   754.0000      8.0725      2.5774      0.1118      4.4015    122.0378     25.6139
   754.1000      8.0725      2.5581      0.0469      5.5668    120.6860     26.0001
   754.2000      8.0725      2.5540      0.0542      5.8169    118.3470     25.9851
   754.3000      8.0400      2.5635      0.0892      5.2405    120.4335     25.7839
   754.4000      8.0400      2.5694      0.0878      4.8872    127.7341     25.7257
   754.5000      7.9901      2.5669      0.0830      5.0368    133.9493     25.7677
   754.6000      7.9901      2.5532      0.1045      5.8638    136.0295     25.7319
   754.7000      7.9901      2.5285      0.0625      7.3623    138.8285     25.6942
   754.8000      7.9700      2.5106      0.0185      8.4475    143.5361     25.6436
   754.9000      7.9700      2.5118      0.0348      8.3764    146.3268     25.5078
   755.0000      8.0233      2.5211      0.0696      7.8096    147.0953     25.6653
   755.1000      8.0233      2.5215      0.0894      7.7902    146.8690     26.3705
   755.2000      8.0233      2.5149      0.0051      8.1858    146.0067     27.2968
   755.3000      8.1542      2.5171      0.0515      8.0519    146.6309     27.9651
   755.4000      8.1542      2.5253      0.0509      7.5551    148.8916     28.1672
   755.5000      8.1877      2.5288      0.0051      7.3440    151.6754     28.2101
   755.6000      8.1877      2.5262      0.0222      7.5028    155.5826     28.4921
   755.7000      8.1877      2.5200      0.0307      7.8762    158.7100     28.8863
   755.8000      8.1829      2.5193      0.0300      7.9229    157.5180     29.0520
   755.9000      8.1829      2.5318      0.0506      7.1618    154.8320     29.0092
   756.0000      8.1406      2.5494      0.0564      6.0990    155.6611     29.0134
   756.1000      8.1406      2.5548      0.0895      5.7701    159.0741     29.1595
   756.2000      8.1406      2.5484      0.0348      6.1584    160.1325     29.1737
   756.3000      8.1467      2.5432      0.0613      6.4724    155.6533     28.9511
   756.4000      8.1467      2.5382      0.0357      6.7787    148.8910     28.7360
   756.5000      8.1763      2.5248      0.0680      7.5884    144.7583     28.5816
   756.6000      8.1763      2.5134     -0.0090      8.2786    141.6604     28.4423
   756.7000      8.1763      2.5224      0.0663      7.7308    136.9774     28.2986
   756.8000      8.1710      2.5387      0.0941      6.7465    132.6685     27.9210
   756.9000      8.1710      2.5368      0.0503      6.8595    130.2255     27.1467
   757.0000      8.1748      2.5188      0.0326      7.9521    128.1074     26.2638
   757.1000      8.1748      2.5040      0.0101      8.8459    125.4977     25.6857
   757.2000      8.1748      2.5037      0.0437      8.8675    122.9361     25.3977
   757.3000      8.0832      2.5123      0.0417      8.3449    121.5072     25.2480
   757.4000      8.0832      2.5147      0.0597      8.2014    121.7570     25.2776
   757.5000      8.0868      2.5020      0.0218      8.9674    122.9770     25.2941
   757.6000      8.0868      2.4900      0.0081      9.6991    124.8046     25.1086
   757.7000      8.0868      2.5015      0.0443      8.9975    127.6717     25.0293
   757.8000      8.1249      2.5314      0.0814      7.1859    131.0766     25.2213
   757.9000      8.1249      2.5491      0.1362      6.1162    134.3933     25.3697
   758.0000      8.1379      2.5415      0.0942      6.5738    137.7985     25.3274
   758.1000      8.1379      2.5316      0.0588      7.1732    139.7801     25.2496
   758.2000      8.1379      2.5390      0.0608      6.7297    140.0426     25.2213
   758.3000      8.1391      2.5513      0.1156      5.9809    141.1274     25.2971
