~Version Information
VERS.                      2.0: CWLS Log ASCII Standard - VERSION 2.0
WRAP.                       NO: One line per depth step
~Well Information Block
STRT.FT               858.7000: 
STOP.FT              2478.2000: 
STEP.FT                 0.1000: 
NULL.                -999.2500: 
COMP.          Petrogulf Corporation: COMPANY
WELL.           Torcom 17-33 V: WELL
FLD.           Purgatoire River: FIELD
LOC.           1544' FSL & 1746' FEL: LOCATION
PROV.                 Colorado: PROVINCE
CNTY.               Las Animas: COUNTRY
SRVC.                Patterson: SERVICE COMPANY
DATE.          Wed Dec 03 09:22:08 2003: LOG DATE
UWI.                          : UNIQUE WELL ID
~Curve Information Block
DEPT.FT            0 000 00 00: Depth
DCAL.in                       : CDL Caliper
RHOB.g/cc                     : CDL Bulk Density
RHOC.g/cc                     : CDL Density Correction
DPOR.pu                       : CDL Density Porosity
GR.GAPI                       : Gamma Ray
NPOR.pu                       : Neutron Porosity
~Parameter Information Block
~A  Depth       DCAL        RHOB        RHOC        DPOR         GR         NPOR    
# ...
  2039.5000      7.9952      2.5019     -0.0132      8.9741     80.1312     19.6383
  2039.6000      7.9952      2.5027      0.0026      8.9248     76.1874     18.9548
  2039.7000      7.9952      2.5384      0.0796      6.7607     75.4161     18.9955
  2039.8000      8.0867      2.5600      0.0708      5.4562     77.4371     19.1874
  2039.9000      8.0867      2.5445      0.0463      6.3956     75.5613     18.9716
  2040.0000      8.0416      2.5147      0.0345      8.1976     72.6726     18.7312
  2040.1000      8.0416      2.5003      0.0170      9.0745     75.9248     18.9696
  2040.2000      8.0416      2.4975      0.1409      9.2413     81.0490     19.2547
  2040.3000      8.0755      2.4904      0.0438      9.6749     80.9542     19.1570
  2040.4000      8.0755      2.4899      0.0470      9.7004     79.3965     18.5764
  2040.5000      8.0640      2.5123      0.0619      8.3485     81.4325     17.3648
  2040.6000      8.0640      2.5500      0.1618      6.0588     84.5312     15.9812
  2040.7000      8.0640      2.5891      0.1500      3.6928     85.1336     15.0943
  2040.8000      7.9880      2.6124      0.2123      2.2774     80.4976     14.7847
  2040.9000      7.9880      2.5899      0.1970      3.6422     69.8547     14.8037
  2041.0000      7.9915      2.5242      0.1414      7.6215     60.3438     14.9457
  2041.1000      7.9915      2.4681      0.0880     11.0228     59.2834     14.9266
  2041.2000      7.9915      2.4547      0.0695     11.8369     64.8708     14.4672
  2041.3000      8.0080      2.4684      0.1000     11.0075     69.4931     13.5837
  2041.4000      8.0080      2.4905      0.0311      9.6683     68.6638     12.7949
  2041.5000      8.0722      2.5200      0.0965      7.8789     65.8194     12.6203
  2041.6000      8.0722      2.5593      0.1259      5.4987     65.4044     12.9458
  2041.7000      8.0722      2.6001      0.2069      3.0226     64.0148     13.2578
  2041.8000      8.0706      2.6178      0.2379      1.9518     57.5309     13.3571
  2041.9000      8.0706      2.6054      0.2443      2.7042     51.0442     13.4472
  2042.0000      8.0065      2.5911      0.2272      3.5710     50.5858     13.5726
  2042.1000      8.0065      2.5931      0.2367      3.4480     52.4244     13.6088
  2042.2000      8.0065      2.5943      0.2364      3.3751     49.9322     13.6313
  2042.3000      7.9508      2.5766      0.1947      4.4463     45.3247     13.7697
  2042.4000      7.9508      2.5511      0.1615      5.9949     43.3146     14.0639
  2042.5000      7.9698      2.5461      0.1338      6.2967     44.0208     14.4458
  2042.6000      7.9698      2.5781      0.1858      4.3555     45.3494     14.5897
  2042.7000      7.9698      2.6306      0.2349      1.1739     46.0730     14.1812
  2042.8000      7.9758      2.6697      0.2335     -1.1927     47.3258     13.4637
  2042.9000      7.9758      2.6717      0.2427     -1.3178     48.8859     13.4061
  2043.0000      8.0143      2.6321      0.2124      1.0878     47.3204     14.5577
  2043.1000      8.0143      2.5630      0.1568      5.2726     43.8692     15.7891
  2043.2000      8.0143      2.4967      0.0740      9.2888     45.0331     15.7695
  2043.3000      8.0724      2.4745      0.0348     10.6342     49.2394     14.9883
  2043.4000      8.0724      2.5030      0.0759      8.9070     49.8368     14.4722
  2043.5000      8.0749      2.5392      0.1485      6.7163     49.2047     14.5498
  2043.6000      8.0749      2.5466      0.1749      6.2669     51.4795     14.9746
  2043.7000      8.0749      2.5406      0.1668      6.6302     55.2925     15.1562
  2043.8000      8.0077      2.5494      0.1965      6.0943     57.7644     14.8458
  2043.9000      8.0077      2.5695      0.1907      4.8795     55.9964     14.3845
  2044.0000      7.9910      2.5871      0.2303      3.8150     52.4349     14.1838
  2044.1000      7.9910      2.6057      0.1841      2.6841     51.6807     14.0043
  2044.2000      7.9910      2.6248      0.2359      1.5249     52.6487     13.5848
  2044.3000      7.9768      2.6248      0.2253      1.5265     53.7273     13.2957
  2044.4000      7.9768      2.6045      0.1571      2.7554     55.1470     13.2426
  2044.5000      8.0915      2.5855      0.1313      3.9110     57.0438     13.1596
  2044.6000      8.0915      2.5727      0.1483      4.6858     58.1280     12.9554
  2044.7000      8.0915      2.5522      0.1452      5.9301     54.5865     12.9286
  2044.8000      8.0662      2.5248      0.0784      7.5853     46.7280     13.3771
  2044.9000      8.0662      2.5143      0.0385      8.2218     40.1149     14.1154
  2045.0000      8.0815      2.5307      0.0984      7.2293     36.2527     14.8307
  2045.1000      8.0815      2.5598      0.1302      5.4681     34.0345     15.3401
  2045.2000      8.0815      2.5856      0.1406      3.9037     34.3369     15.4520
  2045.3000      8.0703      2.5965      0.2007      3.2450     36.7411     15.1245
  2045.4000      8.0703      2.5787      0.1521      4.3232     38.4960     14.3983
  2045.5000      8.0740      2.5414      0.1264      6.5845     40.9136     12.9932
  2045.6000      8.0740      2.5193      0.0152      7.9216     45.3925     10.6352
  2045.7000      8.0740      2.5094      0.1752      8.5218     47.5060      7.5770
  2045.8000      8.0517      2.4577      0.2107     11.6555     46.7742      4.5113
  2045.9000      8.0517      2.3313      0.0971     19.3181     47.4459      2.1196
  2046.0000      8.0812      2.1271      0.0312     31.6920     52.1110      0.4836
  2046.1000      8.0812      1.8593     -0.0889     47.9231     60.5042     -0.8809
  2046.2000      8.0812      1.5839     -0.2674     64.6137     71.9650     -2.2796
  2046.3000      8.0949      1.3575     -0.2772     78.3352     84.0458     -3.1838
  2046.4000      8.0949      1.1681     -0.3176     89.8112     90.3922     -3.0419
  2046.5000      8.1139      0.9846     -0.3379    100.9351     88.3893     -1.7168
  2046.6000      8.1139      0.8936     -0.6192    106.4459     82.8986      1.0483
  2046.7000      8.1139      1.0577     -0.5033     96.5018     81.8748      5.1667
  2046.8000      8.1425      1.4482      0.2458     72.8349     87.0292      9.8283
  2046.9000      8.1425      1.8355      0.5536     49.3633     92.0461     13.6774
  2047.0000      8.3274      2.0892      0.5826     33.9887     97.1907     16.0708
  2047.1000      8.3274      2.2476      0.6671     24.3906    101.9950     18.1451
  2047.2000      8.3274      2.3470      0.7417     18.3664     98.4527     20.8965
  2047.3000      8.5212      2.3781      0.6254     16.4815     90.6712     23.8726
  2047.4000      8.5212      2.3618      0.4708     17.4658     88.2748     26.1658
  2047.5000      8.9107      2.3476      0.4038     18.3289     88.6299     27.4538
  2047.6000      8.9107      2.3500      0.3946     18.1789     87.6576     27.6959
  2047.7000      8.9107      2.3471      0.4064     18.3596     87.6161     26.8235
  2047.8000      8.9975      2.3322      0.3442     19.2577     90.1370     25.1981
  2047.9000      8.9975      2.3443      0.2105     18.5271     92.3105     23.4567
  2048.0000      8.5486      2.4143      0.2890     14.2824     91.3903     22.1377
  2048.1000      8.5486      2.4972      0.3191      9.2584     88.7520     21.5366
  2048.2000      8.5486      2.5270      0.2113      7.4569     86.8328     21.6098
  2048.3000      8.2355      2.5080      0.1227      8.6076     87.0664     21.9041
  2048.4000      8.2355      2.4914      0.0728      9.6102     90.7758     21.8487
  2048.5000      8.1626      2.4974      0.1162      9.2510     94.4489     21.4078
  2048.6000      8.1626      2.5033      0.1603      8.8904     93.7983     21.0203
  2048.7000      8.1626      2.4931      0.1509      9.5064     91.0847     20.5804
  2048.8000      8.1715      2.4831      0.1116     10.1174     92.4880     19.9492
  2048.9000      8.1715      2.4883      0.0954      9.7978     99.5861     19.5856
  2049.0000      8.2495      2.4956      0.1641      9.3575    108.1092     19.5740
