~Version Information
VERS.                      2.0: CWLS Log ASCII Standard - VERSION 2.0
WRAP.                       NO: One line per depth step
~Well Information Block
STRT.FT               472.0000: 
STOP.FT              2430.5000: 
STEP.FT                 0.2500: 
NULL.                -999.2500: 
COMP.          Pioneer Natural Resources: COMPANY
WELL.          Flying Horse 12-11: WELL
FLD.           Purgatoire River: FIELD
LOC.           2428' FNL & 308' FWL: LOCATION
PROV.                 Colorado: PROVINCE
CNTY.               Las Animas: COUNTRY
SRVC.                Patterson: SERVICE COMPANY
DATE.          Sun May 29 11:58:35 2005: LOG DATE
UWI.           05 071 08378 00: UNIQUE WELL ID
~Curve Information Block
DEPT.FT            0 000 00 00: Depth
SN.Ohm-m                      : IEL Short Normal
SP.mV                         : IEL Spontaneous Potential
DIR.Ohm-m                     : IEL Induction Resistivity
GR.GAPI                       : Gamma Ray
~Parameter Information Block
~A  Depth        SN          SP         DIR          GR     
# ...
  1477.0000     17.6489    -80.8351 100000.0000    143.3899
  1477.2500     17.9028    -81.0033 100000.0000    139.1862
  1477.5000     18.1236    -81.1733 100000.0000    129.7839
  1477.7500     18.3323    -81.3197     69.8496    122.2065
  1478.0000     18.6539    -81.4302     28.0141    111.0511
  1478.2500     19.2081    -81.5007     18.4847    105.0072
  1478.5000     20.0264    -81.5298     14.7474     98.9836
  1478.7500     21.0012    -81.5211     13.0911     96.7886
  1479.0000     21.9311    -81.4842     12.4160     95.3295
  1479.2500     22.6785    -81.4274     12.2693     95.1170
  1479.5000     23.2569    -81.3492     12.4380     95.5799
  1479.7500     23.7380    -81.2364     12.8366     96.4374
  1480.0000     24.1359    -81.0719     13.4583     98.4515
  1480.2500     24.4201    -80.8475     14.3330     99.7796
  1480.5000     24.5739    -80.5753     15.4802    100.4086
  1480.7500     24.6041    -80.2915     16.8641     99.4761
  1481.0000     24.5464    -80.0442     18.3666     96.5522
  1481.2500     24.4505    -79.8698     19.7986     94.3917
  1481.5000     24.3175    -79.7741     20.9631     92.2792
  1481.7500     24.0908    -79.7364     21.7371     92.2408
  1482.0000     23.7289    -79.7298     22.1134     94.6163
  1482.2500     23.2270    -79.7397     22.1761     97.4920
  1482.5000     22.5808    -79.7668     22.0413    102.2057
  1482.7500     21.8099    -79.8197     21.8081    104.4013
  1483.0000     20.9791    -79.9082     21.5409    104.4941
  1483.2500     20.1553    -80.0390     21.2771    102.0349
  1483.5000     19.3811    -80.2176     21.0420     95.4565
  1483.7500     18.6857    -80.4503     20.8569     90.3396
  1484.0000     18.1018    -80.7421     20.7368     83.6067
  1484.2500     17.6908    -81.0864     20.6862     80.3414
  1484.5000     17.5275    -81.4578     20.6983     77.0602
  1484.7500     17.6367    -81.8199     20.7587     75.4434
  1485.0000     17.9722    -82.1424     20.8495     73.1842
  1485.2500     18.4410    -82.4125     20.9523     71.6800
  1485.5000     18.9322    -82.6357     21.0510     69.4669
  1485.7500     19.3554    -82.8264     21.1376     67.9568
  1486.0000     19.6580    -82.9955     21.2154     65.4294
  1486.2500     19.8218    -83.1435     21.2956     63.5908
  1486.5000     19.8863    -83.2645     21.3884     60.9405
  1486.7500     19.9447    -83.3553     21.4953     59.3879
  1487.0000     20.0685    -83.4197     21.6090     57.2309
  1487.2500     20.2423    -83.4636     21.7186     55.7861
  1487.5000     20.3826    -83.4918     21.8160     53.9154
  1487.7500     20.4133    -83.5141     21.8971     53.2557
  1488.0000     20.3365    -83.5510     21.9602     53.3926
  1488.2500     20.2387    -83.6269     22.0060     53.9797
  1488.5000     20.2029    -83.7552     22.0390     55.0878
  1488.7500     20.2226    -83.9307     22.0643     55.9130
  1489.0000     20.2324    -84.1384     22.0797     57.4096
  1489.2500     20.1922    -84.3661     22.0693     58.6207
  1489.5000     20.0948    -84.6102     22.0102     60.6574
  1489.7500     19.9370    -84.8731     21.8910     61.9745
  1490.0000     19.7198    -85.1610     21.7251     63.4629
  1490.2500     19.4634    -85.4813     21.5435     63.9509
  1490.5000     19.2127    -85.8381     21.3741     63.7951
  1490.7500     19.0191    -86.2260     21.2247     63.1082
  1491.0000     18.9140    -86.6261     21.0842     61.5676
  1491.2500     18.8881    -87.0086     20.9366     60.6522
  1491.5000     18.8747    -87.3452     20.7747     60.1280
  1491.7500     18.7877    -87.6243     20.6036     60.3453
  1492.0000     18.6112    -87.8521     20.4354     60.8267
  1492.2500     18.4101    -88.0359     20.2830     60.7473
  1492.5000     18.2465    -88.1714     20.1561     59.5450
  1492.7500     18.1278    -88.2519     20.0597     58.0749
  1493.0000     18.0151    -88.2820     19.9923     55.5498
  1493.2500     17.8588    -88.2736     19.9453     54.2997
  1493.5000     17.6592    -88.2317     19.9067     54.0875
  1493.7500     17.4745    -88.1502     19.8678     55.2394
  1494.0000     17.3429    -88.0216     19.8271     58.3451
  1494.2500     17.2449    -87.8503     19.7856     60.6892
  1494.5000     17.1577    -87.6566     19.7414     63.4549
  1494.7500     17.0865    -87.4703     19.6935     64.2827
  1495.0000     17.0609    -87.3168     19.6502     63.7314
  1495.2500     17.1433    -87.2092     19.6299     62.4910
  1495.5000     17.3866    -87.1484     19.6493     60.4838
  1495.7500     17.7419    -87.1294     19.7107     59.6921
  1496.0000     18.0537    -87.1474     19.8014     59.5855
  1496.2500     18.2042    -87.2004     19.9065     59.8432
  1496.5000     18.2228    -87.2903     20.0219     59.9296
  1496.7500     18.2065    -87.4214     20.1555     59.7345
  1497.0000     18.1988    -87.5991     20.3183     59.6586
  1497.2500     18.1851    -87.8276     20.5143     60.0882
  1497.5000     18.1485    -88.1104     20.7360     61.4195
  1497.7500     18.0982    -88.4507     20.9657     62.4293
  1498.0000     18.0641    -88.8483     21.1818     63.5249
  1498.2500     18.0816    -89.2941     21.3675     63.8429
  1498.5000     18.1610    -89.7669     21.5175     63.7939
  1498.7500     18.2733    -90.2380     21.6380     63.5271
  1499.0000     18.4158    -90.6788     21.7390     63.0414
  1499.2500     18.6630    -91.0696     21.8262     62.8264
  1499.5000     19.0566    -91.4022     21.8959     62.7019
  1499.7500     19.4984    -91.6768     21.9410     62.6209
  1500.0000     19.8669    -91.8948     21.9661     62.5273
  1500.2500     20.1299    -92.0528     21.9994     62.8213
  1500.5000     20.2703    -92.1422     22.0800     64.5057
  1500.7500     20.2515    -92.1559     22.2228     66.6073
  1501.0000     20.0938    -92.0955     22.3909     70.9688
  1501.2500     19.8964    -91.9738     22.5061     74.4738
  1501.5000     19.7625    -91.8129     22.4956     80.4692
  1501.7500     19.7306    -91.6386     22.3350     84.8179
  1502.0000     19.7726    -91.4754     22.0460     91.0108
  1502.2500     19.8321    -91.3433     21.6614     94.1049
  1502.5000     19.8470    -91.2517     21.1971     96.1128
  1502.7500     19.7578    -91.1955     20.6542     95.6578
  1503.0000     19.5364    -91.1564     20.0434     93.2465
  1503.2500     19.2064    -91.1134     19.4038     91.3558
  1503.5000     18.8159    -91.0540     18.7974     89.4945
  1503.7500     18.3905    -90.9767     18.2823     89.4752
  1504.0000     17.9132    -90.8878     17.8859     91.8457
  1504.2500     17.3778    -90.7957     17.5981     95.1240
  1504.5000     16.8499    -90.7069     17.3815    102.1991
  1504.7500     16.4191    -90.6253     17.1917    107.7867
  1505.0000     16.0711    -90.5513     16.9937    116.3184
  1505.2500     15.6449    -90.4796     16.7694    121.6135
  1505.5000     14.9503    -90.3949     16.5177    128.5491
  1505.7500     13.9532    -90.2712     16.2493    132.2542
  1506.0000     12.8770    -90.0787     15.9815    135.6979
  1506.2500     12.1208    -89.7977     15.7332    136.3018
  1506.5000     12.0133    -89.4318     15.5209    135.2068
  1506.7500     12.5844    -89.0114     15.3572    133.8623
  1507.0000     13.5687    -88.5848     15.2490    131.8266
  1507.2500     14.6171    -88.1982     15.1965    130.6085
  1507.5000     15.4810    -87.8778     15.1925    128.9843
  1507.7500     16.0604    -87.6232     15.2258    127.9914
  1508.0000     16.3489    -87.4161     15.2850    126.4897
  1508.2500     16.3466    -87.2350     15.3632    125.4802
  1508.5000     16.0550    -87.0656     15.4596    124.3660
  1508.7500     15.5711    -86.9044     15.5786    124.2906
  1509.0000     15.1134    -86.7549     15.7270    125.6283
  1509.2500     14.8519    -86.6183     15.9119    127.3988
  1509.5000     14.7534    -86.4881     16.1369    130.7130
  1509.7500     14.6874    -86.3515     16.3962    132.8970
  1510.0000     14.6026    -86.1977     16.6686    135.3073
  1510.2500     14.5550    -86.0248     16.9182    135.7033
