~Version Information
VERS.                      2.0: CWLS Log ASCII Standard - VERSION 2.0
WRAP.                       NO: One line per depth step
~Well Information Block
STRT.FT               846.6000: 
STOP.FT              2609.1000: 
STEP.FT                 0.1000: 
NULL.                -999.2500: 
COMP.          Petrogulf Corporation: COMPANY
WELL.            Lavedure 7-44: WELL
FLD.           Purgatoire River: FIELD
LOC.           969' FSL & 501' FEL: LOCATION
PROV.                 Colorado: PROVINCE
CNTY.               Las Animas: COUNTRY
SRVC.                Patterson: SERVICE COMPANY
DATE.          Sun Dec 07 14:55:17 2003: LOG DATE
UWI.                          : UNIQUE WELL ID
~Curve Information Block
DEPT.FT            0 000 00 00: Depth
DCAL.in                       : CDL Caliper
RHOB.g/cc                     : CDL Bulk Density
RHOC.g/cc                     : CDL Density Correction
DPOR.pu                       : CDL Density Porosity
GR.GAPI                       : Gamma Ray
NPOR.pu                       : Neutron Porosity
~Parameter Information Block
~A  Depth       DCAL        RHOB        RHOC        DPOR         GR         NPOR    
# ...
  2142.6000      9.5772      2.5268      0.0893      7.4682     37.9295     25.9562
  2142.7000      9.5772      2.5334      0.0858      7.0674     37.7380     25.8184
  2142.8000      9.7538      2.5382      0.0833      6.7777     37.6435     25.6336
  2142.9000      9.7538      2.5412      0.0813      6.5918     37.6371     25.4113
  2143.0000      9.6276      2.5427      0.0795      6.5009     37.7104     25.1623
  2143.1000      9.6276      2.5428      0.0776      6.4952     37.8554     24.8980
  2143.2000      9.6276      2.5417      0.0752      6.5643     38.0627     24.6294
  2143.3000      9.3429      2.5395      0.0723      6.6972     38.3237     24.3661
  2143.4000      9.3429      2.5364      0.0687      6.8832     38.6289     24.1161
  2143.5000      9.2378      2.5327      0.0645      7.1113     38.9682     23.8857
  2143.6000      9.2378      2.5284      0.0597      7.3707     39.3330     23.6802
  2143.7000      9.2378      2.5238      0.0543      7.6510     39.7154     23.5040
  2143.8000      9.3563      2.5190      0.0487      7.9420     40.1084     23.3624
  2143.9000      9.3563      2.5141      0.0430      8.2343     40.5037     23.2612
  2144.0000      9.5626      2.5094      0.0376      8.5191     40.8908     23.2076
  2144.1000      9.5626      2.5050      0.0327      8.7891     41.2533     23.2095
  2144.2000      9.5626      2.5009      0.0286      9.0385     41.5682     23.2748
  2144.3000      9.7488      2.4971      0.0256      9.2636     41.8068     23.4107
  2144.4000      9.7488      2.4939      0.0240      9.4631     41.9376     23.6216
  2144.5000      9.8133      2.4910      0.0239      9.6382     41.9313     23.9089
  2144.6000      9.8133      2.4884      0.0255      9.7935     41.7683     24.2695
  2144.7000      9.8133      2.4860      0.0288      9.9367     41.4447     24.6961
  2144.8000      9.6537      2.4837      0.0337     10.0788     40.9764     25.1775
  2144.9000      9.6537      2.4811      0.0399     10.2337     40.3994     25.6991
  2145.0000      9.3206      2.4781      0.0472     10.4187     39.7658     26.2442
  2145.1000      9.3206      2.4742      0.0550     10.6529     39.1366     26.7958
  2145.2000      9.3206      2.4692      0.0630     10.9575     38.5706     27.3368
  2145.3000      9.0377      2.4627      0.0705     11.3542     38.1149     27.8512
  2145.4000      9.0377      2.4542      0.0769     11.8642     37.7969     28.3248
  2145.5000      8.8427      2.4436      0.0819     12.5069     37.6198     28.7444
  2145.6000      8.8427      2.4306      0.0850     13.2983     37.5636     29.0988
  2145.7000      8.8427      2.4149      0.0859     14.2494     37.5913     29.3775
  2145.8000      8.7647      2.3965      0.0845     15.3648     37.6580     29.5720
  2145.9000      8.7647      2.3754      0.0810     16.6418     37.7206     29.6744
  2146.0000      8.8772      2.3519      0.0757     18.0688     37.7457     29.6793
  2146.1000      8.8772      2.3262      0.0692     19.6261     37.7138     29.5833
  2146.2000      8.8772      2.2988      0.0622     21.2854     37.6190     29.3864
  2146.3000      9.1406      2.2703      0.0557     23.0113     37.4681     29.0922
  2146.4000      9.1406      2.2414      0.0506     24.7629     37.2704     28.7091
  2146.5000      9.4071      2.2128      0.0477     26.4965     37.0337     28.2500
  2146.6000      9.4071      2.1852      0.0480     28.1685     36.7614     27.7326
  2146.7000      9.4071      2.1593      0.0519     29.7380     36.4491     27.1786
  2146.8000      9.5833      2.1357      0.0596     31.1706     36.0878     26.6118
  2146.9000      9.5833      2.1147      0.0713     32.4406     35.6663     26.0572
  2147.0000      9.5030      2.0967      0.0867     33.5334     35.1784     25.5386
  2147.1000      9.5030      2.0816      0.1051     34.4465     34.6263     25.0773
  2147.2000      9.5030      2.0694      0.1261     35.1898     34.0251     24.6905
  2147.3000      9.2192      2.0595      0.1486     35.7850     33.4036     24.3901
  2147.4000      9.2192      2.0517      0.1716     36.2628     32.8024     24.1825
  2147.5000      9.0801      2.0451      0.1940     36.6609     32.2708     24.0683
  2147.6000      9.0801      2.0392      0.2147     37.0200     31.8586     24.0426
  2147.7000      9.0801      2.0332      0.2328     37.3799     31.6098     24.0951
  2147.8000      9.1591      2.0267      0.2475     37.7760     31.5540     24.2116
  2147.9000      9.1591      2.0191      0.2582     38.2354     31.6984     24.3745
  2148.0000      9.2781      2.0102      0.2649     38.7746     32.0259     24.5649
  2148.1000      9.2781      1.9999      0.2678     39.3978     32.4940     24.7642
  2148.2000      9.2781      1.9884      0.2672     40.0960     33.0421     24.9557
  2148.3000      9.3365      1.9760      0.2639     40.8481     33.6002     25.1262
  2148.4000      9.3365      1.9632      0.2585     41.6225     34.1009     25.2673
  2148.5000      9.3134      1.9507      0.2517     42.3794     34.4935     25.3748
  2148.6000      9.3134      1.9393      0.2441     43.0741     34.7528     25.4492
  2148.7000      9.3134      1.9296      0.2361     43.6607     34.8832     25.4939
  2148.8000      9.0947      1.9224      0.2279     44.0947     34.9189     25.5140
  2148.9000      9.0947      1.9184      0.2197     44.3370     34.9172     25.5154
  2149.0000      8.7310      1.9181      0.2119     44.3557     34.9463     25.5037
  2149.1000      8.7310      1.9219      0.2044     44.1280     35.0769     25.4831
  2149.2000      8.7310      1.9299      0.1976     43.6416     35.3738     25.4566
  2149.3000      8.5272      1.9422      0.1914     42.8947     35.8865     25.4259
  2149.4000      8.5272      1.9587      0.1861     41.8955     36.6503     25.3915
  2149.5000      8.4645      1.9791      0.1816     40.6611     37.6853     25.3525
  2149.6000      8.4645      2.0029      0.1779     39.2162     38.9971     25.3072
  2149.7000      8.4645      2.0298      0.1749     37.5909     40.5798     25.2526
  2149.8000      8.4072      2.0590      0.1724     35.8185     42.4152     25.1849
  2149.9000      8.4072      2.0901      0.1704     33.9339     44.4752     25.0992
  2150.0000      8.3501      2.1225      0.1689     31.9712     46.7176     24.9904
  2150.1000      8.3501      2.1556      0.1681     29.9627     49.0902     24.8541
  2150.2000      8.3501      2.1890      0.1684     27.9377     51.5313     24.6872
  2150.3000      8.2771      2.2223      0.1703     25.9218     53.9756     24.4891
  2150.4000      8.2771      2.2550      0.1739     23.9373     56.3550     24.2619
  2150.5000      8.1983      2.2869      0.1794     22.0031     58.6096     24.0108
  2150.6000      8.1983      2.3178      0.1865     20.1361     60.6854     23.7436
  2150.7000      8.1983      2.3472      0.1946     18.3514     62.5422     23.4701
  2150.8000      8.1544      2.3751      0.2029     16.6630     64.1522     23.2003
  2150.9000      8.1544      2.4011      0.2103     15.0847     65.5031     22.9443
  2151.0000      8.1504      2.4251      0.2156     13.6299     66.5967     22.7104
  2151.1000      8.1504      2.4469      0.2180     12.3114     67.4484     22.5054
  2151.2000      8.1504      2.4662      0.2169     11.1404     68.0886     22.3341
  2151.3000      8.2419      2.4829      0.2120     10.1262     68.5601     22.1999
  2151.4000      8.2419      2.4970      0.2033      9.2744     68.9155     22.1056
  2151.5000      8.6024      2.5083      0.1915      8.5861     69.2108     22.0536
  2151.6000      8.6024      2.5171      0.1775      8.0574     69.4999     22.0463
  2151.7000      8.6024      2.5233      0.1623      7.6785     69.8271     22.0860
  2151.8000      9.2688      2.5273      0.1474      7.4343     70.2171     22.1742
  2151.9000      9.2688      2.5295      0.1341      7.3047     70.6761     22.3109
  2152.0000      9.9150      2.5301      0.1235      7.2662     71.1904     22.4944
  2152.1000      9.9150      2.5297      0.1166      7.2936     71.7343     22.7203
