~Version Information
 VERS.                                  2.0 : CWLS LAS VERSION
 WRAP.                                   NO : WRAPING MODE
 SWARE .                 MController 2.5.0J : SOFTWARE VERSION
~Well Information
 WELL.                         Culver 14-12 : WELL
 COMP.    Pioneer Natural Resources USA Inc : COMPANY
 FLD.                      Purgatoire River : FIELD
 LOC.                SW/SW Sec 12 T32S R66W : LOCATION
 DATE.                              6/06/05 : DATE(S) LOGGED
 SRVC.       Blanco Geological Services LLC : SERVICE COMPANY
 STAT.                                   CO : STATE
 CNTY.                           Las Animas : COUNTY
 CTRY.                                  USA : COUNTRY
 API.                       05 071 08386 00 : API NUMBER
 STRT.FT                             442.00 : START DEPTH
 STOP.FT                            2305.00 : STOP DEPTH
 STEP.FT                               1.00 : DEPTH INCREMENT
 NULL.                                -9999 : NULL VALUE
~Curve information
 DEPTH.FT                                   :
 ROP.MIN/FT                                 :
 GAS.UNITS                                  :
~ASCII Log data
# ...
       642.0         0.20          0.2 
       643.0         0.20          0.2 
       644.0         0.20          0.2 
       645.0         0.22          0.3 
       646.0         0.23          1.0 
       647.0         0.20          0.8 
       648.0         0.20          1.0 
       649.0         0.17          0.9 
       650.0         0.20          0.8 
       651.0         0.20          0.9 
       652.0         0.20          0.8 
       653.0         0.20          0.3 
       654.0         0.20          0.2 
       655.0         0.23          0.0 
       656.0         2.58         96.1 
       657.0         0.13         47.6 
       658.0         0.33         40.5 
       659.0         0.30         28.9 
       660.0         0.23         20.1 
       661.0         0.23         13.5 
       662.0         0.27         10.0 
       663.0         0.27          8.4 
       664.0         0.28          7.9 
       665.0         0.20          7.6 
       666.0         0.27          8.2 
       667.0         0.20          7.9 
       668.0         0.20          7.4 
       669.0         0.20          6.9 
       670.0         0.20          6.6 
       671.0         0.20          6.3 
       672.0         0.20          5.9 
       673.0         0.13          6.1 
       674.0         0.20          5.2 
       675.0         0.17          4.1 
       676.0         0.17          2.9 
       677.0         0.17          3.3 
       678.0         0.20          1.7 
       679.0         0.13          0.9 
       680.0         0.17          1.0 
       681.0         0.17          0.8 
       682.0         0.18          0.5 
       683.0         0.13          0.7 
       684.0         0.13          1.6 
       685.0         0.13          5.7 
       686.0         1.77        107.9 
       687.0         0.27         77.6 
       688.0         0.30         50.8 
       689.0         0.27         30.3 
       690.0         0.23         20.3 
       691.0         0.28         13.1 
       692.0         0.33          5.8 
       693.0         0.30          1.9 
       694.0         0.27          1.5 
       695.0         0.23          2.2 
       696.0         0.23          3.1 
       697.0         0.27          3.5 
       698.0         0.20          3.7 
       699.0         0.27          3.8 
       700.0         0.20          3.7 
       701.0         0.27          4.0 
       702.0         0.20          3.3 
       703.0         0.23          2.5 
       704.0         0.22          2.1 
       705.0         0.20          2.6 
       706.0         0.23          3.2 
       707.0         0.20          4.0 
       708.0         0.17          3.8 
       709.0         0.23          4.4 
       710.0         0.20          4.0 
       711.0         0.20          3.9 
       712.0         0.23          3.5 
       713.0         0.30          3.2 
       714.0         0.23          2.0 
       715.0         0.23          1.5 
       716.0         2.62        108.4 
       717.0         0.43         28.5 
       718.0         0.23         15.1 
       719.0         0.30         10.4 
       720.0         0.27          6.2 
       721.0         0.23          5.8 
       722.0         0.25          5.0 
       723.0         0.23          3.9 
       724.0         0.20          2.9 
       725.0         0.20          3.6 
       726.0         0.20          4.8 
       727.0         0.17          5.8 
       728.0         0.13          5.7 
       729.0         0.13          5.0 
       730.0         0.13          4.6 
       731.0         0.17          3.9 
       732.0         0.20          2.4 
       733.0         0.20          2.1 
       734.0         0.23          3.0 
       735.0         0.23          3.6 
       736.0         0.17          3.8 
       737.0         0.20          3.9 
       738.0         0.13          3.9 
       739.0         0.17          3.2 
       740.0         0.25          3.1 
       741.0         0.23          2.9 
       742.0         0.20          2.6 
       743.0         0.10          2.4 
       744.0         0.20          2.4 
       745.0         0.23          8.7 
       746.0         2.32         87.1 
       747.0         0.23         16.3 
       748.0         0.23         11.3 
       749.0         0.20          6.7 
       750.0         0.30          3.9 
       751.0         0.20          0.8 
       752.0         0.23          0.0 
       753.0         0.20          0.1 
       754.0         0.20          0.7 
       755.0         0.13          0.6 
       756.0         0.13          0.8 
       757.0         0.13          0.5 
       758.0         0.20          0.1 
       759.0         0.23          0.1 
       760.0         0.20          0.5 
       761.0         0.17          0.8 
       762.0         0.17          1.2 
       763.0         0.18          1.5 
       764.0         0.17          1.8 
       765.0         0.20          2.1 
       766.0         0.20          2.5 
       767.0         0.20          2.0 
       768.0         0.27          3.3 
       769.0         0.27          4.1 
       770.0         0.13          4.4 
       771.0         0.10          4.6 
       772.0         0.13          3.9 
       773.0         0.10          3.3 
       774.0         0.17          5.3 
       775.0         0.13         10.2 
       776.0         1.98         75.8 
       777.0         0.27         23.7 
       778.0         0.27         14.4 
       779.0         0.20          9.5 
       780.0         0.20          6.1 
       781.0         0.27          4.3 
       782.0         0.20          2.5 
       783.0         0.23          1.7 
       784.0         0.23          0.6 
       785.0         0.20          0.6 
       786.0         0.20          0.9 
       787.0         0.25          0.8 
       788.0         0.20          0.6 
       789.0         0.17          0.1 
       790.0         0.23          0.3 
       791.0         0.23          0.6 
       792.0         0.23          1.3 
       793.0         0.23          2.2 
       794.0         0.23          2.5 
       795.0         0.23          2.4 
       796.0         0.23          1.6 
       797.0         0.20          2.0 
       798.0         0.20          2.6 
       799.0         0.23          3.2 
       800.0         0.23          3.2 
       801.0         0.23          3.6 
       802.0         0.28          2.6 
       803.0         0.17          1.9 
       804.0         0.20          2.0 
       805.0         0.17          2.0 
       806.0         4.52         93.4 
       807.0         0.37         25.3 
       808.0         0.20         12.6 
       809.0         0.23          8.5 
       810.0         0.23          4.8 
       811.0         0.23          2.2 
       812.0         0.23          0.5 
       813.0         0.22          0.7 
       814.0         0.17          0.8 
       815.0         0.20          0.9 
       816.0         0.17          1.0 
       817.0         0.13          0.9 
       818.0         0.17          0.3 
       819.0         0.33          0.2 
       820.0         0.23          0.4 
       821.0         0.17          0.4 
       822.0         0.17          0.3 
       823.0         0.20          2.0 
       824.0         0.20          2.5 
       825.0         0.20          2.6 
       826.0         0.20          2.4 
       827.0         0.17          2.3 
       828.0         0.17          2.5 
       829.0         0.17          2.7 
       830.0         0.13          2.7 
       831.0         0.18          2.6 
       832.0         0.17          2.8 
       833.0         0.13          3.2 
       834.0         0.17          2.7 
       835.0         0.20          5.1 
       836.0         1.97         69.4 
       837.0         0.13         39.8 
       838.0         0.23         32.3 
       839.0         0.17         21.7 
       840.0         0.25         15.7 
       841.0         0.23         11.3 
