~Version Information
VERS.                      2.0: CWLS Log ASCII Standard - VERSION 2.0
WRAP.                       NO: One line per depth step
~Well Information Block
STRT.FT               802.1000: 
STOP.FT              1915.0000: 
STEP.FT                 0.1000: 
NULL.                -999.2500: 
COMP.          Petrogulf Corporation: COMPANY
WELL.             State 16-32R: WELL
FLD.           Purgatorie River: FIELD
LOC.           1849' FNL & 1677' FEL: LOCATION
CNTY.               Las Animas: COUNTY
SRVC.                         : SERVICE COMPANY
DATE.          Thu May 13 18:17:16 2004: LOG DATE
UWI.           05 071 08033 00: UNIQUE WELL ID
STAT.                 Colorado: STATE
~Curve Information Block
DEPT.FT            0 000 00 00: Depth
DCAL.in                       : CDL Caliper
RHOB.g/cc                     : CDL Bulk Density
RHOC.g/cc                     : CDL Density Correction
DPOR.pu                       : CDL Density Porosity
GR.GAPI                       : Gamma Ray
NPOR.pu                       : Neutron Porosity
~Parameter Information Block
~A  Depth       DCAL        RHOB        RHOC        DPOR         GR         NPOR    
# ...
  1618.1000      7.8192      2.6021      0.1923      2.9013    111.1585     27.3622
  1618.2000      7.8192      2.6401      0.2000      0.5970    101.2461     27.2261
  1618.3000      7.8807      2.6451      0.2101      0.2943    110.2063     27.2009
  1618.4000      7.8807      2.6035      0.2632      2.8211    121.9959     27.3793
  1618.5000      7.9351      2.5461      0.0787      6.2962    120.7258     27.5993
  1618.6000      7.9351      2.5260      0.0962      7.5132    115.1741     27.8165
  1618.7000      7.9351      2.5471      0.0771      6.2336    115.9489     28.0531
  1618.8000      8.1475      2.5778      0.1014      4.3779    123.5988     28.4083
  1618.9000      8.1475      2.5881      0.1786      3.7522    126.5510     29.1978
  1619.0000      8.1620      2.5647      0.0614      5.1679    113.2905     30.4775
  1619.1000      8.1620      2.5368      0.0523      6.8586     95.9819     31.4693
  1619.2000      8.1620      2.5352      0.0412      6.9598     96.8972     31.6957
  1619.3000      8.1978      2.5518     -0.0073      5.9531    114.9684     31.5396
  1619.4000      8.1978      2.5686      0.1086      4.9364    126.7559     31.4164
  1619.5000      8.0878      2.5739      0.0062      4.6150    116.4814     31.3730
  1619.6000      8.0878      2.5537      0.1208      5.8391    104.1977     31.2681
  1619.7000      8.0878      2.5024     -0.0246      8.9480    105.1574     31.1670
  1619.8000      8.0594      2.4453     -0.0079     12.4058    105.7428     31.3522
  1619.9000      8.0594      2.4135     -0.0478     14.3311    103.2050     31.6325
  1620.0000      8.0515      2.4177     -0.0623     14.0798    105.1777     31.5036
  1620.1000      8.0515      2.4436     -0.0011     12.5087    110.8547     30.9623
  1620.2000      8.0515      2.4690      0.0252     10.9686    117.2212     30.4655
  1620.3000      7.9532      2.4872      0.0825      9.8644    120.3770     30.1185
  1620.4000      7.9532      2.4944      0.0956      9.4311    117.4740     29.5903
  1620.5000      7.9591      2.4858      0.0421      9.9523    114.3954     28.9762
  1620.6000      7.9591      2.4738      0.0007     10.6786    117.4422     28.6779
  1620.7000      7.9591      2.4749      0.0367     10.6146    119.9647     28.7720
  1620.8000      7.9336      2.4967      0.0452      9.2888    111.2087     28.9049
  1620.9000      7.9336      2.5358      0.1194      6.9197     98.0760     28.9057
  1621.0000      7.9243      2.5600      0.2554      5.4545     94.5289     28.9859
  1621.1000      7.9243      2.5511      0.1366      5.9929     99.4333     29.0754
  1621.2000      7.9243      2.5453      0.1477      6.3453    100.5932     28.9924
  1621.3000      7.8897      2.5651      0.1998      5.1484     92.6723     29.0394
  1621.4000      7.8897      2.5981      0.1304      3.1467     90.1814     29.3272
  1621.5000      7.8758      2.6337      0.1445      0.9874    101.0653     29.4214
  1621.6000      7.8758      2.6509      0.2031     -0.0570    111.6485     29.0504
  1621.7000      7.8758      2.6257      0.1929      1.4746    117.4125     28.4379
  1621.8000      7.9083      2.5748      0.0801      4.5586    120.2569     28.0892
  1621.9000      7.9083      2.5484      0.0760      6.1556    118.2693     28.1981
  1622.0000      7.9303      2.5593      0.1476      5.4948    116.3780     28.6172
  1622.1000      7.9303      2.5779      0.0860      4.3710    118.3966     29.0172
  1622.2000      7.9303      2.5965      0.0197      3.2454    116.6189     29.0687
  1622.3000      7.9092      2.6154      0.1385      2.0939    105.7438     28.9840
  1622.4000      7.9092      2.5991      0.1490      3.0848     94.9061     29.1396
  1622.5000      7.8908      2.5360      0.0783      6.9078     93.2874     29.3229
  1622.6000      7.8908      2.4754      0.0314     10.5818    104.3884     29.1286
  1622.7000      7.8908      2.4617      0.0463     11.4142    128.5005     28.8331
  1622.8000      7.9012      2.4764      0.1181     10.5197    154.7237     28.8072
  1622.9000      7.9012      2.4722      0.0415     10.7761    169.5816     28.7376
  1623.0000      7.9226      2.4507     -0.0059     12.0799    169.9183     28.3510
  1623.1000      7.9226      2.4482      0.0305     12.2317    154.2663     27.9263
  1623.2000      7.9226      2.4658      0.0854     11.1658    126.7416     27.7543
  1623.3000      7.9193      2.4787      0.0538     10.3839    104.1729     27.7961
  1623.4000      7.9193      2.4854      0.0414      9.9766    100.0652     27.8756
  1623.5000      7.9135      2.4996      0.0599      9.1170    108.7053     28.0052
  1623.6000      7.9135      2.5152      0.0491      8.1690    120.1228     28.2005
  1623.7000      7.9135      2.5191      0.0331      7.9309    129.3752     28.1696
  1623.8000      7.9397      2.5147      0.0409      8.1999    129.5930     27.6717
  1623.9000      7.9397      2.5054      0.0352      8.7612    121.5419     27.0030
  1624.0000      7.9395      2.4964      0.0175      9.3063    108.4884     26.6483
  1624.1000      7.9395      2.4984      0.0651      9.1864     90.5724     26.4467
  1624.2000      7.9395      2.4946      0.1102      9.4169     77.0977     25.9984
  1624.3000      7.9175      2.4615      0.0581     11.4220     76.6122     25.4429
  1624.4000      7.9175      2.4099      0.0219     14.5528     83.0357     24.7768
  1624.5000      7.9130      2.3542      0.0079     17.9283     83.7746     23.4589
  1624.6000      7.9130      2.2965     -0.0707     21.4227     75.6913     21.3093
  1624.7000      7.9130      2.2544     -0.0528     23.9733     70.1772     19.2192
  1624.8000      7.9182      2.2408      0.0369     24.8000     73.0395     17.9114
  1624.9000      7.9182      2.2219     -0.0180     25.9463     80.3897     16.8544
  1625.0000      7.9360      2.1481     -0.0785     30.4170     85.7072     15.5208
  1625.1000      7.9360      2.0021     -0.0806     39.2678     81.6162     14.4053
  1625.2000      7.9360      1.8109     -0.1385     50.8536     70.5086     14.3365
  1625.3000      7.9295      1.6275     -0.0278     61.9684     62.3430     15.0499
  1625.4000      7.9295      1.4940     -0.1139     70.0626     60.0749     15.6108
  1625.5000      7.9500      1.4379     -0.1914     73.4587     61.4346     16.4765
  1625.6000      7.9500      1.4726     -0.1446     71.3602     68.4503     18.5516
  1625.7000      7.9500      1.5835     -0.0151     64.6351     81.0664     21.0667
  1625.8000      8.0717      1.7251      0.1831     56.0549     94.3134     22.8008
  1625.9000      8.0717      1.8483      0.2405     48.5860    108.0517     23.8479
  1626.0000      8.1257      1.9514      0.2928     42.3393    125.2777     24.6613
  1626.1000      8.1257      2.0686      0.3342     35.2356    136.4531     25.3881
  1626.2000      8.1257      2.2068      0.3569     26.8621    132.3596     26.3018
  1626.3000      8.2230      2.3187      0.3804     20.0814    129.0689     27.3423
  1626.4000      8.2230      2.3617      0.1081     17.4729    141.2435     28.1037
  1626.5000      8.2087      2.3649      0.0658     17.2802    153.5099     28.3712
  1626.6000      8.2087      2.3799      0.0617     16.3682    150.7114     28.1137
  1626.7000      8.2087      2.4080      0.1427     14.6644    140.5766     27.5504
  1626.8000      7.9650      2.4222      0.1088     13.8040    141.1199     27.0772
  1626.9000      7.9650      2.4105      0.1557     14.5164    156.7571     26.8354
  1627.0000      8.0268      2.3725      0.1254     16.8156    170.2845     26.7595
  1627.1000      8.0268      2.3295      0.1018     19.4231    169.2266     26.7467
  1627.2000      8.0268      2.3168      0.1009     20.1928    161.6466     26.7480
  1627.3000      8.1266      2.3318      0.1359     19.2875    159.5019     26.5006
  1627.4000      8.1266      2.3386      0.1160     18.8752    159.1183     25.7663
  1627.5000      8.2075      2.3202      0.0886     19.9871    152.8445     25.0546
  1627.6000      8.2075      2.2906      0.0393     21.7810    149.3698     24.9475
