~Version Information
VERS.                      2.0: CWLS Log ASCII Standard - VERSION 2.0
WRAP.                       NO: One line per depth step
~Well Information Block
STRT.FT               521.6000: 
STOP.FT              1490.2000: 
STEP.FT                 0.1000: 
NULL.                -999.2500: 
COMP.          Petrogulf Corporation: COMPANY
WELL.          Robinson 15-11R: WELL
FLD.           Purgatorie River: FIELD
LOC.           324' FNL & 570' FWL: LOCATION
CNTY.               Las Animas: COUNTY
SRVC.                         : SERVICE COMPANY
DATE.          Sat Nov 06 22:43:15 2004: LOG DATE
UWI.           05 071 08029 00: UNIQUE WELL ID
STAT.                 Colorado: STATE
~Curve Information Block
DEPT.FT            0 000 00 00: Depth
DCAL.in                       : CDL Caliper
RHOB.g/cc                     : CDL Bulk Density
RHOC.g/cc                     : CDL Density Correction
DPOR.pu                       : CDL Density Porosity
GR.GAPI                       : Gamma Ray
NPOR.pu                       : Neutron Porosity
~Parameter Information Block
~A  Depth       DCAL        RHOB        RHOC        DPOR         GR         NPOR    
# ...
  1472.0000      7.7812      2.1878     -0.0468     28.0109   -999.2500     26.5974
  1472.1000      7.7812      2.1434     -0.0886     30.7003   -999.2500     26.5417
  1472.2000      7.7812      2.1243     -0.0168     31.8618   -999.2500     26.1890
  1472.3000      7.8592      2.1235      0.0376     31.9090   -999.2500     26.4713
  1472.4000      7.8592      2.1375     -0.0177     31.0577   -999.2500     27.2437
  1472.5000      7.8823      2.1831      0.0505     28.2979   -999.2500     27.6729
  1472.6000      7.8823      2.2517      0.1127     24.1423   -999.2500     27.8869
  1472.7000      7.8823      2.3070      0.1282     20.7893   -999.2500     28.2010
  1472.8000      7.8622      2.3299      0.1459     19.4010   -999.2500     28.3374
  1472.9000      7.8622      2.3348      0.0717     19.1004   -999.2500     28.0567
  1473.0000      7.8459      2.3550      0.0314     17.8801   -999.2500     27.7071
  1473.1000      7.8459      2.4060      0.0767     14.7869   -999.2500     27.6616
  1473.2000      7.8459      2.4618      0.1577     11.4060   -999.2500     27.5854
  1473.3000      7.8599      2.4863      0.1062      9.9238   -999.2500     27.0369
  1473.4000      7.8599      2.4787      0.0955     10.3798   -999.2500     26.2768
  1473.5000      7.8587      2.4640      0.0797     11.2732   -999.2500     25.6463
  1473.6000      7.8587      2.4677      0.0378     11.0491   -999.2500     25.1072
  1473.7000      7.8587      2.4980      0.0720      9.2102   -999.2500     24.7391
  1473.8000      7.8610      2.5370      0.0530      6.8499   -999.2500     24.6212
  1473.9000      7.8610      2.5625      0.0334      5.3051   -999.2500     24.3009
  1474.0000      7.8359      2.5723      0.0688      4.7072   -999.2500     23.7396
  1474.1000      7.8359      2.5769      0.0779      4.4285   -999.2500     23.6062
  1474.2000      7.8359      2.5746      0.1155      4.5725   -999.2500     23.8952
  1474.3000      7.7862      2.5654      0.0470      5.1259   -999.2500     23.9052
  1474.4000      7.7862      2.5665      0.0719      5.0615   -999.2500     23.7081
  1474.5000      7.6928      2.5796      0.1096      4.2662   -999.2500     23.7011
  1474.6000      7.6928      2.5887      0.1101      3.7163   -999.2500     23.8202
  1474.7000      7.6928      2.5835      0.1038      4.0288   -999.2500     24.0262
  1474.8000      7.6804      2.5703      0.0631      4.8312   -999.2500     24.2064
  1474.9000      7.6804      2.5623      0.0122      5.3168   -999.2500     24.4199
  1475.0000      7.7532      2.5573      0.0977      5.6154   -999.2500     24.8600
  1475.1000      7.7532      2.5385      0.0624      6.7600   -999.2500     25.1002
  1475.2000      7.7532      2.5078      0.0337      8.6200   -999.2500     24.8415
  1475.3000      7.8155      2.4932     -0.0095      9.5022   -999.2500     24.5181
  1475.4000      7.8155      2.5063      0.0499      8.7085   -999.2500     24.9037
  1475.5000      7.8151      2.5261      0.0442      7.5081   -999.2500     27.3711
  1475.6000      7.8151      2.5374      0.0530      6.8222   -999.2500     33.2190
  1475.7000      7.8151      2.5482      0.0130      6.1689   -999.2500     40.6798
  1475.8000      7.8647      2.5686      0.0337      4.9355   -999.2500     45.7078
  1475.9000      7.8647      2.5934      0.0534      3.4304   -999.2500     47.5246
  1476.0000      7.8677      2.6071      0.1194      2.5975   -999.2500     47.8817
  1476.1000      7.8677      2.6006      0.0825      2.9942   -999.2500     47.9193
  1476.2000      7.8677      2.5817      0.0619      4.1402   -999.2500     47.9214
  1476.3000      7.8465      2.5672     -0.0093      5.0196   -999.2500   -999.2500
  1476.4000      7.8465      2.5654      0.0465      5.1282   -999.2500   -999.2500
  1476.5000      7.8293      2.5747      0.0521      4.5665   -999.2500   -999.2500
  1476.6000      7.8293      2.5892      0.0485      3.6863   -999.2500   -999.2500
  1476.7000      7.8293      2.5935      0.1000      3.4236   -999.2500   -999.2500
  1476.8000      7.8215      2.5756      0.0811      4.5074   -999.2500   -999.2500
  1476.9000      7.8215      2.5417      0.0309      6.5652   -999.2500   -999.2500
  1477.0000      7.8361      2.5041      0.0123      8.8433   -999.2500   -999.2500
  1477.1000      7.8361      2.4695      0.0054     10.9410   -999.2500   -999.2500
  1477.2000      7.8361      2.4449      0.0234     12.4305   -999.2500   -999.2500
  1477.3000      7.8117      2.4352      0.0037     13.0153   -999.2500   -999.2500
  1477.4000      7.8117      2.4289      0.0372     13.4021   -999.2500   -999.2500
  1477.5000      7.8242      2.4191     -0.0222     13.9931   -999.2500   -999.2500
  1477.6000      7.8242      2.4295      0.0015     13.3657   -999.2500   -999.2500
  1477.7000      7.8242      2.4727      0.0845     10.7458   -999.2500   -999.2500
  1477.8000      7.8563      2.5238      0.1374      7.6486   -999.2500   -999.2500
  1477.9000      7.8563      2.5563      0.1672      5.6795   -999.2500   -999.2500
  1478.0000      7.8650      2.5626      0.2094      5.2978   -999.2500   -999.2500
  1478.1000      7.8650      2.5453      0.1164      6.3448   -999.2500   -999.2500
  1478.2000      7.8650      2.5201      0.0507      7.8744   -999.2500   -999.2500
  1478.3000      7.8349      2.5047      0.0676      8.8048   -999.2500   -999.2500
  1478.4000      7.8349      2.5043      0.0753      8.8312   -999.2500   -999.2500
  1478.5000      7.8146      2.5175      0.0599      8.0280   -999.2500   -999.2500
  1478.6000      7.8146      2.5358      0.0967      6.9241   -999.2500   -999.2500
  1478.7000      7.8146      2.5488      0.1072      6.1323   -999.2500   -999.2500
  1478.8000      7.8290      2.5604      0.0681      5.4310   -999.2500   -999.2500
  1478.9000      7.8290      2.5661      0.1377      5.0866   -999.2500   -999.2500
  1479.0000      7.8562      2.5483      0.0772      6.1662   -999.2500   -999.2500
  1479.1000      7.8562      2.5163      0.0519      8.1017   -999.2500   -999.2500
  1479.2000      7.8562      2.4967      0.0323      9.2891   -999.2500   -999.2500
  1479.3000      7.8566      2.5006      0.0461      9.0566   -999.2500   -999.2500
  1479.4000      7.8566      2.5175      0.0542      8.0312   -999.2500   -999.2500
  1479.5000      7.7983      2.5273      0.0767      7.4383   -999.2500   -999.2500
  1479.6000      7.7983      2.5206      0.0555      7.8400   -999.2500   -999.2500
  1479.7000      7.7983      2.5053      0.0853      8.7674   -999.2500   -999.2500
  1479.8000      7.7367      2.4963      0.0460      9.3149   -999.2500   -999.2500
  1479.9000      7.7367      2.5062      0.0364      8.7135   -999.2500   -999.2500
  1480.0000      7.7638      2.5290      0.0829      7.3363   -999.2500   -999.2500
  1480.1000      7.7638      2.5460      0.0628      6.3001   -999.2500   -999.2500
  1480.2000      7.7638      2.5496      0.0808      6.0823   -999.2500   -999.2500
  1480.3000      7.8232      2.5396      0.0450      6.6923   -999.2500   -999.2500
  1480.4000      7.8232      2.5186      0.0589      7.9636   -999.2500   -999.2500
  1480.5000      7.8483      2.4953      0.0463      9.3764   -999.2500   -999.2500
  1480.6000      7.8483      2.4750      0.0228     10.6075   -999.2500   -999.2500
  1480.7000      7.8483      2.4588      0.0051     11.5887   -999.2500   -999.2500
  1480.8000      7.8555      2.4441      0.0366     12.4765   -999.2500   -999.2500
  1480.9000      7.8555      2.4265     -0.0059     13.5482   -999.2500   -999.2500
  1481.0000      7.8765      2.4103      0.0135     14.5287   -999.2500   -999.2500
  1481.1000      7.8765      2.3961      0.0337     15.3858   -999.2500   -999.2500
  1481.2000      7.8765      2.3740      0.0137     16.7285   -999.2500   -999.2500
  1481.3000      7.8252      2.3377      0.0427     18.9272   -999.2500   -999.2500
  1481.4000      7.8252      2.2864      0.0617     22.0366   -999.2500   -999.2500
  1481.5000      7.8148      2.2283      0.0181     25.5549   -999.2500   -999.2500
