~Version Information
VERS.                      2.0: CWLS Log ASCII Standard - VERSION 2.0
WRAP.                       NO: One line per depth step
~Well Information Block
STRT.FT                -8.8000: 
STOP.FT              2006.2000: 
STEP.FT                 0.1000: 
NULL.                -999.2500: 
COMP.          Petrogulf Corporation: COMPANY
WELL.             J & P 12-33V: WELL
FLD.           Purgatorie River: FIELD
LOC.           2005' FSL & 1928' FEL: LOCATION
CNTY.               Las Animas: COUNTY
SRVC.                         : SERVICE COMPANY
DATE.          Fri Jul 29 13:37:28 2005: LOG DATE
UWI.                          : UNIQUE WELL ID
STAT.                 Colorado: STATE
~Curve Information Block
DEPT.FT            0 000 00 00: Depth
GR.GAPI                       : Gamma Ray
CCL.                          : Casing Collar Locator
TT3.usec                      : CBL 3' Travel Time
AMP3.mV                       : CBL 3' Amplitude
~Parameter Information Block
~A  Depth        GR         CCL         TT3         AMP3    
# ...
   527.2000    110.4444      0.0000    255.3111     80.2762
   527.3000    104.1385      0.0000    255.3479     80.0818
   527.4000    104.1385      0.0000    255.3479     80.0818
   527.5000    101.0374      0.0000    255.3636     79.8806
   527.6000    101.0374      0.0000    255.3636     79.8806
   527.7000    101.0374      0.0000    255.3636     79.8806
   527.8000    101.4480      0.0000    255.3339     79.8089
   527.9000    101.4480      0.0000    255.3339     79.8089
   528.0000    103.7231      0.0000    255.2942     79.8871
   528.1000    103.7231      0.0000    255.2942     79.8871
   528.2000    103.7231      0.0000    255.2942     79.8871
   528.3000    105.7154      0.0000    255.2845     80.0004
   528.4000    105.7154      0.0000    255.2845     80.0004
   528.5000    106.2913      0.0000    255.2908     80.0771
   528.6000    106.2913      0.0000    255.2908     80.0771
   528.7000    106.2913      0.0000    255.2908     80.0771
   528.8000    105.6685      0.0000    255.2882     80.1811
   528.9000    105.6685      0.0000    255.2882     80.1811
   529.0000    104.6351      0.0000    255.2822     80.3784
   529.1000    104.6351      0.0000    255.2822     80.3784
   529.2000    104.6351      0.0000    255.2822     80.3784
   529.3000    103.8580      0.0000    255.2761     80.6411
   529.4000    103.8580      0.0000    255.2761     80.6411
   529.5000    103.7925      0.0000    255.2542     80.8763
   529.6000    103.7925      0.0000    255.2542     80.8763
   529.7000    103.7925      0.0000    255.2542     80.8763
   529.8000    104.6164      0.0000    255.2188     80.9670
   529.9000    104.6164      0.0000    255.2188     80.9670
   530.0000    106.0288      0.0000    255.2062     80.8487
   530.1000    106.0288      0.0000    255.2062     80.8487
   530.2000    106.0288      0.0000    255.2062     80.8487
   530.3000    107.3141      0.0000    255.2355     80.6037
   530.4000    107.3141      0.0000    255.2355     80.6037
   530.5000    107.6068      0.0000    255.2855     80.3703
   530.6000    107.6068      0.0000    255.2855     80.3703
   530.7000    107.6068      0.0000    255.2855     80.3703
   530.8000    106.3077      0.0000    255.3318     80.1781
   530.9000    106.3077      0.0000    255.3318     80.1781
   531.0000    103.7803      0.0000    255.3644     80.0114
   531.1000    103.7803      0.0000    255.3644     80.0114
   531.2000    103.7803      0.0000    255.3644     80.0114
   531.3000    101.5856      0.0000    255.3807     79.9160
   531.4000    101.5856      0.0000    255.3807     79.9160
   531.5000    101.4602      0.0000    255.3866     79.9472
   531.6000    101.4602      0.0000    255.3866     79.9472
   531.7000    101.4602      0.0000    255.3866     79.9472
   531.8000    103.8989      0.0000    255.3855     80.1065
   531.9000    103.8989      0.0000    255.3855     80.1065
   532.0000    107.9873      0.0000    255.3693     80.3340
   532.1000    107.9873      0.0000    255.3693     80.3340
   532.2000    107.9873      0.0000    255.3693     80.3340
   532.3000    112.4331      0.0000    255.3320     80.5320
   532.4000    112.4331      0.0000    255.3320     80.5320
   532.5000    116.2552      0.0000    255.2847     80.6299
   532.6000    116.2552      0.0000    255.2847     80.6299
   532.7000    116.2552      0.0000    255.2847     80.6299
   532.8000    118.5285      0.0000    255.2490     80.6106
   532.9000    118.5285      0.0000    255.2490     80.6106
   533.0000    118.1824      0.0000    255.2470     80.4732
   533.1000    118.1824      0.0000    255.2470     80.4732
   533.2000    118.1824      0.0000    255.2470     80.4732
   533.3000    114.7033      0.0000    255.2852     80.2565
   533.4000    114.7033      0.0000    255.2852     80.2565
   533.5000    109.0957      0.0000    255.3388     80.0878
   533.6000    109.0957      0.0000    255.3388     80.0878
   533.7000    109.0957      0.0000    255.3388     80.0878
   533.8000    103.6823      0.0000    255.3720     80.0611
   533.9000    103.6823      0.0000    255.3720     80.0611
   534.0000    100.4769      0.0000    255.3728     80.1093
   534.1000    100.4769      0.0000    255.3728     80.1093
   534.2000    100.4769      0.0000    255.3728     80.1093
   534.3000     99.7081      0.0000    255.3532     80.1189
   534.4000     99.7081      0.0000    255.3532     80.1189
   534.5000    100.0451      0.0000    255.3297     80.0628
   534.6000    100.0451      0.0000    255.3297     80.0628
   534.7000    100.0451      0.0000    255.3297     80.0628
   534.8000    100.1812      0.0000    255.3165     79.9864
   534.9000    100.1812      0.0000    255.3165     79.9864
   535.0000    100.1023      0.0000    255.3190     79.9499
   535.1000    100.1023      0.0000    255.3190     79.9499
   535.2000    100.1023      0.0000    255.3190     79.9499
   535.3000    100.8791      0.0000    255.3313     79.9364
   535.4000    100.8791      0.0000    255.3313     79.9364
   535.5000    103.3289      0.0000    255.3432     79.8666
   535.6000    103.3289      0.0000    255.3432     79.8666
   535.7000    103.3289      0.0000    255.3432     79.8666
   535.8000    107.0344      0.0000    255.3426     79.7765
   535.9000    107.0344      0.0000    255.3426     79.7765
   536.0000    110.7699      0.0000    255.3257     79.8307
   536.1000    110.7699      0.0000    255.3257     79.8307
   536.2000    110.7699      0.0000    255.3257     79.8307
   536.3000    113.6147      0.0000    255.3020     80.0898
   536.4000    113.6147      0.0000    255.3020     80.0898
   536.5000    115.2553      0.0000    255.2840     80.3664
   536.6000    115.2553      0.0000    255.2840     80.3664
   536.7000    115.2553      0.0000    255.2840     80.3664
   536.8000    115.3721      0.0000    255.2770     80.4170
   536.9000    115.3721      0.0000    255.2770     80.4170
   537.0000    113.4848      0.0000    255.2834     80.2160
   537.1000    113.4848      0.0000    255.2834     80.2160
   537.2000    113.4848      0.0000    255.2834     80.2160
   537.3000    109.8784      0.0000    255.3134     79.8912
   537.4000    109.8784      0.0000    255.3134     79.8912
   537.5000    106.4154      0.0000    255.3668     79.5628
   537.6000    106.4154      0.0000    255.3668     79.5628
   537.7000    106.4154      0.0000    255.3668     79.5628
   537.8000    105.7742      0.0000    255.4135     79.3721
   537.9000    105.7742      0.0000    255.4135     79.3721
   538.0000    109.3750      0.0000    255.4267     79.4291
   538.1000    109.3750      0.0000    255.4267     79.4291
   538.2000    109.3750      0.0000    255.4267     79.4291
   538.3000    115.8766      0.0000    255.4135     79.6816
   538.4000    115.8766      0.0000    255.4135     79.6816
   538.5000    121.9329      0.0000    255.3934     79.9737
   538.6000    121.9329      0.0000    255.3934     79.9737
   538.7000    121.9329      0.0000    255.3934     79.9737
   538.8000    124.7459      0.0000    255.3775     80.1857
   538.9000    124.7459      0.0000    255.3775     80.1857
   539.0000    124.0681      0.0000    255.3736     80.2683
   539.1000    124.0681      0.0000    255.3736     80.2683
   539.2000    124.0681      0.0000    255.3736     80.2683
   539.3000    121.8689      0.0000    255.3797     80.2409
   539.4000    121.8689      0.0000    255.3797     80.2409
   539.5000    120.2752      0.0000    255.3769     80.1762
   539.6000    120.2752      0.0000    255.3769     80.1762
   539.7000    120.2752      0.0000    255.3769     80.1762
   539.8000    119.9366      0.0000    255.3554     80.1145
   539.9000    119.9366      0.0000    255.3554     80.1145
   540.0000    120.2514      0.0000    255.3345     80.0370
   540.1000    120.2514      0.0000    255.3345     80.0370
   540.2000    120.2514      0.0000    255.3345     80.0370
   540.3000    120.8512      0.0000    255.3372     79.9213
   540.4000    120.8512      0.0000    255.3372     79.9213
   540.5000    122.4012      0.0000    255.3566     79.7881
