~Version Information
 VERS.                                  2.0 : CWLS LAS VERSION
 WRAP.                                   NO : WRAPING MODE
 SWARE .                 MController 2.5.0N : SOFTWARE VERSION
~Well Information
 WELL.                          Cluck 21-25 : WELL
 COMP.    PIONEER NATURAL RESOURCES USA INC : COMPANY
 FLD.                      PURGATOIRE RIVER : FIELD
 LOC.                  NE/NW Sec 25 32S 67W : LOCATION
 DATE.                           6/5-6/2005 : DATE(S) LOGGED
 SRVC.       BLANCO GEOLOGICAL SERVICES LLC : SERVICE COMPANY
 STAT.                                   CO : STATE
 CNTY.                           LAS ANIMAS : COUNTY
 CTRY.                                  USA : COUNTRY
 API.                       05-071-08397-00 : API NUMBER
 STRT.FT                             296.00 : START DEPTH
 STOP.FT                            2730.00 : STOP DEPTH
 STEP.FT                               1.00 : DEPTH INCREMENT
 NULL.                                -9999 : NULL VALUE
~Curve information
 DEPTH.FT                                   :
 ROP.MIN/FT                                 :
 GAS.UNITS                                  :
~ASCII Log data
# ...
      2296.0         0.33         26.5 
      2297.0         0.23         18.7 
      2298.0         0.33         13.4 
      2299.0         0.40         10.3 
      2300.0         0.47          6.6 
      2301.0         0.38          5.2 
      2302.0         0.37          3.8 
      2303.0         0.33          2.6 
      2304.0         0.33          3.2 
      2305.0         0.30          4.4 
      2306.0         0.27          5.1 
      2307.0         0.60          6.9 
      2308.0         0.87         13.0 
      2309.0         1.12         17.1 
      2310.0         1.80         21.3 
      2311.0         3.90         18.8 
      2312.0         0.43         11.4 
      2313.0         0.60         17.9 
      2314.0         0.37         23.3 
      2315.0         0.40         25.1 
      2316.0         0.53         31.0 
      2317.0         0.43         41.1 
      2318.0         0.37         47.6 
      2319.0         0.32         47.0 
      2320.0         0.33         44.5 
      2321.0         0.37         42.3 
      2322.0         0.40         39.5 
      2323.0         0.37         37.5 
      2324.0         0.37         37.4 
      2325.0         0.40         35.9 
      2326.0         0.60         39.5 
      2327.0         0.82         41.7 
      2328.0         0.73         50.2 
      2329.0         0.67         62.9 
      2330.0         0.77         80.5 
      2331.0         0.60         71.2 
      2332.0         0.55         28.2 
      2333.0         0.50         16.6 
      2334.0         0.50          7.7 
      2335.0         0.47          4.1 
      2336.0         0.33          2.5 
      2337.0         0.37          3.1 
      2338.0         0.40          2.1 
      2339.0         0.62          2.6 
      2340.0         0.17          3.1 
      2341.0        10.85         22.4 
      2342.0        17.68         54.1 
      2343.0         0.50         64.2 
      2344.0         0.50         69.3 
      2345.0         0.45         66.3 
      2346.0         0.53         58.4 
      2347.0         0.77         57.3 
      2348.0         0.57         58.0 
      2349.0         0.17         56.7 
      2350.0         0.33         56.2 
      2351.0         0.40         52.4 
      2352.0         0.45         47.3 
      2353.0         0.40         41.1 
      2354.0         0.40         45.1 
      2355.0         0.23         51.8 
      2356.0         0.17         53.0 
      2357.0         0.23         46.7 
      2358.0         0.20         40.3 
      2359.0         0.23         31.9 
      2360.0         0.30         20.2 
      2361.0         0.30         10.7 
      2362.0         0.40          7.2 
      2363.0         0.38          4.0 
      2364.0         0.30          4.1 
      2365.0         0.27          4.0 
      2366.0         0.30          3.6 
      2367.0         0.27          4.7 
      2368.0         0.53          6.2 
      2369.0         0.17          5.1 
      2370.0         0.20          5.3 
      2371.0         4.22         15.4 
      2372.0         1.78         15.5 
      2373.0         1.13         21.4 
      2374.0         0.92         29.7 
      2375.0         0.63         41.3 
      2376.0         0.63         49.7 
      2377.0         0.77         53.9 
      2378.0         0.43         47.3 
      2379.0         0.92         46.4 
      2380.0         0.93         36.3 
      2381.0         0.70         35.3 
      2382.0         0.80         28.4 
      2383.0         0.85         38.4 
      2384.0         0.83         42.4 
      2385.0         0.37         17.7 
      2386.0         0.57          8.4 
      2387.0         0.60          6.1 
      2388.0         0.62          2.9 
      2389.0         1.13          3.5 
      2390.0         1.00          5.5 
      2391.0         0.98          7.9 
      2392.0         0.93         13.6 
      2393.0         1.43         14.1 
      2394.0         1.28         14.7 
      2395.0         0.63          6.5 
      2396.0         0.67          2.1 
      2397.0         0.63          2.1 
      2398.0         0.63          2.3 
      2399.0         0.75          5.0 
      2400.0         0.57          7.6 
      2401.0        16.98         32.0 
      2402.0         1.07         39.6 
      2403.0         0.73         47.2 
      2404.0         0.88         58.3 
      2405.0         0.80         60.0 
      2406.0         1.10         60.4 
      2407.0         0.92         57.6 
      2408.0         0.50         51.0 
      2409.0         0.27         50.8 
      2410.0         0.47         53.3 
      2411.0         0.43         53.6 
      2412.0         0.33         45.9 
      2413.0         0.37         21.3 
      2414.0         0.43         11.7 
      2415.0         0.45          5.5 
      2416.0         0.37          3.1 
      2417.0         0.33          2.8 
      2418.0         0.33          2.0 
      2419.0         0.33          2.0 
      2420.0         0.37          2.6 
      2421.0         0.30          3.2 
      2422.0         0.33          3.3 
      2423.0         0.30          4.1 
      2424.0         0.27          4.6 
      2425.0         0.32          5.5 
      2426.0         0.47          5.8 
      2427.0         0.47          9.6 
      2428.0         0.37         12.0 
      2429.0         0.33         11.3 
      2430.0         1.47         13.1 
      2431.0         6.57         17.6 
      2432.0         0.10         17.5 
      2433.0         0.08         17.5 
      2434.0         0.57         20.8 
      2435.0         1.03         25.3 
      2436.0         0.67         28.0 
      2437.0         0.47         28.1 
      2438.0         0.82         37.9 
      2439.0         0.27         42.9 
      2440.0         0.27         47.4 
      2441.0         0.30         52.3 
      2442.0         0.23         52.7 
      2443.0         0.20         56.6 
      2444.0         0.30         62.2 
      2445.0         0.33         65.0 
      2446.0         0.33         65.4 
      2447.0         0.33         66.7 
      2448.0         0.30         65.9 
      2449.0         0.32         68.1 
      2450.0         0.23         68.5 
      2451.0         0.33         68.5 
      2452.0         0.37         69.4 
      2453.0         0.30         73.3 
      2454.0         0.30         77.6 
      2455.0         0.43         80.5 
      2456.0         0.43         69.7 
      2457.0         0.43         38.9 
      2458.0         0.42         31.1 
      2459.0         0.40         25.9 
      2460.0         0.37         15.1 
      2461.0        14.23         26.7 
      2462.0         1.85         30.9 
      2463.0         1.50          3.6 
      2464.0         1.22         57.3 
      2465.0         1.00         81.5 
      2466.0         0.63        101.9 
      2467.0         0.57        119.2 
      2468.0         0.53        131.6 
      2469.0         0.68        138.2 
      2470.0         0.67        135.2 
      2471.0         0.70        122.6 
      2472.0         0.50         99.3 
      2473.0         0.80         98.1 
      2474.0         0.82         89.3 
      2475.0         0.67         44.5 
      2476.0         0.83          7.1 
      2477.0         0.57          3.3 
      2478.0         0.60          3.4 
      2479.0         0.68          3.3 
      2480.0         0.50          5.1 
      2481.0         0.50          8.1 
      2482.0         0.43         13.3 
      2483.0         0.47         18.5 
      2484.0         0.43         20.6 
      2485.0         0.33         20.8 
      2486.0         0.22         22.7 
      2487.0         0.20         22.8 
      2488.0         0.27         22.3 
      2489.0         0.40         23.2 
      2490.0         0.33         23.5 
      2491.0        10.58         74.0 
      2492.0         0.47         64.4 
      2493.0         0.47         42.1 
      2494.0         0.75         22.1 
      2495.0         0.47         12.2 
