~Version Information
VERS.                      2.0: CWLS Log ASCII Standard - VERSION 2.0
WRAP.                       NO: One line per depth step
~Well Information Block
STRT.FT               292.0000: 
STOP.FT               801.0000: 
STEP.FT                 0.1000: 
NULL.                -999.2500: 
COMP.          Pioneer Natural Resources: COMPANY
WELL.          HG Duran 34-27 Tr: WELL
FLD.           Purgatoire River: FIELD
LOC.           1076' FSL & 1465' FEL: LOCATION
PROV.                 Colorado: PROVINCE
CNTY.               Las Animas: COUNTRY
SRVC.                Patterson: SERVICE COMPANY
DATE.          Wed Apr 13 08:36:06 2005: LOG DATE
UWI.           05 071 08218 00: UNIQUE WELL ID
~Curve Information Block
DEPT.FT            0 000 00 00: Depth
DCAL.in                       : CDL Caliper
RHOB.g/cc                     : CDL Bulk Density
RHOC.g/cc                     : CDL Density Correction
DPOR.pu                       : CDL Density Porosity
GR.GAPI                       : Gamma Ray
NPOR.pu                       : Neutron Porosity
~Parameter Information Block
~A  Depth       DCAL        RHOB        RHOC        DPOR         GR         NPOR    
# ...
   359.2000      7.7986      2.6555      0.1171     -0.3331     74.7298     22.2724
   359.3000      7.8029      2.6435      0.0793      0.3959     75.8695     22.6671
   359.4000      7.8029      2.6133      0.0972      2.2245     74.9046     22.5533
   359.5000      7.7990      2.5590      0.0213      5.5129     71.4279     21.6807
   359.6000      7.7990      2.5001      0.0626      9.0862     71.8097     20.6520
   359.7000      7.7990      2.4441     -0.0553     12.4776     76.8033     19.9133
   359.8000      7.7837      2.4013     -0.0938     15.0738     78.9511     19.4833
   359.9000      7.7837      2.3997     -0.0758     15.1717     75.7959     19.2864
   360.0000      7.8201      2.4540      0.0399     11.8795     72.5322     19.1448
   360.1000      7.8201      2.5388      0.1374      6.7413     71.6209     18.9867
   360.2000      7.8201      2.6186      0.1303      1.9046     70.1951     18.7902
   360.3000      7.8373      2.6645      0.2504     -0.8769     66.9247     18.5014
   360.4000      7.8373      2.6541      0.1799     -0.2478     66.8276     18.2829
   360.5000      7.7899      2.6023      0.1550      2.8925     74.1116     18.3205
   360.6000      7.7899      2.5440      0.1404      6.4257     83.0531     18.5397
   360.7000      7.7899      2.5024      0.0679      8.9483     87.7105     18.8542
   360.8000      7.7339      2.4897      0.0178      9.7153     89.8280     19.3184
   360.9000      7.7339      2.4952      0.0625      9.3801     91.9144     20.0479
   361.0000      7.7310      2.4882      0.0608      9.8047     93.3533     20.8454
   361.1000      7.7310      2.4707      0.0200     10.8667     94.6119     21.5366
   361.2000      7.7310      2.4808      0.0308     10.2523     97.7364     22.2400
   361.3000      7.7312      2.5220      0.0945      7.7583    101.5323     22.9942
   361.4000      7.7312      2.5483      0.0957      6.1645    104.3904     23.6021
   361.5000      7.7879      2.5364      0.0776      6.8822    106.8569     23.7028
   361.6000      7.7879      2.5178      0.0092      8.0114    107.4042     23.1976
   361.7000      7.7879      2.5225      0.0865      7.7285    105.0857     22.5553
   361.8000      7.8391      2.5375      0.0767      6.8187    102.4686     22.1164
   361.9000      7.8391      2.5400      0.0341      6.6651    102.2350     21.7239
   362.0000      7.8182      2.5232      0.0658      7.6860    104.2701     21.4512
   362.1000      7.8182      2.4935      0.0552      9.4836    105.9297     21.4297
   362.2000      7.8182      2.4659     -0.0052     11.1548    106.0079     21.6400
   362.3000      7.7765      2.4490     -0.0053     12.1819    107.4175     22.1806
   362.4000      7.7765      2.4406      0.0031     12.6900    112.5727     22.9046
   362.5000      7.7276      2.4455      0.0119     12.3968    118.8377     23.2439
   362.6000      7.7276      2.4618      0.0623     11.4039    121.9695     23.0203
   362.7000      7.7276      2.4699      0.0333     10.9160    124.8217     22.7570
   362.8000      7.7385      2.4587     -0.0288     11.5962    130.2529     22.8321
   362.9000      7.7385      2.4512     -0.0219     12.0456    132.5898     23.1377
   363.0000      7.7161      2.4773      0.0387     10.4641    127.0993     23.5285
   363.1000      7.7161      2.5146      0.0950      8.2077    117.3763     24.2536
   363.2000      7.7161      2.5182      0.1210      7.9860    110.4236     25.4477
   363.3000      7.7260      2.4992     -0.0111      9.1404    110.3184     26.4411
   363.4000      7.7260      2.4891      0.0802      9.7529    114.1041     26.4252
   363.5000      7.7423      2.4761      0.0550     10.5365    114.6040     25.5728
   363.6000      7.7423      2.4522      0.0173     11.9883    111.5307     24.7918
   363.7000      7.7423      2.4438      0.0259     12.4948    110.6008     24.6289
   363.8000      7.7574      2.4724      0.0624     10.7634    113.4999     24.7880
   363.9000      7.7574      2.5347      0.1234      6.9858    117.9171     24.8168
   364.0000      7.7752      2.6181      0.1252      1.9326    124.4281     24.7422
   364.1000      7.7752      2.7001      0.1656     -3.0384    133.9455     24.6608
   364.2000      7.7752      2.7469      0.1251     -5.8741    138.8008     24.5379
   364.3000      7.7814      2.7450      0.1489     -5.7582    135.0081     24.3219
   364.4000      7.7814      2.7179      0.0777     -4.1130    130.8499     23.9610
   364.5000      7.7781      2.6806      0.1330     -1.8534    130.2333     23.5230
   364.6000      7.7781      2.6272      0.0713      1.3833    130.7666     23.2448
   364.7000      7.7781      2.5754      0.0085      4.5228    130.9335     23.4112
   364.8000      7.7885      2.5567     -0.0160      5.6559    129.8073     23.8502
   364.9000      7.7885      2.5825     -0.0271      4.0917    129.0941     24.0371
   365.0000      7.7693      2.6217      0.0869      1.7175    131.3088     24.1026
   365.1000      7.7693      2.6277      0.1188      1.3508    132.4165     24.5090
   365.2000      7.7693      2.6039      0.0813      2.7916    129.5871     25.1003
   365.3000      7.7707      2.5739      0.1574      4.6144    130.1197     25.7124
   365.4000      7.7707      2.5395      0.0541      6.6959    137.4414     26.2995
   365.5000      7.7586      2.5102      0.0217      8.4706    143.5057     26.5465
   365.6000      7.7586      2.4914     -0.0083      9.6101    142.4182     26.6011
   365.7000      7.7586      2.4732     -0.0212     10.7141    136.2549     26.7680
   365.8000      7.7701      2.4611     -0.0572     11.4506    127.2538     26.8758
   365.9000      7.7701      2.4801     -0.0634     10.2945    117.5654     26.6103
   366.0000      7.7872      2.5226      0.0720      7.7191    112.2374     25.7754
   366.1000      7.7872      2.5486      0.0535      6.1446    114.1410     24.7915
   366.2000      7.7872      2.5555      0.0941      5.7260    119.8906     24.4747
   366.3000      7.8234      2.5713      0.1004      4.7689    124.2818     24.6966
   366.4000      7.8234      2.5987      0.1220      3.1071    125.7820     24.5287
   366.5000      7.7739      2.6259      0.1145      1.4589    127.5186     24.0029
   366.6000      7.7739      2.6490      0.2274      0.0602    130.4562     24.0107
   366.7000      7.7739      2.6623      0.1877     -0.7474    131.9941     24.7618
   366.8000      7.7153      2.6570      0.1892     -0.4250    132.5182     25.5517
   366.9000      7.7153      2.6451      0.1062      0.2945    134.7458     25.9407
   367.0000      7.6693      2.6651      0.1110     -0.9163    137.9359     26.3358
   367.1000      7.6693      2.6996      0.2351     -3.0073    139.5505     26.8697
   367.2000      7.6693      2.6809      0.2126     -1.8722    138.7502     27.1746
   367.3000      7.6800      2.6141      0.0967      2.1765    135.6880     27.2261
   367.4000      7.6800      2.5611      0.0334      5.3872    133.2102     27.1453
   367.5000      7.7391      2.5425      0.0859      6.5161    136.7806     26.8096
   367.6000      7.7391      2.5401      0.0505      6.6632    143.7136     26.2455
   367.7000      7.7391      2.5393      0.0791      6.7101    144.9737     25.7770
   367.8000      7.7960      2.5356      0.0998      6.9326    141.2037     25.5695
   367.9000      7.7960      2.5382      0.0376      6.7738    139.9556     25.4117
   368.0000      7.8117      2.5540      0.0980      5.8159    141.8088     25.2156
   368.1000      7.8117      2.5660      0.0703      5.0907    141.5688     25.1269
   368.2000      7.8117      2.5566      0.0360      5.6611    137.1871     25.2262
   368.3000      7.8220      2.5197      0.0578      7.8944    130.3776     25.4483
   368.4000      7.8220      2.4604      0.0203     11.4899    124.5560     25.7398
   368.5000      7.8496      2.4082     -0.0562     14.6517    124.2608     25.6166
   368.6000      7.8496      2.4057     -0.0161     14.8057    128.5366     24.7422
   368.7000      7.8496      2.4652      0.0727     11.2018    133.0957     23.7688
