~Version Information
VERS.                      2.0: CWLS Log ASCII Standard - VERSION 2.0
WRAP.                       NO: One line per depth step
~Well Information Block
STRT.FT                -7.2500: 
STOP.FT              2610.0000: 
STEP.FT                 0.2500: 
NULL.                -999.2500: 
COMP.          Pioneer Natural Resources: COMPANY
WELL.              Wagner 13-9: WELL
FLD.           Purgatorie River: FIELD
LOC.           1819' FSL & 1111' FWL--: LOCATION
PROV.                       CO: PROVINCE
CNTY.               Las Animas: COUNTRY
SRVC.          Patterson Wireline: SERVICE COMPANY
DATE.          Wed May 18 09:08:26 2005: LOG DATE
UWI.           05 071 08302 00: UNIQUE WELL ID
~Curve Information Block
DEPT.FT            0 000 00 00: Depth
CCL.                          : Casing Collar Locator
TT3.usec                      : CBL 3' Travel Time
AMP3.mV                       : CBL 3' Amplitude
GR.GAPI                       : Gamma Ray
~Parameter Information Block
~A  Depth       CCL         TT3         AMP3         GR     
# ...
   327.7500      0.0000    906.8787     10.7705    114.7599
   328.0000      0.0000    912.9761     10.8816    112.1319
   328.2500      0.0000    916.2362     10.9634    109.3073
   328.5000      0.0000    916.5162     11.0356    106.5216
   328.7500      0.0000    913.3270     11.1214    104.4131
   329.0000      0.0000    906.2181     11.2169    103.4813
   329.2500      0.0000    896.0851     11.2891    103.3373
   329.5000     -2.0000    885.7426     11.3079    103.0612
   329.7500      0.0000    878.4103     11.2770    102.3548
   330.0000      0.0000    875.3065     11.2295    101.9008
   330.2500      0.0000    874.8616     11.1981    102.4037
   330.5000      0.0000    874.1594     11.1943    103.4987
   330.7500      0.0000    871.1318     11.2113    103.7287
   331.0000      0.0000    865.8602     11.2440    101.7862
   331.2500      0.0000    860.1323     11.3069     98.0386
   331.5000      0.0000    855.8130     11.4243     94.5775
   331.7500      0.0000    853.7384     11.5919     93.2751
   332.0000      0.0000    854.0225     11.7567     93.9339
   332.2500      0.0000    856.8618     11.8474     94.6797
   332.5000      0.0000    862.4448     11.8222     93.8950
   332.7500      0.0000    869.8215     11.6886     91.4811
   333.0000      0.0000    876.2378     11.4927     88.6044
   333.2500      0.0000    878.5242     11.2978     86.7193
   333.5000      0.0000    875.7216     11.1596     86.7681
   333.7500      0.0000    869.9733     11.1017     88.8597
   334.0000      0.0000    864.3420     11.1108     92.0562
   334.2500      0.0000    860.0855     11.1558     94.4630
   334.5000      0.0000    856.2119     11.2085     94.2799
   334.7500      0.0000    850.7379     11.2404     91.0794
   335.0000      0.0000    840.7689     11.2122     85.7121
   335.2500      0.0000    822.2193     11.0707     79.1790
   335.5000      0.0000    794.2219     10.7641     72.1716
   335.7500      0.0000    766.9465     10.2793     65.4121
   336.0000      0.0000    759.9747      9.6783     59.7002
   336.2500      0.0000    785.5082      9.0780     55.4354
   336.5000      0.0000    834.6185      8.5753     52.2849
   336.7500      0.0000    886.2256      8.2005     49.4782
   337.0000      0.0000    928.0078      7.9377     46.6180
   337.2500      0.0000    962.3102      7.7577     44.2581
   337.5000      0.0000    992.8644      7.6282     43.4742
   337.7500     -2.0000   1012.5930      7.5226     44.7198
   338.0000      0.0000   1006.3688      7.4422     47.1658
   338.2500      0.0000    962.3288      7.4410     49.2966
   338.5000      0.0000    881.2727      7.6253     50.0923
   338.7500      0.0000    781.7983      8.0875     49.6919
   339.0000      0.0000    697.2900      8.7998     49.2183
   339.2500      0.0000    658.3927      9.5890     49.9847
   339.5000      0.0000    671.0304     10.2608     52.4133
   339.7500      0.0000    713.7250     10.7310     55.4816
   340.0000      0.0000    758.5256     11.0192     57.4873
   340.2500      0.0000    792.1891     11.1697     57.4908
   340.5000      0.0000    817.6948     11.2213     55.7901
   340.7500      0.0000    841.5654     11.2114     53.0647
   341.0000      0.0000    864.4567     11.1683     49.6881
   341.2500      0.0000    882.1669     11.1090     46.1363
   341.5000      0.0000    891.2226     11.0506     43.4982
   341.7500      0.0000    892.0349     11.0154     42.9465
   342.0000      0.0000    888.3280     11.0202     44.6656
   342.2500      0.0000    884.6784     11.0649     47.6097
   342.5000      0.0000    884.1469     11.1296     50.4697
   342.7500      0.0000    887.2506     11.1766     52.7354
   343.0000      0.0000    892.6174     11.1649     54.6616
   343.2500      0.0000    898.2487     11.0711     56.4615
   343.5000      0.0000    902.2254     10.8993     57.9888
   343.7500      0.0000    902.9954     10.6746     59.0968
   344.0000      0.0000    900.0129     10.4326     59.8278
   344.2500      0.0000    894.3613     10.2166     60.2874
   344.5000      0.0000    888.2244     10.0697     60.8184
   344.7500      0.0000    883.4392     10.0197     62.1757
   345.0000      0.0000    880.5771     10.0714     64.8683
   345.2500      0.0000    879.2015     10.2089     68.2045
   345.5000      0.0000    878.5966     10.3949     70.4904
   345.7500      0.0000    878.1953     10.5664     70.3271
   346.0000      0.0000    877.6245     10.6512     67.5416
   346.2500      0.0000    876.5772     10.6141     63.0170
   346.5000      0.0000    874.6248     10.4868     57.8938
   346.7500      0.0000    871.1288     10.3387     52.9844
   347.0000      0.0000    865.5751     10.2164     48.9133
   347.2500      0.0000    858.3882     10.1204     46.6323
   347.5000      0.0000    851.2969     10.0325     47.2492
   347.7500      0.0000    846.2723      9.9548     50.9665
   348.0000      0.0000    843.6816      9.9155     56.3989
   348.2500      0.0000    841.8615      9.9386     61.4726
   348.5000      0.0000    839.0306     10.0087     65.1245
   348.7500      0.0000    835.5093     10.0691     67.7152
   349.0000      0.0000    833.4800     10.0607     69.7499
   349.2500      0.0000    834.4066      9.9655     70.8834
   349.5000      0.0000    836.9216      9.8130     70.5247
   349.7500      0.0000    837.1158      9.6515     68.8137
   350.0000      0.0000    830.8788      9.5152     66.4774
   350.2500      0.0000    817.2134      9.4148     64.0621
   350.5000      0.0000    800.1533      9.3484     61.6167
   350.7500      0.0000    786.2535      9.3116     58.8343
   351.0000      0.0000    779.0441      9.2934     55.3477
   351.2500      0.0000    776.8094      9.2727     51.3170
   351.5000      0.0000    776.5183      9.2332     47.8588
   351.7500      0.0000    778.6702      9.1832     46.3745
   352.0000      0.0000    786.8232      9.1500     47.1164
   352.2500      0.0000    802.8830      9.1483     48.7827
   352.5000      0.0000    824.0648      9.1595     49.6828
   352.7500      0.0000    844.5374      9.1439     49.0687
   353.0000      0.0000    859.4649      9.0728     47.4955
   353.2500      0.0000    867.7596      8.9489     46.4736
   353.5000      0.0000    871.8426      8.8038     47.7336
   353.7500      0.0000    875.0453      8.6750     52.1048
   354.0000      0.0000    878.7512      8.5851     58.6743
   354.2500      0.0000    881.7700      8.5328     65.3572
   354.5000      0.0000    882.3093      8.4989     70.5799
   354.7500      0.0000    879.8727      8.4636     74.3119
   355.0000      0.0000    874.9601      8.4226     77.5745
   355.2500      0.0000    867.9180      8.3868     81.3080
   355.5000      0.0000    859.0634      8.3613     85.6015
   355.7500      0.0000    849.5903      8.3334     89.4834
   356.0000      0.0000    841.4721      8.2872     91.4474
   356.2500      0.0000    836.2822      8.2256     90.6949
   356.5000      0.0000    834.4272      8.1730     87.9312
   356.7500      0.0000    835.3803      8.1560     84.6980
   357.0000      0.0000    838.0869      8.1826     82.0450
   357.2500      0.0000    841.0602      8.2355     80.1398
   357.5000      0.0000    842.8317      8.2839     78.9538
   357.7500      0.0000    843.0975      8.3029     78.7316
   358.0000      0.0000    843.3552      8.2839     79.4354
   358.2500      0.0000    845.7454      8.2374     80.0774
   358.5000      0.0000    850.8965      8.1851     79.2944
   358.7500      0.0000    856.8659      8.1380     76.7701
   359.0000      0.0000    860.3908      8.0813     73.6313
   359.2500      0.0000    859.5848      7.9925     71.1998
   359.5000      0.0000    855.8229      7.8780     69.8233
   359.7500      0.0000    853.0249      7.7812     69.2532
   360.0000      0.0000    854.7877      7.7467     69.6835
   360.2500      0.0000    861.8677      7.7809     71.6100
   360.5000      0.0000    871.9376      7.8560     74.5389
   360.7500      0.0000    881.2756      7.9475     76.6366
   361.0000      0.0000    886.9128      8.0553     76.3889
