~Version Information
VERS.                      2.0: CWLS Log ASCII Standard - VERSION 2.0
WRAP.                       NO: One line per depth step
~Well Information Block
STRT.FT               770.0000: 
STOP.FT              1718.7000: 
STEP.FT                 0.1000: 
NULL.                -999.2500: 
COMP.          Pioneer Natural Resources: COMPANY
WELL.            Salty 42-6 Tr: WELL
FLD.           Purgatoire River: FIELD
LOC.           2409' FNL & 599' FEL: LOCATION
PROV.                 Colorado: PROVINCE
CNTY.               Las Animas: COUNTRY
SRVC.                Patterson: SERVICE COMPANY
DATE.          Thu Dec 16 09:30:36 2004: LOG DATE
UWI.           05 071 08238 00: UNIQUE WELL ID
~Curve Information Block
DEPT.FT            0 000 00 00: Depth
DCAL.in                       : CDL Caliper
RHOB.g/cc                     : CDL Bulk Density
RHOC.g/cc                     : CDL Density Correction
DPOR.pu                       : CDL Density Porosity
NPOR.pu                       : Neutron Porosity
GR.GAPI                       : Gamma Ray
~Parameter Information Block
~A  Depth       DCAL        RHOB        RHOC        DPOR        NPOR         GR     
# ...
  1019.6000      7.9737      2.8504      0.0738    -12.1475     27.5539    115.4352
  1019.7000      7.9737      2.8651     -0.0151    -13.0351     27.5554    115.9795
  1019.8000      7.9736      2.8838      0.0480    -14.1680     27.3366    114.3721
  1019.9000      7.9736      2.8850      0.0207    -14.2454     27.4198    112.2804
  1020.0000      7.9712      2.8456      0.0604    -11.8522     27.7540    111.5139
  1020.1000      7.9712      2.7783     -0.0030     -7.7779     27.7773    111.9550
  1020.2000      7.9712      2.7180      0.0168     -4.1222     27.4310    111.0435
  1020.3000      7.9639      2.6732      0.0206     -1.4064     27.1532    111.1402
  1020.4000      7.9639      2.6394      0.0175      0.6397     27.0500    115.6669
  1020.5000      7.9539      2.6283     -0.0126      1.3158     26.9963    119.2963
  1020.6000      7.9539      2.6435      0.0509      0.3942     26.8882    116.9697
  1020.7000      7.9539      2.6573      0.0965     -0.4405     26.7186    111.5729
  1020.8000      7.9471      2.6322      0.0712      1.0806     26.7214    107.8201
  1020.9000      7.9471      2.5671      0.0149      5.0224     26.8396    108.9055
  1021.0000      7.9459      2.5062     -0.0186      8.7151     26.7147    114.2834
  1021.1000      7.9459      2.4890     -0.0164      9.7550     26.5049    120.3858
  1021.2000      7.9459      2.5144     -0.0234      8.2187     26.4300    125.7341
  1021.3000      7.9590      2.5464      0.0401      6.2818     26.2401    130.8547
  1021.4000      7.9590      2.5457      0.0098      6.3237     25.8820    133.7885
  1021.5000      7.9713      2.5156     -0.1217      8.1471     25.6346    131.7430
  1021.6000      7.9713      2.4913     -0.1258      9.6196     25.4124    127.3724
  1021.7000      7.9713      2.4865     -0.0254      9.9062     25.0062    127.2085
  1021.8000      7.9760      2.4924     -0.0127      9.5520     24.7671    132.0499
  1021.9000      7.9760      2.5070     -0.0033      8.6656     24.9724    133.7722
  1022.0000      7.9769      2.5309      0.0231      7.2207     25.1675    129.8968
  1022.1000      7.9769      2.5508      0.0678      6.0149     25.0212    127.2966
  1022.2000      7.9769      2.5563      0.0523      5.6777     24.8398    129.9098
  1022.3000      7.9762      2.5546      0.0461      5.7832     25.0778    132.6915
  1022.4000      7.9762      2.5540      0.0622      5.8166     25.5952    132.1143
  1022.5000      7.9761      2.5509      0.0468      6.0081     25.8303    132.5526
  1022.6000      7.9761      2.5367      0.0632      6.8674     25.6377    137.1278
  1022.7000      7.9761      2.5103      0.0417      8.4639     25.4629    142.4555
  1022.8000      7.9752      2.4789      0.0404     10.3676     25.6324    144.5341
  1022.9000      7.9752      2.4506      0.0033     12.0844     25.9381    143.3485
  1023.0000      7.9740      2.4290      0.0102     13.3962     25.9505    140.3304
  1023.1000      7.9740      2.4100      0.0030     14.5438     25.7365    137.4138
  1023.2000      7.9740      2.3895      0.0190     15.7900     25.4127    133.3041
  1023.3000      7.9722      2.3695     -0.0152     16.9987     25.1527    126.9307
  1023.4000      7.9722      2.3526      0.0036     18.0267     25.3713    123.9045
  1023.5000      7.9696      2.3356      0.0498     19.0565     25.8974    125.9457
  1023.6000      7.9696      2.3229      0.0441     19.8215     26.5142    128.0454
  1023.7000      7.9696      2.3344      0.0337     19.1291     27.2638    128.1670
  1023.8000      7.9667      2.3852      0.0953     16.0487     27.8973    125.3355
  1023.9000      7.9667      2.4573      0.2066     11.6808     28.2214    119.9795
  1024.0000      7.9672      2.5183      0.2341      7.9822     28.2468    117.5564
  1024.1000      7.9672      2.5632      0.2317      5.2632     27.8557    120.4917
  1024.2000      7.9672      2.6047      0.2058      2.7459     27.1634    125.9402
  1024.3000      7.9697      2.6431      0.2456      0.4200     26.6059    130.9182
  1024.4000      7.9697      2.6590      0.2472     -0.5431     26.3564    134.3703
  1024.5000      7.9714      2.6339      0.1678      0.9739     26.4180    135.5817
  1024.6000      7.9714      2.5761      0.0688      4.4802     26.8318    132.7065
  1024.7000      7.9714      2.5144      0.0244      8.2168     27.2659    127.4869
  1024.8000      7.9701      2.4669      0.0180     11.1000     27.2957    124.1382
  1024.9000      7.9701      2.4398     -0.0275     12.7373     27.0034    122.9248
  1025.0000      7.9644      2.4408      0.0075     12.6765     26.7302    123.5669
  1025.1000      7.9644      2.4613      0.0643     11.4393     26.5150    130.3639
  1025.2000      7.9644      2.4834      0.0367     10.0983     26.1942    140.0048
  1025.3000      7.9610      2.5076      0.0009      8.6296     26.0047    140.0526
  1025.4000      7.9610      2.5341      0.0598      7.0228     26.4415    129.2852
  1025.5000      7.9672      2.5494      0.1008      6.0979     27.3565    120.3155
  1025.6000      7.9672      2.5531      0.0937      5.8755     27.8710    120.8497
  1025.7000      7.9672      2.5546      0.1362      5.7835     27.6086    126.5038
  1025.8000      7.9830      2.5498      0.0926      6.0708     27.0919    129.3934
  1025.9000      7.9830      2.5309      0.0805      7.2165     26.7393    126.3448
  1026.0000      8.0111      2.4961      0.0441      9.3251     26.5122    123.2926
  1026.1000      8.0111      2.4529      0.0026     11.9461     26.2568    127.2364
  1026.2000      8.0111      2.4185     -0.0647     14.0313     25.7407    134.6417
  1026.3000      8.0434      2.4038     -0.0422     14.9194     24.9591    136.7022
  1026.4000      8.0434      2.4058     -0.0239     14.7973     24.3637    134.4821
  1026.5000      8.0676      2.4208      0.0513     13.8896     24.1634    135.6124
  1026.6000      8.0676      2.4408      0.1123     12.6776     23.8349    140.6740
  1026.7000      8.0676      2.4476      0.1119     12.2688     23.0810    148.4683
  1026.8000      8.0810      2.4343      0.1540     13.0747     22.2699    158.5160
  1026.9000      8.0810      2.4215      0.1205     13.8494     21.6789    163.7304
  1027.0000      8.0945      2.4316      0.1782     13.2350     21.5216    157.6190
  1027.1000      8.0945      2.4564      0.2180     11.7357     21.7819    147.3786
  1027.2000      8.0945      2.4718      0.2092     10.7981     22.0269    146.2326
  1027.3000      8.1199      2.4732      0.1631     10.7126     21.9934    153.2300
  1027.4000      8.1199      2.4691      0.1639     10.9652     21.8043    155.7978
  1027.5000      8.1450      2.4591      0.1239     11.5715     21.6671    150.3925
  1027.6000      8.1450      2.4430      0.0933     12.5451     21.6842    143.3659
  1027.7000      8.1450      2.4272      0.0714     13.5013     21.8910    140.5566
  1027.8000      8.1501      2.4187      0.0659     14.0204     22.1411    143.1884
  1027.9000      8.1501      2.4224      0.0885     13.7918     22.3086    149.5198
  1028.0000      8.1465      2.4329      0.1067     13.1595     22.5534    154.9271
  1028.1000      8.1465      2.4345      0.1148     13.0617     22.8246    152.9024
  1028.2000      8.1465      2.4245      0.0730     13.6644     22.8432    143.3961
  1028.3000      8.1430      2.4144      0.0432     14.2803     22.5808    134.0708
  1028.4000      8.1430      2.4019      0.1134     15.0355     22.3303    131.6344
  1028.5000      8.1406      2.3766      0.0388     16.5701     22.5577    137.3562
  1028.6000      8.1406      2.3431      0.0316     18.6002     23.1836    150.1725
  1028.7000      8.1406      2.3076      0.0313     20.7502     23.6960    161.5823
  1028.8000      8.1414      2.2717     -0.0245     22.9286     23.9224    160.1376
  1028.9000      8.1414      2.2393     -0.0355     24.8919     23.8029    149.3372
  1029.0000      8.1429      2.2106      0.0087     26.6287     23.2612    140.0862
  1029.1000      8.1429      2.1771      0.0253     28.6615     22.4118    133.6275
