~Version Information
VERS.                      2.0: CWLS Log ASCII Standard - VERSION 2.0
WRAP.                       NO: One line per depth step
~Well Information Block
STRT.FT               -16.5000: 
STOP.FT              1695.5000: 
STEP.FT                 0.2500: 
NULL.                -999.2500: 
COMP.          Pioneer Natural Resources: COMPANY
WELL.          Rancher 12-35 Tr: WELL
FLD.           Purgatorie River: FIELD
LOC.           2242' FNL & 308' FWL SWNW 35 32S 67W: LOCATION
PROV.                       CO: PROVINCE
CNTY.               Las Animas: COUNTRY
SRVC.                         : SERVICE COMPANY
DATE.         Fri Jul 08 09:39:00 2005: LOG DATE
UWI.                071 08430 : UNIQUE WELL ID
~Curve Information Block
DEPT.FT            0 000 00 00: Depth
CCL.                          : Casing Collar Locator
TT3.usec                      : CBL 3' Travel Time
AMP3.mV                       : CBL 3' Amplitude
GR.GAPI                       : Gamma Ray
~Parameter Information Block
~A  Depth       CCL         TT3         AMP3         GR     
# ...
  1424.0000      0.0000    780.2606      9.7427    111.3267
  1424.2500      0.0000    775.5142      9.9585    110.5801
  1424.5000      0.0000    774.5229     10.1222    113.0369
  1424.7500      0.0000    777.2509     10.3510    119.1146
  1425.0000      0.0000    782.8130     10.6554    127.1560
  1425.2500      0.0000    788.6464     10.9460    134.2099
  1425.5000      0.0000    790.6702     11.1450    137.8321
  1425.7500      0.0000    785.9426     11.2697    137.2056
  1426.0000      0.0000    775.6669     11.3743    133.0622
  1426.2500      0.0000    764.7389     11.4182    126.9480
  1426.5000      0.0000    757.6954     11.2430    120.2555
  1426.7500      0.0000    755.2694     10.7217    113.6369
  1427.0000      0.0000    754.8464      9.9207    107.3081
  1427.2500      0.0000    753.5604      9.0784    101.6874
  1427.5000      0.0000    750.4663      8.4205     97.5765
  1427.7500      0.0000    746.3826      8.0041     95.9034
  1428.0000      0.0000    742.7250      7.7316     97.3759
  1428.2500      0.0000    740.2938      7.4960    102.0385
  1428.5000      0.0000    738.0338      7.3013    108.8804
  1428.7500      0.0000    732.3152      7.2443    116.0340
  1429.0000      0.0000    718.6277      7.3888    121.6490
  1429.2500      0.0000    696.3821      7.6613    124.7773
  1429.5000      0.0000    673.0469      7.8670    125.7912
  1429.7500      0.0000    660.9173      7.8196    126.1318
  1430.0000      0.0000    666.6882      7.4870    127.3715
  1430.2500      0.0000    685.1711      7.0330    130.2630
  1430.5000      0.0000    704.9844      6.7019    134.5428
  1430.7500      0.0000    718.5438      6.6322    139.3185
  1431.0000      0.0000    725.2793      6.7644    143.4541
  1431.2500      0.0000    728.2245      6.9145    146.1256
  1431.5000      0.0000    730.5074      6.9303    147.5446
  1431.7500      0.0000    734.4656      6.7997    148.8116
  1432.0000      0.0000    741.7512      6.6457    150.5378
  1432.2500      0.0000    752.7219      6.6181    151.6975
  1432.5000      0.0000    765.7706      6.7511    150.1016
  1432.7500      0.0000    778.1867      6.9083    143.9266
  1433.0000      0.0000    788.2896      6.8925    132.9286
  1433.2500      0.0000    796.0402      6.6324    118.9825
  1433.5000      0.0000    801.2054      6.2614    106.0173
  1433.7500      0.0000    802.0527      6.0150     98.6877
  1434.0000      0.0000    796.8129      6.0493     99.8191
  1434.2500      0.0000    785.9167      6.3323    108.6357
  1434.5000      0.0000    772.1556      6.6828    121.5974
  1434.7500      0.0000    758.9486      6.9200    134.8857
  1435.0000      0.0000    748.8339      6.9999    145.9244
  1435.2500      0.0000    743.2538      7.0221    153.2934
  1435.5000      0.0000    742.8802      7.1011    156.5728
  1435.7500      0.0000    747.3944      7.2366    156.5404
  1436.0000      0.0000    754.9779      7.3140    154.6079
  1436.2500      0.0000    762.7406      7.2152    151.8796
  1436.5000      0.0000    768.3531      6.9179    149.3581
  1436.7500      0.0000    770.9822      6.5145    148.5681
  1437.0000      0.0000    770.3969      6.1572    150.7738
  1437.2500      0.0000    766.2307      5.9687    155.4009
  1437.5000      0.0000    759.0818      5.9616    160.0434
  1437.7500      0.0000    751.7957      6.0383    162.4607
  1438.0000      0.0000    748.6440      6.0952    162.4647
  1438.2500      0.0000    752.6862      6.1380    161.8487
  1438.5000      0.0000    763.2664      6.2816    162.5229
  1438.7500      0.0000    775.6260      6.6277    164.7247
  1439.0000      0.0000    783.6528      7.1512    167.0980
  1439.2500      0.0000    784.4667      7.7043    168.3666
  1439.5000      0.0000    781.1422      8.1175    168.5712
  1439.7500      0.0000    780.6633      8.3044    168.6182
  1440.0000      0.0000    788.2698      8.3072    168.9375
  1440.2500      0.0000    803.0651      8.2659    168.9501
  1440.5000      0.0000    819.0226      8.3255    167.8303
  1440.7500      0.0000    830.1125      8.5343    165.2510
  1441.0000      0.0000    834.2767      8.8161    161.0890
  1441.2500      0.0000    833.3067      9.0398    154.8398
  1441.5000      0.0000    830.5071      9.1115    145.9391
  1441.7500      0.0000    828.8513      9.0092    134.6488
  1442.0000      0.0000    829.9736      8.7744    122.4009
  1442.2500      0.0000    833.4951      8.5034    111.2756
  1442.5000      0.0000    837.0563      8.3197    103.1087
  1442.7500      0.0000    837.5385      8.2928     98.8946
  1443.0000      0.0000    832.7281      8.3620     98.6837
  1443.2500      0.0000    822.0701      8.3692    101.8760
  1443.5000      0.0000    806.3425      8.1957    107.6710
  1443.7500      0.0000    787.3822      7.8672    115.2720
  1444.0000      0.0000    768.0735      7.5270    123.6695
  1444.2500      0.0000    751.4553      7.3051    131.5054
  1444.5000      0.0000    739.1065      7.1976    137.2674
  1444.7500      0.0000    730.8223      7.0703    139.5838
  1445.0000      0.0000    726.1426      6.8017    137.6916
  1445.2500      0.0000    725.7444      6.4317    132.0334
  1445.5000      0.0000    731.2407      6.1507    124.2307
  1445.7500      0.0000    744.0366      6.1338    116.0748
  1446.0000      0.0000    764.0983      6.3921    108.5050
  1446.2500      0.0000    788.8638      6.7743    101.6735
  1446.5000      0.0000    813.2806      7.0806     95.8413
  1446.7500      0.0000    831.9908      7.1680     91.8970
  1447.0000      0.0000    842.2427      6.9973     90.8459
  1447.2500      0.0000    844.8327      6.6441     92.7871
  1447.5000      0.0000    842.5571      6.2796     96.3467
  1447.7500      0.0000    838.1416      6.0920     99.2009
  1448.0000      0.0000    833.3865      6.1749     99.5096
  1448.2500      0.0000    829.3378      6.4753     97.0833
  1448.5000      0.0000    826.4926      6.8441     93.0012
  1448.7500      0.0000    824.8196      7.1319     88.2854
  1449.0000      0.0000    823.9562      7.2544     83.4940
  1449.2500      0.0000    823.5424      7.2125     79.4502
  1449.5000      0.0000    823.3758      7.0810     77.5577
  1449.7500      0.0000    823.3438      6.9668     79.2090
  1450.0000      0.0000    823.3334      6.9417     85.0596
  1450.2500      0.0000    823.2443      6.9884     94.4375
  1450.5000      0.0000    823.0513      7.0148    105.0357
  1450.7500      0.0000    822.8166      6.9371    113.7469
  1451.0000      0.0000    822.6284      6.7529    118.5556
  1451.2500      0.0000    822.5058      6.5353    119.6327
  1451.5000      0.0000    822.2520      6.3660    118.4626
  1451.7500      0.0000    821.0539      6.2875    116.0930
  1452.0000      0.0000    816.9540      6.3023    112.3962
  1452.2500      0.0000    807.1234      6.3805    106.8174
  1452.5000      0.0000    789.8574      6.4574     99.4934
  1452.7500      0.0000    767.1368      6.4650     91.5582
  1453.0000      0.0000    745.0410      6.4032     84.6348
  1453.2500      0.0000    730.9659      6.3717     80.2415
  1453.5000      0.0000    729.6920      6.4973     79.3807
  1453.7500      0.0000    740.9514      6.8186     82.3192
  1454.0000      0.0000    759.7254      7.2373     88.6125
  1454.2500      0.0000    778.6539      7.5689     97.1739
  1454.5000      0.0000    790.8541      7.6479    106.1597
  1454.7500      0.0000    792.2081      7.4264    113.2941
  1455.0000      0.0000    783.0208      7.0146    117.2826
  1455.2500      0.0000    768.0034      6.6215    119.1410
  1455.5000      0.0000    753.6375      6.4233    121.5814
  1455.7500      0.0000    744.7465      6.4470    126.5958
  1456.0000      0.0000    743.0129      6.5597    133.7574
  1456.2500      0.0000    747.5443      6.5740    141.1974
  1456.5000      0.0000    755.7253      6.3941    147.8993
  1456.7500      0.0000    764.0206      6.0764    154.2079
  1457.0000      0.0000    769.8782      5.7538    160.2038
  1457.2500      0.0000    774.1879      5.5206    164.5100
