~Version Information
VERS.                      2.0: CWLS Log ASCII Standard - VERSION 2.0
WRAP.                       NO: One line per depth step
~Well Information Block
STRT.FT               450.0000: 
STOP.FT              2753.5000: 
STEP.FT                 0.1000: 
NULL.                -999.2500: 
COMP.          Pioneer Natural Resources: COMPANY
WELL.             Squeal 11-26: WELL
FLD.           Purgatoire River: FIELD
LOC.           1186' FNL & 152' FWL: LOCATION
PROV.                 Colorado: PROVINCE
CNTY.               Las Animas: COUNTRY
SRVC.                Patterson: SERVICE COMPANY
DATE.          Wed Jun 15 09:11:52 2005: LOG DATE
UWI.           05 071 08404 00: UNIQUE WELL ID
~Curve Information Block
DEPT.FT            0 000 00 00: Depth
DCAL.in                       : CDL Caliper
RHOB.g/cc                     : CDL Bulk Density
RHOC.g/cc                     : CDL Density Correction
DPOR.pu                       : CDL Density Porosity
GR.GAPI                       : Gamma Ray
NPOR.pu                       : Neutron Porosity
~Parameter Information Block
~A  Depth       DCAL        RHOB        RHOC        DPOR         GR         NPOR    
# ...
  1515.6000      7.9919      2.5915      0.0521      3.5464     60.4595     18.4969
  1515.7000      7.9919      2.6539      0.0816     -0.2352     54.7852     19.2539
  1515.8000      7.9727      2.7155      0.1144     -3.9723     50.6082     19.6967
  1515.9000      7.9727      2.7527      0.1540     -6.2234     49.1893     20.3767
  1516.0000      7.9698      2.7573      0.1417     -6.5010     50.9697     21.5609
  1516.1000      7.9698      2.7468      0.0928     -5.8643     55.4822     22.7490
  1516.2000      7.9698      2.7330      0.0829     -5.0285     61.8375     23.3901
  1516.3000      8.0059      2.6953      0.0423     -2.7480     67.6017     23.4087
  1516.4000      8.0059      2.6211      0.0093      1.7490     69.7691     23.3768
  1516.5000      7.9731      2.5483     -0.0941      6.1615     68.6575     23.7947
  1516.6000      7.9731      2.5244     -0.0358      7.6105     66.9581     24.1095
  1516.7000      7.9731      2.5367      0.0237      6.8665     66.1074     23.8409
  1516.8000      7.9466      2.5314      0.0399      7.1867     68.2677     23.6714
  1516.9000      7.9466      2.4821      0.0470     10.1774     73.7173     24.4038
  1517.0000      7.9390      2.4187      0.0109     14.0207     77.6930     25.7556
  1517.1000      7.9390      2.3780      0.0806     16.4853     77.0166     26.5960
  1517.2000      7.9390      2.3557      0.0860     17.8370     73.1221     26.2038
  1517.3000      7.9337      2.3383      0.0687     18.8880     67.9225     24.9242
  1517.4000      7.9337      2.3222      0.0902     19.8672     62.6976     24.1989
  1517.5000      7.9249      2.3017     -0.0259     21.1099     59.5784     25.0683
  1517.6000      7.9249      2.2723      0.0367     22.8915     57.8533     26.6655
  1517.7000      7.9249      2.2392      0.0364     24.8975     55.4731     27.6277
  1517.8000      7.9487      2.2238      0.0598     25.8333     54.3057     27.7557
  1517.9000      7.9487      2.2323      0.1293     25.3137     54.4357     27.6571
  1518.0000      7.9789      2.2484      0.0616     24.3372     52.8276     27.6888
  1518.1000      7.9789      2.2646      0.0501     23.3586     50.8000     27.6877
  1518.2000      7.9789      2.2849      0.0637     22.1254     52.4870     27.6349
  1518.3000      7.9737      2.3149      0.0801     20.3102     56.8494     27.6971
  1518.4000      7.9737      2.3472      0.1548     18.3545     57.4128     27.7335
  1518.5000      7.9539      2.3642      0.1370     17.3199     52.5504     27.7565
  1518.6000      7.9539      2.3558      0.1213     17.8331     47.3851     27.8279
  1518.7000      7.9539      2.3095      0.1488     20.6358     45.0303     27.6597
  1518.8000      7.9498      2.2293     -0.0890     25.4950     44.4005     27.2209
  1518.9000      7.9498      2.1416     -0.0657     30.8145     43.9067     26.7388
  1519.0000      7.9788      2.0460     -0.0607     36.6061     42.5305     26.1318
  1519.1000      7.9788      1.9421     -0.1317     42.9015     40.0124     25.9357
  1519.2000      7.9788      1.8698     -0.1435     47.2873     37.6166     26.9989
  1519.3000      8.0324      1.8508     -0.0556     48.4381     36.9295     28.3436
  1519.4000      8.0324      1.8568     -0.0288     48.0718     38.4422     28.2929
  1519.5000      8.0552      1.8654     -0.0064     47.5513     40.7570     27.3047
  1519.6000      8.0552      1.8867     -0.0190     46.2624     40.6261     26.8559
  1519.7000      8.0552      1.9348      0.0683     43.3456     37.4934     27.1272
  1519.8000      8.0834      2.0208      0.0552     38.1320     35.6261     27.2381
  1519.9000      8.0834      2.1515      0.1212     30.2113     36.9420     26.9081
  1520.0000      8.0652      2.2965      0.2367     21.4243     39.3856     26.8516
  1520.1000      8.0652      2.4140      0.1997     14.3038     41.0825     27.1698
  1520.2000      8.0652      2.5083      0.1793      8.5885     41.7249     26.8027
  1520.3000      8.0663      2.6050      0.2074      2.7253     42.0415     25.5655
  1520.4000      8.0663      2.6978      0.2188     -2.8980     42.2562     24.7749
  1520.5000      8.0926      2.7542      0.2059     -6.3180     42.8018     24.8700
  1520.6000      8.0926      2.7697      0.1224     -7.2553     45.6985     24.7775
  1520.7000      8.0926      2.7727      0.1060     -7.4374     51.5446     23.6198
  1520.8000      7.9900      2.7659      0.0923     -7.0234     57.4275     21.8843
  1520.9000      7.9900      2.7293      0.0529     -4.8070     60.2627     20.0022
  1521.0000      7.9565      2.6702      0.0423     -1.2212     61.8471     17.9867
  1521.1000      7.9565      2.6142     -0.0467      2.1720     65.2178     16.9487
  1521.2000      7.9565      2.5441      0.0901      6.4195     67.6964     17.6841
  1521.3000      7.9548      2.4193     -0.0480     13.9822     66.4301     19.5723
  1521.4000      7.9548      2.2571     -0.0706     23.8112     62.5414     21.5137
  1521.5000      7.9546      2.1071     -0.1388     32.9056     58.4551     22.2833
  1521.6000      7.9546      1.9943     -0.1327     39.7388     56.1488     21.9036
  1521.7000      7.9546      1.9199     -0.1499     44.2456     54.3140     21.9689
  1521.8000      7.9313      1.8882     -0.1418     46.1679     50.8580     23.0288
  1521.9000      7.9313      1.9062     -0.0444     45.0776     46.9088     24.1234
  1522.0000      7.9498      1.9563      0.0575     42.0401     44.4243     25.0223
  1522.1000      7.9498      1.9975      0.1644     39.5459     44.1390     25.8225
  1522.2000      7.9498      2.0104      0.0944     38.7665     44.1922     26.2713
  1522.3000      7.9773      2.0126      0.1063     38.6283     42.1977     26.7871
  1522.4000      7.9773      2.0198      0.0938     38.1927     38.7624     27.6118
  1522.5000      7.9841      2.0330      0.1092     37.3955     35.9879     28.4326
  1522.6000      7.9841      2.0403      0.1089     36.9499     36.0877     28.8904
  1522.7000      7.9841      2.0207      0.0911     38.1383     39.8039     29.1359
  1522.8000      7.9760      1.9712      0.0006     41.1387     43.7056     29.8467
  1522.9000      7.9760      1.9046     -0.0048     45.1760     45.4317     30.8548
  1523.0000      7.9510      1.8311     -0.0186     49.6313     47.0873     31.1865
  1523.1000      7.9510      1.7676     -0.0413     53.4775     49.4528     30.6227
  1523.2000      7.9510      1.7238      0.0580     56.1306     51.3764     29.9270
  1523.3000      7.9672      1.6908      0.0111     58.1337     53.8293     29.8170
  1523.4000      7.9672      1.6669     -0.0130     59.5817     58.1934     30.3085
  1523.5000      8.0090      1.6549      0.0049     60.3085     61.6537     30.9986
  1523.6000      8.0090      1.6528     -0.0098     60.4391     59.4702     31.4089
  1523.7000      8.0090      1.6607      0.0174     59.9560     52.4822     30.8932
  1523.8000      8.0013      1.6708      0.0422     59.3438     45.8325     29.2576
  1523.9000      8.0013      1.6677      0.0729     59.5357     41.7893     27.7833
  1524.0000      8.0239      1.6462      0.0568     60.8333     38.8434     28.0746
  1524.1000      8.0239      1.6129      0.0499     62.8548     35.4454     29.5228
  1524.2000      8.0239      1.5785      0.0032     64.9420     33.1086     30.1231
  1524.3000      8.0235      1.5605     -0.0265     66.0331     33.7556     29.7403
  1524.4000      8.0235      1.5673      0.0210     65.6210     35.0778     29.6228
  1524.5000      8.0178      1.5844      0.0268     64.5790     33.1336     29.7475
  1524.6000      8.0178      1.5963      0.0488     63.8631     28.7045     29.6160
  1524.7000      8.0178      1.6050      0.0026     63.3315     25.8876     29.5035
  1524.8000      8.0081      1.6168      0.0874     62.6209     24.8019     29.5744
  1524.9000      8.0081      1.6276      0.0652     61.9612     22.6490     29.7924
  1525.0000      8.0194      1.6394      0.0521     61.2473     20.0970     29.9583
  1525.1000      8.0194      1.6616      0.0629     59.9036     19.2697     30.2166
