~Version Information
VERS.                      2.0: CWLS Log ASCII Standard - VERSION 2.0
WRAP.                       NO: One line per depth step
~Well Information Block
STRT.FT               964.0000: 
STOP.FT              2440.0000: 
STEP.FT                 0.2500: 
NULL.                -999.2500: 
COMP.          Petrogulf Corporation: COMPANY
WELL.              Hand 8-44 V: WELL
FLD.           Purgatorie River: FIELD
LOC.           1076' FEL & 820' FSL: LOCATION
CNTY.               Las Animas: COUNTY
SRVC.                         : SERVICE COMPANY
DATE.          Fri Nov 21 11:54:17 2003: LOG DATE
UWI.                          : UNIQUE WELL ID
STAT.                 Colorado: STATE
~Curve Information Block
DEPT.FT            0 000 00 00: Depth
SP.mV                         : IEL Spontaneous Potential
DIR.Ohm-m                     : IEL Induction Resistivity
GR.GAPI                       : Gamma Ray
~Parameter Information Block
~A  Depth        SP         DIR          GR     
# ...
  1632.0000     -3.9121     11.8408    131.3237
  1632.2500     -3.9190     12.3506    129.4393
  1632.5000     -3.9224     12.8704    126.3426
  1632.7500     -3.9225     13.3727    123.5004
  1633.0000     -3.9213     13.8285    118.0267
  1633.2500     -3.9211     14.2134    114.1438
  1633.5000     -3.9230     14.5083    109.3079
  1633.7500     -3.9257     14.7001    107.1879
  1634.0000     -3.9269     14.7839    105.3518
  1634.2500     -3.9242     14.7652    104.4881
  1634.5000     -3.9169     14.6598    103.1980
  1634.7500     -3.9052     14.4892    102.5733
  1635.0000     -3.8904     14.2763    103.2686
  1635.2500     -3.8744     14.0418    105.7994
  1635.5000     -3.8598     13.8028    114.0197
  1635.7500     -3.8485     13.5704    122.4910
  1636.0000     -3.8414     13.3492    137.8252
  1636.2500     -3.8376     13.1397    147.8321
  1636.5000     -3.8350     12.9428    159.2863
  1636.7500     -3.8312     12.7660    163.5136
  1637.0000     -3.8253     12.6248    164.3894
  1637.2500     -3.8178     12.5396    161.5685
  1637.5000     -3.8110     12.5296    153.3649
  1637.7500     -3.8073     12.6096    146.5728
  1638.0000     -3.8073     12.7881    137.3185
  1638.2500     -3.8104     13.0671    132.9995
  1638.5000     -3.8152     13.4405    129.3358
  1638.7500     -3.8210     13.8904    127.8565
  1639.0000     -3.8272     14.3841    125.6828
  1639.2500     -3.8340     14.8776    124.2016
  1639.5000     -3.8414     15.3268    122.5953
  1639.7500     -3.8497     15.7040    122.0573
  1640.0000     -3.8587     16.0070    121.3235
  1640.2500     -3.8677     16.2533    120.3471
  1640.5000     -3.8751     16.4655    118.0428
  1640.7500     -3.8797     16.6622    116.3680
  1641.0000     -3.8806     16.8585    114.2676
  1641.2500     -3.8784     17.0709    113.0787
  1641.5000     -3.8746     17.3155    111.0928
  1641.7500     -3.8707     17.5987    109.4622
  1642.0000     -3.8684     17.9089    106.7475
  1642.2500     -3.8692     18.2193    105.0747
  1642.5000     -3.8736     18.5010    103.5533
  1642.7500     -3.8808     18.7383    103.7042
  1643.0000     -3.8892     18.9328    106.0727
  1643.2500     -3.8963     19.0944    108.7103
  1643.5000     -3.9003     19.2287    112.6999
  1643.7500     -3.9002     19.3329    114.2533
  1644.0000     -3.8962     19.4026    113.1244
  1644.2500     -3.8892     19.4445    109.4380
  1644.5000     -3.8806     19.4831    100.1025
  1644.7500     -3.8720     19.5537     92.8139
  1645.0000     -3.8655     19.6843     83.6949
  1645.2500     -3.8626     19.8743     80.4675
  1645.5000     -3.8634     20.0840     81.1091
  1645.7500     -3.8664     20.2405     84.8668
  1646.0000     -3.8700     20.2626     93.5313
  1646.2500     -3.8727     20.0943     99.7510
  1646.5000     -3.8736     19.7274    107.2923
  1646.7500     -3.8729     19.2006    110.2914
  1647.0000     -3.8709     18.5804    111.5497
  1647.2500     -3.8682     17.9386    110.6131
  1647.5000     -3.8658     17.3375    107.4805
  1647.7500     -3.8647     16.8206    104.7978
  1648.0000     -3.8658     16.4081    100.8583
  1648.2500     -3.8692     16.0971     98.8407
  1648.5000     -3.8749     15.8662     97.3252
  1648.7500     -3.8826     15.6857     97.3403
  1649.0000     -3.8922     15.5282     98.6249
  1649.2500     -3.9032     15.3769    100.2708
  1649.5000     -3.9149     15.2257    104.0888
  1649.7500     -3.9258     15.0704    107.4601
  1650.0000     -3.9341     14.8993    112.9676
  1650.2500     -3.9386     14.6921    116.3493
  1650.5000     -3.9387     14.4288    120.5035
  1650.7500     -3.9351     14.0993    122.7478
  1651.0000     -3.9291     13.7069    125.5304
  1651.2500     -3.9222     13.2645    126.7928
  1651.5000     -3.9155     12.7910    126.8327
  1651.7500     -3.9100     12.3116    125.1440
  1652.0000     -3.9059     11.8556    120.4202
  1652.2500     -3.9025     11.4504    116.7910
  1652.5000     -3.8988     11.1109    112.5673
  1652.7500     -3.8939     10.8322    111.3847
  1653.0000     -3.8882     10.5905    113.0367
  1653.2500     -3.8829     10.3531    116.7935
  1653.5000     -3.8795     10.0934    125.9178
  1653.7500     -3.8793      9.8000    133.0150
  1654.0000     -3.8823      9.4791    142.1627
  1654.2500     -3.8876      9.1484    146.1747
  1654.5000     -3.8939      8.8302    149.3649
  1654.7500     -3.8998      8.5450    150.5328
  1655.0000     -3.9042      8.3090    152.0903
  1655.2500     -3.9068      8.1316    153.1284
  1655.5000     -3.9078      8.0161    154.3812
  1655.7500     -3.9078      7.9585    154.9513
  1656.0000     -3.9070      7.9491    155.5842
  1656.2500     -3.9058      7.9728    155.8999
  1656.5000     -3.9041      8.0134    156.1645
  1656.7500     -3.9018      8.0566    156.3643
  1657.0000     -3.8994      8.0927    157.3055
  1657.2500     -3.8975      8.1175    158.5267
  1657.5000     -3.8973      8.1310    160.6683
  1657.7500     -3.8999      8.1358    161.6193
  1658.0000     -3.9052      8.1347    161.4098
  1658.2500     -3.9127      8.1294    160.0897
  1658.5000     -3.9209      8.1197    156.7093
  1658.7500     -3.9289      8.1043    153.8542
  1659.0000     -3.9365      8.0815    149.7219
  1659.2500     -3.9442      8.0522    148.1079
  1659.5000     -3.9529      8.0203    148.8641
  1659.7500     -3.9634      7.9911    151.2712
  1660.0000     -3.9760      7.9680    155.5117
  1660.2500     -3.9898      7.9498    157.5062
  1660.5000     -4.0030      7.9299    159.1167
  1660.7500     -4.0130      7.8986    160.1486
  1661.0000     -4.0174      7.8466    162.6850
  1661.2500     -4.0150      7.7687    164.6844
  1661.5000     -4.0067      7.6662    166.5481
  1661.7500     -3.9955      7.5468    166.2583
  1662.0000     -3.9855      7.4222    163.0094
  1662.2500     -3.9806      7.3044    159.0819
  1662.5000     -3.9832      7.2035    151.5880
  1662.7500     -3.9937      7.1258    146.6106
  1663.0000     -4.0097      7.0735    141.0718
  1663.2500     -4.0261      7.0440    139.3245
  1663.5000     -4.0366      7.0308    139.8867
  1663.7500     -4.0358      7.0239    142.2315
  1664.0000     -4.0226      7.0124    148.1353
  1664.2500     -4.0007      6.9890    153.1656
  1664.5000     -3.9769      6.9520    161.0887
  1664.7500     -3.9572      6.9064    165.7083
  1665.0000     -3.9449      6.8617    170.5201
  1665.2500     -3.9399      6.8281    172.3309
  1665.5000     -3.9403      6.8137    173.9830
  1665.7500     -3.9433      6.8225    175.0761
  1666.0000     -3.9469      6.8545    177.3143
  1666.2500     -3.9498      6.9077    179.1260
  1666.5000     -3.9525      6.9792    181.8340
  1666.7500     -3.9564      7.0658    183.3999
  1667.0000     -3.9626      7.1618    184.8268
  1667.2500     -3.9714      7.2598    184.3599
  1667.5000     -3.9823      7.3516    179.7941
  1667.7500     -3.9946      7.4322    173.9319
  1668.0000     -4.0073      7.5012    163.0801
  1668.2500     -4.0195      7.5622    156.7433
  1668.5000     -4.0306      7.6205    151.7759
  1668.7500     -4.0402      7.6818    151.8732
  1669.0000     -4.0484      7.7522    155.0648
  1669.2500     -4.0547      7.8385    157.2117
  1669.5000     -4.0586      7.9480    157.7062
  1669.7500     -4.0588      8.0862    155.8556
  1670.0000     -4.0541      8.2531    151.3174
  1670.2500     -4.0437      8.4412    148.3195
  1670.5000     -4.0277      8.6380    144.7152
  1670.7500     -4.0071      8.8309    142.6082
  1671.0000     -3.9843      9.0110    139.2157
  1671.2500     -3.9629      9.1719    136.7862
  1671.5000     -3.9463      9.3085    133.3840
  1671.7500     -3.9359      9.4210    131.5747
  1672.0000     -3.9314      9.5215    129.8506
  1672.2500     -3.9310      9.6360    129.3840
  1672.5000     -3.9329      9.7925    129.3137
  1672.7500     -3.9357     10.0043    129.1286
  1673.0000     -3.9391     10.2592    127.4824
  1673.2500     -3.9428     10.5240    125.0998
  1673.5000     -3.9465     10.7617    120.0482
