~Version Information
VERS.                      2.0: CWLS Log ASCII Standard - VERSION 2.0
WRAP.                       NO: One line per depth step
~Well Information Block
STRT.FT               250.0000: 
STOP.FT              1017.5000: 
STEP.FT                 0.1000: 
NULL.                -999.2500: 
COMP.          Pioneer Natural Resources: COMPANY
WELL.              Oscar 41-31: WELL
FLD.           Purgatoire River: FIELD
LOC.           412' FNL & 1216' FEL: LOCATION
PROV.                 Colorado: PROVINCE
CNTY.               Las Animas: COUNTRY
SRVC.                Patterson: SERVICE COMPANY
DATE.          Thu Feb 24 15:11:09 2005: LOG DATE
UWI.           05 071 08290 00: UNIQUE WELL ID
~Curve Information Block
DEPT.FT            0 000 00 00: Depth
DCAL.in                       : CDL Caliper
RHOB.g/cc                     : CDL Bulk Density
RHOC.g/cc                     : CDL Density Correction
DPOR.pu                       : CDL Density Porosity
GR.GAPI                       : Gamma Ray
NPOR.pu                       : Neutron Porosity
~Parameter Information Block
~A  Depth       DCAL        RHOB        RHOC        DPOR         GR         NPOR    
# ...
   653.2000      7.8627      2.4026     -0.0641     14.9939     70.1932     17.5002
   653.3000      7.8546      2.4039      0.0285     14.9153     74.2565     16.9700
   653.4000      7.8546      2.4242      0.0383     13.6873     75.4674     16.2284
   653.5000      7.8422      2.4565      0.0709     11.7247     73.2395     15.9268
   653.6000      7.8422      2.4884      0.1213      9.7963     68.1688     16.1434
   653.7000      7.8422      2.5053      0.0912      8.7679     62.0104     16.3527
   653.8000      7.8377      2.5086      0.1052      8.5720     57.4655     16.4359
   653.9000      7.8377      2.5093      0.0832      8.5287     56.8754     16.6337
   654.0000      7.8496      2.5068      0.1692      8.6766     60.6135     16.6288
   654.1000      7.8496      2.4936      0.1239      9.4767     64.5196     15.9959
   654.2000      7.8496      2.4805      0.0935     10.2708     64.6440     15.1412
   654.3000      7.8645      2.4699      0.0975     10.9130     63.1909     14.7131
   654.4000      7.8645      2.4457      0.0614     12.3824     63.7355     14.4860
   654.5000      7.8711      2.4189     -0.0255     14.0044     64.2713     13.8752
   654.6000      7.8711      2.4160      0.0211     14.1808     63.0846     13.0684
   654.7000      7.8711      2.4250      0.0519     13.6375     64.5156     12.5275
   654.8000      7.8717      2.4105      0.0436     14.5123     69.3917     11.9185
   654.9000      7.8717      2.3578      0.0335     17.7102     72.5208     10.9405
   655.0000      7.8711      2.2696      0.0167     23.0564     72.1981      9.9223
   655.1000      7.8711      2.1558     -0.0166     29.9528     70.3858      9.2171
   655.2000      7.8711      2.0332     -0.0717     37.3794     67.5900      8.6927
   655.3000      7.8724      1.9064     -0.0260     45.0684     64.4787      8.0506
   655.4000      7.8724      1.7674     -0.1161     53.4908     63.1969      7.4552
   655.5000      7.8757      1.6243     -0.1603     62.1655     62.6260      7.1472
   655.6000      7.8757      1.4940     -0.1468     70.0577     58.9982      7.1282
   655.7000      7.8757      1.3920     -0.1337     76.2432     53.3726      7.2652
   655.8000      7.8797      1.3316     -0.0874     79.9045     50.6690      7.5122
   655.9000      7.8797      1.3240      0.0180     80.3607     51.9147      8.1661
   656.0000      7.8849      1.3696      0.1819     77.5978     54.7184      9.4764
   656.1000      7.8849      1.4523      0.2457     72.5904     58.3038     11.3168
   656.2000      7.8849      1.5579      0.3029     66.1903     62.8978     13.4509
   656.3000      7.8892      1.6769      0.3645     58.9764     68.3913     15.6350
   656.4000      7.8892      1.7929      0.4325     51.9462     73.8657     17.8601
   656.5000      7.8890      1.8920      0.4369     45.9397     78.0204     20.4084
   656.6000      7.8890      1.9734      0.4171     41.0043     82.2571     22.9274
   656.7000      7.8890      2.0444      0.3755     36.7003     89.8810     24.5624
   656.8000      7.8849      2.1144      0.3553     32.4597    101.0867     25.3992
   656.9000      7.8849      2.1824      0.2800     28.3392    111.1834     26.0948
   657.0000      7.8794      2.2436      0.2124     24.6292    115.8729     26.5443
   657.1000      7.8794      2.3019      0.1479     21.0999    116.6477     26.4262
   657.2000      7.8794      2.3539      0.1275     17.9427    118.0829     26.1821
   657.3000      7.8749      2.3936      0.0948     15.5388    120.9850     26.2150
   657.4000      7.8749      2.4282      0.0789     13.4398    122.7852     26.0151
   657.5000      7.8725      2.4624      0.0813     11.3726    122.3606     25.4717
   657.6000      7.8725      2.4867      0.0793      9.8974    121.1024     25.1321
   657.7000      7.8725      2.4934      0.0901      9.4898    118.6192     25.0575
   657.8000      7.8715      2.4852      0.0655      9.9858    113.6458     25.1582
   657.9000      7.8715      2.4726      0.0645     10.7485    109.8655     25.3744
   658.0000      7.8705      2.4665      0.0597     11.1238    110.0521     25.5198
   658.1000      7.8705      2.4699      0.0794     10.9143    111.8403     25.4140
   658.2000      7.8705      2.4801      0.0582     10.2965    111.4956     24.9809
   658.3000      7.8697      2.4935      0.0598      9.4872    106.7108     24.1218
   658.4000      7.8697      2.5074      0.0601      8.6452     99.2808     23.1347
   658.5000      7.8698      2.5248      0.0359      7.5859     95.5387     22.6915
   658.6000      7.8698      2.5451      0.0606      6.3574     96.7019     22.9935
   658.7000      7.8698      2.5548      0.0775      5.7719     97.9854     23.3881
   658.8000      7.8698      2.5493      0.0821      6.1003     97.6811     23.5608
   658.9000      7.8698      2.5372      0.0951      6.8385     98.6507     23.8059
   659.0000      7.8698      2.5238      0.0773      7.6513    102.4745     23.9000
   659.1000      7.8698      2.5143      0.0945      8.2268    105.2574     23.9254
   659.2000      7.8698      2.5123      0.0794      8.3432    101.3103     24.2693
   659.3000      7.8708      2.5165      0.0579      8.0925     90.3802     24.5254
   659.4000      7.8708      2.5237      0.0551      7.6551     79.8126     24.4064
   659.5000      7.8715      2.5335      0.1026      7.0588     75.9016     24.3305
   659.6000      7.8715      2.5502      0.0767      6.0507     77.0626     24.2606
   659.7000      7.8715      2.5752      0.0865      4.5329     79.4310     23.9444
   659.8000      7.8710      2.5995      0.1346      3.0593     80.0330     23.7243
   659.9000      7.8710      2.6064      0.1644      2.6410     76.5707     23.3964
   660.0000      7.8701      2.5893      0.0812      3.6782     72.5079     22.5622
   660.1000      7.8701      2.5636      0.0889      5.2341     71.8372     21.6194
   660.2000      7.8701      2.5428      0.0882      6.4940     72.4209     21.1462
   660.3000      7.8717      2.5326      0.0517      7.1143     72.2400     21.1961
   660.4000      7.8717      2.5344      0.0574      7.0076     72.4292     20.9940
   660.5000      7.8723      2.5376      0.0523      6.8110     73.3012     20.4493
   660.6000      7.8723      2.5389      0.0430      6.7353     73.9707     20.6593
   660.7000      7.8723      2.5490      0.0467      6.1231     76.4736     21.8842
   660.8000      7.8660      2.5742      0.0758      4.5969     81.1801     23.3748
   660.9000      7.8660      2.6036      0.1337      2.8121     84.1522     24.8232
   661.0000      7.8608      2.6216      0.1860      1.7240     84.7542     26.3295
   661.1000      7.8608      2.6358      0.1766      0.8579     84.5853     27.3589
   661.2000      7.8608      2.6621      0.2117     -0.7334     81.8252     27.0236
   661.3000      7.8634      2.6873      0.1602     -2.2597     77.6323     25.6962
   661.4000      7.8634      2.6938      0.1090     -2.6522     77.3064     24.9516
   661.5000      7.8650      2.6830      0.1244     -2.0009     80.1534     25.2826
   661.6000      7.8650      2.6618      0.1114     -0.7176     80.5375     25.8891
   661.7000      7.8650      2.6403      0.0672      0.5880     76.4897     26.3441
   661.8000      7.8584      2.6307      0.0645      1.1691     70.9081     26.6089
   661.9000      7.8584      2.6362      0.0133      0.8345     65.3894     26.5996
   662.0000      7.8529      2.6484      0.0153      0.0991     59.1430     26.2853
   662.1000      7.8529      2.6486      0.0185      0.0838     55.1934     25.6609
   662.2000      7.8529      2.6265     -0.0247      1.4247     56.2376     24.8352
   662.3000      7.8600      2.6050     -0.0195      2.7270     59.9427     24.0934
   662.4000      7.8600      2.6078      0.0859      2.5553     64.0576     23.7020
   662.5000      7.8662      2.6179      0.1138      1.9469     67.6224     23.3485
   662.6000      7.8662      2.6119      0.1014      2.3113     68.2474     22.4915
   662.7000      7.8662      2.5873      0.1138      3.7995     67.1380     21.4938
