~Version Information
VERS.                      2.0: CWLS Log ASCII Standard - VERSION 2.0
WRAP.                       NO: One line per depth step
~Well Information Block
STRT.FT                -9.0000: 
STOP.FT              2130.0000: 
STEP.FT                 0.2500: 
NULL.                -999.2500: 
COMP.          Pioneer Natural Resources: COMPANY
WELL.               King 22-13: WELL
FLD.           Purgatorie River: FIELD
LOC.           2419' FNL & 1806' FWL: LOCATION
PROV.                 Colorado: PROVINCE
CNTY.               Las Animas: COUNTRY
SRVC.                Patterson: SERVICE COMPANY
DATE.          Wed Apr 20 09:20:28 2005: LOG DATE
UWI.           05-071-08318-00: UNIQUE WELL ID
~Curve Information Block
DEPT.FT            0 000 00 00: Depth
CCL.                          : Casing Collar Locator
TT3.usec                      : CBL 3' Travel Time
AMP3.mV                       : CBL 3' Amplitude
GR.GAPI                       : Gamma Ray
~Parameter Information Block
~A  Depth       CCL         TT3         AMP3         GR     
# ...
  1264.0000      0.0000    747.7343     14.6051    111.2415
  1264.2500      0.0000    747.2999     14.7054    114.7637
  1264.5000      0.0000    746.4513     14.7365    118.2670
  1264.7500      0.0000    744.2371     14.6866    122.0643
  1265.0000      0.0000    738.9025     14.5298    124.9413
  1265.2500      0.0000    728.7159     14.2059    124.6204
  1265.5000      0.0000    714.1750     13.6599    119.8234
  1265.7500      0.0000    700.1849     12.9216    111.6368
  1266.0000      0.0000    695.2608     12.1350    102.7943
  1266.2500      0.0000    706.6508     11.4856     95.8295
  1266.5000      0.0000    734.6077     11.0981     91.7740
  1266.7500      0.0000    770.7022     11.0000     90.1203
  1267.0000      0.0000    801.8732     11.1483     89.7528
  1267.2500      0.0000    817.5403     11.4650     90.1136
  1267.5000     -5.0000    815.3429     11.8710     91.5941
  1267.7500      5.0000    801.4518     12.3095     94.7104
  1268.0000      0.0000    785.1201     12.7435     98.9303
  1268.2500      0.0000    772.3083     13.1548    102.5823
  1268.5000      0.0000    763.3983     13.5909    104.1537
  1268.7500      0.0000    755.5538     14.2163    103.7862
  1269.0000      0.0000    746.7792     15.2521    103.4279
  1269.2500      0.0000    738.0096     16.7779    105.0816
  1269.5000      0.0000    731.8143     18.5752    108.6196
  1269.7500      0.0000    729.6663     20.2198    111.8717
  1270.0000      0.0000    730.8851     21.3688    113.1909
  1270.2500      0.0000    733.8857     21.9449    113.1485
  1270.5000      0.0000    737.4901     22.0725    113.1980
  1270.7500      0.0000    740.9641     21.9089    113.4946
  1271.0000      0.0000    743.7647     21.5523    112.6474
  1271.2500      0.0000    745.6717     21.0509    109.1442
  1271.5000      0.0000    746.8701     20.4508    102.7278
  1271.7500      0.0000    747.6645     19.8230     94.9272
  1272.0000      0.0000    748.2065     19.2475     88.5108
  1272.2500      0.0000    748.4984     18.7792     86.0174
  1272.5000      0.0000    748.5240     18.4320     88.4049
  1272.7500      0.0000    748.3334     18.1857     94.8816
  1273.0000      0.0000    748.0273     18.0020    103.5305
  1273.2500      0.0000    747.7061     17.8432    111.8358
  1273.5000      0.0000    747.4482     17.6863    117.3913
  1273.7500      0.0000    747.3062     17.5248    119.0581
  1274.0000      0.0000    747.2975     17.3594    117.5199
  1274.2500      0.0000    747.3910     17.1904    114.5818
  1274.5000      0.0000    747.5134     17.0158    111.9254
  1274.7500      0.0000    747.5867     16.8382    110.2697
  1275.0000      0.0000    747.5718     16.6687    109.4081
  1275.2500      0.0000    747.4796     16.5224    109.0237
  1275.5000      0.0000    747.3134     16.4065    109.3427
  1275.7500      0.0000    746.9720     16.3103    110.7991
  1276.0000      0.0000    746.1797     16.2056    113.1657
  1276.2500      0.0000    744.5706     16.0621    115.1877
  1276.5000      0.0000    742.0075     15.8687    115.1717
  1276.7500      0.0000    738.8633     15.6437    112.3391
  1277.0000      0.0000    735.7556     15.4200    107.9083
  1277.2500      0.0000    733.0024     15.2239    104.4186
  1277.5000      0.0000    730.7704     15.0661    103.5989
  1277.7500      0.0000    729.6827     14.9441    105.2038
  1278.0000      0.0000    730.3257     14.8460    108.0646
  1278.2500      0.0000    731.8214     14.7538    111.6293
  1278.5000      0.0000    731.8522     14.6459    115.9919
  1278.7500      0.0000    728.8519     14.4967    120.9667
  1279.0000      0.0000    723.8942     14.2820    125.8612
  1279.2500      0.0000    720.0777     13.9958    129.8362
  1279.5000      0.0000    720.1414     13.6627    131.8508
  1279.7500      0.0000    724.5725     13.3306    130.7276
  1280.0000      0.0000    731.5322     13.0470    126.1586
  1280.2500      0.0000    738.3392     12.8437    119.6096
  1280.5000      0.0000    743.1860     12.7330    113.6761
  1280.7500      0.0000    745.7789     12.7051    110.3551
  1281.0000      0.0000    746.7801     12.7269    109.8932
  1281.2500      0.0000    746.9742     12.7564    111.1716
  1281.5000      0.0000    746.8727     12.7707    113.0843
  1281.7500      0.0000    746.7254     12.7751    115.2809
  1282.0000      0.0000    746.6294     12.7797    117.3050
  1282.2500      0.0000    746.5947     12.7751    117.5386
  1282.5000      0.0000    746.5883     12.7401    114.0858
  1282.7500      0.0000    746.5874     12.6649    107.0223
  1283.0000      0.0000    746.6174     12.5557     99.1382
  1283.2500      0.0000    746.7607     12.4199     93.9608
  1283.5000      0.0000    747.1670     12.2517     93.0705
  1283.7500      0.0000    748.0949     12.0331     95.2989
  1284.0000      0.0000    749.8359     11.7480     98.0431
  1284.2500      0.0000    752.3633     11.4041     99.0534
  1284.5000      0.0000    755.0215     11.0386     97.4611
  1284.7500      0.0000    756.9971     10.6942     93.9683
  1285.0000      0.0000    758.4614     10.3895     90.2687
  1285.2500      0.0000    760.8655     10.1172     87.9138
  1285.5000      0.0000    765.5114      9.8665     87.5308
  1285.7500      0.0000    771.9665      9.6442     89.0076
  1286.0000      0.0000    778.3041      9.4709     91.9185
  1286.2500      0.0000    782.7300      9.3648     95.4955
  1286.5000      0.0000    784.5760      9.3319     98.6556
  1286.7500      0.0000    783.9816      9.3717    100.4768
  1287.0000      0.0000    781.2764      9.4807    100.6577
  1287.2500      0.0000    776.8667      9.6442     99.7342
  1287.5000      0.0000    771.3103      9.8304     99.0694
  1287.7500      0.0000    765.2322     10.0013    100.0757
  1288.0000      0.0000    759.2879     10.1319    102.7951
  1288.2500      0.0000    754.2014     10.2222    105.5430
  1288.5000      0.0000    750.5281     10.2914    106.5078
  1288.7500      0.0000    748.3143     10.3612    105.4986
  1289.0000      0.0000    747.1434     10.4405    103.6779
  1289.2500      0.0000    746.5047     10.5244    101.9746
  1289.5000      0.0000    746.0513     10.6011    100.5583
  1289.7500      0.0000    745.5907     10.6591     99.7675
  1290.0000      0.0000    744.9529     10.6924    100.5041
  1290.2500      0.0000    743.8848     10.7060    103.0228
  1290.5000      0.0000    742.1246     10.7142    105.7771
  1290.7500      0.0000    739.7803     10.7266    106.3467
  1291.0000      0.0000    737.6813     10.7369    103.8488
  1291.2500      0.0000    737.0463     10.7276    100.1983
  1291.5000      0.0000    738.4969     10.6818     98.6865
  1291.7500      0.0000    741.7390     10.5813    101.2300
  1292.0000      0.0000    746.9578     10.3929    107.0788
  1292.2500      0.0000    757.0327     10.0689    114.0733
  1292.5000      0.0000    778.1586      9.5811    120.5859
  1292.7500      0.0000    816.1865      8.9630    125.8195
  1293.0000      0.0000    869.0842      8.3111    128.6441
  1293.2500      0.0000    922.3051      7.7341    127.0954
  1293.5000      0.0000    955.4354      7.2964    119.6533
  1293.7500      0.0000    956.9503      7.0060    106.9341
  1294.0000      0.0000    932.0820      6.8401     91.6729
  1294.2500      0.0000    895.8173      6.7728     76.9376
  1294.5000      0.0000    860.6602      6.7880     64.6623
  1294.7500      0.0000    831.9473      6.8811     55.8613
  1295.0000      0.0000    810.8171      7.0599     51.5358
  1295.2500      0.0000    797.1821      7.3517     52.6626
  1295.5000      0.0000    789.9297      7.7993     59.0780
  1295.7500      0.0000    786.9268      8.4330     68.6203
  1296.0000      0.0000    786.0226      9.2299     77.8599
  1296.2500      0.0000    785.8552     10.0975     84.0831
  1296.5000      0.0000    785.7441     10.9058     86.6647
  1296.7500      0.0000    785.0955     11.5484     86.6617
  1297.0000      0.0000    783.0422     11.9864     85.4867
  1297.2500      0.0000    778.6813     12.2403     84.1738
