~Version Information
 VERS.                                  2.0 : CWLS LAS VERSION
 WRAP.                                   NO : WRAPING MODE
 SWARE .                 MController 2.5.0J : SOFTWARE VERSION
~Well Information
 WELL.                  Lorencito 6-3-34-66 : WELL
 COMP.    Pioneer Natural Resources USA Inc : COMPANY
 FLD.                      Purgatoire River : FIELD
 LOC.                  SE/NW SEC3 T34S R66W : LOCATION
 DATE.                             09/09/05 : DATE(S) LOGGED
 SRVC.       Blanco Geological Services LLC : SERVICE COMPANY
 STAT.                             Colorado : STATE
 CNTY.                           Las Animas : COUNTY
 CTRY.                                  USA : COUNTRY
 API.                       05-071-08369-00 : API NUMBER
 STRT.FT                             394.00 : START DEPTH
 STOP.FT                            1390.00 : STOP DEPTH
 STEP.FT                               1.00 : DEPTH INCREMENT
 NULL.                                -9999 : NULL VALUE
~Curve information
 DEPTH.FT                                   :
 ROP.MIN/FT                                 :
 GAS.UNITS                                  :
~ASCII Log data
# ...
       794.0         0.40         74.1 
       795.0         0.30         74.9 
       796.0         0.23         72.2 
       797.0         0.23         71.4 
       798.0         0.42         70.1 
       799.0         0.27         56.9 
       800.0         0.23         47.5 
       801.0         0.27        123.9 
       802.0         0.27        128.7 
       803.0         0.27         91.4 
       804.0         0.30         67.6 
       805.0         0.30         89.6 
       806.0         4.70         19.4 
       807.0         0.67       2748.8 
       808.0         0.30       1368.5 
       809.0         0.27        712.4 
       810.0         0.30        486.8 
       811.0         0.23        440.0 
       812.0         0.27        440.0 
       813.0         0.33         34.9 
       814.0         0.33         39.1 
       815.0         0.50         71.5 
       816.0         0.35         63.7 
       817.0         0.30         55.7 
       818.0         0.37         55.2 
       819.0         0.47         46.5 
       820.0         0.47         47.3 
       821.0         0.37         46.2 
       822.0         0.37         47.7 
       823.0         0.47         53.5 
       824.0         0.38         56.2 
       825.0         0.33         59.9 
       826.0         0.37         66.1 
       827.0         0.37         58.0 
       828.0         0.37         55.2 
       829.0         0.40         56.0 
       830.0         0.37         55.0 
       831.0         0.53         57.1 
       832.0         0.33         56.9 
       833.0         0.32         53.3 
       834.0         0.30         47.6 
       835.0         0.30         43.5 
       836.0         6.17         79.5 
       837.0         1.23         73.8 
       838.0         0.50       1229.6 
       839.0         0.30        654.4 
       840.0         0.27        480.3 
       841.0         0.27        440.0 
       842.0         0.37         29.5 
       843.0         0.35         22.7 
       844.0         0.27         24.1 
       845.0         0.30         31.9 
       846.0         0.37         34.5 
       847.0         0.27         24.9 
       848.0         0.23         25.9 
       849.0         0.23         33.9 
       850.0         0.27         33.5 
       851.0         0.27         22.2 
       852.0         0.27         18.9 
       853.0         0.27         25.6 
       854.0         0.30         28.8 
       855.0         0.32         33.6 
       856.0         0.27         45.1 
       857.0         0.30         36.7 
       858.0         0.30         27.2 
       859.0         0.30         27.0 
       860.0         0.30         47.4 
       861.0         0.30         38.1 
       862.0         0.27         24.3 
       863.0         0.17         24.5 
       864.0         0.20         31.1 
       865.0         0.23         33.6 
       866.0         2.85         68.3 
       867.0         0.97         24.0 
       868.0         0.42        160.9 
       869.0         0.33       1605.0 
       870.0         0.23        930.5 
       871.0         0.23        602.5 
       872.0         0.30        453.3 
       873.0         0.20        440.0 
       874.0         0.20         26.4 
       875.0         0.23         20.7 
       876.0         0.20         18.8 
       877.0         0.20         18.3 
       878.0         0.20         18.0 
       879.0         0.17         19.7 
       880.0         0.20         19.9 
       881.0         0.20         20.8 
       882.0         0.25         20.8 
       883.0         0.23         21.9 
       884.0         0.17         22.8 
       885.0         0.20         24.5 
       886.0         0.20         28.9 
       887.0         0.20         31.2 
       888.0         0.20         29.6 
       889.0         0.20         24.0 
       890.0         0.17         27.7 
       891.0         0.20         32.0 
       892.0         0.20         31.6 
       893.0         0.23         31.5 
       894.0         0.20         31.4 
       895.0         0.17         30.2 
       896.0         3.82        435.2 
       897.0         0.42        651.5 
       898.0         0.33        460.7 
       899.0         0.20        440.0 
       900.0         0.23         26.7 
       901.0         0.20         21.8 
       902.0         0.27         19.0 
       903.0         0.23         17.4 
       904.0         0.40         18.8 
       905.0         0.33         21.9 
       906.0         0.37         22.3 
       907.0         0.23         22.9 
       908.0         0.28         21.4 
       909.0         0.23         21.4 
       910.0         0.27         21.1 
       911.0         0.33         19.1 
       912.0         0.30         19.6 
       913.0         0.23         22.3 
       914.0         0.23         23.9 
       915.0         0.23         22.3 
       916.0         0.20         21.4 
       917.0         0.23         20.7 
       918.0         0.23         22.1 
       919.0         0.23         25.8 
       920.0         0.27         30.4 
       921.0         0.23         33.1 
       922.0         0.18         34.1 
       923.0         0.23         33.5 
       924.0         0.23         33.5 
       925.0         0.43         29.2 
       926.0         3.42        349.4 
       927.0         0.37        945.7 
       928.0         0.30        565.4 
       929.0         0.27        458.7 
       930.0         0.30        440.0 
       931.0         0.30         21.7 
       932.0         0.30         18.8 
       933.0         0.27         17.4 
       934.0         0.25         16.6 
       935.0         0.17         18.5 
       936.0         0.20         18.9 
       937.0         0.13         19.7 
       938.0         0.10         20.4 
       939.0         0.07         21.3 
       940.0         0.10         20.7 
       941.0         0.10         22.0 
       942.0         0.13         24.8 
       943.0         0.17         25.7 
       944.0         0.23         24.3 
       945.0         0.30         41.4 
       946.0         0.40        152.5 
       947.0         0.23        181.7 
       948.0         0.20        186.0 
       949.0         0.27        183.0 
       950.0         0.33        170.4 
       951.0         0.35        164.6 
       952.0         0.27        167.6 
       953.0         0.27        168.3 
       954.0         0.27        166.5 
       955.0         0.33        159.2 
       956.0         2.82         83.1 
       957.0         0.67       1729.1 
       958.0         0.47        811.9 
       959.0         0.50        756.8 
       960.0         0.43        682.7 
       961.0         0.37        633.1 
       962.0         0.25        623.4 
       963.0         0.27        643.4 
       964.0         0.27        643.4 
       965.0         0.30        651.1 
       966.0         0.27        646.6 
       967.0         0.17        641.8 
       968.0         0.20        637.3 
       969.0         0.30        631.5 
       970.0         0.27        627.0 
       971.0         0.30        616.3 
       972.0         0.27        627.9 
       973.0         0.23        639.2 
       974.0         0.23        641.5 
       975.0         0.28        632.1 
       976.0         0.27        628.3 
       977.0         0.23        626.6 
       978.0         0.30        623.7 
       979.0         0.27        624.1 
       980.0         0.30        617.9 
       981.0         0.23        616.3 
       982.0         0.27        618.6 
       983.0         0.27        624.7 
       984.0         0.17        627.0 
       985.0         0.27        623.7 
       986.0         4.30       2327.9 
       987.0         0.43       1026.2 
       988.0         0.27        752.6 
       989.0         0.30        778.1 
       990.0         0.27        766.8 
       991.0         0.23        732.0 
       992.0         0.27        686.6 
       993.0         0.33        656.0 
