~Version Information
VERS.                      2.0: CWLS Log ASCII Standard - VERSION 2.0
WRAP.                       NO: One line per depth step
~Well Information Block
STRT.FT               710.0000: 
STOP.FT              2922.5000: 
STEP.FT                 0.2500: 
NULL.                -999.2500: 
COMP.          Petrogulf Corporation: COMPANY
WELL.            Montoya 1-41V: WELL
FLD.           Purgatorie River: FIELD
LOC.           610' FNL & 1205' FEL: LOCATION
PROV.                 Colorado: PROVINCE
CNTY.               Las Animas: COUNTRY
SRVC.                Patterson: SERVICE COMPANY
DATE.          Mon Aug 22 08:00:56 2005: LOG DATE
UWI.                          : UNIQUE WELL ID
~Curve Information Block
DEPT.FT            0 000 00 00: Depth
SP.mV                         : DIL Spontaneous Potential
RILD.Ohm-m                    : DIL Deep Resistivity
RILM.Ohm-m                    : DIL Medium Resistivity
RLL3.Ohm-m                    : DIL Shallow Resistivity
GR.GAPI                       : Gamma Ray
~Parameter Information Block
~A  Depth        SP         RILD        RILM        RLL3         GR     
# ...
  1578.0000     32.2898     16.8287     16.5841     28.8803    139.3879
  1578.2500     31.2476     17.1498     16.0531     26.5106    132.4058
  1578.5000     30.0101     16.9464     16.2467     27.0695    157.1588
  1578.7500     28.2198     17.0071     16.4829     28.3228    157.0004
  1579.0000     26.0205     16.7104     16.8175     29.8078    131.0753
  1579.2500     23.3283     17.7519     16.8098     30.4535    129.2800
  1579.5000     20.0776     17.7688     17.3772     31.0141    122.8598
  1579.7500     16.3551     17.3326     17.3851     31.4947    126.5173
  1580.0000     13.0360     16.6338     17.3621     32.0339    110.9998
  1580.2500     10.0669     16.3226     17.3255     32.4432    128.2369
  1580.5000      7.3822     16.8861     17.1388     31.8463    130.6811
  1580.7500      4.7777     17.4948     17.6454     31.2624    155.0658
  1581.0000      1.9903     17.3665     17.1838     30.3061    131.1872
  1581.2500     -1.1237     17.6236     17.0141     28.6736    133.5056
  1581.5000     -3.9424     17.9672     17.1566     28.2933    143.4857
  1581.7500     -6.8203     18.3200     16.9719     28.5458    123.9917
  1582.0000     -9.8685     18.6359     17.1822     29.6642    153.3112
  1582.2500    -12.9408     18.9930     17.7019     28.2690    154.2053
  1582.5000    -15.7473     19.4543     18.3062     20.7061    140.9200
  1582.7500    -18.3868     20.1167     19.3818     20.1220    150.2847
  1583.0000    -20.6408     20.6313     19.0438     18.2896    169.4750
  1583.2500    -22.5954     20.9096     19.9292     17.7379    152.2089
  1583.5000    -24.6569     21.3737     21.1995     18.7370    142.3345
  1583.7500    -26.3928     23.2204     23.0878     22.8157    129.9115
  1584.0000    -27.5161     23.7748     26.3488     30.2601    104.6185
  1584.2500    -28.1309     24.1972     27.9123     39.1794    103.6964
  1584.5000    -27.9407     23.7921     28.5404     59.7693    106.1251
  1584.7500    -26.9243     24.9838     30.7365     70.3259     92.9623
  1585.0000    -25.0520     25.1725     31.0092     74.6057     91.5022
  1585.2500    -22.8778     25.4575     30.7988     72.2146     93.2962
  1585.5000    -20.3734     26.9344     30.7642     61.7851    106.8421
  1585.7500    -18.0989     26.5304     30.7191     50.3794     99.7961
  1586.0000    -15.9796     28.5382     29.9232     44.4716    112.7487
  1586.2500    -14.4001     27.9985     28.3911     42.4358    119.5736
  1586.5000    -13.5330     29.4121     27.9383     41.8026    109.5428
  1586.7500    -13.1972     29.9131     28.1837     40.2495    113.7237
  1587.0000    -13.1894     30.7211     27.9774     35.5623    132.1631
  1587.2500    -13.1831     32.0769     27.0896     31.2681    124.6627
  1587.5000    -13.2333     31.7781     26.5374     30.6355    125.9837
  1587.7500    -13.0794     31.9242     27.4694     32.9467    115.2703
  1588.0000    -12.5682     32.2276     29.4055     38.9498    115.5670
  1588.2500    -11.8361     31.7418     31.4568     46.0567    112.6856
  1588.5000    -10.6893     32.2811     33.6741     52.7607    126.5932
  1588.7500     -9.4708     30.1962     35.4484     52.1216    112.3098
  1589.0000     -8.3069     36.5474     37.6325     53.9294    100.3942
  1589.2500     -7.0137     37.9779     39.8254     59.9394     94.7707
  1589.5000     -5.6209     39.3456     42.8014     65.5337    112.1783
  1589.7500     -3.8840     37.9385     43.4713     68.7514     99.5658
  1590.0000     -1.9486     42.1142     51.6848     63.5319     67.4852
  1590.2500     -0.0188     44.4054     56.5610     68.2322     62.1691
  1590.5000      2.1122     44.9175     56.9595     73.0551     74.6364
  1590.7500      4.1426     44.5282     61.8556     79.0148     75.9412
  1591.0000      5.8504     44.1210     61.6554     75.1189     80.9457
  1591.2500      7.5954     41.1141     55.1836     68.7312     73.4457
  1591.5000      9.0803     36.2071     53.7737     55.0285     94.7898
  1591.7500     10.3420     34.9505     49.5291     48.6225    101.3960
  1592.0000     11.6372     32.1292     45.9892     55.3038    121.1006
  1592.2500     13.2521     29.0957     43.2176     54.7584    100.9683
  1592.5000     15.0460     27.5769     37.2624     49.2964    122.1558
  1592.7500     16.7885     25.6156     29.1630     36.6358    126.5572
  1593.0000     18.2207     24.2791     24.3547     28.3680    137.3534
  1593.2500     19.1117     24.0371     22.4259     24.7404    160.9088
  1593.5000     19.6965     23.2183     21.6511     23.2079    163.7262
  1593.7500     20.0369     21.9319     20.0695     22.2250    146.0130
  1594.0000     20.3779     22.3842     19.2708     22.6080    148.4636
  1594.2500     20.6482     21.9237     19.1499     23.9239    153.3918
  1594.5000     20.7829     21.8888     18.7677     25.6840    137.1529
  1594.7500     20.9447     20.7592     18.6048     25.6408    136.3063
  1595.0000     21.0937     21.2830     19.0099     21.3784    125.6244
  1595.2500     21.2155     21.1731     20.3903     26.6872    129.9093
  1595.5000     21.1600     21.3850     20.4694     30.3198    151.5071
  1595.7500     21.1195     22.4779     20.9360     33.7794    149.7324
  1596.0000     21.0925     23.0356     22.1354     34.6341    148.2060
  1596.2500     21.0650     23.5966     23.1477     36.7242    138.1582
  1596.5000     21.0925     24.9597     25.3668     40.2953    143.1690
  1596.7500     21.1155     26.3222     27.1981     41.0727    127.6975
  1597.0000     21.1090     27.3239     28.5402     42.8523    129.5168
  1597.2500     21.0366     29.2475     30.5690     44.8436    122.3501
  1597.5000     20.9747     28.5300     33.1701     44.6265    120.8308
  1597.7500     20.8248     31.3611     32.7743     45.0015    122.4266
  1598.0000     20.4715     31.8216     35.1705     49.9551    108.3750
  1598.2500     19.9851     30.1941     36.5682     58.8647    105.0777
  1598.5000     19.3394     29.3833     41.6139     63.7580     93.4156
  1598.7500     18.8141     29.4814     42.1587     59.1245     92.4596
  1599.0000     18.5164     28.6048     40.2042     53.3199    144.0680
  1599.2500     18.3385     26.7893     34.5238     47.7719    156.1068
  1599.5000     18.2954     25.5442     29.8289     38.6092    133.2489
  1599.7500     18.3586     25.0936     27.0731     30.5709    130.8429
  1600.0000     18.6231     23.5878     25.2784     26.0985    149.0517
  1600.2500     19.0422     22.8737     22.5027     24.0916    176.5727
  1600.5000     19.3822     21.2534     21.4683     23.4993    188.2290
  1600.7500     19.7239     20.6626     20.4079     23.7912    166.9270
  1601.0000     20.3127     19.6306     19.6798     24.0530    169.8441
  1601.2500     20.9678     17.9271     19.1235     23.5490    164.9403
  1601.5000     21.8746     16.6274     17.8406     23.1897    132.3340
  1601.7500     22.8795     15.4970     17.2593     23.1754    149.9290
  1602.0000     23.7452     15.0032     16.5644     23.5939    156.4728
  1602.2500     24.5819     14.6248     15.5649     24.0985    170.0648
  1602.5000     25.1713     14.2071     14.4514     24.0785    139.9544
  1602.7500     25.3482     13.8582     13.6606     23.2407    145.6327
  1603.0000     25.2197     13.7522     13.0941     21.1013    140.6050
  1603.2500     24.7871     13.6250     12.6526     18.4256    165.9490
  1603.5000     24.2549     13.8032     12.3224     16.7561    172.1102
  1603.7500     23.5181     13.7529     12.3030     16.5079    141.7855
  1604.0000     22.6083     13.5765     12.5148     17.2696    143.0583
  1604.2500     21.5074     13.2013     13.2100     19.2181    142.5777
  1604.5000     20.3396     13.1611     13.3673     22.4439    137.4526
  1604.7500     18.9234     13.0114     13.6367     25.7723    141.9412
  1605.0000     17.4771     13.0405     13.7594     27.1904    140.1506
  1605.2500     15.9311     13.3485     13.8672     25.9060    162.9716
  1605.5000     14.4955     13.3287     13.5501     23.6659    167.1808
  1605.7500     13.3290     13.7476     13.3436     21.3803    165.2875
