~Version Information
VERS.                      2.0: CWLS Log ASCII Standard - VERSION 2.0
WRAP.                       NO: One line per depth step
~Well Information Block
STRT.FT               650.0000: 
STOP.FT              1080.5000: 
STEP.FT                 0.1000: 
NULL.                -999.2500: 
COMP.          Pioneer Natural Resources: COMPANY
WELL.            Galileo 21-11: WELL
FLD.           Purgatoire River: FIELD
LOC.           407' FNL & 2394' FWL: LOCATION
PROV.                 Colorado: PROVINCE
CNTY.               Las Animas: COUNTRY
SRVC.                Patterson: SERVICE COMPANY
DATE.          Mon Apr 11 16:20:08 2005: LOG DATE
UWI.           05 071 08353 00: UNIQUE WELL ID
~Curve Information Block
DEPT.FT            0 000 00 00: Depth
DCAL.in                       : CDL Caliper
RHOB.g/cc                     : CDL Bulk Density
RHOC.g/cc                     : CDL Density Correction
DPOR.pu                       : CDL Density Porosity
GR.GAPI                       : Gamma Ray
NPOR.pu                       : Neutron Porosity
~Parameter Information Block
~A  Depth       DCAL        RHOB        RHOC        DPOR         GR         NPOR    
# ...
  1005.2000      7.8135      2.5016      0.0901      8.9923     99.8028     24.5698
  1005.3000      7.8161      2.4971      0.0736      9.2687     97.7688     24.6525
  1005.4000      7.8161      2.4955      0.0808      9.3626     92.5344     24.7624
  1005.5000      7.8109      2.4939      0.0654      9.4620     87.3472     24.7858
  1005.6000      7.8109      2.4971      0.0374      9.2693     85.9622     24.5828
  1005.7000      7.8109      2.5166      0.0627      8.0866     86.4146     24.3136
  1005.8000      7.8099      2.5521      0.0863      5.9344     88.4737     24.2725
  1005.9000      7.8099      2.5862      0.1031      3.8663     92.9765     24.2549
  1006.0000      7.8032      2.5985      0.1163      3.1242     96.4833     23.7000
  1006.1000      7.8032      2.5895      0.1090      3.6677     96.5856     22.7304
  1006.2000      7.8032      2.5802      0.1314      4.2289     95.1961     22.0869
  1006.3000      7.8086      2.5786      0.0920      4.3260     96.1808     22.0420
  1006.4000      7.8086      2.5778      0.1085      4.3769     98.5810     22.3110
  1006.5000      7.8094      2.5763      0.0963      4.4646     97.5618     22.6309
  1006.6000      7.8094      2.5730      0.0952      4.6683     94.1241     22.6963
  1006.7000      7.8094      2.5622      0.0907      5.3195     93.0466     22.2331
  1006.8000      7.8090      2.5521      0.0575      5.9356     95.3699     21.5259
  1006.9000      7.8090      2.5510      0.0854      5.9993     97.8882     21.0783
  1007.0000      7.8117      2.5469      0.0986      6.2471     98.1912     21.0422
  1007.1000      7.8117      2.5328      0.0792      7.1044     97.3235     21.1130
  1007.2000      7.8117      2.5154      0.0492      8.1571     97.4669     21.0080
  1007.3000      7.8118      2.4962      0.0263      9.3233     98.7755     20.9587
  1007.4000      7.8118      2.4791     -0.0253     10.3560     99.0563     21.1785
  1007.5000      7.8100      2.4804     -0.0074     10.2777     98.5394     21.3207
  1007.6000      7.8100      2.5026      0.0508      8.9335     97.4828     20.9077
  1007.7000      7.8100      2.5218      0.0717      7.7684     92.1466     20.4003
  1007.8000      7.8115      2.5214      0.0597      7.7964     84.5476     20.7850
  1007.9000      7.8115      2.5183      0.0446      7.9830     81.3375     22.0731
  1008.0000      7.8129      2.5269      0.0716      7.4577     81.0487     23.2365
  1008.1000      7.8129      2.5330      0.0382      7.0896     81.9955     23.7343
  1008.2000      7.8129      2.5301      0.0384      7.2678     87.4256     23.8728
  1008.3000      7.8124      2.5295      0.0240      7.3054     95.0502     23.7244
  1008.4000      7.8124      2.5305      0.0660      7.2395     99.4697     23.3680
  1008.5000      7.8103      2.5264      0.0136      7.4903    100.0227     23.1596
  1008.6000      7.8103      2.5314     -0.0095      7.1863    100.8506     23.2985
  1008.7000      7.8103      2.5543      0.0367      5.7995    105.8744     23.6350
  1008.8000      7.8104      2.5734      0.0697      4.6408    113.9236     23.8249
  1008.9000      7.8104      2.5676      0.0446      4.9911    119.6039     23.8812
  1009.0000      7.8129      2.5425      0.0205      6.5152    118.3338     24.1133
  1009.1000      7.8129      2.5270     -0.0073      7.4544    113.5952     24.6517
  1009.2000      7.8129      2.5444      0.0119      6.4023    110.2098     25.2214
  1009.3000      7.8107      2.5785      0.0794      4.3308    107.0750     25.4616
  1009.4000      7.8107      2.5924      0.0974      3.4925    101.6444     25.1922
  1009.5000      7.8093      2.5791      0.0147      4.2989     95.5355     24.7140
  1009.6000      7.8093      2.5611      0.0332      5.3882     93.5189     24.6739
  1009.7000      7.8093      2.5503      0.0331      6.0412     94.2836     25.0147
  1009.8000      7.8072      2.5414      0.0458      6.5831     94.7218     25.1092
  1009.9000      7.8072      2.5327      0.0204      7.1078     98.3843     24.9327
  1010.0000      7.8103      2.5337      0.0114      7.0456    106.6913     24.9460
  1010.1000      7.8103      2.5528      0.0125      5.8930    112.9355     25.2709
  1010.2000      7.8103      2.5774      0.0973      4.3973    111.4848     25.5991
  1010.3000      7.8094      2.5851      0.0758      3.9320    107.5826     25.6598
  1010.4000      7.8094      2.5771      0.0525      4.4166    108.4306     25.5870
  1010.5000      7.8105      2.5650      0.0892      5.1489    110.5556     25.5522
  1010.6000      7.8105      2.5581      0.0575      5.5689    108.1361     25.6101
  1010.7000      7.8105      2.5674      0.0850      5.0074    102.3262     25.9313
  1010.8000      7.8114      2.5860      0.1060      3.8814     98.9617     26.2713
  1010.9000      7.8114      2.5945      0.1136      3.3653    102.8661     26.0009
  1011.0000      7.8112      2.5879      0.0818      3.7619    109.3212     25.4122
  1011.1000      7.8112      2.5764      0.0825      4.4579    109.6322     25.0826
  1011.2000      7.8112      2.5673      0.0365      5.0146    106.5015     24.7406
  1011.3000      7.8116      2.5585      0.0780      5.5426    106.5131     24.0900
  1011.4000      7.8116      2.5453      0.0893      6.3453    108.3616     23.2987
  1011.5000      7.8095      2.5290      0.0665      7.3340    109.5332     22.8619
  1011.6000      7.8095      2.5180      0.0156      8.0029    110.8909     23.0407
  1011.7000      7.8095      2.5153      0.0545      8.1650    110.5032     23.6337
  1011.8000      7.8104      2.5176      0.0275      8.0213    106.4884     24.2011
  1011.9000      7.8104      2.5219      0.0835      7.7655    103.6605     24.2846
  1012.0000      7.8106      2.5258      0.0358      7.5290    104.0366     23.9065
  1012.1000      7.8106      2.5353      0.0422      6.9509    103.1284     23.4129
  1012.2000      7.8106      2.5522      0.0802      5.9286    101.1655     23.1647
  1012.3000      7.8110      2.5611      0.0930      5.3873    101.1163     23.3873
  1012.4000      7.8110      2.5499      0.0580      6.0644    102.8436     23.6482
  1012.5000      7.8113      2.5308      0.0440      7.2243    104.7816     23.4733
  1012.6000      7.8113      2.5233      0.0719      7.6807    104.9008     23.1037
  1012.7000      7.8113      2.5273      0.0640      7.4371    104.2482     22.8804
  1012.8000      7.8127      2.5347     -0.0005      6.9878    105.2625     22.8030
  1012.9000      7.8127      2.5447      0.0787      6.3803    105.7877     22.8543
  1013.0000      7.8113      2.5469      0.0847      6.2465    102.5567     23.2397
  1013.1000      7.8113      2.5258      0.0823      7.5270     98.1782     23.7712
  1013.2000      7.8113      2.4858      0.0369      9.9535     96.3729     24.0281
  1013.3000      7.8114      2.4454      0.0492     12.4012     98.2519     23.8556
  1013.4000      7.8114      2.4127      0.0468     14.3842    102.4537     23.1913
  1013.5000      7.8106      2.3907     -0.0007     15.7171    105.4451     22.2672
  1013.6000      7.8106      2.3863      0.0202     15.9809    106.9982     21.5096
  1013.7000      7.8106      2.3977      0.0440     15.2914    108.3189     21.2831
  1013.8000      7.8100      2.4211      0.0238     13.8724    106.7349     21.5999
  1013.9000      7.8100      2.4572      0.0874     11.6874    103.0597     21.9069
  1014.0000      7.8090      2.5035      0.1146      8.8771    103.4846     21.9009
  1014.1000      7.8090      2.5537      0.2131      5.8349    109.0522     21.9985
  1014.2000      7.8090      2.5918      0.2337      3.5294    114.2846     22.5080
  1014.3000      7.8083      2.6057      0.2208      2.6829    114.8633     23.4612
  1014.4000      7.8083      2.6043      0.2230      2.7707    111.3375     24.6273
  1014.5000      7.8064      2.6045      0.1832      2.7587    108.7045     25.4387
  1014.6000      7.8064      2.6105      0.1748      2.3963    111.4349     25.7655
  1014.7000      7.8064      2.6125      0.1651      2.2737    117.7452     25.9229
