~Version Information
VERS.                      2.0: CWLS Log ASCII Standard - VERSION 2.0
WRAP.                       NO: One line per depth step
~Well Information Block
STRT.FT               395.0000: 
STOP.FT              1998.0000: 
STEP.FT                 0.1000: 
NULL.                -999.2500: 
COMP.          Pioneer Natural Resources: COMPANY
WELL.          Easton 12-30 Tr: WELL
FLD.           Purgatoire River: FIELD
LOC.           549' FWL & 2416' FNL--: LOCATION
PROV.                 Colorado: PROVINCE
CNTY.               Las Animas: COUNTRY
SRVC.                Patterson: SERVICE COMPANY
DATE.          Thu Jun 02 09:14:44 2005: LOG DATE
UWI.           05 071 08379 00: UNIQUE WELL ID
~Curve Information Block
DEPT.FT            0 000 00 00: Depth
DCAL.in                       : CDL Caliper
RHOB.g/cc                     : CDL Bulk Density
RHOC.g/cc                     : CDL Density Correction
DPOR.pu                       : CDL Density Porosity
NPOR.pu                       : Neutron Porosity
GR.GAPI                       : Gamma Ray
~Parameter Information Block
~A  Depth       DCAL        RHOB        RHOC        DPOR        NPOR         GR     
# ...
  1134.2000      8.0719      2.0315     -0.0422     37.4852     21.1769     90.9626
  1134.3000      8.0895      2.0025      0.0172     39.2441     20.2693     90.9256
  1134.4000      8.0895      1.9715      0.0246     41.1198     18.8299     94.1621
  1134.5000      8.1098      1.9364      0.0063     43.2469     17.2042     97.2846
  1134.6000      8.1098      1.9037      0.0940     45.2301     15.7423     95.6919
  1134.7000      8.1098      1.8616      0.1851     47.7810     14.2566     90.4188
  1134.8000      8.1281      1.7989      0.1667     51.5848     12.6822     85.2688
  1134.9000      8.1281      1.7188      0.1247     56.4370     11.2973     81.0573
  1135.0000      8.1464      1.6302      0.0449     61.8035     10.2030     77.3695
  1135.1000      8.1464      1.5486     -0.0082     66.7499      9.1932     75.0246
  1135.2000      8.1464      1.4867     -0.0556     70.5014      8.1894     75.4288
  1135.3000      8.1773      1.4394     -0.0730     73.3699      7.3279     76.6563
  1135.4000      8.1773      1.3921     -0.0809     76.2344      6.5479     74.0944
  1135.5000      8.2428      1.3381     -0.0072     79.5099      5.6750     67.4155
  1135.6000      8.2428      1.2882      0.0197     82.5359      4.8962     60.4421
  1135.7000      8.2428      1.2640      0.0792     84.0010      4.4778     58.0531
  1135.8000      8.3496      1.2730      0.1793     83.4569      4.3631     60.0626
  1135.9000      8.3496      1.3023      0.2564     81.6805      4.3687     61.8447
  1136.0000      8.4653      1.3388      0.2378     79.4640      4.4279     62.4571
  1136.1000      8.4653      1.3802      0.2323     76.9578      4.6199     62.8418
  1136.2000      8.4653      1.4239      0.2437     74.3078      5.0479     62.3237
  1136.3000      8.5656      1.4643      0.2552     71.8596      5.6229     62.4583
  1136.4000      8.5656      1.5068      0.2383     69.2874      6.4007     66.3397
  1136.5000      8.5892      1.5715      0.2183     65.3618      7.5302     73.4860
  1136.6000      8.5892      1.6715      0.2450     59.3021      8.5690     80.4547
  1136.7000      8.5892      1.7982      0.2640     51.6218      9.2122     84.4426
  1136.8000      8.4513      1.9305      0.2807     43.6089      9.9825     85.0183
  1136.9000      8.4513      2.0490      0.2792     36.4252     11.1736     86.0019
  1137.0000      8.2454      2.1520      0.2622     30.1831     12.4947     88.9142
  1137.1000      8.2454      2.2451      0.2322     24.5422     13.8715     91.5813
  1137.2000      8.2454      2.3238      0.2052     19.7699     15.3327     96.9723
  1137.3000      8.1240      2.3911      0.1037     15.6881     16.7067    108.9780
  1137.4000      8.1240      2.4569      0.1447     11.7025     18.0857    122.7068
  1137.5000      8.0890      2.5096      0.1243      8.5112     19.4804    128.6417
  1137.6000      8.0890      2.5365      0.1197      6.8772     20.7028    126.3648
  1137.7000      8.0890      2.5490      0.0879      6.1205     21.7578    121.9787
  1137.8000      8.0846      2.5601      0.1110      5.4462     22.7837    118.8172
  1137.9000      8.0846      2.5678      0.0795      4.9816     23.6564    118.0008
  1138.0000      8.0858      2.5702      0.0588      4.8362     24.0309    119.7607
  1138.1000      8.0858      2.5738      0.0318      4.6210     24.0644    121.7530
  1138.2000      8.0858      2.5780      0.0284      4.3644     24.2421    119.2069
  1138.3000      8.0879      2.5679      0.0459      4.9752     24.5623    112.5419
  1138.4000      8.0879      2.5420      0.0052      6.5458     24.6479    110.2734
  1138.5000      8.0893      2.5215      0.0064      7.7857     24.5270    116.1030
  1138.6000      8.0893      2.5142      0.0091      8.2274     24.2715    123.0224
  1138.7000      8.0893      2.5091      0.0145      8.5373     23.5819    123.6404
  1138.8000      8.0890      2.4959      0.0465      9.3380     22.7693    118.1476
  1138.9000      8.0890      2.4784     -0.0374     10.4023     22.2870    114.2810
  1139.0000      8.0889      2.4760     -0.0176     10.5426     22.0316    118.0466
  1139.1000      8.0889      2.4916      0.0100      9.5980     22.0225    124.2006
  1139.2000      8.0889      2.5063      0.0347      8.7089     22.4867    124.5584
  1139.3000      8.0855      2.5129      0.0121      8.3069     23.3077    119.4305
  1139.4000      8.0855      2.5286      0.0113      7.3560     24.1061    112.1426
  1139.5000      8.0721      2.5669      0.0565      5.0342     24.8750    104.5931
  1139.6000      8.0721      2.6190      0.0837      1.8788     25.8551     99.6552
  1139.7000      8.0721      2.6712      0.1240     -1.2873     27.2466     98.4595
  1139.8000      8.0517      2.7202      0.1149     -4.2563     28.9914     97.9762
  1139.9000      8.0517      2.7623      0.1909     -6.8081     30.6344     94.6566
  1140.0000      8.0399      2.7884      0.1548     -8.3851     31.7221     87.4836
  1140.1000      8.0399      2.8011      0.1466     -9.1598     32.2335     79.0204
  1140.2000      8.0399      2.8081      0.1342     -9.5807     32.6369     74.3495
  1140.3000      8.0397      2.8054      0.1227     -9.4186     33.1202     77.1366
  1140.4000      8.0397      2.7865      0.0554     -8.2722     33.3711     85.5700
  1140.5000      8.0470      2.7535      0.0578     -6.2720     33.2575     92.5592
  1140.6000      8.0470      2.7164      0.0196     -4.0226     32.9034     92.9202
  1140.7000      8.0470      2.6824      0.0520     -1.9664     32.4133     90.2158
  1140.8000      8.0558      2.6458      0.0524      0.2529     31.6511     91.9400
  1140.9000      8.0558      2.6084      0.0148      2.5203     30.6134     97.8317
  1141.0000      8.0588      2.5884      0.0111      3.7323     29.7872    101.4408
  1141.1000      8.0588      2.5904      0.0031      3.6093     29.3265    100.9585
  1141.2000      8.0588      2.5904      0.0728      3.6121     28.8950    102.2473
  1141.3000      8.0616      2.5692     -0.0012      4.8961     28.5847    107.9327
  1141.4000      8.0616      2.5436      0.0137      6.4492     28.4709    111.9429
  1141.5000      8.0774      2.5298      0.0427      7.2859     28.2962    111.1280
  1141.6000      8.0774      2.5216      0.0399      7.7792     28.0784    110.4852
  1141.7000      8.0774      2.5175     -0.0278      8.0304     27.8876    113.6055
  1141.8000      8.1131      2.5200      0.0360      7.8803     27.5943    118.8224
  1141.9000      8.1131      2.5203      0.0307      7.8622     27.1982    123.5463
  1142.0000      8.1578      2.5133      0.0132      8.2828     27.0036    128.1944
  1142.1000      8.1578      2.4975      0.0514      9.2411     26.9789    131.7678
  1142.2000      8.1578      2.4654      0.0169     11.1909     26.4777    129.7677
  1142.3000      8.1953      2.4148      0.0230     14.2518     25.1847    125.4671
  1142.4000      8.1953      2.3522     -0.0111     18.0468     23.4709    123.9133
  1142.5000      8.2215      2.2898     -0.0297     21.8305     21.5863    122.4734
  1142.6000      8.2215      2.2365     -0.0248     25.0596     19.5113    118.0745
  1142.7000      8.2215      2.1784      0.0217     28.5841     17.4021    110.3091
  1142.8000      8.2518      2.0883      0.0399     34.0424     15.6118    102.5964
  1142.9000      8.2518      1.9707     -0.0240     41.1709     14.1738    101.4832
  1143.0000      8.2986      1.8620     -0.0453     47.7570     12.7634    108.2834
  1143.1000      8.2986      1.7845     -0.0235     52.4552     11.3886    115.2474
  1143.2000      8.2986      1.7418     -0.0431     55.0431     10.2786    116.1237
  1143.3000      8.3389      1.7385      0.0140     55.2402      9.5652    112.7776
  1143.4000      8.3389      1.7716      0.0717     53.2353      9.3296    107.5518
  1143.5000      8.3166      1.8309      0.1115     49.6454      9.4964    103.3298
  1143.6000      8.3166      1.9065      0.1882     45.0607      9.8926    105.4203
  1143.7000      8.3166      1.9874      0.2930     40.1596     10.5526    114.3209
