~Version Information
VERS.                      2.0: CWLS Log ASCII Standard - VERSION 2.0
WRAP.                       NO: One line per depth step
~Well Information Block
STRT.FT               806.0000: 
STOP.FT              1814.0000: 
STEP.FT                 0.2500: 
NULL.                -999.2500: 
COMP.          Pioneer Natural Resources: COMPANY
WELL.            Hill 33-22 Tr: WELL
FLD.           Purgatoire River: FIELD
LOC.           1573' FSL & 1585' FEL: LOCATION
PROV.                 Colorado: PROVINCE
CNTY.               Las Animas: COUNTRY
SRVC.                Patterson: SERVICE COMPANY
DATE.          Thu Apr 14 09:13:17 2005: LOG DATE
UWI.           05 071 08316 00: UNIQUE WELL ID
~Curve Information Block
DEPT.FT            0 000 00 00: Depth
SN.Ohm-m                      : IEL Short Normal
SP.mV                         : IEL Spontaneous Potential
DIR.Ohm-m                     : IEL Induction Resistivity
GR.GAPI                       : Gamma Ray
~Parameter Information Block
~A  Depth        SN          SP         DIR          GR     
# ...
   873.0000   2000.0000   2000.0000     21.9717    130.4685
   873.2500   2000.0000   2000.0000     22.9524    127.9355
   873.5000   2000.0000   2000.0000     23.9992    120.5005
   873.7500   2000.0000   2000.0000     25.1703    113.8667
   874.0000   2000.0000   2000.0000     26.5233    104.1797
   874.2500   2000.0000   2000.0000     28.0592     99.7160
   874.5000   2000.0000   2000.0000     29.7162     97.5327
   874.7500   2000.0000   2000.0000     31.4282     98.4644
   875.0000   2000.0000   2000.0000     33.2092    100.6771
   875.2500   2000.0000   2000.0000     35.1880    101.2001
   875.5000   2000.0000   2000.0000     37.5523     99.5479
   875.7500   2000.0000   2000.0000     40.4405     97.0379
   876.0000   2000.0000   2000.0000     43.8392     91.9502
   876.2500   2000.0000   2000.0000     47.5314     88.0183
   876.5000   2000.0000   2000.0000     51.1401     81.7158
   876.7500   2000.0000   2000.0000     54.2880     77.5405
   877.0000   2000.0000   2000.0000     56.7813     72.0231
   877.2500   2000.0000   2000.0000     58.6700     69.1971
   877.5000   2000.0000   2000.0000     60.1472     66.3377
   877.7500   2000.0000   2000.0000     61.3748     65.1458
   878.0000   2000.0000   2000.0000     62.3652     64.1978
   878.2500   2000.0000   2000.0000     63.0059     64.1879
   878.5000   2000.0000   2000.0000     63.2158     65.0809
   878.7500   2000.0000   2000.0000     63.1113     66.0047
   879.0000   2000.0000   2000.0000     63.0142     67.3387
   879.2500   2000.0000   2000.0000     63.2977     68.0547
   879.5000   2000.0000   2000.0000     64.2110     68.7315
   879.7500   2000.0000   2000.0000     65.7696     68.6871
   880.0000   2000.0000   2000.0000     67.7074     67.2905
   880.2500   2000.0000   2000.0000     69.4785     65.2889
   880.5000   2000.0000   2000.0000     70.3677     61.1757
   880.7500   2000.0000   2000.0000     69.7567     58.5459
   881.0000   2000.0000   2000.0000     67.4511     56.5626
   881.2500   2000.0000   2000.0000     63.8176     57.1434
   881.5000   2000.0000   2000.0000     59.5672     60.4017
   881.7500   2000.0000   2000.0000     55.3432     63.3180
   882.0000   2000.0000   2000.0000     51.4676     67.6113
   882.2500   2000.0000   2000.0000     47.9729     70.2782
   882.5000   2000.0000   2000.0000     44.7774     74.4363
   882.7500   2000.0000   2000.0000     41.8257     77.6754
   883.0000   2000.0000   2000.0000     39.1235     83.8698
   883.2500   2000.0000   2000.0000     36.6996     89.2221
   883.5000   2000.0000   2000.0000     34.5689     99.0583
   883.7500   2000.0000   2000.0000     32.7195    106.1883
   884.0000   2000.0000   2000.0000     31.1127    115.9032
   884.2500   2000.0000   2000.0000     29.6898    120.7295
   884.5000   2000.0000   2000.0000     28.3845    124.7292
   884.7500   2000.0000   2000.0000     27.1451    125.4393
   885.0000   2000.0000   2000.0000     25.9526    124.6818
   885.2500   2000.0000   2000.0000     24.8251    123.7852
   885.5000   2000.0000   2000.0000     23.7996    122.9088
   885.7500   2000.0000   2000.0000     22.9048    122.6954
   886.0000   2000.0000   2000.0000     22.1421    122.1520
   886.2500   2000.0000   2000.0000     21.4856    121.2017
   886.5000   2000.0000   2000.0000     20.9005    119.1900
   886.7500   2000.0000   2000.0000     20.3672    118.3492
   887.0000   2000.0000   2000.0000     19.8938    119.7956
   887.2500   2000.0000   2000.0000     19.5069    123.1756
   887.5000   2000.0000   2000.0000     19.2292    131.0335
   887.7500   2000.0000   2000.0000     19.0603    136.8222
   888.0000   2000.0000   2000.0000     18.9758    144.2342
   888.2500   2000.0000   2000.0000     18.9422    147.7224
   888.5000   2000.0000   2000.0000     18.9350    150.4835
   888.7500   2000.0000   2000.0000     18.9447    150.5912
   889.0000   2000.0000   2000.0000     18.9651    148.2588
   889.2500   2000.0000   2000.0000     18.9840    145.4980
   889.5000   2000.0000   2000.0000     18.9857    140.7249
   889.7500   2000.0000   2000.0000     18.9652    137.5446
   890.0000   2000.0000   2000.0000     18.9342    132.6328
   890.2500   2000.0000   2000.0000     18.9124    128.9320
   890.5000   2000.0000   2000.0000     18.9086    122.5666
   890.7500   2000.0000   2000.0000     18.9139    118.2219
   891.0000   2000.0000   2000.0000     18.9109    113.2007
   891.2500   2000.0000   2000.0000     18.8958    111.8726
   891.5000   2000.0000   2000.0000     18.8942    113.6470
   891.7500   2000.0000   2000.0000     18.9577    116.9600
   892.0000   2000.0000   2000.0000     19.1355    123.8020
   892.2500   2000.0000   2000.0000     19.4355    129.0024
   892.5000   2000.0000   2000.0000     19.8021    137.1894
   892.7500   2000.0000   2000.0000     20.1366    142.4520
   893.0000   2000.0000   2000.0000     20.3620    148.4774
   893.2500   2000.0000   2000.0000     20.4735    150.0761
   893.5000   2000.0000   2000.0000     20.5235    147.5659
   893.7500   2000.0000   2000.0000     20.5602    142.8069
   894.0000   2000.0000   2000.0000     20.5899    132.9905
   894.2500   2000.0000   2000.0000     20.5899    126.2898
   894.5000   2000.0000   2000.0000     20.5450    118.4974
   894.7500   2000.0000   2000.0000     20.4694    115.6323
   895.0000   2000.0000   2000.0000     20.3983    114.9126
   895.2500   2000.0000   2000.0000     20.3597    116.2018
   895.5000   2000.0000   2000.0000     20.3469    119.0163
   895.7500   2000.0000   2000.0000     20.3090    120.4289
   896.0000   2000.0000   2000.0000     20.1707    121.1013
   896.2500   2000.0000   2000.0000     19.8727    121.0668
   896.5000   2000.0000   2000.0000     19.4037    121.9045
   896.7500   2000.0000   2000.0000     18.8021    123.6818
   897.0000   2000.0000   2000.0000     18.1341    128.1052
   897.2500   2000.0000   2000.0000     17.4700    131.8097
   897.5000   2000.0000   2000.0000     16.8672    137.9208
   897.7500   2000.0000   2000.0000     16.3558    142.1857
   898.0000   2000.0000   2000.0000     15.9303    148.3463
   898.2500   2000.0000   2000.0000     15.5525    151.7181
   898.5000   2000.0000   2000.0000     15.1694    154.9140
   898.7500   2000.0000   2000.0000     14.7391    156.0161
   899.0000   2000.0000   2000.0000     14.2500    157.3084
   899.2500   2000.0000   2000.0000     13.7216    158.3147
   899.5000   2000.0000   2000.0000     13.1910    159.5771
   899.7500   2000.0000   2000.0000     12.6958    159.9118
   900.0000   2000.0000   2000.0000     12.2623    160.0149
   900.2500   2000.0000   2000.0000     11.9011    160.3773
   900.5000   2000.0000   2000.0000     11.6063    161.6844
   900.7500   2000.0000   2000.0000     11.3589    162.6499
   901.0000   2000.0000   2000.0000     11.1357    163.3715
   901.2500   2000.0000   2000.0000     10.9185    163.3703
   901.5000   2000.0000   2000.0000     10.6992    163.4624
   901.7500   2000.0000   2000.0000     10.4768    163.9252
   902.0000   2000.0000   2000.0000     10.2525    164.8452
   902.2500   2000.0000   2000.0000     10.0256    165.1205
   902.5000   2000.0000   2000.0000      9.7953    164.7161
   902.7500   2000.0000   2000.0000      9.5630    164.1965
   903.0000   2000.0000   2000.0000      9.3350    163.8108
   903.2500   2000.0000   2000.0000      9.1209    163.9709
   903.5000   2000.0000   2000.0000      8.9318    164.2769
   903.7500   2000.0000   2000.0000      8.7756    163.9745
   904.0000   2000.0000   2000.0000      8.6548    162.3674
   904.2500   2000.0000   2000.0000      8.5672    160.8839
   904.5000   2000.0000   2000.0000      8.5088    159.2773
   904.7500   2000.0000   2000.0000      8.4769    159.1344
   905.0000   2000.0000   2000.0000      8.4706    159.9897
   905.2500   2000.0000   2000.0000      8.4901    160.5368
   905.5000   2000.0000   2000.0000      8.5354    160.3931
   905.7500   2000.0000   2000.0000      8.6058    159.7113
   906.0000   2000.0000   2000.0000      8.7003    158.2953
   906.2500   2000.0000   2000.0000      8.8165    157.1341
