~Version Information
VERS.                      2.0: CWLS Log ASCII Standard - VERSION 2.0
WRAP.                       NO: One line per depth step
~Well Information Block
STRT.FT               360.0000: 
STOP.FT              2515.2000: 
STEP.FT                 0.1000: 
NULL.                -999.2500: 
COMP.          Pioneer Natural Resources: COMPANY
WELL.            Rancher 12-35: WELL
FLD.           Purgatoire River: FIELD
LOC.           2131' FNL & 297' FWL: LOCATION
PROV.                 Colorado: PROVINCE
CNTY.               Las Animas: COUNTRY
SRVC.                Patterson: SERVICE COMPANY
DATE.          Tue Oct 12 09:11:02 2004: LOG DATE
UWI.           05 071 08179 00: UNIQUE WELL ID
~Curve Information Block
DEPT.FT            0 000 00 00: Depth
DCAL.in                       : CDL Caliper
RHOB.g/cc                     : CDL Bulk Density
RHOC.g/cc                     : CDL Density Correction
DPOR.pu                       : CDL Density Porosity
NPOR.pu                       : Neutron Porosity
GR.GAPI                       : Gamma Ray
~Parameter Information Block
~A  Depth       DCAL        RHOB        RHOC        DPOR        NPOR         GR     
   360.0000      8.4704      2.3951     -0.1421     15.4493     48.5404     81.8835
   360.1000      8.4704      2.3659     -0.1939     17.2155     47.9995     87.1424
   360.2000      8.4704      2.3504     -0.1563     18.1576     47.0486     90.5048
   360.3000      8.4725      2.3557     -0.1845     17.8358     46.4595     89.3244
   360.4000      8.4725      2.3695     -0.1479     16.9999     46.3860     84.9094
   360.5000      8.4729      2.3758     -0.1949     16.6187     46.4346     80.3755
   360.6000      8.4729      2.3767     -0.2224     16.5654     46.5370     75.8524
   360.7000      8.4729      2.3766     -0.1460     16.5696     47.0150     72.6450
   360.8000      8.4743      2.3737     -0.1726     16.7447     47.6770     74.6846
   360.9000      8.4743      2.3712     -0.1385     16.8984     47.9548     80.5024
   361.0000      8.4766      2.3728     -0.2042     16.7984     47.6467     84.9670
   361.1000      8.4766      2.3802     -0.1693     16.3508     46.9682     85.3412
   361.2000      8.4766      2.3864     -0.1607     15.9768     46.4522     82.9816
   361.3000      8.4773      2.3835     -0.1734     16.1498     46.3991     80.4091
   361.4000      8.4773      2.3709     -0.1539     16.9130     46.6817     78.1487
   361.5000      8.4770      2.3566     -0.1472     17.7833     47.0169     75.3380
   361.6000      8.4770      2.3535     -0.2042     17.9709     47.0799     72.1094
   361.7000      8.4770      2.3627     -0.1383     17.4142     46.7609     71.0661
   361.8000      8.4750      2.3703     -0.1979     16.9543     46.1522     73.1499
   361.9000      8.4750      2.3685     -0.1489     17.0616     45.6220     76.2693
   362.0000      8.4759      2.3621     -0.2107     17.4461     45.7193     77.9697
   362.1000      8.4759      2.3613     -0.1957     17.4946     46.3003     79.2981
   362.2000      8.4759      2.3664     -0.1596     17.1876     46.6463     83.1644
   362.3000      8.4786      2.3730     -0.1879     16.7855     46.4143     86.6579
   362.4000      8.4786      2.3830     -0.2075     16.1844     46.0802     83.9241
   362.5000      8.4730      2.3911     -0.1631     15.6890     46.1249     76.7463
   362.6000      8.4730      2.3899     -0.1680     15.7664     46.1841     71.4818
   362.7000      8.4730      2.3884     -0.2238     15.8530     46.0012     70.5194
   362.8000      8.4657      2.3944     -0.1390     15.4914     45.8246     71.1352
   362.9000      8.4657      2.3971     -0.1812     15.3280     45.6808     71.2244
   363.0000      8.4722      2.3907     -0.1610     15.7180     45.4210     71.2794
   363.1000      8.4722      2.3772     -0.1798     16.5307     45.3419     70.1380
   363.2000      8.4722      2.3646     -0.2215     17.2998     45.6766     67.4206
   363.3000      8.4804      2.3668     -0.2272     17.1655     46.1966     65.6744
   363.4000      8.4804      2.3824     -0.1486     16.2180     46.6733     66.8970
   363.5000      8.4832      2.3858     -0.1757     16.0093     46.7895     69.1673
   363.6000      8.4832      2.3601     -0.1887     17.5718     46.5493     70.6371
   363.7000      8.4832      2.3281     -0.2820     19.5079     46.4764     72.9875
   363.8000      8.4839      2.3260     -0.2193     19.6340     46.6673     77.6438
   363.9000      8.4839      2.3568     -0.2299     17.7710     46.8038     82.1598
   364.0000      8.4818      2.3986     -0.1831     15.2349     46.8017     82.8686
   364.1000      8.4818      2.4176     -0.1240     14.0843     46.7774     79.9034
   364.2000      8.4818      2.4006     -0.2280     15.1143     46.8867     75.5680
   364.3000      8.4793      2.3807     -0.2213     16.3239     47.0175     73.1805
   364.4000      8.4793      2.3755     -0.1775     16.6343     46.9256     75.3738
   364.5000      8.4784      2.3698     -0.1813     16.9817     46.7877     80.0611
   364.6000      8.4784      2.3633     -0.2085     17.3751     46.8594     83.2839
   364.7000      8.4784      2.3682     -0.1689     17.0814     47.0778     84.8833
   364.8000      8.4784      2.3780     -0.1777     16.4837     47.0185     84.9851
   364.9000      8.4784      2.3777     -0.1624     16.5052     46.5281     82.4827
   365.0000      8.4795      2.3667     -0.2001     17.1717     46.1299     79.3909
   365.1000      8.4795      2.3598     -0.1800     17.5884     46.1978     79.4365
   365.2000      8.4795      2.3673     -0.1879     17.1312     46.3227     83.2692
   365.3000      8.4809      2.3815     -0.1856     16.2699     46.2598     87.1253
   365.4000      8.4809      2.3812     -0.1651     16.2895     46.4545     87.7311
   365.5000      8.4821      2.3605     -0.2031     17.5431     46.8977     87.9834
   365.6000      8.4821      2.3385     -0.2304     18.8780     46.9730     90.0030
   365.7000      8.4821      2.3330     -0.2225     19.2128     46.6447     89.6139
   365.8000      8.4816      2.3443     -0.2244     18.5261     46.3415     85.9154
   365.9000      8.4816      2.3564     -0.1849     17.7926     46.2713     83.7280
   366.0000      8.4807      2.3541     -0.2159     17.9340     46.4429     83.8903
   366.1000      8.4807      2.3411     -0.2263     18.7211     46.7847     83.2448
   366.2000      8.4807      2.3277     -0.2116     19.5310     47.1270     82.1238
   366.3000      8.4821      2.3237     -0.2099     19.7764     47.3633     83.3142
   366.4000      8.4821      2.3351     -0.2256     19.0861     47.5236     87.2522
   366.5000      8.4861      2.3474     -0.1650     18.3419     47.6375     91.9032
   366.6000      8.4861      2.3442     -0.2099     18.5309     47.6532     94.2683
   366.7000      8.4861      2.3396     -0.2527     18.8124     47.3648     92.4797
   366.8000      8.4871      2.3435     -0.1767     18.5744     46.7999     86.8242
   366.9000      8.4871      2.3467     -0.2274     18.3823     46.5661     79.4066
   367.0000      8.4835      2.3537     -0.2411     17.9592     47.0735     74.2531
   367.1000      8.4835      2.3711     -0.2420     16.9032     47.6218     73.2850
   367.2000      8.4835      2.3887     -0.2113     15.8339     47.3433     74.5782
   367.3000      8.4808      2.3923     -0.1575     15.6172     46.6624     75.4095
   367.4000      8.4808      2.3860     -0.2405     16.0003     46.4131     74.6804
   367.5000      8.4801      2.3937     -0.2300     15.5346     46.4333     73.9875
   367.6000      8.4801      2.4193     -0.1846     13.9812     46.2065     74.8252
   367.7000      8.4801      2.4443     -0.1881     12.4688     45.9092     76.3790
   367.8000      8.4803      2.4542     -0.1559     11.8668     46.0200     76.1197
   367.9000      8.4803      2.4433     -0.2017     12.5290     46.5262     73.7908
   368.0000      8.4808      2.4199     -0.2379     13.9459     46.9789     72.5389
   368.1000      8.4808      2.3981     -0.1937     15.2676     46.9920     75.0702
   368.2000      8.4808      2.3894     -0.2416     15.7916     46.6500     79.8517
   368.3000      8.4825      2.4002     -0.2000     15.1408     46.4269     82.6438
   368.4000      8.4825      2.4229     -0.1711     13.7656     46.5939     82.0599
   368.5000      8.4851      2.4443     -0.2109     12.4694     47.0554     80.4933
   368.6000      8.4851      2.4520     -0.1702     12.0010     47.6613     81.4760
   368.7000      8.4851      2.4489     -0.2382     12.1904     48.0672     86.4029
   368.8000      8.4859      2.4465     -0.1507     12.3312     47.9325     92.0837
   368.9000      8.4859      2.4406     -0.1757     12.6903     47.5384     93.8078
   369.0000      8.4842      2.4282     -0.1531     13.4439     47.3301     89.9039
   369.1000      8.4842      2.4201     -0.2071     13.9311     47.3882     83.0409
   369.2000      8.4842      2.4270     -0.1964     13.5149     47.6739     77.0771
   369.3000      8.4801      2.4388     -0.1510     12.7971     47.8395     74.7276
   369.4000      8.4801      2.4423     -0.1887     12.5863     47.5488     76.4987
   369.5000      8.4748      2.4460     -0.1868     12.3627     47.0019     81.7976
