~Version Information
VERS.                      2.0: CWLS Log ASCII Standard - VERSION 2.0
WRAP.                       NO: One line per depth step
~Well Information Block
STRT.FT               -11.7500: 
STOP.FT              2025.5000: 
STEP.FT                 0.2500: 
NULL.                -999.2500: 
COMP.          Evergreen Operating Corp.: COMPANY
WELL.            Sumatra 34-22: WELL
FLD.           Purgatorie River: FIELD
LOC.           542 FSL & 2438 FEL--: LOCATION
PROV.                       CO: PROVINCE
CNTY.               Las Animas: COUNTRY
SRVC.          Patterson Wireline, Inc.: SERVICE COMPANY
DATE.          Wed Apr 02 10:17:21 2003: LOG DATE
UWI.           05 071 07804 00: UNIQUE WELL ID
~Curve Information Block
DEPT.FT            0 000 00 00: Depth
CCL.                          : Casing Collar Locator
TT3.usec                      : CBL 3' Travel Time
AMP3.mV                       : CBL 3' Amplitude
GR.GAPI                       : Gamma Ray
~Parameter Information Block
~A  Depth       CCL         TT3         AMP3         GR     
   -11.7500   -999.2500   -999.2500   -999.2500   -999.2500
   -11.5000   -999.2500   -999.2500   -999.2500    109.0988
   -11.2500   -999.2500   -999.2500   -999.2500    110.9436
   -11.0000   -999.2500   -999.2500   -999.2500    111.6492
   -10.7500   -999.2500   -999.2500   -999.2500    111.7919
   -10.5000   -999.2500   -999.2500   -999.2500    111.7071
   -10.2500   -999.2500   -999.2500   -999.2500    111.0381
   -10.0000   -999.2500   -999.2500   -999.2500    109.6289
    -9.7500   -999.2500   -999.2500   -999.2500    108.1725
    -9.5000   -999.2500   -999.2500   -999.2500    107.6087
    -9.2500   -999.2500   -999.2500   -999.2500    108.2766
    -9.0000   -999.2500   -999.2500   -999.2500    109.8004
    -8.7500   -999.2500   -999.2500   -999.2500    111.4011
    -8.5000   -999.2500   -999.2500   -999.2500    112.2021
    -8.2500   -999.2500   -999.2500   -999.2500    111.6069
    -8.0000   -999.2500   -999.2500   -999.2500    109.7634
    -7.7500   -999.2500   -999.2500   -999.2500    107.6694
    -7.5000   -999.2500   -999.2500   -999.2500    106.5076
    -7.2500   -999.2500   -999.2500   -999.2500    106.6321
    -7.0000   -999.2500   -999.2500   -999.2500    107.3419
    -6.7500   -999.2500   1402.1182      0.4980    107.9013
    -6.5000   -999.2500   1402.2218      0.5278    108.5404
    -6.2500   -999.2500   1402.3032      0.5005    110.1040
    -6.0000   -999.2500   1402.3302      0.4246    112.8537
    -5.7500   -999.2500   1402.3595      0.3497    115.9458
    -5.5000   -999.2500   1402.4192      0.3137    118.0085
    -5.2500   -999.2500   1402.4707      0.3169    118.1544
    -5.0000   -999.2500   1402.4934      0.3491    116.6371
    -4.7500   -999.2500   1402.4982      0.4019    114.5874
    -4.5000   -999.2500   1402.4934      0.4513    112.9729
    -4.2500   -999.2500   1402.4707      0.4708    111.9954
    -4.0000   -999.2500   1402.4189      0.4643    111.6159
    -3.7500   -999.2500   1402.3595      0.4523    112.0269
    -3.5000   -999.2500   1402.3300      0.4288    113.1557
    -3.2500   -999.2500   1402.3032      0.3818    114.3178
    -3.0000   -999.2500   1402.2208      0.3445    114.8977
    -2.7500   -999.2500   1402.1115      0.3536    114.9074
    -2.5000   -999.2500   1402.0438      0.3924    114.4080
    -2.2500   -999.2500   1402.0437      0.4219    112.9906
    -2.0000   -999.2500   1402.1106      0.4289    110.4397
    -1.7500   -999.2500   1402.2142      0.4225    107.5150
    -1.5000   -999.2500   1402.2738      0.4159    105.4187
    -1.2500   -999.2500   1402.2493      0.4210    104.6262
    -1.0000      0.0000   1402.2198      0.4398    104.7005
    -0.7500      0.0000   1402.2567      0.4642    105.1795
    -0.5000      0.0000   1402.3097      0.4809    106.1274
    -0.2500      0.0000   1402.3236      0.4691    107.6804
     0.0000      0.0000   1402.3098      0.4060    111.3530
     0.2500      0.0000   1402.2567      0.4182    112.9959
     0.5000      0.0000   1402.2198      0.4310    114.3194
     0.7500      0.0000   1402.2502      0.4103    114.7127
     1.0000      0.0000   1402.2815      0.3779    113.6889
     1.2500      0.0000   1402.2511      0.3823    111.6107
     1.5000      0.0000   1402.2264      0.4262    109.3555
     1.7500      0.0000   1402.2863      0.4595    107.4274
     2.0000      0.0000   1402.3907      0.4506    105.8498
     2.2500      0.0000   1402.4631      0.4211    104.6778
     2.5000      0.0000   1402.4849      0.4130    104.0648
     2.7500      0.0000   1402.4631      0.4432    104.0437
     3.0000      0.0000   1402.3907      0.4830    104.5756
     3.2500      0.0000   1402.2871      0.4914    105.4043
     3.5000      0.0000   1402.2340      0.4632    105.5224
     3.7500      0.0000   1402.2861      0.4199    103.2155
     4.0000     -5.0000   1402.3831      0.3807     97.1639
     4.2500      5.0000   1402.4271      0.3618     87.5463
     4.5000     -5.0000   1402.3755      0.3635     75.9804
     4.7500      5.0000   1402.2502      0.3642     64.3431
     5.0000      5.0000   1402.1256      0.3587     53.6812
     5.2500     -3.4888   1402.0808      0.3745     44.3694
     5.5000     -3.5065   1402.1532      0.4214     37.0949
     5.7500      0.0000   1402.3245      0.4709     33.1160
     6.0000      1.5228   1402.4867      0.5079     33.4420
     6.2500      0.0000   1402.5151      0.5413     37.9844
     6.5000      0.0000   1402.4318      0.5587     45.4600
     6.7500      0.0000   1402.3584      0.5342     53.9203
     7.0000      0.0000   1402.3098      0.4742     61.4251
     7.2500      0.0000   1402.2217      0.4151     66.5829
     7.5000      0.0000   1402.1105      0.3834     68.8158
     7.7500      0.0000   1402.0363      0.3850     68.2904
     8.0000      0.0000   1402.0088      0.4119     65.7528
     8.2500      0.0000   1402.0088      0.4456     62.5535
     8.5000      0.0000   1402.0361      0.4760     60.5605
     8.7500      0.0000   1402.1096      0.5094     61.3201
     9.0000      0.0000   1402.2142      0.5500     64.8970
     9.2500      0.0000   1402.2748      0.5888     69.8378
     9.5000      0.0000   1402.2567      0.6194     74.4661
     9.7500      0.0000   1402.2548      0.6395     77.9496
    10.0000      0.0000   1402.3586      0.6332     80.2461
    10.2500      0.0000   1402.4878      0.5784     81.6766
    10.5000      0.0000   1402.4877      0.4848     82.7647
    10.7500      0.0000   1402.3584      0.3991     83.9692
    11.0000      0.0000   1402.2549      0.3601     85.2468
    11.2500      0.0000   1402.2578      0.3649     85.9955
    11.5000      0.0000   1402.2833      0.3834     85.5426
    11.7500      0.0000   1402.2578      0.3953     83.6993
    12.0000      0.0000   1402.2559      0.4036     81.0480
    12.2500      0.0000   1402.3661      0.4101     78.7479
    12.5000      0.0000   1402.5227      0.3974     77.6771
    12.7500      0.0000   1402.5896      0.3556     77.6266
    13.0000      0.0000   1402.5364      0.3085     77.7609
    13.2500      0.0000   1402.4191      0.2950     77.7766
    13.5000      0.0000   1402.2927      0.3227     77.9273
    13.7500      0.0000   1402.2274      0.3704     78.1526
    14.0000      0.0000   1402.2512      0.4314     78.0265
    14.2500      0.0000   1402.2823      0.5016     77.4532
    14.5000      0.0000   1402.2577      0.5473     76.7063
    14.7500      0.0000   1402.2548      0.5480     75.9034
    15.0000      0.0000   1402.3585      0.5235     75.1381
    15.2500      0.0000   1402.4868      0.4870     75.0943
    15.5000      0.0000   1402.4812      0.4364     76.8228
    15.7500      0.0000   1402.3301      0.3948     80.6990
    16.0000      0.0000   1402.1825      0.3917     85.9624
    16.2500      0.0000   1402.0588      0.4164     91.3821
    16.5000      0.0000   1400.9816      0.4776     96.1147
    16.7500      0.0000   1392.4242      0.8526     99.9705
    17.0000      0.0000   1351.3683      2.6055    103.1679
    17.2500      0.0000   1226.4510      7.9178    106.0423
    17.5000      0.0000    983.1221     18.4297    108.8933
    17.7500      0.0000    679.2873     32.0436    111.7738
    18.0000      0.0000    436.0718     43.6733    114.2667
    18.2500      0.0000    311.2785     50.3612    115.8432
    18.5000      0.0000    270.2193     53.0642    116.7557
    18.7500      0.0000    261.4891     53.8809    118.1212
    19.0000      0.0000    260.2111     54.1166    120.5443
    19.2500      0.0000    260.0349     54.3784    123.0803
    19.5000      0.0000    259.9990     54.8577    124.1556
    19.7500      0.0000    259.9574     55.4296    123.2125
    20.0000      0.0000    259.8547     55.9083    121.0274
    20.2500      0.0000    259.6777     56.2641    118.6580
    20.5000      0.0000    259.5210     56.5914    116.2634
    20.7500      0.0000    259.5200     56.9420    112.9126
    21.0000      0.0000    259.6701     57.2693    107.6765
    21.2500      0.0000    259.8186     57.5419    101.0072
    21.5000      0.0000    259.8470     57.7940     94.7622
