~Version Information
VERS.                      2.0: CWLS Log ASCII Standard - VERSION 2.0
WRAP.                       NO: One line per depth step
~Well Information Block
STRT.FT               350.0000: 
STOP.FT              2264.0000: 
STEP.FT                 0.1000: 
NULL.                -999.2500: 
COMP.          Pioneer Natural Resources: COMPANY
WELL.             Warrior 32-1: WELL
FLD.           Purgatoire River: FIELD
LOC.           2624' FNL & 2392' FEL: LOCATION
PROV.                 Colorado: PROVINCE
CNTY.               Las Animas: COUNTRY
SRVC.                Patterson: SERVICE COMPANY
DATE.          Tue Oct 05 06:54:20 2004: LOG DATE
UWI.           05 071 08176 00: UNIQUE WELL ID
~Curve Information Block
DEPT.FT            0 000 00 00: Depth
DCAL.in                       : CDL Caliper
RHOB.g/cc                     : CDL Bulk Density
RHOC.g/cc                     : CDL Density Correction
DPOR.pu                       : CDL Density Porosity
NPOR.pu                       : Neutron Porosity
GR.GAPI                       : Gamma Ray
~Parameter Information Block
~A  Depth       DCAL        RHOB        RHOC        DPOR        NPOR         GR     
# ...
  1108.4000      9.3392      2.2670      0.0308     23.2111     21.6160    122.6464
  1108.5000      8.5173      2.1779      0.0017     28.6127     20.4576    125.5621
  1108.6000      8.5173      2.0701     -0.0452     35.1443     19.5338    126.5815
  1108.7000      8.5173      1.9580     -0.1189     41.9415     19.7533    126.0146
  1108.8000      8.2696      1.8755     -0.1052     46.9407     20.4716    127.0678
  1108.9000      8.2696      1.8396     -0.0371     49.1174     20.1157    130.4020
  1109.0000      8.2284      1.8585     -0.0774     47.9673     18.7588    133.4210
  1109.1000      8.2284      1.9572     -0.0079     41.9854     17.6865    134.2159
  1109.2000      8.2284      2.1388      0.2481     30.9826     17.8397    133.0208
  1109.3000      8.2235      2.3428      0.5555     18.6204     19.1067    131.2185
  1109.4000      8.2235      2.4915      0.6396      9.6071     19.8776    129.2627
  1109.5000      8.2237      2.5634      0.6190      5.2505     19.0335    129.0152
  1109.6000      8.2237      2.5917      0.4629      3.5354     16.7024    130.5559
  1109.7000      8.2237      2.6142      0.3769      2.1719     14.6641    131.3435
  1109.8000      8.2248      2.6299      0.3145      1.2169     15.1882    133.2412
  1109.9000      8.2248      2.6119      0.2544      2.3118     17.1233    137.7691
  1110.0000      8.2253      2.5580      0.1537      5.5728     18.2915    139.0367
  1110.1000      8.2253      2.5008      0.0763      9.0430     19.2270    133.0693
  1110.2000      8.2253      2.4612      0.1112     11.4431     20.2836    125.4527
  1110.3000      8.2246      2.4340      0.0716     13.0924     20.4806    122.8135
  1110.4000      8.2246      2.4154      0.0705     14.2185     20.1108    124.5739
  1110.5000      8.2238      2.4059      0.0686     14.7960     19.9352    124.3133
  1110.6000      8.2238      2.4005      0.0529     15.1224     20.2080    117.2817
  1110.7000      8.2238      2.3929      0.0081     15.5844     21.0614    109.3966
  1110.8000      8.2251      2.3858      0.0080     16.0115     21.8602    109.6421
  1110.9000      8.2251      2.3929      0.0329     15.5794     22.3081    116.8668
  1111.0000      8.2288      2.4250      0.0326     13.6343     22.4095    123.4825
  1111.1000      8.2288      2.4717      0.0940     10.8045     21.8641    123.3986
  1111.2000      8.2288      2.4982      0.1222      9.2007     21.2298    115.1241
  1111.3000      8.2308      2.4908      0.0515      9.6456     21.1726    107.2444
  1111.4000      8.2308      2.4832      0.0696     10.1081     21.2198    107.7446
  1111.5000      8.2277      2.5016      0.0776      8.9930     20.6119    113.7696
  1111.6000      8.2277      2.5265      0.1602      7.4823     19.4820    119.6197
  1111.7000      8.2277      2.5310      0.1199      7.2114     18.7490    122.8970
  1111.8000      8.2253      2.5260      0.0619      7.5140     18.1409    122.9144
  1111.9000      8.2253      2.5265      0.0928      7.4877     17.1122    121.5905
  1112.0000      8.2264      2.5242      0.0418      7.6213     16.6233    120.4817
  1112.1000      8.2264      2.5203      0.0505      7.8618     16.6916    118.7193
  1112.2000      8.2264      2.5255      0.0368      7.5454     16.3521    118.3437
  1112.3000      8.2270      2.5417      0.0298      6.5640     16.2918    121.8820
  1112.4000      8.2270      2.5576      0.0431      5.6000     16.6876    124.4547
  1112.5000      8.2275      2.5632      0.0370      5.2616     16.2559    118.1301
  1112.6000      8.2275      2.5611      0.0327      5.3886     14.5282    102.5950
  1112.7000      8.2275      2.5551      0.0295      5.7542     12.4248     89.7878
  1112.8000      8.2282      2.5464      0.0131      6.2762     11.2819     89.6950
  1112.9000      8.2282      2.5464     -0.0034      6.2779     11.7201     96.8573
  1113.0000      8.2280      2.5623      0.0393      5.3178     13.1603     98.9777
  1113.1000      8.2280      2.5768      0.0703      4.4375     13.7699     93.0190
  1113.2000      8.2280      2.5725      0.0327      4.6954     12.0307     84.1134
  1113.3000      8.2269      2.5589      0.0269      5.5237      8.7869     76.1444
  1113.4000      8.2269      2.5490      0.0118      6.1212      6.3866     70.5332
  1113.5000      8.2245      2.5425      0.0162      6.5137      5.7020     68.7642
  1113.6000      8.2245      2.5371     -0.0036      6.8417      6.3633     69.8570
  1113.7000      8.2245      2.5337      0.0238      7.0487      8.1921     70.3820
  1113.8000      8.2230      2.5331     -0.0011      7.0869      9.8547     67.9051
  1113.9000      8.2230      2.5287      0.0487      7.3527      9.9989     61.9066
  1114.0000      8.2245      2.5088     -0.0101      8.5570      9.0971     54.9979
  1114.1000      8.2245      2.4819     -0.0268     10.1871      8.1672     49.5758
  1114.2000      8.2245      2.4707     -0.0395     10.8669      7.2587     44.7917
  1114.3000      8.2263      2.4867     -0.0117      9.8955      5.8239     41.3024
  1114.4000      8.2263      2.5222     -0.0161      7.7434      3.8778     41.0424
  1114.5000      8.2283      2.5457      0.0716      6.3229      2.8583     41.3075
  1114.6000      8.2283      2.5357     -0.0185      6.9289      3.8248     38.7000
  1114.7000      8.2283      2.5104      0.0372      8.4597      5.3126     34.6226
  1114.8000      8.2294      2.4901      0.0319      9.6911      5.7498     30.7203
  1114.9000      8.2294      2.4801      0.0225     10.2961      5.4611     26.9733
  1115.0000      8.2280      2.4810      0.0136     10.2427      5.1817     23.5274
  1115.1000      8.2280      2.4935      0.0092      9.4821      4.6978     21.1007
  1115.2000      8.2280      2.5226      0.0294      7.7202      3.9223     22.2381
  1115.3000      8.2269      2.5587      0.0914      5.5315      3.4323     26.9223
  1115.4000      8.2269      2.5756      0.1026      4.5105      3.1075     31.2007
  1115.5000      8.2273      2.5686      0.0597      4.9322      1.7863     32.3052
  1115.6000      8.2273      2.5710      0.0417      4.7896     -0.0676     29.5217
  1115.7000      8.2273      2.5997      0.1674      3.0491     -0.2951     24.8600
  1115.8000      8.2287      2.6182      0.2131      1.9271      1.5361     21.4597
  1115.9000      8.2287      2.6005      0.1297      2.9983      3.6070     20.7425
  1116.0000      8.2309      2.5739      0.0827      4.6120      4.7816     23.5123
  1116.1000      8.2309      2.5590      0.1505      5.5159      5.4693     27.7510
  1116.2000      8.2309      2.5445      0.1090      6.3935      6.1347     28.8060
  1116.3000      8.2337      2.5270      0.1036      7.4558      6.5238     26.2969
  1116.4000      8.2337      2.5140      0.0839      8.2424      6.6196     23.3915
  1116.5000      8.2386      2.5095      0.0855      8.5156      6.8865     22.3752
  1116.6000      8.2386      2.5138      0.0827      8.2556      7.1543     23.2729
  1116.7000      8.2386      2.5230      0.0655      7.6998      7.1874     24.1860
  1116.8000      8.2548      2.5307      0.0876      7.2294      7.0407     22.9282
  1116.9000      8.2548      2.5363      0.0838      6.8922      6.7724     20.8604
  1117.0000      8.3123      2.5380      0.0916      6.7881      7.0366     23.0659
  1117.1000      8.3123      2.5283      0.0818      7.3773      8.0687     29.1418
  1117.2000      8.3123      2.5071      0.0433      8.6626      8.6069     32.2013
  1117.3000      8.4182      2.4797      0.1053     10.3230      8.3263     29.9794
  1117.4000      8.4182      2.4495      0.0407     12.1491      8.3520     26.8911
  1117.5000      8.5073      2.4272     -0.0197     13.5032      8.7902     26.5313
  1117.6000      8.5073      2.4141      0.0520     14.2994      8.7116     28.0131
  1117.7000      8.5073      2.4001      0.0143     15.1454      8.0746     29.7989
  1117.8000      8.5226      2.3920      0.0213     15.6334      7.7720     31.1954
  1117.9000      8.5226      2.4001      0.0377     15.1449      8.2503     30.3651
