~Version Information
VERS.                      2.0: CWLS Log ASCII Standard - VERSION 2.0
WRAP.                       NO: One line per depth step
~Well Information Block
STRT.FT               298.0000: 
STOP.FT              1302.0000: 
STEP.FT                 0.1000: 
NULL.                -999.2500: 
COMP.          Pioneer Natural Resources: COMPANY
WELL.          Bouncer 41-27 Tr: WELL
FLD.           Purgatoire River: FIELD
LOC.           292' FNL & 222' FEL: LOCATION
PROV.                 Colorado: PROVINCE
CNTY.               Las Animas: COUNTRY
SRVC.                Patterson: SERVICE COMPANY
DATE.          Mon Feb 07 12:55:19 2005: LOG DATE
UWI.           05 071 08291 00: UNIQUE WELL ID
~Curve Information Block
DEPT.FT            0 000 00 00: Depth
DCAL.in                       : CDL Caliper
RHOB.g/cc                     : CDL Bulk Density
RHOC.g/cc                     : CDL Density Correction
DPOR.pu                       : CDL Density Porosity
GR.GAPI                       : Gamma Ray
NPOR.pu                       : Neutron Porosity
~Parameter Information Block
~A  Depth       DCAL        RHOB        RHOC        DPOR         GR         NPOR    
# ...
   691.6000      7.9362      2.5330      0.0419      7.0895     59.7849     19.1479
   691.7000      7.9362      2.5289      0.0151      7.3400     57.6339     19.2996
   691.8000      7.9432      2.5147      0.0013      8.2004     57.8195     19.6637
   691.9000      7.9432      2.4885     -0.0120      9.7891     60.9799     20.0378
   692.0000      7.9476      2.4599     -0.0645     11.5215     63.2661     20.3829
   692.1000      7.9476      2.4456     -0.0653     12.3898     63.2870     20.5435
   692.2000      7.9476      2.4495     -0.0445     12.1495     63.8631     20.2865
   692.3000      7.9520      2.4673     -0.0067     11.0714     66.5738     19.8133
   692.4000      7.9520      2.4944      0.0254      9.4294     70.9320     19.5290
   692.5000      7.9488      2.5256      0.0338      7.5391     74.9728     19.6100
   692.6000      7.9488      2.5549      0.0473      5.7643     76.9350     19.9511
   692.7000      7.9488      2.5744      0.0714      4.5846     76.4801     20.3779
   692.8000      7.9547      2.5832      0.0939      4.0506     75.2647     20.5842
   692.9000      7.9547      2.5843      0.1262      3.9842     77.5169     20.6226
   693.0000      7.9564      2.5828      0.1133      4.0698     84.5856     20.9227
   693.1000      7.9564      2.5942      0.1267      3.3826     90.7644     21.3872
   693.2000      7.9564      2.6157      0.1610      2.0788     93.9340     21.6445
   693.3000      7.9363      2.6179      0.1141      1.9484     99.0890     21.8457
   693.4000      7.9363      2.5925      0.0605      3.4878    105.5949     22.3157
   693.5000      7.9364      2.5629      0.0499      5.2781    110.7842     22.9348
   693.6000      7.9364      2.5474      0.0229      6.2158    116.9195     23.5316
   693.7000      7.9364      2.5454      0.0698      6.3387    124.3335     24.1046
   693.8000      7.9450      2.5505      0.0458      6.0305    131.0233     24.6197
   693.9000      7.9450      2.5603      0.0690      5.4361    138.7874     24.8809
   694.0000      7.9491      2.5668      0.1137      5.0402    149.3282     24.9915
   694.1000      7.9491      2.5647      0.0846      5.1699    158.5093     25.2894
   694.2000      7.9491      2.5543      0.0976      5.7977    161.9014     25.6236
   694.3000      7.9444      2.5296      0.0528      7.2973    161.7474     25.6776
   694.4000      7.9444      2.4917      0.0629      9.5931    161.2961     25.2850
   694.5000      7.9430      2.4550      0.0592     11.8173    158.2704     24.7940
   694.6000      7.9430      2.4383     -0.0098     12.8306    154.7456     24.9106
   694.7000      7.9430      2.4463      0.0410     12.3477    157.7732     25.4165
   694.8000      7.9463      2.4616      0.0710     11.4202    167.4299     25.5164
   694.9000      7.9463      2.4791      0.0192     10.3605    175.2338     25.5419
   695.0000      7.9569      2.5044      0.0647      8.8271    176.0489     26.2240
   695.1000      7.9569      2.5214      0.0963      7.7949    173.6883     27.1918
   695.2000      7.9569      2.5154      0.0805      8.1597    172.7895     27.8583
   695.3000      7.9548      2.5033      0.0735      8.8884    172.3982     28.1614
   695.4000      7.9548      2.5086      0.1057      8.5727    173.6588     28.2266
   695.5000      7.9647      2.5264      0.0921      7.4921    178.6301     28.3512
   695.6000      7.9647      2.5364      0.1342      6.8872    181.3729     28.7046
   695.7000      7.9647      2.5294      0.0917      7.3073    178.4620     29.1529
   695.8000      7.9389      2.5162      0.0762      8.1071    178.4059     29.5104
   695.9000      7.9389      2.5105      0.0682      8.4517    183.1514     29.6750
   696.0000      7.9371      2.5107      0.0864      8.4410    183.1645     29.6963
   696.1000      7.9371      2.5055      0.1067      8.7603    175.1227     29.6511
   696.2000      7.9371      2.4993      0.0913      9.1312    162.2239     29.6682
   696.3000      7.9408      2.5156      0.0352      8.1470    150.3537     29.7123
   696.4000      7.9408      2.5579      0.1261      5.5811    143.2614     29.4604
   696.5000      7.9352      2.6002      0.1267      3.0206    137.8911     29.0198
   696.6000      7.9352      2.6210      0.1553      1.7574    133.8022     28.8811
   696.7000      7.9352      2.6220      0.0692      1.6969    134.6742     28.9642
   696.8000      7.9274      2.6146      0.1630      2.1473    136.0622     28.7891
   696.9000      7.9274      2.6045      0.0900      2.7549    131.5357     28.3233
   697.0000      7.9581      2.5942      0.1296      3.3797    123.9708     27.6008
   697.1000      7.9581      2.5777      0.1170      4.3845    117.9625     26.4394
   697.2000      7.9581      2.5615      0.0031      5.3641    112.6689     25.1756
   697.3000      7.9559      2.5605      0.0197      5.4264    107.4221     24.3644
   697.4000      7.9559      2.5640      0.0268      5.2148    105.0937     23.8995
   697.5000      7.9476      2.5587      0.1006      5.5359    105.0431     23.5265
   697.6000      7.9476      2.5505      0.0343      6.0275    103.3447     23.2220
   697.7000      7.9476      2.5367      0.0798      6.8675     97.6027     22.9600
   697.8000      7.9458      2.5064      0.0011      8.7056     88.7186     22.7203
   697.9000      7.9458      2.4794     -0.0239     10.3385     82.0312     22.3420
   698.0000      7.9257      2.4771      0.0149     10.4767     82.0278     21.7754
   698.1000      7.9257      2.4870      0.0332      9.8801     86.3822     21.3438
   698.2000      7.9257      2.4925      0.0136      9.5444     88.2164     21.1369
   698.3000      7.9381      2.4926      0.0163      9.5409     85.2296     20.8757
   698.4000      7.9381      2.4872      0.0392      9.8671     81.2640     20.4915
   698.5000      7.9468      2.4821      0.0130     10.1732     78.1390     20.1023
   698.6000      7.9468      2.4864      0.0809      9.9177     74.8990     19.7173
   698.7000      7.9468      2.4910      0.0472      9.6374     71.9389     19.4811
   698.8000      7.9421      2.4890      0.0716      9.7604     72.4354     19.4176
   698.9000      7.9421      2.4857      0.0669      9.9584     77.0728     19.1401
   699.0000      7.9380      2.4827      0.0316     10.1396     81.3024     18.6884
   699.1000      7.9380      2.4738      0.0577     10.6784     82.2111     18.3909
   699.2000      7.9380      2.4601      0.0272     11.5103     81.8009     18.2647
   699.3000      7.9474      2.4496      0.0291     12.1482     82.6656     18.4477
   699.4000      7.9474      2.4369      0.0339     12.9160     83.7278     18.8346
   699.5000      7.9582      2.4208     -0.0229     13.8911     82.8033     18.8581
   699.6000      7.9582      2.4168      0.0234     14.1310     81.8391     18.7111
   699.7000      7.9582      2.4291     -0.0212     13.3865     82.7046     18.7525
   699.8000      7.9640      2.4453      0.0262     12.4064     83.5624     18.6083
   699.9000      7.9640      2.4570      0.0159     11.6948     83.4512     18.3146
   700.0000      7.9557      2.4530      0.0864     11.9419     81.5163     18.2534
   700.1000      7.9557      2.4185      0.0298     14.0281     78.5441     18.4598
   700.2000      7.9557      2.3749     -0.0461     16.6746     77.2575     18.7336
   700.3000      7.9673      2.3612     -0.0313     17.5036     77.3595     18.7442
   700.4000      7.9673      2.3785      0.0182     16.4575     77.6268     18.4654
   700.5000      7.9496      2.3901      0.0608     15.7522     78.8961     18.2248
   700.6000      7.9496      2.3763      0.0082     16.5906     79.8227     18.1447
   700.7000      7.9496      2.3643     -0.0498     17.3156     78.2322     18.0421
   700.8000      7.9519      2.3770      0.0349     16.5475     74.7115     17.8389
   700.9000      7.9519      2.3917      0.0449     15.6557     71.1574     17.6419
   701.0000      7.9557      2.3965     -0.0020     15.3654     68.5850     17.6685
   701.1000      7.9557      2.4156      0.0252     14.2083     66.7639     17.8489
