~Version Information
VERS.                      2.0: CWLS Log ASCII Standard - VERSION 2.0
WRAP.                       NO: One line per depth step
~Well Information Block
STRT.FT               -11.0000: 
STOP.FT              1523.2500: 
STEP.FT                 0.2500: 
NULL.                -999.2500: 
COMP.          Petrogulf Corporation: COMPANY
WELL.             State 16-43R: WELL
FLD.           Purgatorie River: FIELD
LOC.           2538' FSL & 716' FEL--: LOCATION
PROV.                       CO: PROVINCE
CNTY.               Las Animas: COUNTRY
SRVC.          Patterson Wireline: SERVICE COMPANY
DATE.          Fri Sep 09 13:13:52 2005: LOG DATE
UWI.           05 071 08338 00: UNIQUE WELL ID
~Curve Information Block
DEPT.FT            0 000 00 00: Depth
CCL.                          : Casing Collar Locator
TT3.usec                      : CBL 3' Travel Time
AMP3.mV                       : CBL 3' Amplitude
GR.GAPI                       : Gamma Ray
~Parameter Information Block
~A  Depth       CCL         TT3         AMP3         GR     
# ...
   391.0000      0.0000    352.3176     11.3803     90.7530
   391.2500      0.0000    360.4069     11.2959     94.4098
   391.5000      0.0000    367.6772     11.2122     97.7435
   391.7500      0.0000    373.3934     11.1274    100.4413
   392.0000      0.0000    378.9634     11.0397    101.7486
   392.2500      0.0000    388.6040     10.9518    101.3342
   392.5000      0.0000    408.9343     10.8706    100.2295
   392.7500      0.0000    445.9388     10.8031    100.0864
   393.0000      0.0000    499.3901     10.7548    101.5265
   393.2500      0.0000    559.7562     10.7280    103.7821
   393.5000      0.0000    612.9005     10.7193    105.7988
   393.7500      0.0000    649.3376     10.7202    107.1612
   394.0000      0.0000    668.7405     10.7222    107.9012
   394.2500      0.0000    676.5630     10.7200    107.7128
   394.5000      0.0000    678.2808     10.7116    105.8396
   394.7500      0.0000    676.6658     10.6960    102.2712
   395.0000      0.0000    672.3373     10.6738     98.9146
   395.2500      0.0000    665.3781     10.6471     98.6789
   395.5000      0.0000    656.4435     10.6196    102.7469
   395.7500      0.0000    647.0016     10.5947    108.7351
   396.0000      0.0000    638.8666     10.5740    111.7539
   396.2500      0.0000    633.3511     10.5554    107.6964
   396.5000      0.0000    630.5615     10.5346     96.1421
   396.7500      0.0000    629.5646     10.5086     80.5167
   397.0000      0.0000    629.2668     10.4778     65.5949
   397.2500      0.0000    629.0582     10.4451     54.8543
   397.5000      0.0000    628.8072     10.4148     49.7985
   397.7500      0.0000    628.5825     10.3912     50.6349
   398.0000      0.0000    628.4665     10.3795     56.5796
   398.2500      0.0000    628.5028     10.3845     65.6460
   398.5000      0.0000    628.6833     10.4072     75.0381
   398.7500      0.0000    628.9600     10.4410     82.3205
   399.0000      0.0000    629.2568     10.4746     86.4104
   399.2500      0.0000    629.5392     10.5004     87.7171
   399.5000      0.0000    629.9233     10.5193     87.5195
   399.7500      0.0000    630.8375     10.5366     87.0310
   400.0000      0.0000    633.1244     10.5525     86.7387
   400.2500      0.0000    637.7392     10.5604     86.5694
   400.5000      0.0000    644.6119     10.5528     86.5403
   400.7500      0.0000    650.7686     10.5273     86.8102
   401.0000      0.0000    649.9443     10.4874     87.1344
   401.2500      0.0000    636.7165     10.4424     86.8973
   401.5000      0.0000    613.1431     10.4052     85.9407
   401.7500      0.0000    589.7175     10.3840     84.9409
   402.0000      0.0000    577.4940     10.3768     84.6366
   402.2500      0.0000    580.2681     10.3755     84.8290
   402.5000      0.0000    594.7974     10.3740     84.5807
   402.7500      0.0000    615.3286     10.3739     83.4012
   403.0000      0.0000    636.0605     10.3837     81.7213
   403.2500      0.0000    651.7691     10.4148     80.1016
   403.5000      0.0000    659.0302     10.4696     78.5920
   403.7500      0.0000    657.6473     10.5343     77.1108
   404.0000      0.0000    650.5992     10.5873     75.8903
   404.2500      0.0000    642.1415     10.6170     75.2516
   404.5000      0.0000    635.3463     10.6301     75.3096
   404.7500      0.0000    630.8965     10.6414     76.1383
   405.0000      0.0000    627.8674     10.6605     77.9835
   405.2500      0.0000    625.3692     10.6854     81.0462
   405.5000      0.0000    623.5738     10.7066     84.9779
   405.7500      0.0000    623.4877     10.7120     88.5982
   406.0000      0.0000    625.9577     10.6937     90.4692
   406.2500      0.0000    631.0358     10.6501     90.1463
   406.5000      0.0000    637.9569     10.5853     88.5850
   406.7500      0.0000    645.1827     10.5067     86.8942
   407.0000      0.0000    650.7722     10.4235     85.1657
   407.2500      0.0000    654.0600     10.3442     83.0487
   407.5000      0.0000    657.4166     10.2739     81.0148
   407.7500      0.0000    665.1653     10.2121     80.4060
   408.0000      0.0000    679.7026     10.1534     82.2875
   408.2500      0.0000    698.8195     10.0938     86.5629
   408.5000      0.0000    717.0236     10.0369     92.0386
   408.7500      0.0000    728.6293      9.9921     97.0482
   409.0000      0.0000    729.6644      9.9581    100.1881
   409.2500      0.0000    718.9369      9.9111    100.7939
   409.5000      0.0000    699.3794      9.8181     98.6632
   409.7500      0.0000    677.9955      9.6680     93.5475
   410.0000      0.0000    662.1727      9.4796     85.6175
   410.2500      0.0000    654.5294      9.2889     76.4053
   410.5000      0.0000    650.8132      9.1503     68.4619
   410.7500      0.0000    642.2194      9.1248     63.8393
   411.0000      0.0000    620.3345      9.2233     63.1407
   411.2500      0.0000    583.7360      9.3751     65.5833
   411.5000      0.0000    544.5724      9.4900     69.2934
   411.7500     -2.0000    526.7101      9.5307     71.9154
   412.0000      0.0000    548.8690      9.5226     71.9777
   412.2500      0.0000    604.3702      9.5320     70.0372
   412.5000      0.0000    660.3984      9.6425     68.1597
   412.7500      0.0000    682.0306      9.8991     68.1905
   413.0000      0.0000    658.2911     10.2510     70.6298
   413.2500      0.0000    605.4691     10.5774     74.8560
   413.5000      0.0000    549.1004     10.7750     79.8222
   413.7500      0.0000    504.5479     10.8103     84.4733
   414.0000      0.0000    471.6487     10.7155     87.9729
   414.2500      0.0000    443.8254     10.5637     89.8878
   414.5000      0.0000    418.7189     10.4280     90.2303
   414.7500      0.0000    399.0763     10.3414     89.4298
   415.0000      0.0000    387.0572     10.2945     88.3357
   415.2500      0.0000    381.3523     10.2666     87.9901
   415.5000      0.0000    379.0913     10.2466     89.0575
   415.7500      0.0000    378.1595     10.2246     91.3579
   416.0000      0.0000    377.6682     10.1799     93.8997
   416.2500      0.0000    377.4054     10.0880     95.4073
   416.5000      0.0000    377.3329      9.9419     94.9832
   416.7500      0.0000    377.4134      9.7631     92.5748
   417.0000      0.0000    377.7192      9.5901     89.1053
   417.2500      0.0000    378.7502      9.4540     86.1899
   417.5000      0.0000    382.1117      9.3591     85.3260
   417.7500      0.0000    391.3880      9.2777     86.8627
   418.0000      0.0000    411.9952      9.1632     89.5567
   418.2500      0.0000    448.4085      8.9744     91.2680
   418.5000      0.0000    499.5458      8.7010     90.3622
   418.7500      0.0000    557.0549      8.3749     86.6161
   419.0000      0.0000    609.6906      8.0556     81.0492
   419.2500      0.0000    649.5316      7.7969     75.2512
   419.5000      0.0000    673.6995      7.6184     70.8117
   419.7500      0.0000    682.5736      7.5034     68.8491
   420.0000      0.0000    679.2305      7.4198     69.5263
   420.2500      0.0000    669.5018      7.3436     71.8096
   420.5000      0.0000    659.9897      7.2656     73.9514
   420.7500      0.0000    655.8077      7.1845     74.9271
   421.0000      0.0000    660.1749      7.0992     75.6519
   421.2500      0.0000    673.9742      7.0115     78.1591
   421.5000      0.0000    694.0212      6.9304     83.1752
   421.7500      0.0000    713.1535      6.8679     89.0459
   422.0000      0.0000    724.3146      6.8258     93.3894
   422.2500      0.0000    725.5098      6.7883     95.0962
   422.5000      0.0000    720.5031      6.7280     94.3159
   422.7500      0.0000    715.2595      6.6224     91.4766
   423.0000      0.0000    714.4247      6.4703     87.2429
   423.2500      0.0000    719.7058      6.2979     82.9677
   423.5000      0.0000    728.4868      6.1485     80.2394
   423.7500      0.0000    733.2982      6.0584     79.8892
   424.0000      0.0000    725.3004      6.0344     81.7398
   424.2500      0.0000    700.7267      6.0496     85.1310
