~Version Information
VERS.                      2.0: CWLS Log ASCII Standard - VERSION 2.0
WRAP.                       NO: One line per depth step
~Well Information Block
STRT.FT                -3.2500: 
STOP.FT              1637.5000: 
STEP.FT                 0.2500: 
NULL.                -999.2500: 
COMP.          Pioneer Natural Resources: COMPANY
WELL.            Mad Dog 42-31: WELL
FLD.           Purgatorie River: FIELD
LOC.           2064' FNL & 479' FEL--: LOCATION
PROV.                       CO: PROVINCE
CNTY.               Las Animas: COUNTRY
SRVC.                         : SERVICE COMPANY
DATE.          Fri Oct 15 16:13:39 2004: LOG DATE
UWI.          005 071 08195   : UNIQUE WELL ID
~Curve Information Block
DEPT.FT            0 000 00 00: Depth
HVOLTA.V                      : Head Voltage Apparent
GR.GAPI                       : Gamma Ray
CCL.                          : Casing Collar Locator
TT3.usec                      : CBL 3' Travel Time
AMP3.mV                       : CBL 3' Amplitude
~Parameter Information Block
~A  Depth      HVOLTA        GR         CCL         TT3         AMP3    
# ...
   640.7500     97.3070     96.8930      0.0000    755.2442      5.7393
   641.0000     97.2150     94.2260      0.0000    759.1440      5.7527
   641.2500     97.2043     90.0152      0.0000    762.9025      5.7810
   641.5000     97.3787     85.1903      0.0000    764.9014      5.8360
   641.7500     97.3106     81.3985      0.0000    765.4365      5.9240
   642.0000     97.1362     79.9833      0.0000    765.7998      6.0274
   642.2500     97.1326     81.4193      0.0000    766.3033      6.1119
   642.5000     97.3990     85.2322      0.0000    765.9557      6.1493
   642.7500     97.4133     90.1664      0.0000    763.9692      6.1323
   643.0000     97.2592     94.5945      0.0000    760.8868      6.0729
   643.2500     97.1947     97.1721      0.0000    758.0204      5.9913
   643.5000     97.2353     97.4501      0.0000    756.2432      5.9033
   643.7500     97.3273     96.1053      0.0000    755.5587      5.8146
   644.0000     97.2318     94.5189      0.0000    755.4922      5.7288
   644.2500     97.3249     93.8652      0.0000    755.5900      5.6583
   644.5000     97.1911     94.4399      0.0000    755.6384      5.6185
   644.7500     97.2903     95.7689      0.0000    755.6327      5.6107
   645.0000     97.3380     97.1864      0.0000    755.6331      5.6146
   645.2500     97.2389     98.2769      0.0000    755.6536      5.6036
   645.5000     97.2353     98.9307      0.0000    755.6760      5.5706
   645.7500     97.1397     99.1167      0.0000    755.7012      5.5370
   646.0000     97.3965     98.7775      0.0000    755.7413      5.5373
   646.2500     97.3452     98.0947      0.0000    755.7714      5.5902
   646.5000     97.1875     97.8006      0.0000    755.7208      5.6809
   646.7500     97.1087     98.8787      0.0000    755.5295      5.7731
   647.0000     97.3177    101.6733      0.0000    755.2005      5.8449
   647.2500     97.3858    105.3938      0.0000    754.7503      5.9085
   647.5000     97.0812    108.6139      0.0000    754.0452      5.9940
   647.7500     97.1636    110.2496      0.0000    752.7943      6.1175
   648.0000     97.1326    110.2715      0.0000    750.9667      6.2720
   648.2500     97.2628    109.7998      0.0000    749.2855      6.4456
   648.5000     97.1087    110.2327      0.0000    748.9569      6.6367
   648.7500     97.2079    111.8937      0.0000    750.5714      6.8438
   649.0000     97.1158    113.8119      0.0000    753.4328      7.0430
   649.2500     97.3273    114.9096      0.0000    756.2076      7.1897
   649.5000     97.1911    114.7325      0.0000    758.0478      7.2552
   649.7500     97.1397    112.8794      0.0000    758.9427      7.2571
   650.0000     97.2806    108.6306      0.0000    759.2895      7.2473
   650.2500     97.2521    101.6224      0.0000    759.4553      7.2698
   650.5000     97.3034     92.5137      0.0000    759.7108      7.3307
   650.7500     97.1290     82.9505      0.0000    760.3745      7.4001
   651.0000     97.1123     75.1761      0.0000    761.7875      7.4370
   651.2500     97.4515     71.1923      0.0000    763.8705      7.4170
   651.5000     97.1016     71.4817      0.0000    765.5968      7.3448
   651.7500     97.2282     74.5788      0.0000    765.2314      7.2476
   652.0000     97.2699     78.3067      0.0000    761.5416      7.1604
   652.2500     97.2842     81.4296      0.0000    754.9774      7.1048
   652.5000     97.3010     84.0410      0.0000    747.7354      7.0736
   652.7500     97.2318     86.7776      0.0000    742.5973      7.0393
   653.0000     97.3655     89.8811      0.0000    741.1401      6.9860
   653.2500     97.2795     92.7115      0.0000    742.6229      6.9284
   653.5000     97.2389     94.1660      0.0000    744.8867      6.8942
   653.7500     97.2974     93.8205      0.0000    746.5681      6.8945
   654.0000     97.3559     92.5872      0.0000    748.0538      6.9164
   654.2500     97.2831     92.1237      0.0000    750.2214      6.9343
   654.5000     97.2628     93.6220      0.0000    752.9404      6.9277
   654.7500     97.2246     96.9464      0.0000    755.1416      6.8983
   655.0000     97.2831    100.6680      0.0000    755.7456      6.8677
   655.2500     97.2389    103.1004      0.0000    754.1379      6.8547
   655.5000     97.1051    103.5510      0.0000    750.3608      6.8558
   655.7500     97.3452    102.4715      0.0000    745.5458      6.8511
   656.0000     97.2114    100.6410      0.0000    741.8481      6.8290
   656.2500     97.1947     98.8670      0.0000    741.0009      6.8024
   656.5000     97.1971     98.4064      0.0000    742.7034      6.7980
   656.7500     97.1971    100.8028      0.0000    745.0569      6.8305
   657.0000     97.2425    106.7544      0.0000    746.7576      6.8913
   657.2500     97.2460    115.1810      0.0000    748.2497      6.9558
   657.5000     97.3619    123.5228      0.0000    750.6819      6.9951
   657.7500     97.2664    129.0917      0.0000    754.6360      6.9904
   658.0000     97.2592    130.5793      0.0000    760.4210      6.9538
   658.2500     97.1875    128.6140      0.0000    768.6838      6.9235
   658.5000     97.3990    124.9297      0.0000    779.2736      6.9027
   658.7500     97.3070    121.0675      0.0000    789.3555      6.8062
   659.0000     97.2007    118.0007      0.0000    794.2983      6.5289
   659.2500     97.3691    116.6182      0.0000    791.9133      6.0865
   659.5000     97.2831    117.7988      0.0000    785.2131      5.6336
   659.7500     97.3177    121.6312      0.0000    779.9778      5.3108
   660.0000     97.3034    126.8204      0.0000    780.4387      5.1200
   660.2500     97.3416    131.1263      0.0000    787.9850      4.9625
   660.5000     97.2389    132.3902      0.0000    801.9297      4.7439
   660.7500     97.3477    129.1865      0.0000    818.7278      4.4228
   661.0000     97.2257    121.0258      0.0000    831.1403      4.0129
   661.2500     97.2760    108.8105      0.0000    831.8199      3.5881
   661.5000     97.2246     95.3300      0.0000    819.5272      3.2758
   661.7500     97.2079     84.5145      0.0000    800.4819      3.1990
   662.0000     97.2867     79.2416      0.0000    782.9377      3.3886
   662.2500     97.2293     79.4482      0.0000    771.3579      3.7507
   662.5000     97.3309     82.3691      0.0000    765.5223      4.1305
   662.7500     97.3416     84.6779      0.0000    763.1171      4.4138
   663.0000     97.1540     84.4654      0.0000    761.9930      4.5768
   663.2500     97.1886     81.3429      0.0000    760.7688      4.6592
   663.5000     97.4754     75.4368      0.0000    758.6958      4.7095
   663.7500     97.3070     67.2073      0.0000    755.7324      4.7559
   664.0000     97.2592     58.1285      0.0000    752.7542      4.8117
   664.2500     97.2164     50.4588      0.0000    751.1292      4.8864
   664.5000     97.6945     45.7128      0.0000    751.5722      4.9862
   664.7500     97.6970     43.6443      0.0000    753.4424      5.1053
   665.0000     97.1672     43.0899      0.0000    755.3241      5.2221
   665.2500     97.1911     43.5214      0.0000    756.0737      5.3072
   665.5000     97.3141     45.3018      0.0000    755.2700      5.3402
   665.7500     97.4443     48.7024      0.0000    753.2289      5.3246
   666.0000     97.4682     53.2365      0.0000    750.9776      5.2871
   666.2500     97.2389     57.8843      0.0000    749.7629      5.2625
   666.5000     97.4383     61.5618      0.0000    749.9517      5.2693
   666.7500     97.2389     63.4259      0.0000    750.5581      5.2953
   667.0000     97.3452     63.1344      0.0000    750.3578      5.3089
   667.2500     97.1840     60.9719      0.0000    749.3871      5.2913
   667.5000     97.1840     57.6344      0.0000    748.9110      5.2572
   667.7500     97.2496     53.8923      0.0000    749.9218      5.2459
   668.0000     97.3141     50.5107      0.0000    752.1123      5.2932
   668.2500     97.2963     48.3625      0.0000    754.4026      5.4034
   668.5000     97.2425     48.3859      0.0000    756.0184      5.5455
