~Version Information
VERS.                      2.0: CWLS Log ASCII Standard - VERSION 2.0
WRAP.                       NO: One line per depth step
~Well Information Block
STRT.FT               423.0000: 
STOP.FT              2306.0000: 
STEP.FT                 0.1000: 
NULL.                -999.2500: 
COMP.          Pioneer Natural Resources: COMPANY
WELL.             Culver 14-12: WELL
FLD.           Purgatoire River: FIELD
LOC.           913' FSL & 1140' FWL: LOCATION
PROV.                 Colorado: PROVINCE
CNTY.               Las Animas: COUNTRY
SRVC.                Patterson: SERVICE COMPANY
DATE.          Tue Jun 07 09:21:05 2005: LOG DATE
UWI.           05 071 08386 00: UNIQUE WELL ID
~Curve Information Block
DEPT.FT            0 000 00 00: Depth
DCAL.in                       : CDL Caliper
RHOB.g/cc                     : CDL Bulk Density
RHOC.g/cc                     : CDL Density Correction
DPOR.pu                       : CDL Density Porosity
GR.GAPI                       : Gamma Ray
NPOR.pu                       : Neutron Porosity
~Parameter Information Block
~A  Depth       DCAL        RHOB        RHOC        DPOR         GR         NPOR    
# ...
   547.8000      8.3454      2.3695     -0.0263     16.9994     69.2411     18.9205
   547.9000      8.3454      2.3839     -0.0015     16.1247     65.8319     18.5802
   548.0000      8.3513      2.4044     -0.0107     14.8824     65.1546     18.1868
   548.1000      8.3513      2.4152      0.0629     14.2294     70.6415     18.2730
   548.2000      8.3513      2.4135      0.0461     14.3321     77.4264     18.9258
   548.3000      8.3604      2.4067      0.0972     14.7467     79.4825     19.7966
   548.4000      8.3604      2.4003      0.0643     15.1308     78.5841     20.2751
   548.5000      8.3841      2.4016      0.0614     15.0526     76.8536     19.9261
   548.6000      8.3841      2.4130      0.0581     14.3627     73.2614     19.2872
   548.7000      8.3841      2.4276      0.0498     13.4800     69.5374     19.2573
   548.8000      8.4263      2.4380      0.0088     12.8478     67.5659     19.6884
   548.9000      8.4263      2.4464      0.0141     12.3393     67.6499     19.9397
   549.0000      8.4515      2.4564      0.0612     11.7364     69.4619     20.0382
   549.1000      8.4515      2.4648      0.0620     11.2228     70.0604     20.2185
   549.2000      8.4515      2.4753      0.0422     10.5851     68.4327     20.1841
   549.3000      8.4496      2.4964      0.0466      9.3087     68.4623     19.7494
   549.4000      8.4496      2.5218      0.0352      7.7716     71.9819     19.5239
   549.5000      8.4158      2.5336      0.0943      7.0574     74.6419     19.9967
   549.6000      8.4158      2.5233      0.1010      7.6769     72.9972     20.7572
   549.7000      8.4158      2.5077      0.0296      8.6218     68.6775     21.3239
   549.8000      8.4164      2.5027      0.0492      8.9256     65.7124     21.8062
   549.9000      8.4164      2.4947      0.0597      9.4110     69.7588     22.2466
   550.0000      8.3969      2.4798     -0.0121     10.3137     78.7369     22.5330
   550.1000      8.3969      2.4824      0.0038     10.1598     83.3368     22.7387
   550.2000      8.3969      2.5102      0.0357      8.4710     83.1038     22.9161
   550.3000      8.3328      2.5473      0.0186      6.2237     82.1925     22.9972
   550.4000      8.3328      2.5809      0.0514      4.1899     82.3472     22.9848
   550.5000      8.2862      2.5956      0.1587      3.2968     85.0546     22.6456
   550.6000      8.2862      2.5731      0.1087      4.6576     89.1315     21.7640
   550.7000      8.2862      2.5241      0.1041      7.6330     91.3697     20.7759
   550.8000      8.2752      2.4843      0.0599     10.0431     89.7441     20.3915
   550.9000      8.2752      2.4715      0.1645     10.8166     88.3612     20.5161
   551.0000      8.2759      2.4660      0.1644     11.1508     92.6887     20.3575
   551.1000      8.2759      2.4457      0.1726     12.3795     97.2803     19.7604
   551.2000      8.2759      2.4150      0.1135     14.2397     93.7003     19.2247
   551.3000      8.2776      2.3911      0.1365     15.6924     85.3418     18.8993
   551.4000      8.2776      2.3809      0.1374     16.3073     81.5107     18.6721
   551.5000      8.2810      2.3874      0.0807     15.9123     84.8095     18.6454
   551.6000      8.2810      2.4116      0.1551     14.4492     89.0178     18.8379
   551.7000      8.2810      2.4363      0.1662     12.9526     88.9334     18.9344
   551.8000      8.2988      2.4447      0.1185     12.4434     86.7424     18.6072
   551.9000      8.2988      2.4368      0.1466     12.9241     84.3101     17.9958
   552.0000      8.2791      2.4155      0.1421     14.2106     79.4213     17.7627
   552.1000      8.2791      2.3920      0.1226     15.6352     73.3521     18.0315
   552.2000      8.2791      2.3844      0.1111     16.0959     68.2467     18.1572
   552.3000      8.2729      2.4000      0.0990     15.1510     64.2823     17.9209
   552.4000      8.2729      2.4286      0.0764     13.4184     61.6413     17.9416
   552.5000      8.2688      2.4475      0.1351     12.2744     60.9179     18.5966
   552.6000      8.2688      2.4436      0.0957     12.5085     62.2752     19.4332
   552.7000      8.2688      2.4256      0.1190     13.6026     62.5474     19.7785
   552.8000      8.2680      2.4067      0.0313     14.7468     59.7406     19.6767
   552.9000      8.2680      2.3975      0.0899     15.3019     57.2577     19.8233
   553.0000      8.2863      2.4023      0.0616     15.0108     58.0989     20.2578
   553.1000      8.2863      2.4163      0.1166     14.1609     60.1330     20.2995
   553.2000      8.2863      2.4189      0.0923     14.0089     62.7768     19.9010
   553.3000      8.2777      2.3964      0.0430     15.3690     69.6055     19.7163
   553.4000      8.2777      2.3717     -0.0666     16.8666     78.5886     20.1408
   553.5000      8.3386      2.3716     -0.0105     16.8732     85.3895     20.8956
   553.6000      8.3386      2.3958     -0.0130     15.4053     89.1935     21.3829
   553.7000      8.3386      2.4322      0.0335     13.1995     89.0893     21.5421
   553.8000      8.3122      2.4674      0.0774     11.0649     85.8133     21.9178
   553.9000      8.3122      2.4952      0.0647      9.3833     81.9331     22.6494
   554.0000      8.2565      2.5136      0.1188      8.2661     80.6530     23.2305
   554.1000      8.2565      2.5200      0.0891      7.8815     82.0208     23.4394
   554.2000      8.2565      2.5275      0.1009      7.4265     82.3329     23.5869
   554.3000      8.2442      2.5528      0.1418      5.8926     82.0469     23.8196
   554.4000      8.2442      2.5897      0.0930      3.6523     83.4043     23.8372
   554.5000      8.2453      2.6157      0.1599      2.0816     86.0458     23.8686
   554.6000      8.2453      2.6175      0.1266      1.9714     89.6202     24.3998
   554.7000      8.2453      2.6084      0.0844      2.5242     95.1049     24.8234
   554.8000      8.2457      2.6004      0.1289      3.0080    102.7007     24.6474
   554.9000      8.2457      2.5854      0.0899      3.9141    110.4879     24.3351
   555.0000      8.2540      2.5566      0.0560      5.6592    117.7748     23.9067
   555.1000      8.2540      2.5219      0.0545      7.7660    123.3876     23.2089
   555.2000      8.2540      2.4956      0.0048      9.3547    124.9711     22.7077
   555.3000      8.3111      2.4893     -0.0250      9.7418    122.0593     22.7105
   555.4000      8.3111      2.4924      0.0870      9.5507    115.1744     22.9009
   555.5000      8.3579      2.4814     -0.0060     10.2208    107.5263     23.0258
   555.6000      8.3579      2.4617     -0.0126     11.4093    102.4261     23.2434
   555.7000      8.3579      2.4599      0.0493     11.5224     98.3694     23.3186
   555.8000      8.3130      2.4780      0.0804     10.4242     93.1551     22.6597
   555.9000      8.3130      2.4908      0.1001      9.6467     89.7022     21.5906
   556.0000      8.2537      2.4908      0.0652      9.6458     90.2929     20.9749
   556.1000      8.2537      2.5002      0.1260      9.0784     91.2044     21.1852
   556.2000      8.2537      2.5285      0.1284      7.3660     88.8630     22.0022
   556.3000      8.2101      2.5644      0.1322      5.1874     84.0891     22.8209
   556.4000      8.2101      2.5980      0.1341      3.1524     80.6406     22.9231
   556.5000      8.2013      2.6258      0.2284      1.4678     79.5547     22.2326
   556.6000      8.2013      2.6374      0.2772      0.7625     79.3263     21.5422
   556.7000      8.2013      2.6241      0.2338      1.5701     80.2687     21.3260
   556.8000      8.1944      2.5932      0.2148      3.4406     83.0054     21.1746
   556.9000      8.1944      2.5575      0.1987      5.6041     84.6651     20.7790
   557.0000      8.1996      2.5232      0.1027      7.6833     82.9517     20.3042
   557.1000      8.1996      2.4858      0.1004      9.9529     80.8017     19.8477
   557.2000      8.1996      2.4409      0.0197     12.6756     80.6998     19.5128
   557.3000      8.1952      2.4012      0.0201     15.0800     82.4697     19.3468
