~Version Information
VERS.                      2.0: CWLS Log ASCII Standard - VERSION 2.0
WRAP.                       NO: One line per depth step
~Well Information Block
STRT.FT               858.7000: 
STOP.FT              2478.2000: 
STEP.FT                 0.1000: 
NULL.                -999.2500: 
COMP.          Petrogulf Corporation: COMPANY
WELL.           Torcom 17-33 V: WELL
FLD.           Purgatoire River: FIELD
LOC.           1544' FSL & 1746' FEL: LOCATION
PROV.                 Colorado: PROVINCE
CNTY.               Las Animas: COUNTRY
SRVC.                Patterson: SERVICE COMPANY
DATE.          Wed Dec 03 09:22:08 2003: LOG DATE
UWI.                          : UNIQUE WELL ID
~Curve Information Block
DEPT.FT            0 000 00 00: Depth
DCAL.in                       : CDL Caliper
RHOB.g/cc                     : CDL Bulk Density
RHOC.g/cc                     : CDL Density Correction
DPOR.pu                       : CDL Density Porosity
GR.GAPI                       : Gamma Ray
NPOR.pu                       : Neutron Porosity
~Parameter Information Block
~A  Depth       DCAL        RHOB        RHOC        DPOR         GR         NPOR    
# ...
  1204.3000      8.7806      1.4647      0.1585     71.8365     91.6426      5.7041
  1204.4000      8.7806      1.4335      0.2054     73.7295     81.6300      7.8191
  1204.5000      8.8865      1.4237      0.2180     74.3227     71.4229     10.1593
  1204.6000      8.8865      1.4225      0.1844     74.3958     65.0483     12.8684
  1204.7000      8.8865      1.4367      0.1470     73.5355     62.9880     15.4975
  1204.8000      8.9653      1.4708      0.2456     71.4639     61.0253     17.5695
  1204.9000      8.9653      1.5103      0.2991     69.0720     57.0631     19.3991
  1205.0000      9.0831      1.5434      0.2934     67.0637     53.8164     21.3890
  1205.1000      9.0831      1.5734      0.3089     65.2489     53.0707     23.1703
  1205.2000      9.0831      1.6198      0.2187     62.4359     53.9722     24.2420
  1205.3000      9.3684      1.7090      0.1591     57.0320     55.3087     24.4151
  1205.4000      9.3684      1.8292      0.2402     49.7433     57.5460     23.7405
  1205.5000      9.0138      1.9462      0.2065     42.6570     61.8785     22.7993
  1205.6000      9.0138      2.0619      0.2186     35.6400     68.1394     21.9565
  1205.7000      9.0138      2.1847      0.2176     28.1973     74.0468     20.9669
  1205.8000      8.7715      2.2866      0.2670     22.0253     76.8943     19.9533
  1205.9000      8.7715      2.3468      0.2268     18.3782     75.8552     19.0706
  1206.0000      8.4615      2.3850      0.1230     16.0621     76.4218     18.2593
  1206.1000      8.4615      2.4163      0.0928     14.1617     85.4539     17.6494
  1206.2000      8.4615      2.4291      0.1263     13.3861     98.8997     17.4596
  1206.3000      8.4217      2.4222      0.0185     13.8037    104.8292     17.7140
  1206.4000      8.4217      2.4093      0.0606     14.5851     99.1241     18.2954
  1206.5000      8.4318      2.3916      0.0154     15.6591     90.4796     18.8291
  1206.6000      8.4318      2.3748     -0.0435     16.6803     86.2046     18.8694
  1206.7000      8.4318      2.3746      0.0028     16.6919     88.4735     18.8407
  1206.8000      8.5078      2.3857      0.0988     16.0196     98.6056     19.3572
  1206.9000      8.5078      2.3936      0.0252     15.5380    111.8972     20.0460
  1207.0000      8.6102      2.4034      0.1081     14.9466    120.5218     20.1755
  1207.1000      8.6102      2.4224      0.1024     13.7935    121.6874     19.2238
  1207.2000      8.6102      2.4482      0.1225     12.2331    117.7998     17.4276
  1207.3000      8.6084      2.4654      0.1452     11.1853    117.4430     16.1697
  1207.4000      8.6084      2.4592      0.1605     11.5631    125.4090     16.0647
  1207.5000      8.5655      2.4440      0.1189     12.4855    136.3596     16.4172
  1207.6000      8.5655      2.4447      0.1381     12.4412    144.8741     16.4349
  1207.7000      8.5655      2.4519      0.2113     12.0045    148.4114     16.0087
  1207.8000      8.5400      2.4264      0.2317     13.5488    149.0272     15.6705
  1207.9000      8.5400      2.3447      0.2195     18.5023    147.4743     15.6000
  1208.0000      8.6175      2.2182      0.1332     26.1688    143.9541     15.6991
  1208.1000      8.6175      2.0893      0.0301     33.9822    141.7143     16.3327
  1208.2000      8.6175      2.0138     -0.0517     38.5585    141.9210     17.6656
  1208.3000      8.6617      2.0163      0.0269     38.4041    142.1317     19.0353
  1208.4000      8.6617      2.0721      0.0932     35.0269    141.1796     19.6275
  1208.5000      8.5593      2.1456      0.1844     30.5697    141.3568     19.6237
  1208.6000      8.5593      2.2285      0.2344     25.5430    143.5377     19.7683
  1208.7000      8.5593      2.3327      0.3950     19.2308    147.6000     20.1784
  1208.8000      8.5225      2.4501      0.6107     12.1136    150.6272     20.8882
  1208.9000      8.5225      2.5407      0.6687      6.6215    150.9498     22.0860
  1209.0000      8.6847      2.5836      0.5408      4.0265    149.5964     23.1416
  1209.1000      8.6847      2.5908      0.3951      3.5879    143.3152     23.3599
  1209.2000      8.6847      2.5682      0.3315      4.9588    130.9581     23.4183
  1209.3000      8.7968      2.5239      0.2406      7.6438    122.6721     24.2391
  1209.4000      8.7968      2.4834      0.1933     10.0994    124.1911     25.6112
  1209.5000      8.6804      2.4568      0.2147     11.7106    128.4128     26.7599
  1209.6000      8.6804      2.4290      0.2189     13.3957    130.1303     27.4500
  1209.7000      8.6804      2.3899      0.1970     15.7620    130.4278     27.7789
  1209.8000      8.5176      2.3494      0.1229     18.2157    129.6620     27.6464
  1209.9000      8.5176      2.3287      0.0442     19.4755    125.6250     27.0588
  1210.0000      8.4007      2.3359      0.1434     19.0377    117.8375     26.7080
  1210.1000      8.4007      2.3507      0.1442     18.1391    108.9592     27.1272
  1210.2000      8.4007      2.3664      0.0727     17.1875    103.9008     27.6346
  1210.3000      8.4099      2.4095      0.1319     14.5743    107.3682     27.5654
  1210.4000      8.4099      2.4852      0.1734      9.9851    118.0521     26.9718
  1210.5000      8.3468      2.5545      0.2482      5.7876    127.7143     26.3684
  1210.6000      8.3468      2.5832      0.1747      4.0474    128.1223     26.2182
  1210.7000      8.3468      2.5845      0.1734      3.9707    122.9012     26.3335
  1210.8000      8.3318      2.5860      0.1807      3.8807    123.5032     26.3135
  1210.9000      8.3318      2.5879      0.1796      3.7619    129.4063     26.0996
  1211.0000      8.3040      2.5790      0.1464      4.3028    130.0928     25.7659
  1211.1000      8.3040      2.5559      0.1616      5.7044    123.3432     25.5063
  1211.2000      8.3040      2.5177      0.0978      8.0171    120.5801     25.3522
  1211.3000      8.3181      2.4749      0.0475     10.6116    125.8467     25.0856
  1211.4000      8.3181      2.4501      0.0079     12.1125    129.0762     24.7778
  1211.5000      8.2881      2.4500     -0.0228     12.1183    124.8238     24.3542
  1211.6000      8.2881      2.4566      0.0592     11.7191    119.4545     23.8323
  1211.7000      8.2881      2.4618      0.0249     11.4037    121.6921     23.7714
  1211.8000      8.2850      2.4677      0.0760     11.0456    129.1381     24.2663
  1211.9000      8.2850      2.4612      0.0771     11.4421    133.5509     24.8411
  1212.0000      8.2882      2.4382      0.0166     12.8385    135.7990     25.2409
  1212.1000      8.2882      2.4131      0.0848     14.3557    139.4639     25.5572
  1212.2000      8.2882      2.4105     -0.0394     14.5153    140.7612     25.7365
  1212.3000      8.2887      2.4505      0.0664     12.0907    136.2671     25.7316
  1212.4000      8.2887      2.5081      0.1356      8.6024    129.6178     25.8242
  1212.5000      8.3534      2.5353      0.1838      6.9495    125.5714     26.0278
  1212.6000      8.3534      2.5223      0.1134      7.7367    126.5280     26.1795
  1212.7000      8.3534      2.4990      0.1036      9.1517    129.3899     26.1771
  1212.8000      8.3481      2.4929      0.0669      9.5218    129.0203     25.8046
  1212.9000      8.3481      2.5080      0.1339      8.6086    128.1783     25.2239
  1213.0000      8.4372      2.5323      0.1693      7.1349    127.4309     25.0418
  1213.1000      8.4372      2.5426      0.1865      6.5108    123.2642     25.2574
  1213.2000      8.4372      2.5242      0.1085      7.6266    117.6988     25.3833
  1213.3000      8.3633      2.5013     -0.0085      9.0108    116.2321     25.3002
  1213.4000      8.3633      2.4952      0.0555      9.3799    121.6203     25.0245
  1213.5000      8.2954      2.4889      0.0486      9.7609    128.7197     24.7420
  1213.6000      8.2954      2.4769      0.0055     10.4923    133.5694     24.7410
  1213.7000      8.2954      2.4734      0.0563     10.7003    135.8018     25.0209
  1213.8000      8.2288      2.4842      0.0515     10.0481    132.2125     25.0689
