~Version Information
VERS.                      2.0: CWLS Log ASCII Standard - VERSION 2.0
WRAP.                       NO: One line per depth step
~Well Information Block
STRT.FT                 0.0000: 
STOP.FT              1439.5000: 
STEP.FT                 0.2500: 
NULL.                -999.2500: 
COMP.          Petrogulf Corporation: COMPANY
WELL.          Robinson 15-12R: WELL
FLD.           Purgatorie River: FIELD
LOC.           1752' FNL & 561' FWL: LOCATION
PROV.                 Colorado: PROVINCE
CNTY.               Las Animas: COUNTRY
SRVC.                Patterson: SERVICE COMPANY
DATE.          Tue Oct 04 09:17:52 2005: LOG DATE
UWI.                          : UNIQUE WELL ID
~Curve Information Block
DEPT.FT            0 000 00 00: Depth
GR.GAPI                       : Gamma Ray
CCL.                          : Casing Collar Locator
TT3.usec                      : CBL 3' Travel Time
AMP3.mV                       : CBL 3' Amplitude
~Parameter Information Block
~A  Depth        GR         CCL         TT3         AMP3    
# ...
  1206.0000     86.8450      0.0000    727.7750      4.4939
  1206.2500     90.2685      0.0000    706.6885      4.4663
  1206.5000     93.7280      0.0000    670.8411      4.4086
  1206.7500     97.2479      0.0000    625.2930      4.3441
  1207.0000    100.0187      0.0000    585.2612      4.2915
  1207.2500    101.2107      0.0000    571.6961      4.2516
  1207.5000    100.6200      0.0000    593.7855      4.2182
  1207.7500     98.3449      0.0000    636.5051      4.2015
  1208.0000     94.4827      0.0000    674.0614      4.2274
  1208.2500     89.6381      0.0000    694.0355      4.2997
  1208.5000     85.3085      0.0000    700.6763      4.3810
  1208.7500     83.1593      0.0000    701.7154      4.4298
  1209.0000     83.8897      0.0000    701.3685      4.4457
  1209.2500     86.8336      0.0000    701.2559      4.4617
  1209.5000     90.4468      0.0000    701.7798      4.4937
  1209.7500     93.3805      0.0000    702.4879      4.5223
  1210.0000     95.4481      0.0000    702.4044      4.5261
  1210.2500     97.4360      0.0000    700.8653      4.5080
  1210.5000     99.8699      0.0000    698.6172      4.4822
  1210.7500    102.3901      0.0000    696.5204      4.4528
  1211.0000    104.3867      0.0000    692.4030      4.4163
  1211.2500    105.7032      0.0000    684.0907      4.3803
  1211.5000    106.6299      0.0000    674.7736      4.3584
  1211.7500    107.5433      0.0000    668.8848      4.3490
  1212.0000    108.5487      0.0000    666.1014      4.3375
  1212.2500    109.3897      0.0000    661.9550      4.3154
  1212.5000    109.8509      0.0000    651.5662      4.2826
  1212.7500    110.1452      0.0000    636.5360      4.2446
  1213.0000    110.6549      0.0000    627.7813      4.2108
  1213.2500    111.4307      0.0000    630.3861      4.1832
  1213.5000    112.2022      0.0000    630.8104      4.1675
  1213.7500    112.7475      0.0000    616.0397      4.1825
  1214.0000    113.0878      0.0000    597.5095      4.2291
  1214.2500    113.4769      0.0000    598.2277      4.2867
  1214.5000    114.3341      0.0000    620.7785      4.3476
  1214.7500    116.1197      0.0000    646.3291      4.4137
  1215.0000    119.1049      0.0000    661.0702      4.4754
  1215.2500    123.0563      0.0000    666.1144      4.5179
  1215.5000    127.0961      0.0000    667.4016      4.5324
  1215.7500    130.0738      0.0000    668.8530      4.5223
  1216.0000    131.2589      0.0000    672.6714      4.4998
  1216.2500    130.6786      0.0000    679.7876      4.4700
  1216.5000    128.9710      0.0000    689.1247      4.4259
  1216.7500    127.1862      0.0000    696.9299      4.3594
  1217.0000    126.6127      0.0000    696.0806      4.2822
  1217.2500    128.3124      0.0000    683.6307      4.2234
  1217.5000    132.5480      0.0000    672.0405      4.1989
  1217.7500    138.8010      0.0000    675.4857      4.2050
  1218.0000    146.3044      0.0000    688.6873      4.2319
  1218.2500    154.2106      0.0000    697.6284      4.2687
  1218.5000    161.2091      0.0000    696.5131      4.3082
  1218.7500    165.5466      0.0000    684.9218      4.3470
  1219.0000    166.0406      0.0000    663.6168      4.3806
  1219.2500    163.2025      0.0000    638.9189      4.4035
  1219.5000    159.1771      0.0000    623.5779      4.4128
  1219.7500    156.4768      0.0000    624.3477      4.4081
  1220.0000    156.4584      0.0000    632.7429      4.3928
  1220.2500    158.4377      0.0000    635.7020      4.3711
  1220.5000    160.4140      0.0000    631.5381      4.3443
  1220.7500    161.2328      0.0000    633.8367      4.3356
  1221.0000    161.6658      0.0000    654.4913      4.3872
  1221.2500    162.5132      0.0000    685.6411      4.4812
  1221.5000    162.1642      0.0000    711.2705      4.5101
  1221.7500    157.5032      0.0000    726.9694      4.3779
  1222.0000    147.4808      0.0000    736.3151      4.0751
  1222.2500    134.9015      0.0000    739.4601      3.6462
  1222.5000    124.4614      0.0000    736.0886      3.1952
  1222.7500    119.4655      0.0000    729.7216      2.8868
  1223.0000    120.1593      0.0000    722.8332      2.7876
  1223.2500    124.3121      0.0000    714.9906      2.7989
  1223.5000    129.0812      0.0000    705.9187      2.8208
  1223.7500    132.8663      2.0000    700.2160      2.8379
  1224.0000    135.9093      0.0000    705.1008      2.8338
  1224.2500    139.1562      0.0000    717.0494      2.7599
  1224.5000    142.7215      0.0000    721.6414      2.6442
  1224.7500    145.7538      0.0000    711.8353      2.6399
  1225.0000    147.5327      0.0000    696.4912      2.8381
  1225.2500    148.1025      0.0000    686.6938      3.1395
  1225.5000    147.9083      0.0000    682.4482      3.4232
  1225.7500    147.2970      0.0000    678.4835      3.6504
  1226.0000    146.4672      0.0000    674.3779      3.7964
  1226.2500    145.7281      0.0000    673.5398      3.8506
  1226.5000    145.6194      0.0000    679.7179      3.8466
  1226.7500    146.4563      0.0000    696.7325      3.8335
  1227.0000    147.7400      0.0000    724.2384      3.8369
  1227.2500    148.5492      0.0000    752.2880      3.8492
  1227.5000    148.5565      0.0000    767.1544      3.8496
  1227.7500    148.1592      0.0000    765.1147      3.8218
  1228.0000    147.7924      0.0000    755.1948      3.7551
  1228.2500    147.6551      0.0000    744.7767      3.6525
  1228.5000    147.8338      0.0000    730.0214      3.5500
  1228.7500    148.2236      0.0000    708.3341      3.5148
  1229.0000    148.5811      0.0000    687.8416      3.6035
  1229.2500    148.8771      0.0000    676.0037      3.7992
  1229.5000    149.2796      0.0000    671.5745      4.0119
  1229.7500    149.5410      0.0000    670.3104      4.1602
  1230.0000    148.6413      0.0000    669.9143      4.2195
  1230.2500    145.3552      0.0000    669.8094      4.2012
  1230.5000    139.3562      0.0000    670.2052      4.1301
  1230.7500    131.7841      0.0000    671.9824      4.0428
  1231.0000    124.6539      0.0000    676.7601      3.9819
  1231.2500    119.6531      0.0000    685.5518      3.9928
  1231.5000    117.3145      0.0000    696.2944      4.1267
  1231.7500    116.9891      0.0000    704.7867      4.4182
  1232.0000    117.3802      0.0000    709.0019      4.8503
  1232.2500    117.1673      0.0000    710.0929      5.3442
  1232.5000    115.4121      0.0000    709.3870      5.7757
  1232.7500    111.9109      0.0000    706.3538      6.0354
  1233.0000    107.5423      0.0000    699.7482      6.1021
  1233.2500    103.9809      0.0000    689.5148      6.0418
  1233.5000    102.5376      0.0000    677.0356      5.9471
  1233.7500    103.0945      0.0000    666.0087      5.8763
  1234.0000    104.2532      0.0000    662.4326      5.8321
  1234.2500    104.6981      0.0000    669.9357      5.8064
  1234.5000    104.6423      0.0000    685.0485      5.8020
  1234.7500    105.7350      0.0000    699.1599      5.8025
  1235.0000    109.2614      0.0000    706.7794      5.7624
  1235.2500    114.6975      0.0000    708.9927      5.6286
  1235.5000    120.2800      0.0000    708.6161      5.3832
  1235.7500    124.5561      0.0000    705.5862      5.0761
  1236.0000    126.9971      0.0000    696.7048      4.7803
  1236.2500    127.5810      0.0000    680.6134      4.5158
  1236.5000    126.4386      0.0000    664.3591      4.2622
  1236.7500    123.7987      0.0000    658.3154      4.0446
  1237.0000    119.9486      0.0000    662.9672      3.9355
  1237.2500    115.5378      0.0000    669.4253      3.9532
  1237.5000    112.0617      0.0000    670.9430      4.0390
  1237.7500    111.2141      0.0000    671.4998      4.1380
  1238.0000    113.1368      0.0000    683.0067      4.2351
  1238.2500    115.8262      0.0000    706.9564      4.3344
  1238.5000    116.8321      0.0000    729.1201      4.4416
  1238.7500    115.3044      0.0000    737.9312      4.5505
  1239.0000    112.3545      0.0000    734.2646      4.6369
  1239.2500    109.7396      0.0000    725.1870      4.6712
