~Version Information
VERS.                      2.0: CWLS Log ASCII Standard - VERSION 2.0
WRAP.                       NO: One line per depth step
~Well Information Block
STRT.FT              1882.7500: 
STOP.FT              2400.5000: 
STEP.FT                 0.2500: 
NULL.                -999.2500: 
COMP.          Pioneer Natural Resources: COMPANY
WELL.          Flying Horse 12-11: WELL
FLD.           Purgatoire River: FIELD
LOC.           2,428' FNL & 308' FWL------: LOCATION
PROV.                 Colorado: PROVINCE
CNTY.               Las Animas: COUNTRY
SRVC.                         : SERVICE COMPANY
DATE.          Fri Jun 10 06:52:30 2005: LOG DATE
UWI.                          : UNIQUE WELL ID
~Curve Information Block
DEPT.FT            0 000 00 00: Depth
CCL.                          : Casing Collar Locator
TT3.usec                      : CBL 3' Travel Time
AMP3.mV                       : CBL 3' Amplitude
AMP5.mV                       : CBL 5' Amplitude
GR.GAPI                       : Gamma Ray
~Parameter Information Block
~A  Depth       CCL         TT3         AMP3        AMP5         GR     
# ...
  2358.7500      0.0000    259.2326     59.9529     87.2595     41.4958
  2359.0000      0.0000    259.2397     59.9045     88.7393     39.9907
  2359.2500      0.0000    259.2488     59.8951     88.3911     39.9256
  2359.5000      0.0000    259.2542     59.9549     87.7818     41.0019
  2359.7500      0.0000    259.2551     60.0720     87.9558     42.7236
  2360.0000      0.0000    259.2537     60.1916     87.9558     44.6159
  2360.2500      0.0000    259.2528     60.2591     87.8688     46.6145
  2360.5000      0.0000    259.2543     60.2668     87.6947     49.2156
  2360.7500      0.0000    259.2578     60.2551     88.1299     53.1328
  2361.0000      0.0000    259.2605     60.2712     86.9983     58.6281
  2361.2500      0.0000    259.2592     60.3207     86.7372     64.9500
  2361.5000      0.0000    259.2550     60.3563     86.0408     70.5360
  2361.7500      0.0000    259.2550     60.3144     84.2129     74.1357
  2362.0000      0.0000    259.2656     60.1606     83.6035     75.7251
  2362.2500      0.0000    259.2840     59.8930     83.2553     76.0768
  2362.5000      0.0000    259.2975     59.5062     81.3403     75.6284
  2362.7500      0.0000    259.2913     58.9697     78.2937     74.1095
  2363.0000      0.0000    259.2578     58.2463     76.9009     71.0465
  2363.2500      0.0000    259.2018     57.3318     74.9859     66.2611
  2363.5000      0.0000    259.1371     56.2933     74.4636     60.0370
  2363.7500      0.0000    259.0780     55.2727     75.7693     53.2162
  2364.0000      0.0000    259.0341     54.4246     75.7693     47.2180
  2364.2500      0.0000    259.0082     53.8329     75.2471     43.7756
  2364.5000      0.0000    258.9971     53.4867     74.2895     44.4454
  2364.7500      0.0000    258.9934     53.3228     73.2450     50.0646
  2365.0000      0.0000    258.9884     53.2701     71.8522     60.1938
  2365.2500      0.0000    258.9763     53.2716     70.3725     72.8784
  2365.5000      0.0000    258.9555     53.3001     69.5020     85.2543
  2365.7500      0.0000    258.9259     53.3618     67.1517     94.8256
  2366.0000      0.0000    258.8867     53.4634     65.0626    100.4590
  2366.2500      0.0000    258.8390     53.5768     62.7994    102.5307
  2366.5000      0.0000    258.7881     53.6447     59.4046    102.3655
  2366.7500      0.0000    258.7432     53.6133     57.2284    101.3467
  2367.0000      0.0000    258.7138     53.4490     57.5766    100.3846
  2367.2500      0.0000    258.7069     53.1417     59.0564    100.2451
  2367.5000      0.0000    258.7314     52.6990     56.3580    101.9308
  2367.7500      0.0000    258.8074     52.1281     55.4004    106.0005
  2368.0000      0.0000    258.9980     51.4201     53.0502    111.4661
  2368.2500      0.0000    259.4998     50.5534     48.8720    116.0858
  2368.5000      0.0000    260.8132     49.4928     42.3435    118.2392
  2368.7500      0.0000    263.9191     48.1696     38.8616    118.3216
  2369.0000      0.0000    270.3607     46.4725     38.4264    118.2009
  2369.2500      0.0000    282.2358     44.2743     43.0398    119.6710
  2369.5000      0.0000    302.0948     41.4496     22.1487    123.2934
  2369.7500      0.0000    332.0418     37.8633     14.9238    128.0504
  2370.0000      0.0000    371.5714     33.4671     17.3611    131.9457
  2370.2500      0.0000    416.5408     28.5765     15.9684    133.3296
  2370.5000      0.0000    462.4065     24.0021     15.5331    131.7781
  2370.7500      0.0000    508.1778     20.6510     15.0109    127.7477
  2371.0000      0.0000    553.9044     18.8998     14.5756    121.8329
  2371.2500      0.0000    594.5358     18.4463     14.7497    114.6326
  2371.5000     -2.0000    620.2195     18.7267     14.2274    106.8790
  2371.7500     -2.0000    622.8126     19.3113     13.7052     99.2811
  2372.0000      0.0000    599.9147     19.9537     12.5736     92.4873
  2372.2500      0.0000    555.4795     20.5287     10.8326     87.3421
  2372.5000      0.0000    499.7208     21.1019     10.1363     84.5777
  2372.7500      0.0000    445.2413     21.9804      9.7010     83.9008
  2373.0000      0.0000    400.0619     23.5026      9.2658     84.0044
  2373.2500      0.0000    365.7187     25.6637      8.4824     83.9737
  2373.5000      0.0000    342.2558     27.9541      8.6565     84.2632
  2373.7500      0.0000    333.0481     29.6260      5.1746     85.9281
  2374.0000      0.0000    344.6910     30.1810     11.8772     89.3968
  2374.2500      0.0000    382.4730     29.6501      7.1767     94.4261
  2374.5000      0.0000    443.4724     28.4735     11.6160    100.6615
  2374.7500      0.0000    512.2382     27.1833     12.9217    107.3446
  2375.0000      0.0000    565.3254     26.1800     12.8347    112.8110
  2375.2500      0.0000    583.2465     25.6748     13.3570    115.2757
  2375.5000      0.0000    560.7086     25.6993     13.9663    114.2576
  2375.7500      0.0000    509.1863     26.0866     10.2233    110.7967
  2376.0000      0.0000    452.3701     26.4133      3.1725    106.4414
  2376.2500      0.0000    415.4273     26.0156     13.1829    102.4881
  2376.5000      0.0000    410.7150     24.2879      8.3083     99.9699
  2376.7500      0.0000    430.0511     21.2213      4.7394     99.7979
  2377.0000      0.0000    452.8463     17.6446      5.4357    102.5130
  2377.2500      0.0000    463.2299     14.6735      8.1342    107.6946
  2377.5000      0.0000    457.6902     12.8047     10.9197    113.6368
  2377.7500      0.0000    439.2849     11.6544     10.4844    117.9906
  2378.0000      0.0000    413.4309     10.5428      6.4803    119.0446
  2378.2500      0.0000    390.7604      9.1174      2.9984    116.4093
  2378.5000      2.0000    386.0530      7.4396      3.7819    110.6851
  2378.7500     -2.0000    409.1151      5.7702      5.6969    103.0581
  2379.0000      2.0000    455.6421      4.4367      7.0026     95.2836
  2379.2500      2.0000    505.3240      3.7570      8.8306     89.2309
  2379.5000      0.0000    531.1747      3.8734     10.1363     85.9559
  2379.7500      0.0000    518.1124      4.6111     10.5715     85.4003
  2380.0000     -2.0000    475.7635      5.5895     11.4420     86.9268
  2380.2500      0.0000    429.4964      6.5503     13.2699     89.8902
  2380.5000      0.0000    397.8100      7.6222      8.8306     93.8133
  2380.7500      0.0000    380.5033      9.4132     14.6627     98.2518
  2381.0000      0.0000    367.0903     12.8394     36.5984    102.4240
  2381.2500      0.0000    351.6981     18.4863     20.5818    104.9669
  2381.5000      0.0000    337.0598     25.9015     19.5373    104.3643
  2381.7500      0.0000    326.3342     33.8010     29.0254     99.9361
  2382.0000      0.0000    316.7213     41.1495     11.5290     92.4059
  2382.2500      0.0000    303.6059     47.7475     64.9756     83.5817
  2382.5000      0.0000    287.3831     53.7097     41.2119     75.7590
  2382.7500      0.0000    272.7672     58.8068     66.0201     71.2544
  2383.0000      0.0000    263.2535     62.5204     42.7787     71.6740
  2383.2500      0.0000    258.7010     64.4367     51.1352     76.9925
  2383.5000      0.0000    257.1638     64.3797     56.0968     85.2802
  2383.7500      0.0000    257.1281     62.3557     56.3580     93.4547
  2384.0000      0.0000    258.3105     58.5998     36.5114     98.6824
  2384.2500      0.0000    261.6219     53.6024     28.5031     99.7830
  2384.5000      0.0000    269.2492     47.8803     22.1487     97.8221
  2384.7500      0.0000    285.1187     41.7227     18.0575     95.3670
  2385.0000      0.0000    315.2788     35.2385     10.6585     95.0256
  2385.2500      0.0000    366.1413     28.5793     11.5290     98.2100
  2385.5000      0.0000    438.9997     22.0553      4.6523    104.3333
  2385.7500      0.0000    524.3851     16.1181      3.9559    110.3612
  2386.0000      0.0000    603.6096     11.2168      2.6503    111.3032
  2386.2500      0.0000    658.6215      7.5517      2.1280    102.4544
  2386.5000      0.0000    682.0261      4.9738      1.2575     82.8508
