~Version Information
VERS.                      2.0: CWLS Log ASCII Standard - VERSION 2.0
WRAP.                       NO: One line per depth step
~Well Information Block
STRT.FT               706.1000: 
STOP.FT              2370.0000: 
STEP.FT                 0.1000: 
NULL.                -999.2500: 
COMP.          Petrogulf Corporation: COMPANY
WELL.             State 16-12V: WELL
FLD.           Purgatorie River: FIELD
LOC.           1992' FNL & 1237' FWL: LOCATION
CNTY.               Las Animas: COUNTY
SRVC.                         : SERVICE COMPANY
DATE.          Thu Aug 04 09:34:25 2005: LOG DATE
UWI.           05-071-08016-00: UNIQUE WELL ID
STAT.                 Colorado: STATE
~Curve Information Block
DEPT.FT            0 000 00 00: Depth
DCAL.in                       : CDL Caliper
DPOR.pu                       : CDL Density Porosity
GR.GAPI                       : Gamma Ray
NPOR.pu                       : Neutron Porosity
RHOB.g/cc                     : CDL Bulk Density
RHOC.g/cc                     : CDL Density Correction
~Parameter Information Block
~A  Depth       DCAL        DPOR         GR         NPOR        RHOB        RHOC    
# ...
  1474.1000      7.9813      6.4636    154.6006     26.1201      2.5434      0.0515
  1474.2000      7.9813      4.9761    154.4841     26.3227      2.5679      0.0670
  1474.3000      8.0361      3.4286    157.3774     26.5780      2.5934      0.1375
  1474.4000      8.0361      3.2612    161.7508     26.9143      2.5962      0.1837
  1474.5000      8.0541      5.3376    163.6954     27.0504      2.5619      0.1799
  1474.6000      8.0541      8.3346    163.0956     26.8099      2.5125      0.1086
  1474.7000      8.0541     10.5449    162.0727     26.5707      2.4760      0.0967
  1474.8000      8.0469     11.6717    161.2139     26.7007      2.4574      0.0682
  1474.9000      8.0469     11.7954    162.0423     27.0179      2.4554      0.0376
  1475.0000      8.0571     11.1736    166.6286     26.9841      2.4656      0.1404
  1475.1000      8.0571     10.4369    171.1525     26.5470      2.4778      0.1459
  1475.2000      8.0571      9.8553    170.3581     26.0212      2.4874      0.1717
  1475.3000      8.1268      9.6959    167.5729     25.5523      2.4900      0.2179
  1475.4000      8.1268      9.7375    168.6564     25.3285      2.4893      0.1627
  1475.5000      8.1550      9.1026    171.4810     25.3468      2.4998      0.1744
  1475.6000      8.1550      8.0101    172.2001     25.1959      2.5178      0.2136
  1475.7000      8.1550      7.4852    171.6000     24.5718      2.5265      0.2263
  1475.8000      8.0989      7.5449    173.1555     23.7528      2.5255      0.2081
  1475.9000      8.0989      7.7148    177.2837     23.4109      2.5227      0.2176
  1476.0000      8.1235      8.0889    178.7963     23.7124      2.5165      0.2021
  1476.1000      8.1235      8.4705    175.4752     24.1951      2.5102      0.1507
  1476.2000      8.1235      8.0121    171.8985     24.6393      2.5178      0.1134
  1476.3000      8.3254      6.4484    170.4309     25.1237      2.5436      0.1942
  1476.4000      8.3254      4.6876    168.4039     25.7229      2.5727      0.2202
  1476.5000      8.1902      3.4088    164.7698     26.3931      2.5938      0.2263
  1476.6000      8.1902      2.1133    159.8833     26.9508      2.6151      0.2154
  1476.7000      8.1902      0.5030    153.0860     27.3668      2.6417      0.2114
  1476.8000      8.1084     -0.6040    146.1912     27.6726      2.6600      0.2121
  1476.9000      8.1084     -0.4598    142.9420     27.7456      2.6576      0.1869
  1477.0000      8.0795      0.9358    142.4933     27.8116      2.6346      0.1731
  1477.1000      8.0795      3.1842    141.5960     28.1990      2.5975      0.1300
  1477.2000      8.0795      5.4621    140.2095     28.5860      2.5599      0.0572
  1477.3000      8.0110      6.6724    138.3702     28.6129      2.5399      0.0247
  1477.4000      8.0110      6.5379    135.7130     28.4778      2.5421      0.0319
  1477.5000      8.0042      5.5971    133.8129     28.3353      2.5576      0.0187
  1477.6000      8.0042      4.2923    134.4029     28.1443      2.5792      0.0509
  1477.7000      8.0042      3.4113    134.7195     27.8447      2.5937      0.1431
  1477.8000      8.0179      3.7441    132.0767     27.3050      2.5882      0.1063
  1477.9000      8.0179      4.9597    131.7008     26.5819      2.5682      0.0939
  1478.0000      7.9949      6.6308    136.4063     26.0135      2.5406      0.1450
  1478.1000      7.9949      8.5057    139.4207     25.6863      2.5097      0.0983
  1478.2000      7.9949      9.6639    137.0809     25.4793      2.4905      0.0450
  1478.3000      7.9911      9.5406    133.0051     25.3461      2.4926      0.0684
  1478.4000      7.9911      8.5388    130.1335     25.1134      2.5091      0.0640
  1478.5000      8.0043      7.3317    129.0306     24.7288      2.5290      0.0705
  1478.6000      8.0043      6.3827    128.8804     24.4284      2.5447      0.1091
  1478.7000      8.0043      5.6920    129.1911     24.1988      2.5561      0.1248
  1478.8000      7.9863      5.1446    133.8683     23.8200      2.5651      0.1311
  1478.9000      7.9863      4.9135    143.3725     23.5727      2.5689      0.1544
  1479.0000      7.9492      5.0191    149.6496     23.7684      2.5672      0.1418
  1479.1000      7.9492      4.9663    149.6154     24.0387      2.5681      0.1134
  1479.2000      7.9492      4.4910    147.6708     23.9996      2.5759      0.1223
  1479.3000      7.9347      4.0025    146.2427     23.8813      2.5840      0.1158
  1479.4000      7.9347      4.0346    147.2804     23.9847      2.5834      0.1280
  1479.5000      7.9822      4.7612    152.0456     24.3184      2.5714      0.0979
  1479.6000      7.9822      5.9006    158.8894     24.7697      2.5526      0.1034
  1479.7000      7.9822      6.9816    164.0719     25.1698      2.5348      0.0719
  1479.8000      8.0427      7.7096    163.0937     25.4945      2.5228      0.0689
  1479.9000      8.0427      8.3271    158.1504     25.8622      2.5126      0.0488
  1480.0000      8.0403      9.1559    156.9321     26.3387      2.4989      0.0283
  1480.1000      8.0403      9.7139    158.8979     26.8181      2.4897      0.0158
  1480.2000      8.0403      9.2675    159.1862     27.1751      2.4971      0.0277
  1480.3000      8.0524      8.5213    159.2284     27.2966      2.5094      0.0969
  1480.4000      8.0524      8.7313    161.2161     27.1489      2.5059      0.0691
  1480.5000      8.0639      9.4079    162.7160     27.1066      2.4948      0.0302
  1480.6000      8.0639      9.4946    161.1915     27.4324      2.4933      0.0670
  1480.7000      8.0639      9.0858    156.8323     27.7299      2.5001      0.0551
  1480.8000      8.1003      8.7281    151.8260     27.8049      2.5060      0.1318
  1480.9000      8.1003      8.3935    148.8934     28.0204      2.5115      0.1271
  1481.0000      8.0475      7.4929    146.7172     28.5600      2.5264      0.1609
  1481.1000      8.0475      6.0078    142.9359     29.2569      2.5509      0.1922
  1481.2000      8.0475      4.6225    138.2015     29.7472      2.5737      0.2046
  1481.3000      8.0014      3.1978    131.9204     29.7290      2.5972      0.1649
  1481.4000      8.0014      0.6934    124.4999     29.2881      2.6386      0.1836
  1481.5000      7.9026     -2.4248    119.6078     28.7043      2.6900      0.2978
  1481.6000      7.9026     -4.0554    117.1498     28.1568      2.7169      0.3168
  1481.7000      7.9026     -3.3996    114.2248     27.8873      2.7061      0.2483
  1481.8000      7.8646     -1.5281    112.3589     27.8925      2.6752      0.2039
  1481.9000      7.8646      0.6309    113.0276     27.6546      2.6396      0.1533
  1482.0000      7.8636      2.9011    113.0181     26.8148      2.6021      0.1419
  1482.1000      7.8636      4.8779    111.5883     25.5843      2.5695      0.0446
  1482.2000      7.8636      5.8917    112.1713     24.5087      2.5528      0.0469
  1482.3000      7.9223      6.0874    116.6545     23.7806      2.5496      0.0486
  1482.4000      7.9223      6.1794    123.3290     23.2491      2.5480      0.0591
  1482.5000      7.9492      6.5505    127.4276     23.0062      2.5419      0.0984
  1482.6000      7.9492      6.9788    126.4489     22.9673      2.5348      0.1135
  1482.7000      7.9492      6.9775    125.6226     22.8866      2.5349      0.1643
  1482.8000      7.9312      6.6000    129.1469     22.9782      2.5411      0.1703
  1482.9000      7.9312      6.2425    132.9148     23.4167      2.5470      0.1698
  1483.0000      7.9388      6.0243    134.6541     23.7807      2.5506      0.1889
  1483.1000      7.9388      5.7489    135.7540     23.7697      2.5551      0.1911
  1483.2000      7.9388      5.1352    134.2796     23.5922      2.5653      0.1818
  1483.3000      7.9558      4.1519    129.1411     23.5236      2.5815      0.2184
  1483.4000      7.9558      2.6191    122.5564     23.7172      2.6068      0.1794
  1483.5000      8.0102      0.4972    116.8638     23.9891      2.6418      0.1947
  1483.6000      8.0102     -1.2997    113.6307     24.0549      2.6714      0.1919
