~Version Information
VERS.                      2.0: CWLS Log ASCII Standard - VERSION 2.0
WRAP.                       NO: One line per depth step
~Well Information Block
STRT.FT               757.3000: 
STOP.FT              2418.0000: 
STEP.FT                 0.1000: 
NULL.                -999.2500: 
COMP.          Petrogulf Corporation: COMPANY
WELL.            Montoya 7-21V: WELL
FLD.           Purgatorie River: FIELD
LOC.           738' FSL & 2070' FWL: LOCATION
CNTY.               Las Animas: COUNTY
SRVC.                         : SERVICE COMPANY
DATE.          Fri Aug 20 14:08:15 2004: LOG DATE
UWI.           05 071 08018 00: UNIQUE WELL ID
STAT.                 Colorado: STATE
~Curve Information Block
DEPT.FT            0 000 00 00: Depth
DCAL.in                       : CDL Caliper
RHOB.g/cc                     : CDL Bulk Density
RHOC.g/cc                     : CDL Density Correction
DPOR.pu                       : CDL Density Porosity
GR.GAPI                       : Gamma Ray
NPOR.pu                       : Neutron Porosity
~Parameter Information Block
~A  Depth       DCAL        RHOB        RHOC        DPOR         GR         NPOR    
# ...
  2082.1000      7.8090      2.5179      0.0085      8.0057     99.5740     18.0338
  2082.2000      7.8090      2.5370      0.0342      6.8462    106.1486     17.6887
  2082.3000      7.7915      2.5624      0.0879      5.3094    107.1486     18.1581
  2082.4000      7.7915      2.5697      0.0976      4.8678    102.6300     19.0936
  2082.5000      7.7803      2.5532      0.0710      5.8672     96.9187     19.6601
  2082.6000      7.7803      2.5328      0.0521      7.1035     91.9593     19.2365
  2082.7000      7.7803      2.5247      0.0391      7.5964     87.3232     18.1650
  2082.8000      7.7888      2.5241      0.0582      7.6278     83.5728     17.4198
  2082.9000      7.7888      2.5254      0.0259      7.5518     82.0301     17.4537
  2083.0000      7.8011      2.5328      0.0346      7.1039     84.1533     17.7380
  2083.1000      7.8011      2.5438      0.0613      6.4344     88.7697     17.9008
  2083.2000      7.8011      2.5494      0.0740      6.0941     90.5420     18.6143
  2083.3000      7.8050      2.5475      0.0685      6.2100     87.9147     19.8899
  2083.4000      7.8050      2.5437      0.0647      6.4411     87.5460     20.7295
  2083.5000      7.8049      2.5404      0.0473      6.6450     92.1602     20.6287
  2083.6000      7.8049      2.5344      0.0487      7.0059     94.8009     19.9485
  2083.7000      7.8049      2.5265      0.0420      7.4856     90.1424     19.4210
  2083.8000      7.8095      2.5223      0.0306      7.7421     82.4335     19.2895
  2083.9000      7.8095      2.5251      0.0450      7.5716     77.9252     18.9049
  2084.0000      7.8112      2.5332      0.0542      7.0780     75.8036     17.9678
  2084.1000      7.8112      2.5399      0.0664      6.6718     75.6226     16.9839
  2084.2000      7.8112      2.5419      0.0093      6.5517     78.1004     16.4035
  2084.3000      7.8113      2.5458      0.0392      6.3124     80.3408     16.3625
  2084.4000      7.8113      2.5511      0.0471      5.9936     81.2173     16.8184
  2084.5000      7.8165      2.5502      0.0568      6.0502     79.9497     17.6422
  2084.6000      7.8165      2.5466      0.0288      6.2655     77.3374     18.4997
  2084.7000      7.8165      2.5431      0.0786      6.4788     76.6563     18.8932
  2084.8000      7.8232      2.5326      0.0150      7.1177     78.3084     18.7364
  2084.9000      7.8232      2.5205      0.0075      7.8507     80.8117     18.1310
  2085.0000      7.8260      2.5154      0.0388      8.1553     80.3378     17.2653
  2085.1000      7.8260      2.5076      0.0573      8.6320     75.0782     16.7224
  2085.2000      7.8260      2.4867      0.0561      9.8968     68.8615     16.8078
  2085.3000      7.8233      2.4673     -0.0215     11.0741     66.6031     16.8572
  2085.4000      7.8233      2.4711     -0.0280     10.8410     69.0111     16.2013
  2085.5000      7.8112      2.4962      0.0220      9.3206     72.4446     15.3847
  2085.6000      7.8112      2.5265      0.0250      7.4840     74.0332     15.0306
  2085.7000      7.8112      2.5499      0.0812      6.0650     75.3483     14.9510
  2085.8000      7.7918      2.5553      0.1216      5.7375     77.1044     14.7905
  2085.9000      7.7918      2.5501      0.0455      6.0566     74.8384     14.7911
  2086.0000      7.7813      2.5468      0.1169      6.2546     67.9941     15.2835
  2086.1000      7.7813      2.5355      0.1063      6.9388     62.4077     16.0181
  2086.2000      7.7813      2.5195      0.0786      7.9095     59.4404     16.6614
  2086.3000      7.7855      2.5155      0.0530      8.1493     58.4379     16.8282
  2086.4000      7.7855      2.5192      0.0929      7.9266     62.9301     16.3174
  2086.5000      7.7962      2.5147      0.0988      8.2010     71.4818     15.6711
  2086.6000      7.7962      2.5005      0.0646      9.0629     76.0740     15.3145
  2086.7000      7.7962      2.4913      0.0889      9.6189     75.5732     15.2539
  2086.8000      7.7956      2.5005      0.0554      9.0599     73.9446     15.2734
  2086.9000      7.7956      2.5259      0.0897      7.5194     70.3192     15.1902
  2087.0000      7.7868      2.5495      0.0901      6.0888     65.1569     15.1531
  2087.1000      7.7868      2.5610      0.0716      5.3934     64.0713     15.0986
  2087.2000      7.7868      2.5645      0.1168      5.1843     67.4520     14.9244
  2087.3000      7.7867      2.5635      0.0540      5.2402     71.4525     14.8720
  2087.4000      7.7867      2.5610      0.0361      5.3945     76.0818     15.0828
  2087.5000      7.7936      2.5530      0.0903      5.8781     80.4396     15.2252
  2087.6000      7.7936      2.5361      0.0650      6.9025     79.9994     15.2664
  2087.7000      7.7936      2.5198      0.0229      7.8927     75.7480     15.6362
  2087.8000      7.8064      2.5083      0.0359      8.5859     71.3379     15.9440
  2087.9000      7.8064      2.4940      0.0296      9.4548     67.5032     15.7084
  2088.0000      7.8216      2.4815      0.0012     10.2115     65.3432     15.6268
  2088.1000      7.8216      2.4788      0.0321     10.3769     64.0620     16.1162
  2088.2000      7.8216      2.4725      0.0602     10.7595     62.4656     16.5180
  2088.3000      7.8339      2.4581     -0.0082     11.6277     62.4371     16.2646
  2088.4000      7.8339      2.4513      0.0118     12.0408     63.9874     15.5841
  2088.5000      7.8389      2.4469      0.0514     12.3112     64.3325     15.2173
  2088.6000      7.8389      2.4272      0.0276     13.5022     64.3763     15.7953
  2088.7000      7.8389      2.3942      0.0316     15.5043     64.9353     17.1739
  2088.8000      7.8446      2.3603     -0.0015     17.5553     63.7250     18.8487
  2088.9000      7.8446      2.3312      0.0423     19.3228     62.2015     20.4449
  2089.0000      7.8623      2.2993      0.0361     21.2543     62.1219     21.4485
  2089.1000      7.8623      2.2550      0.0254     23.9373     63.0528     21.5521
  2089.2000      7.8623      2.1958      0.0130     27.5296     66.1083     21.3364
  2089.3000      7.8903      2.1309     -0.0013     31.4619     70.6977     21.8406
  2089.4000      7.8903      2.0744      0.0168     34.8867     75.2093     23.3791
  2089.5000      7.9200      2.0182      0.0762     38.2903     78.9152     25.4154
  2089.6000      7.9200      1.9360      0.0456     43.2704     79.2071     27.1469
  2089.7000      7.9200      1.8228      0.0505     50.1314     73.2423     27.9028
  2089.8000      7.9485      1.7036      0.0061     57.3572     61.7792     27.6881
  2089.9000      7.9485      1.6064      0.0248     63.2510     50.5427     27.0580
  2090.0000      7.9745      1.5484     -0.0353     66.7650     44.2426     26.4959
  2090.1000      7.9745      1.5472     -0.0458     66.8366     45.1169     26.6916
  2090.2000      7.9745      1.6020      0.0647     63.5181     51.0213     28.0476
  2090.3000      7.9996      1.6752      0.1413     59.0787     55.1389     29.6458
  2090.4000      7.9996      1.7332      0.1191     55.5633     54.3414     30.3645
  2090.5000      8.0121      1.7869      0.1142     52.3114     53.0182     29.9905
  2090.6000      8.0121      1.8731      0.0992     47.0850     57.7061     28.8689
  2090.7000      8.0121      2.0031      0.1532     39.2069     67.5971     27.8273
  2090.8000      7.9970      2.1405      0.1275     30.8807     73.5641     27.4109
  2090.9000      7.9970      2.2334      0.1558     25.2511     73.4117     27.3765
  2091.0000      7.9718      2.2666      0.0523     23.2352     74.0209     27.5471
  2091.1000      7.9718      2.2760      0.0180     22.6688     77.8523     27.7965
  2091.2000      7.9718      2.3018      0.0013     21.1022     82.6419     27.5522
  2091.3000      7.9519      2.3549      0.0207     17.8833     87.4832     26.7269
  2091.4000      7.9519      2.4139      0.1502     14.3078     94.8572     25.9747
  2091.5000      7.9307      2.4505      0.1294     12.0918    102.6159     25.6308
  2091.6000      7.9307      2.4650      0.1220     11.2101    102.0311     25.8018
