~Version Information
VERS.                      2.0: CWLS Log ASCII Standard - VERSION 2.0
WRAP.                       NO: One line per depth step
~Well Information Block
STRT.FT               523.0000: 
STOP.FT              1709.0000: 
STEP.FT                 0.1000: 
NULL.                -999.2500: 
COMP.          Evergreen Operating Corporation: COMPANY
WELL.            Rimrock 14-29: WELL
FLD.           Purgatorie River: FIELD
LOC.           945' FSL & 604' FWL: LOCATION
PROV.                 Colorado: PROVINCE
CNTY.               Las Animas: COUNTRY
SRVC.                         : SERVICE COMPANY
DATE.          Tue Sep 21 04:15:40 2004: LOG DATE
UWI.           05 071 08136 00: UNIQUE WELL ID
~Curve Information Block
DEPT.FT            0 000 00 00: Depth
DCAL.in                       : CDL Caliper
RHOB.g/cc                     : CDL Bulk Density
RHOC.g/cc                     : CDL Density Correction
DPOR.pu                       : CDL Density Porosity
GR.GAPI                       : Gamma Ray
NPOR.pu                       : Neutron Porosity
~Parameter Information Block
~A  Depth       DCAL        RHOB        RHOC        DPOR         GR         NPOR    
# ...
   676.6000      7.9718      2.4419      0.0433     12.6134    104.5957     18.5669
   676.7000      7.9718      2.3526     -0.0258     18.0248    103.0786     17.3899
   676.8000      7.9687      2.2358     -0.0491     25.1038    102.8749     16.4210
   676.9000      7.9687      2.1148     -0.1026     32.4387    102.5144     15.7239
   677.0000      7.9666      2.0022     -0.1005     39.2621    103.2489     15.5598
   677.1000      7.9666      1.8976     -0.1275     45.6000    103.7052     15.8082
   677.2000      7.9666      1.8110     -0.1788     50.8513    100.5793     16.1947
   677.3000      7.9719      1.7545     -0.1303     54.2700     94.7125     16.6309
   677.4000      7.9719      1.7256     -0.0615     56.0251     90.4584     16.9435
   677.5000      7.9642      1.7245     -0.0507     56.0917     89.0903     16.9665
   677.6000      7.9642      1.7595      0.0834     53.9681     88.1791     16.8155
   677.7000      7.9642      1.8199      0.1440     50.3112     88.5237     16.6871
   677.8000      7.9983      1.8735      0.1635     47.0632     94.0226     16.7854
   677.9000      7.9983      1.8997      0.0915     45.4714    101.8465     17.2408
   678.0000      7.9854      1.9096      0.0613     44.8720    104.4545     17.6838
   678.1000      7.9854      1.9198      0.0826     44.2531     98.9246     17.5072
   678.2000      7.9854      1.9357      0.0123     43.2938     90.2806     16.7846
   678.3000      7.9835      1.9611      0.0582     41.7501     86.2470     15.9261
   678.4000      7.9835      1.9809      0.1395     40.5508     88.6184     15.1238
   678.5000      7.9914      1.9620      0.1290     41.6986     94.1626     14.5647
   678.6000      7.9914      1.9018      0.0790     45.3435    101.0724     14.3146
   678.7000      7.9914      1.8336      0.0362     49.4770    107.2013     14.3083
   678.8000      8.0178      1.7756      0.1221     52.9944    108.0529     14.6215
   678.9000      8.0178      1.7179      0.1263     56.4935    104.0227     15.4779
   679.0000      7.9854      1.6565      0.0563     60.2114    101.5886     16.8919
   679.1000      7.9854      1.6049      0.0398     63.3384    105.4117     18.5055
   679.2000      7.9854      1.5853      0.0113     64.5259    115.2860     19.9116
   679.3000      8.0061      1.6188      0.0654     62.4959    123.0157     21.0912
   679.4000      8.0061      1.7073      0.1423     57.1343    120.4974     22.1380
   679.5000      8.0153      1.8279      0.2362     49.8226    113.5828     23.1608
   679.6000      8.0153      1.9506      0.2579     42.3904    113.1522     24.5152
   679.7000      8.0153      2.0630      0.2513     35.5728    120.7647     26.2796
   679.8000      7.9547      2.1696      0.2665     29.1137    131.6287     28.0956
   679.9000      7.9547      2.2663      0.2704     23.2551    142.8135     29.5758
   680.0000      7.9522      2.3368      0.2814     18.9800    150.4221     30.3798
   680.1000      7.9522      2.3769      0.1585     16.5540    149.9099     30.5004
   680.2000      7.9522      2.3992      0.1546     15.1984    145.1802     30.3241
   680.3000      7.9225      2.4126      0.1168     14.3867    144.0330     30.0857
   680.4000      7.9225      2.4215      0.0667     13.8508    146.2401     29.7266
   680.5000      7.9118      2.4321      0.0326     13.2048    146.6026     29.2199
   680.6000      7.9118      2.4480      0.0108     12.2420    144.0914     28.7398
   680.7000      7.9118      2.4666      0.0455     11.1156    141.4137     28.5640
   680.8000      7.9282      2.4797      0.0644     10.3230    142.8234     28.5126
   680.9000      7.9282      2.4817      0.0515     10.2011    149.4053     28.2195
   681.0000      7.9152      2.4791      0.0491     10.3597    151.9747     27.7871
   681.1000      7.9152      2.4850      0.0567      9.9997    144.4501     27.3906
   681.2000      7.9152      2.5039      0.0892      8.8544    137.1537     27.1359
   681.3000      7.9215      2.5323      0.0831      7.1336    137.2597     27.1885
   681.4000      7.9215      2.5642      0.0846      5.2019    136.9358     27.4638
   681.5000      7.9311      2.5833      0.1104      4.0413    133.0507     27.7437
   681.6000      7.9311      2.5788      0.1102      4.3149    129.2431     27.9353
   681.7000      7.9311      2.5687      0.0586      4.9286    125.5234     28.0157
   681.8000      7.9081      2.5753      0.0967      4.5300    122.1117     28.0062
   681.9000      7.9081      2.5955      0.1101      3.3033    120.6892     27.8645
   682.0000      7.9198      2.6113      0.1021      2.3480    120.2513     27.4978
   682.1000      7.9198      2.6050      0.1126      2.7295    117.8034     27.0343
   682.2000      7.9198      2.5765      0.0694      4.4527    110.6197     26.7842
   682.3000      7.9099      2.5493      0.0010      6.1002    101.1923     26.8399
   682.4000      7.9099      2.5406      0.0283      6.6332     96.3454     26.9723
   682.5000      7.9403      2.5408      0.0246      6.6208     97.8488     26.6852
   682.6000      7.9403      2.5404      0.0275      6.6440    101.0240     25.8553
   682.7000      7.9403      2.5486     -0.0068      6.1470    101.3330     24.9736
   682.8000      7.9295      2.5669      0.0511      5.0349     99.7490     24.2511
   682.9000      7.9295      2.5755      0.0539      4.5161     99.9864     23.6656
   683.0000      7.9050      2.5669      0.0493      5.0379    100.4662     23.2437
   683.1000      7.9050      2.5579      0.0238      5.5793     99.8026     22.9068
   683.2000      7.9050      2.5643      0.0581      5.1958    101.7276     22.8259
   683.3000      7.9151      2.5796      0.0835      4.2682    107.8822     23.2034
   683.4000      7.9151      2.5836      0.0931      4.0218    111.3690     23.7140
   683.5000      7.9303      2.5754      0.0201      4.5211    105.4174     23.9182
   683.6000      7.9303      2.5767      0.0288      4.4413     96.8244     23.8665
   683.7000      7.9303      2.5912      0.0338      3.5613     94.7720     23.7445
   683.8000      7.9144      2.6021      0.0628      2.9056     97.1749     23.4554
   683.9000      7.9144      2.6071      0.0465      2.5987    100.4911     23.2264
   684.0000      7.9203      2.6136      0.1131      2.2084    104.5757     23.4833
   684.1000      7.9203      2.6163      0.0821      2.0399    106.0008     23.8475
   684.2000      7.9203      2.6109      0.0700      2.3685    103.0615     23.7894
   684.3000      7.9420      2.6004      0.0654      3.0060     99.4388     23.5118
   684.4000      7.9420      2.5881      0.0049      3.7533     96.4295     23.3039
   684.5000      7.9244      2.5777      0.0271      4.3828     92.8610     23.3075
   684.6000      7.9244      2.5738      0.0120      4.6203     89.0788     23.6500
   684.7000      7.9244      2.5815     -0.0072      4.1493     86.2913     24.0861
   684.8000      7.9168      2.5930      0.0931      3.4546     85.1738     24.1655
   684.9000      7.9168      2.5878      0.0604      3.7669     84.6636     23.6956
   685.0000      7.9099      2.5693      0.0330      4.8915     83.3799     22.8580
   685.1000      7.9099      2.5621     -0.0106      5.3243     82.7093     22.2060
   685.2000      7.9099      2.5758      0.0546      4.4961     85.5094     21.9629
   685.3000      7.9376      2.5904      0.0896      3.6144     91.5615     21.8136
   685.4000      7.9376      2.5842      0.0687      3.9886     98.6038     21.6553
   685.5000      7.9175      2.5595      0.0209      5.4862    105.8620     21.5929
   685.6000      7.9175      2.5284      0.0134      7.3667    111.4189     21.6992
   685.7000      7.9175      2.5011     -0.0338      9.0222    109.7286     22.1394
   685.8000      7.9255      2.4913     -0.0098      9.6156    102.5897     22.6818
   685.9000      7.9255      2.5067     -0.0246      8.6844     97.1284     22.8850
   686.0000      7.9157      2.5358      0.0153      6.9219     97.2743     22.9097
   686.1000      7.9157      2.5578      0.0466      5.5856    102.4548     23.0984
