~Version Information
 VERS.                                  2.0 : CWLS LAS VERSION
 WRAP.                                   NO : WRAPING MODE
 SWARE .                 MController 2.5.0E : SOFTWARE VERSION
~Well Information
 WELL.                          Nomad 32-10 : WELL
 COMP.            EVERGREEN OPERATING CORP. : COMPANY
 FLD.                      PURGATOIRE RIVER : FIELD
 LOC.                    SW/NE 26 T32S R66W : LOCATION
 DATE.                              6/11/04 : DATE(S) LOGGED
 SRVC.       BLANCO GEOLOGICAL SERVICES LLC : SERVICE COMPANY
 STAT.                             COLORADO : STATE
 CNTY.                           LAS ANIMAS : COUNTY
 CTRY.                                  USA : COUNTRY
 API.                       05-071-08127-00 : API NUMBER
 STRT.FT                             446.00 : START DEPTH
 STOP.FT                            2455.00 : STOP DEPTH
 STEP.FT                               1.00 : DEPTH INCREMENT
 NULL.                                -9999 : NULL VALUE
~Curve information
 DEPTH.FT                                   :
 ROP.MIN/FT                                 :
 GAS.UNITS                                  :
~ASCII Log data
# ...
     1846.00        0.333        197.4 
     1847.00        0.200        100.9 
     1848.00        0.267         72.8 
     1849.00        0.233        130.7 
     1850.00        0.200        116.4 
     1851.00        0.200        109.4 
     1852.00        0.233        104.3 
     1853.00        0.200         95.0 
     1854.00        0.200         86.7 
     1855.00        0.233         73.9 
     1856.00        3.517        213.6 
     1857.00        0.100        216.8 
     1858.00        0.133        216.8 
     1859.00        0.517        204.8 
     1860.00        0.333        168.5 
     1861.00        0.300        153.6 
     1862.00        0.233        155.6 
     1863.00        0.267        156.3 
     1864.00        0.267        156.4 
     1865.00        0.233        156.7 
     1866.00        0.233        156.9 
     1867.00        0.233        154.3 
     1868.00        0.233        154.3 
     1869.00        0.167        156.9 
     1870.00        0.233        160.5 
     1871.00        0.350        163.1 
     1872.00        0.400        166.9 
     1873.00        0.467        169.5 
     1874.00        0.300        158.9 
     1875.00        0.233        176.0 
     1876.00        0.200        176.0 
     1877.00        0.233        246.2 
     1878.00        0.267        265.9 
     1879.00        0.233        219.6 
     1880.00        0.233        175.3 
     1881.00        0.233        141.1 
     1882.00        0.300        111.3 
     1883.00        0.250         90.4 
     1884.00        0.300         87.0 
     1885.00        0.233         81.7 
     1886.00        3.417        210.2 
     1887.00        0.333        194.4 
     1888.00        0.367        183.7 
     1889.00        0.367        165.0 
     1890.00        0.300        153.3 
     1891.00        0.300        151.2 
     1892.00        0.400        151.2 
     1893.00        0.300        152.9 
     1894.00        0.317        153.3 
     1895.00        0.367        159.5 
     1896.00        0.200        160.4 
     1897.00        0.233        160.4 
     1898.00        0.233        155.6 
     1899.00        0.267        154.1 
     1900.00        0.233        155.0 
     1901.00        0.233        151.6 
     1902.00        0.200        151.6 
     1903.00        0.200        144.7 
     1904.00        0.200         92.2 
     1905.00        0.200         92.2 
     1906.00        0.200        147.5 
     1907.00        0.200        203.5 
     1908.00        0.200        216.1 
     1909.00        0.217        216.1 
     1910.00        0.200        182.5 
     1911.00        0.233        159.8 
     1912.00        0.233        152.8 
     1913.00        0.300        151.6 
     1914.00        0.200        154.6 
     1915.00        0.267        161.6 
     1916.00        6.033        197.6 
     1917.00        2.550        249.3 
     1918.00        0.467        221.8 
     1919.00        0.400        188.5 
     1920.00        0.400        158.4 
     1921.00        0.367        155.8 
     1922.00        0.333        151.9 
     1923.00        0.333        139.0 
     1924.00        0.300        137.6 
     1925.00        0.233        140.9 
     1926.00        0.267        149.8 
     1927.00        0.283        152.0 
     1928.00        0.267        154.4 
     1929.00        0.233        154.6 
     1930.00        0.200        154.6 
     1931.00        0.200        155.9 
     1932.00        0.167        155.0 
     1933.00        0.233        151.6 
     1934.00        0.200        151.6 
     1935.00        0.233        149.9 
     1936.00        0.267        164.0 
     1937.00        0.233        206.9 
     1938.00        0.300        239.7 
     1939.00        0.267        215.9 
     1940.00        0.300        210.8 
     1941.00        0.283        149.7 
     1942.00        0.300        128.6 
     1943.00        0.400        107.5 
     1944.00        0.367         77.8 
     1945.00        0.300         73.3 
     1946.00        4.117        181.3 
     1947.00        0.100        164.6 
     1948.00        0.267        164.4 
     1949.00        0.567        160.6 
     1950.00        0.550        148.9 
     1951.00        0.233        135.8 
     1952.00        0.267        140.5 
     1953.00        0.267        158.1 
     1954.00        0.300        165.9 
     1955.00        0.300        177.4 
     1956.00        0.367        184.4 
     1957.00        0.300        180.6 
     1958.00        0.167        174.3 
     1959.00        0.167        174.3 
     1960.00        0.200        170.1 
     1961.00        0.200        170.1 
     1962.00        0.183        170.1 
     1963.00        0.233        172.6 
     1964.00        0.200        181.9 
     1965.00        0.233        203.0 
     1966.00        0.233        277.5 
     1967.00        0.267        335.4 
     1968.00        0.233        290.5 
     1969.00        0.200        223.9 
     1970.00        0.167        223.9 
     1971.00        0.200        195.7 
     1972.00        0.233        175.4 
     1973.00        0.333        168.2 
     1974.00        0.233        108.1 
     1975.00        0.233         91.0 
     1976.00        3.250         84.7 
     1977.00        1.017         35.0 
     1978.00        0.133         76.4 
     1979.00        0.500        177.7 
     1980.00        0.433        207.4 
     1981.00        0.333        180.6 
     1982.00        0.333        157.7 
     1983.00        0.333        147.4 
     1984.00        0.333        141.7 
     1985.00        0.350        144.7 
     1986.00        0.333        147.2 
     1987.00        0.300        147.0 
     1988.00        0.300        146.4 
     1989.00        0.333        146.8 
     1990.00        0.333        144.5 
     1991.00        0.300        146.2 
     1992.00        0.333        145.9 
     1993.00        0.333        145.9 
     1994.00        0.333        146.8 
     1995.00        0.267        148.0 
     1996.00        0.417        152.4 
     1997.00        0.300        216.3 
     1998.00        0.267        244.7 
     1999.00        0.300        237.1 
     2000.00        0.267        218.0 
     2001.00        0.267        189.6 
     2002.00        0.300        173.1 
     2003.00        0.267        168.2 
     2004.00        0.300        126.0 
     2005.00        0.300        107.5 
     2006.00        5.933        432.7 
     2007.00        0.100        166.9 
     2008.00        0.167        166.1 
     2009.00        0.567        165.9 
     2010.00        0.333        164.4 
     2011.00        0.350        162.5 
     2012.00        0.367        155.4 
     2013.00        0.367        152.1 
     2014.00        0.300        152.9 
     2015.00        0.300        153.5 
     2016.00        0.333        154.1 
     2017.00        0.300        156.4 
     2018.00        0.400        160.8 
     2019.00        0.400        163.4 
     2020.00        0.350        163.1 
     2021.00        0.300        163.6 
     2022.00        0.300        161.1 
     2023.00        0.300        158.5 
     2024.00        0.300        157.1 
     2025.00        0.267        156.1 
     2026.00        0.300        155.0 
     2027.00        0.300        155.1 
     2028.00        0.300        157.4 
     2029.00        0.300        207.9 
     2030.00        0.333        233.0 
     2031.00        0.267        236.4 
     2032.00        0.283        206.7 
     2033.00        0.233        171.9 
     2034.00        0.267        161.9 
     2035.00        0.233        110.6 
     2036.00        3.550        218.8 
     2037.00        0.100        231.3 
     2038.00        0.667        227.5 
     2039.00        0.400        210.2 
     2040.00        0.400        174.5 
     2041.00        0.433        146.1 
     2042.00        0.450        138.4 
     2043.00        0.467        151.8 
     2044.00        0.500        160.1 
     2045.00        0.433        153.5 
