~Version Information
VERS.                      2.0: CWLS Log ASCII Standard - VERSION 2.0
WRAP.                       NO: One line per depth step
~Well Information Block
STRT.FT               451.7500: 
STOP.FT              1387.0000: 
STEP.FT                 0.2500: 
NULL.                -999.2500: 
COMP.          Petrogulf Corporation: COMPANY
WELL.          Great Plains 22-22R: WELL
FLD.           Purgatoire River: FIELD
LOC.           2042' FNL & 1657' FWL--: LOCATION
PROV.                 Colorado: PROVINCE
CNTY.               Las Animas: COUNTRY
SRVC.                Patterson: SERVICE COMPANY
DATE.          Fri Sep 09 10:42:01 2005: LOG DATE
UWI.           05 071 08028 00: UNIQUE WELL ID
~Curve Information Block
DEPT.FT            0 000 00 00: Depth
SP.mV                         : DIL Spontaneous Potential
RILD.Ohm-m                    : DIL Deep Resistivity
RILM.Ohm-m                    : DIL Medium Resistivity
RLL3.Ohm-m                    : DIL Shallow Resistivity
GR.GAPI                       : Gamma Ray
~Parameter Information Block
~A  Depth        SP         RILD        RILM        RLL3         GR     
# ...
   815.7500     62.8982     13.0721     13.2818     15.6564    141.2200
   816.0000     63.0007     13.2561     13.6160     16.1277    141.1354
   816.2500     63.0645     13.4516     13.9623     16.5007    141.0782
   816.5000     63.0687     13.6512     14.3125     16.7305    139.7144
   816.7500     62.9899     13.8462     14.6686     16.7860    137.8513
   817.0000     62.8177     14.0247     15.0404     16.6980    134.8107
   817.2500     62.5624     14.1727     15.4351     16.5981    133.2542
   817.5000     62.2496     14.2776     15.8446     16.7191    131.1645
   817.7500     61.9042     14.3313     16.2314     17.3204    129.0292
   818.0000     61.5384     14.3337     16.5277     18.5152    123.9916
   818.2500     61.1501     14.2920     16.6547     20.0776    120.1066
   818.5000     60.7298     14.2199     16.5603     21.4227    115.6513
   818.7500     60.2691     14.1345     16.2523     21.8932    114.4604
   819.0000     59.7662     14.0537     15.7974     21.1958    115.4434
   819.2500     59.2259     13.9930     15.2897     19.6135    117.4388
   819.5000     58.6577     13.9626     14.8136     17.7884    121.0989
   819.7500     58.0740     13.9660     14.4245     16.2901    123.1909
   820.0000     57.4908     14.0015     14.1478     15.3630    125.0448
   820.2500     56.9280     14.0670     13.9872     14.9969    125.4177
   820.5000     56.4114     14.1647     13.9333     15.1281    124.9300
   820.7500     55.9729     14.3035     13.9714     15.7209    124.0172
   821.0000     55.6466     14.4978     14.0876     16.6790    122.1808
   821.2500     55.4632     14.7630     14.2757     17.7488    121.0899
   821.5000     55.4448     15.1101     14.5443     18.6273    119.8376
   821.7500     55.6042     15.5426     14.9214     19.3460    118.3840
   822.0000     55.9456     16.0574     15.4511     20.7425    112.6385
   822.2500     56.4649     16.6525     16.1845     24.5976    105.4940
   822.5000     57.1505     17.3356     17.1636     32.9869     90.9783
   822.7500     57.9857     18.1282     18.4036     46.6908     80.7948
   823.0000     58.9525     19.0627     19.8777     63.4016     68.5230
   823.2500     60.0324     20.1730     21.5177     77.6023     63.7049
   823.5000     61.2049     21.4844     23.2440     83.5619     61.6109
   823.7500     62.4442     23.0032     25.0245     79.8989     62.5579
   824.0000     63.7166     24.7094     26.9228     71.6912     64.6750
   824.2500     64.9804     26.5500     29.0974     68.0217     64.9247
   824.5000     66.1913     28.4340     31.7466     77.1489     61.8479
   824.7500     67.3142     30.2326     35.0251    102.7158     57.5512
   825.0000     68.3341     31.7938     38.9348    142.1204     49.5025
   825.2500     69.2570     32.9784     43.1908    186.6015     44.4893
   825.5000     70.1008     33.7052     47.1340    223.3274     39.6578
   825.7500     70.8839     33.9831     49.8698    240.0476     39.2133
   826.0000     71.6172     33.9062     50.7173    230.7629     43.8490
   826.2500     72.2999     33.6095     49.6329    198.7242     50.5778
   826.5000     72.9179     33.2087     47.1620    154.4269     64.9040
   826.7500     73.4481     32.7538     44.0257    110.1314     75.8289
   827.0000     73.8653     32.2202     40.7850     74.6459     91.3811
   827.2500     74.1492     31.5398     37.7519     51.1001     99.8596
   827.5000     74.2893     30.6573     35.0448     38.0009    108.7972
   827.7500     74.2891     29.5769     32.6720     31.9039    112.4103
   828.0000     74.1658     28.3693     30.5956     29.6257    115.2986
   828.2500     73.9473     27.1387     28.7704     29.0514    116.2825
   828.5000     73.6647     25.9760     27.1599     28.9755    117.6466
   828.7500     73.3442     24.9304     25.7401     28.7772    118.9988
   829.0000     73.0021     24.0089     24.4942     28.2543    121.6554
   829.2500     72.6460     23.1945     23.4080     27.5121    123.3777
   829.5000     72.2821     22.4705     22.4675     26.7926    125.2232
   829.7500     71.9224     21.8345     21.6600     26.2794    126.0086
   830.0000     71.5849     21.2985     20.9750     25.9787    127.0763
   830.2500     71.2868     20.8794     20.4030     25.7247    128.0052
   830.5000     71.0345     20.5897     19.9341     25.2944    129.9614
   830.7500     70.8167     20.4338     19.5609     24.5686    131.5882
   831.0000     70.6056     20.4080     19.2826     23.6366    133.9681
   831.2500     70.3652     20.5007     19.1096     22.7599    135.0402
   831.5000     70.0606     20.6923     19.0632     22.2210    135.2350
   831.7500     69.6631     20.9553     19.1708     22.1959    134.2232
   832.0000     69.1506     21.2592     19.4574     22.7676    130.6886
   832.2500     68.5089     21.5819     19.9354     24.0301    126.8248
   832.5000     67.7352     21.9195     20.5958     26.1014    119.0005
   832.7500     66.8423     22.2877     21.4034     28.9458    113.0940
   833.0000     65.8572     22.7104     22.2990     32.1761    104.9481
   833.2500     64.8140     23.2039     23.2137     35.1322    100.8508
   833.5000     63.7429     23.7716     24.0893     37.2649     97.1025
   833.7500     62.6634     24.4139     24.8967     38.4660     95.8507
   834.0000     61.5819     25.1443     25.6422     39.0148     94.8972
   834.2500     60.4958     25.9959     26.3608     39.2455     94.4002
   834.5000     59.4010     27.0110     27.1053     39.3150     93.4532
   834.7500     58.2971     28.2202     27.9366     39.2661     92.7642
   835.0000     57.1888     29.6257     28.9144     39.2470     92.1059
   835.2500     56.0831     31.1955     30.0882     39.6295     92.0554
   835.5000     54.9884     32.8665     31.4903     40.9390     92.1248
   835.7500     53.9147     34.5557     33.1387     43.7570     91.6467
   836.0000     52.8731     36.1803     35.0521     48.7051     89.0762
   836.2500     51.8739     37.6887     37.2633     56.3166     86.0006
   836.5000     50.9277     39.0862     39.8069     66.5904     80.3325
   836.7500     50.0492     40.4333     42.6633     78.5150     76.6963
   837.0000     49.2588     41.8141     45.6753     90.1549     72.3506
   837.2500     48.5775     43.2967     48.5036     99.4315     70.4064
   837.5000     48.0193     44.9079     50.7110    104.9910     69.3750
   837.7500     47.5885     46.6279     51.9871    106.4830     70.1364
   838.0000     47.2822     48.3998     52.3553    104.2645     72.7386
   838.2500     47.0940     50.1497     52.1616     99.1057     74.4523
   838.5000     47.0145     51.8127     51.8714     92.2052     75.6381
   838.7500     47.0320     53.3522     51.8614     85.1509     75.4541
   839.0000     47.1335     54.7585     52.3192     79.4026     74.4739
   839.2500     47.3088     56.0256     53.2330     75.6023     73.7905
   839.5000     47.5519     57.1222     54.4359     73.4521     73.1260
   839.7500     47.8593     57.9696     55.6984     72.3592     72.9579
   840.0000     48.2278     58.4434     56.8514     72.2420     72.7093
   840.2500     48.6563     58.4119     57.8671     73.7747     72.0705
   840.5000     49.1495     57.8059     58.8263     77.8353     69.8231
   840.7500     49.7176     56.6700     59.7871     84.4876     67.6943
   841.0000     50.3719     55.1455     60.6457     92.2667     64.9328
   841.2500     51.1191     53.4020     61.0794     98.5402     64.2521
   841.5000     51.9582     51.5812     60.6370    100.9866     65.5144
   841.7500     52.8797     49.7833     58.9774     99.1261     67.4608
   842.0000     53.8684     48.0834     56.1034     94.5145     70.7591
   842.2500     54.9068     46.5463     52.3816     89.2594     72.8304
   842.5000     55.9745     45.2266     48.3400     84.1354     76.5500
   842.7500     57.0475     44.1584     44.4486     78.1049     80.4165
   843.0000     58.0993     43.3427     41.0279     69.7556     89.1681
   843.2500     59.1045     42.7426     38.2576     59.1918     96.3797
   843.5000     60.0426     42.2893     36.2118     48.4441    106.7732
