~Version Information
VERS.                      2.0: CWLS Log ASCII Standard - VERSION 2.0
WRAP.                       NO: One line per depth step
~Well Information Block
STRT.FT               185.5000: 
STOP.FT              2039.2500: 
STEP.FT                 0.2500: 
NULL.                -999.2500: 
COMP.          Petrogulf Corporation: COMPANY
WELL.            Montoya 7-12R: WELL
FLD.           Purgatorie River: FIELD
LOC.           1769' FNL & 658' FWL--: LOCATION
PROV.                       CO: PROVINCE
CNTY.               Las Animas: COUNTRY
SRVC.                         : SERVICE COMPANY
DATE.          Wed Feb 09 09:05:42 2005: LOG DATE
UWI.         005 071 08240  : UNIQUE WELL ID
~Curve Information Block
DEPT.FT            0 000 00 00: Depth
CCL.                          : Casing Collar Locator
CCLRT.                        : CCLRT
TT3.usec                      : CBL 3' Travel Time
AMP3.mV                       : CBL 3' Amplitude
GR.GAPI                       : Gamma Ray
~Parameter Information Block
~A  Depth       CCL        CCLRT        TT3         AMP3         GR     
# ...
  1893.5000      0.0000   -999.2500    712.1367      3.3419    148.0364
  1893.7500      0.0000   -999.2500    707.1907      3.4868    150.9048
  1894.0000      0.0000   -999.2500    703.4512      3.5924    154.2284
  1894.2500      0.0000   -999.2500    701.4386      3.6069    157.0069
  1894.5000      0.0000   -999.2500    699.7098      3.5504    156.9670
  1894.7500      0.0000   -999.2500    695.3947      3.5050    152.8157
  1895.0000      0.0000   -999.2500    688.4572      3.5372    146.5776
  1895.2500      2.0000   -999.2500    684.7037      3.6354    142.6763
  1895.5000      2.0000   -999.2500    691.2535      3.7279    144.2391
  1895.7500      0.0000   -999.2500    707.6795      3.7520    150.7048
  1896.0000      0.0000   -999.2500    724.3154      3.6972    158.8979
  1896.2500      0.0000   -999.2500    731.2831      3.5912    165.5881
  1896.5000      0.0000   -999.2500    727.2578      3.4645    168.7728
  1896.7500      0.0000   -999.2500    718.3292      3.3306    167.5021
  1897.0000      0.0000   -999.2500    711.0076      3.1902    161.7644
  1897.2500      0.0000   -999.2500    707.9769      3.0510    152.8729
  1897.5000      0.0000   -999.2500    708.2832      2.9357    143.4457
  1897.7500      0.0000   -999.2500    709.2686      2.8651    136.4760
  1898.0000      0.0000   -999.2500    709.0234      2.8406    134.1002
  1898.2500      0.0000   -999.2500    708.0474      2.8427    136.9747
  1898.5000      0.0000   -999.2500    707.9669      2.8390    144.3869
  1898.7500      0.0000   -999.2500    708.4631      2.7996    154.3743
  1899.0000      0.0000   -999.2500    706.6370      2.7164    163.8388
  1899.2500      0.0000   -999.2500    700.0948      2.6157    169.5989
  1899.5000      0.0000   -999.2500    689.8127      2.5497    170.1565
  1899.7500      0.0000   -999.2500    679.4751      2.5654    166.3934
  1900.0000      0.0000   -999.2500    672.8777      2.6732    160.4338
  1900.2500      0.0000   -999.2500    672.0522      2.8451    154.2151
  1900.5000      0.0000   -999.2500    676.2398      3.0423    149.0348
  1900.7500      0.0000   -999.2500    682.0370      3.2380    145.6190
  1901.0000      0.0000   -999.2500    685.7293      3.4119    144.0773
  1901.2500      0.0000   -999.2500    686.3109      3.5397    144.1769
  1901.5000      0.0000   -999.2500    686.0473      3.6008    145.7845
  1901.7500      0.0000   -999.2500    688.0005      3.6011    148.6532
  1902.0000      0.0000   -999.2500    693.0458      3.5846    151.8598
  1902.2500      0.0000   -999.2500    699.0616      3.6170    154.0113
  1902.5000      0.0000   -999.2500    702.7145      3.7506    154.0246
  1902.7500      0.0000   -999.2500    701.9928      3.9983    151.4338
  1903.0000      0.0000   -999.2500    697.3594      4.3403    146.3601
  1903.2500      0.0000   -999.2500    691.0861      4.7489    139.9115
  1903.5000      0.0000   -999.2500    685.9609      5.1953    134.4607
  1903.7500      0.0000   -999.2500    684.1216      5.6379    132.4147
  1904.0000      0.0000   -999.2500    686.0694      6.0246    134.1302
  1904.2500      0.0000   -999.2500    690.6155      6.3166    137.5132
  1904.5000      0.0000   -999.2500    696.3522      6.5059    139.7962
  1904.7500      0.0000   -999.2500    703.2290      6.6146    139.4540
  1905.0000      0.0000   -999.2500    712.2657      6.6859    136.9334
  1905.2500      0.0000   -999.2500    723.4674      6.7666    134.4221
  1905.5000      0.0000   -999.2500    734.0317      6.8791    134.6521
  1905.7500      0.0000   -999.2500    739.1472      7.0073    139.0777
  1906.0000      0.0000   -999.2500    735.7104      7.1194    146.8813
  1906.2500      0.0000   -999.2500    725.6970      7.2082    155.6642
  1906.5000      0.0000   -999.2500    714.9844      7.2936    162.8984
  1906.7500      0.0000   -999.2500    708.5249      7.3860    166.8991
  1907.0000      0.0000   -999.2500    707.3466      7.4613    167.1571
  1907.2500      0.0000   -999.2500    710.0344      7.4797    164.3149
  1907.5000      0.0000   -999.2500    715.2136      7.4157    159.6416
  1907.7500      0.0000   -999.2500    721.4708      7.2630    154.2421
  1908.0000      0.0000   -999.2500    726.2048      7.0195    148.8474
  1908.2500      0.0000   -999.2500    726.7496      6.6799    144.0975
  1908.5000      0.0000   -999.2500    722.5881      6.2475    140.4592
  1908.7500      0.0000   -999.2500    714.6503      5.7553    137.9900
  1909.0000      0.0000   -999.2500    702.3501      5.2734    136.3997
  1909.2500      0.0000   -999.2500    683.8727      4.8841    135.1009
  1909.5000      0.0000   -999.2500    660.9583      4.6414    133.4568
  1909.7500      0.0000   -999.2500    641.8368      4.5505    131.6981
  1910.0000      0.0000   -999.2500    637.1589      4.5862    131.3570
  1910.2500      0.0000   -999.2500    651.8369      4.7283    133.9816
  1910.5000      0.0000   -999.2500    680.0631      4.9800    139.5664
  1910.7500      0.0000   -999.2500    708.3259      5.3556    146.5789
  1911.0000      0.0000   -999.2500    724.3499      5.8564    153.0625
  1911.2500      0.0000   -999.2500    723.7968      6.4698    157.4198
  1911.5000      0.0000   -999.2500    708.0365      7.2012    158.8663
  1911.7500      0.0000   -999.2500    676.6561      8.1013    157.6784
  1912.0000      0.0000   -999.2500    625.4949      9.2351    154.8538
  1912.2500      0.0000   -999.2500    554.2570     10.6010    151.4483
  1912.5000      0.0000   -999.2500    473.9129     12.0746    148.1828
  1912.7500      0.0000   -999.2500    402.5617     13.4421    145.4615
  1913.0000      0.0000   -999.2500    353.1433     14.5022    143.6344
  1913.2500      0.0000   -999.2500    326.6756     15.1485    143.0926
  1913.5000      0.0000   -999.2500    316.5150     15.3816    143.7698
  1913.7500      0.0000   -999.2500    316.7147     15.2595    144.5571
  1914.0000      0.0000   -999.2500    327.1760     14.8396    143.8218
  1914.2500      0.0000   -999.2500    353.6898     14.1527    140.9628
  1914.5000      0.0000   -999.2500    402.7135     13.2236    137.1504
  1914.7500      0.0000   -999.2500    472.7545     12.1043    134.1008
  1915.0000      0.0000   -999.2500    549.9952     10.8830    132.3398
  1915.2500      0.0000   -999.2500    615.3972      9.6588    131.0688
  1915.5000      0.0000   -999.2500    657.8130      8.5031    129.7468
  1915.7500      0.0000   -999.2500    679.4509      7.4458    129.2080
  1916.0000      0.0000   -999.2500    689.5010      6.5016    130.6674
  1916.2500      0.0000   -999.2500    694.9280      5.7038    133.8292
  1916.5000      0.0000   -999.2500    697.1540      5.0868    136.7147
  1916.7500      2.0000   -999.2500    695.0984      4.6433    137.5478
  1917.0000     -2.0000   -999.2500    689.8400      4.3223    136.4082
  1917.2500     -2.0000   -999.2500    685.9586      4.0683    134.7688
  1917.5000      0.0000   -999.2500    688.0156      3.8405    133.6715
  1917.7500      0.0000   -999.2500    695.8461      3.6111    132.7156
  1918.0000      0.0000   -999.2500    704.3262      3.3747    130.6788
  1918.2500      0.0000   -999.2500    708.1316      3.1487    126.7117
  1918.5000      0.0000   -999.2500    706.0206      2.9432    120.8269
  1918.7500      0.0000   -999.2500    700.5717      2.7367    113.4417
  1919.0000      0.0000   -999.2500    695.2852      2.5007    104.8129
  1919.2500      0.0000   -999.2500    692.4931      2.2424     95.1691
  1919.5000      0.0000   -999.2500    692.6281      2.0076     85.1833
  1919.7500      0.0000   -999.2500    694.1064      1.8419     75.8992
  1920.0000      0.0000   -999.2500    694.1144      1.7536     68.0939
  1920.2500      0.0000   -999.2500    690.5460      1.7133     61.8660
  1920.5000      0.0000   -999.2500    683.7025      1.6820     56.8256
  1920.7500      0.0000   -999.2500    676.0740      1.6386     52.5679
  1921.0000      0.0000   -999.2500    670.5117      1.5829     49.1494
  1921.2500      0.0000   -999.2500    668.6995      1.5239     47.2713
