~Version Information
VERS.                      2.0: CWLS Log ASCII Standard - VERSION 2.0
WRAP.                       NO: One line per depth step
~Well Information Block
STRT.FT               259.0000: 
STOP.FT              2382.0000: 
STEP.FT                 0.2500: 
NULL.                -999.2500: 
COMP.          Pioneer Natural Resources: COMPANY
WELL.          Foothills 12-36: WELL
FLD.           Purgatoire River: FIELD
LOC.           2450' FNL & 201' FWL: LOCATION
PROV.                 Colorado: PROVINCE
CNTY.               Las Animas: COUNTRY
SRVC.                Patterson: SERVICE COMPANY
DATE.          Thu Apr 21 03:00:58 2005: LOG DATE
UWI.           05 071 08339 00: UNIQUE WELL ID
~Curve Information Block
DEPT.FT            0 000 00 00: Depth
SN.Ohm-m                      : IEL Short Normal
SP.mV                         : IEL Spontaneous Potential
DIR.Ohm-m                     : IEL Induction Resistivity
GR.GAPI                       : Gamma Ray
~Parameter Information Block
~A  Depth        SN          SP         DIR          GR     
# ...
  1230.5000     10.0747   -191.2921      7.6134    105.2170
  1230.7500     10.0960   -191.2267      7.7630    106.6346
  1231.0000     10.1062   -191.1348      7.9190    107.9128
  1231.2500     10.0815   -191.0158      8.0729    107.6479
  1231.5000     10.0050   -190.8760      8.2153    105.7810
  1231.7500      9.9303   -190.7452      8.3376    104.0947
  1232.0000      9.9709   -190.6645      8.4341    101.6126
  1232.2500     10.1869   -190.6546      8.5048    100.0641
  1232.5000     10.5334   -190.7012      8.5532     97.8405
  1232.7500     10.9089   -190.7680      8.5816     96.5567
  1233.0000     11.2109   -190.8197      8.5880     95.5075
  1233.2500     11.3725   -190.8337      8.5678     95.7540
  1233.5000     11.3697   -190.8034      8.5189     97.7804
  1233.7500     11.2350   -190.7409      8.4458     99.9920
  1234.0000     11.0761   -190.6707      8.3566    103.5027
  1234.2500     10.9488   -190.6086      8.2582    105.1711
  1234.5000     10.7320   -190.5458      8.1547    105.7776
  1234.7500     10.2546   -190.4599      8.0479    104.9667
  1235.0000      9.4704   -190.3388      7.9396    102.7757
  1235.2500      8.5353   -190.1919      7.8322    101.2365
  1235.5000      7.7810   -190.0440      7.7290     99.4664
  1235.7500      7.4840   -189.9227      7.6344     98.8362
  1236.0000      7.6836   -189.8503      7.5545     98.8835
  1236.2500      8.2721   -189.8375      7.4943     99.5711
  1236.5000      9.0609   -189.8854      7.4550    101.1687
  1236.7500      9.7484   -189.9917      7.4321    102.1206
  1237.0000     10.0616   -190.1596      7.4178    102.6016
  1237.2500     10.0078   -190.3973      7.4070    102.1748
  1237.5000      9.8370   -190.7074      7.4005    100.8398
  1237.7500      9.7222   -191.0768      7.4042     99.9457
  1238.0000      9.6758   -191.4766      7.4234     99.3988
  1238.2500      9.7081   -191.8719      7.4590     99.7885
  1238.5000      9.8170   -192.2338      7.5078    101.1727
  1238.7500      9.9046   -192.5460      7.5663    102.1710
  1239.0000      9.8853   -192.8015      7.6343    103.1496
  1239.2500      9.8107   -192.9987      7.7160    103.3157
  1239.5000      9.7951   -193.1421      7.8167    102.8809
  1239.7500      9.8734   -193.2455      7.9375    102.2683
  1240.0000      9.9853   -193.3303      8.0721    101.1788
  1240.2500     10.0779   -193.4149      8.2070    100.4866
  1240.5000     10.1859   -193.5031      8.3264     99.5820
  1240.7500     10.3699   -193.5840      8.4188     98.9813
  1241.0000     10.5973   -193.6411      8.4821     97.5726
  1241.2500     10.7655   -193.6622      8.5237     95.8364
  1241.5000     10.8257   -193.6462      8.5549     91.6492
  1241.7500     10.7648   -193.6067      8.5850     88.1833
  1242.0000     10.5911   -193.5675      8.6183     83.3195
  1242.2500     10.4443   -193.5479      8.6567     80.8396
  1242.5000     10.4831   -193.5512      8.7032     78.1347
  1242.7500     10.6545   -193.5668      8.7622     76.6568
  1243.0000     10.7884   -193.5829      8.8355     74.8030
  1243.2500     10.8387   -193.5972      8.9178     74.0666
  1243.5000     10.8775   -193.6186      8.9970     74.0736
  1243.7500     10.9709   -193.6603      9.0609     74.7570
  1244.0000     11.1335   -193.7294      9.1031     76.4241
  1244.2500     11.2861   -193.8187      9.1260     77.8025
  1244.5000     11.3209   -193.9078      9.1355     80.1743
  1244.7500     11.2285   -193.9725      9.1349     81.8905
  1245.0000     11.0427   -193.9937      9.1228     84.4149
  1245.2500     10.7927   -193.9618      9.0971     85.9231
  1245.5000     10.5663   -193.8765      9.0598     87.8377
  1245.7500     10.4258   -193.7531      9.0185     88.8574
  1246.0000     10.3313   -193.6272      8.9839     89.8989
  1246.2500     10.2728   -193.5400      8.9644     90.2783
  1246.5000     10.3003   -193.5064      8.9644     90.7146
  1246.7500     10.3820   -193.4981      8.9833     91.2476
  1247.0000     10.4328   -193.4641      9.0178     92.8389
  1247.2500     10.4621   -193.3657      9.0629     94.3953
  1247.5000     10.5095   -193.1961      9.1129     96.8025
  1247.7500     10.5280   -192.9776      9.1629     97.8773
  1248.0000     10.4850   -192.7520      9.2117     98.0450
  1248.2500     10.4569   -192.5690      9.2620     97.2587
  1248.5000     10.5403   -192.4715      9.3179     95.4354
  1248.7500     10.7462   -192.4794      9.3807     94.1882
  1249.0000     10.9748   -192.5817      9.4470     92.3930
  1249.2500     11.1228   -192.7460      9.5094     91.0386
  1249.5000     11.2080   -192.9473      9.5590     88.5152
  1249.7500     11.2665   -193.1935      9.5876     86.6614
  1250.0000     11.2642   -193.5307      9.5906     84.3056
  1250.2500     11.2290   -194.0107      9.5696     83.3851
  1250.5000     11.2468   -194.6416      9.5342     83.2213
  1250.7500     11.3030   -195.3636      9.4991     83.8778
  1251.0000     11.3129   -196.0805      9.4791     85.8097
  1251.2500     11.2732   -196.7195      9.4847     87.5540
  1251.5000     11.2675   -197.2654      9.5197     90.3908
  1251.7500     11.3478   -197.7469      9.5815     92.0667
  1252.0000     11.4625   -198.1939      9.6640     93.5980
  1252.2500     11.4911   -198.6080      9.7614     93.7056
  1252.5000     11.3735   -198.9680      9.8705     92.6534
  1252.7500     11.2067   -199.2540      9.9903     91.5822
  1253.0000     11.1426   -199.4563     10.1190     90.1259
  1253.2500     11.2465   -199.5676     10.2515     89.3130
  1253.5000     11.4816   -199.5816     10.3804     88.0032
  1253.7500     11.7215   -199.5079     10.5003     87.0054
  1254.0000     11.8392   -199.3786     10.6108     85.7376
  1254.2500     11.8383   -199.2344     10.7158     85.3616
  1254.5000     11.8117   -199.1004     10.8182     85.5012
  1254.7500     11.8271   -198.9749     10.9152     85.7065
  1255.0000     11.9233   -198.8358     10.9977     85.7046
  1255.2500     12.1078   -198.6590     11.0545     85.6274
  1255.5000     12.2842   -198.4320     11.0797     85.9369
  1255.7500     12.3120   -198.1606     11.0757     86.4666
  1256.0000     12.1893   -197.8649     11.0495     87.1911
  1256.2500     12.0547   -197.5724     11.0057     87.3227
  1256.5000     11.9617   -197.3079     10.9411     87.1863
  1256.7500     11.8008   -197.0848     10.8478     87.3633
  1257.0000     11.5330   -196.9003     10.7184     88.8216
  1257.2500     11.2644   -196.7363     10.5525     90.7015
  1257.5000     11.0542   -196.5656     10.3578     94.4246
  1257.7500     10.8896   -196.3687     10.1483     97.0285
  1258.0000     10.8021   -196.1499      9.9381    100.4009
  1258.2500     10.8351   -195.9422      9.7369    102.1743
  1258.5000     10.9326   -195.7863      9.5489    104.3975
  1258.7500     10.9569   -195.6983      9.3747    105.7214
  1259.0000     10.8557   -195.6587      9.2150    107.2534
  1259.2500     10.7533   -195.6362      9.0727    107.7369
  1259.5000     10.7650   -195.6184      8.9535    107.4787
  1259.7500     10.7973   -195.6199      8.8638    106.6672
  1260.0000     10.6707   -195.6684      8.8072    104.3805
  1260.2500     10.3774   -195.7859      8.7826    101.9304
  1260.5000     10.1175   -195.9762      8.7815     96.5269
  1260.7500     10.0315   -196.2199      8.7909     91.8439
  1261.0000     10.0117   -196.4795      8.7973     84.1758
  1261.2500      9.9090   -196.7139      8.7926     79.7548
  1261.5000      9.7940   -196.8965      8.7773     76.5428
  1261.7500      9.8672   -197.0255      8.7606     77.7318
  1262.0000     10.1908   -197.1169      8.7552     84.5368
  1262.2500     10.5994   -197.1890      8.7725     91.2378
  1262.5000     10.8702   -197.2494      8.8186    101.5048
  1262.7500     10.9487   -197.2957      8.8927    106.9882
  1263.0000     10.9349   -197.3205      8.9887    111.8630
  1263.2500     10.9135   -197.3140      9.0973    112.8374
  1263.5000     10.8695   -197.2645      9.2102    111.9011
  1263.7500     10.7151   -197.1630      9.3241    110.7223
