~Version Information
VERS.                      2.0: CWLS Log ASCII Standard - VERSION 2.0
WRAP.                       NO: One line per depth step
~Well Information Block
STRT.FT               950.0000: 
STOP.FT              2417.7000: 
STEP.FT                 0.1000: 
NULL.                -999.2500: 
COMP.          Pioneer Natural Resources: COMPANY
WELL.            Chevron 13-13: WELL
FLD.           Purgatoire River: FIELD
LOC.           1560' FSL & 711' FWL--: LOCATION
CNTY.               Las Animas: COUNTY
SRVC.          Superior Well Services: SERVICE COMPANY
DATE.          Mon Feb 12 14:55:24 2007: LOG DATE
UWI.           05 071 08319 00: UNIQUE WELL ID
STAT.                 Colorado: STATE
~Curve Information Block
DEPT.FT            0 000 00 00: Depth
DCAL.in                       : CDL Caliper
RHOB.g/cc                     : CDL Bulk Density
RHOC.g/cc                     : CDL Density Correction
DPOR.pu                       : CDL Density Porosity
GR.GAPI                       : Gamma Ray
~Parameter Information Block
~A  Depth       DCAL        RHOB        RHOC        DPOR         GR     
# ...
  2092.4000      7.8689      2.4699      0.0393     10.9143    151.9680
  2092.5000      7.8714      2.4955      0.0997      9.3610    139.9291
  2092.6000      7.8714      2.5097      0.0743      8.5058    127.2460
  2092.7000      7.8714      2.5112      0.0513      8.4094    121.5130
  2092.8000      7.8709      2.5215      0.0580      7.7875    114.2197
  2092.9000      7.8709      2.5478      0.0909      6.1966    103.7433
  2093.0000      7.8659      2.5660      0.1199      5.0935    100.6043
  2093.1000      7.8659      2.5562      0.0911      5.6828    108.4350
  2093.2000      7.8659      2.5318      0.0383      7.1617    118.4937
  2093.3000      7.8603      2.5129      0.0580      8.3064    122.6054
  2093.4000      7.8603      2.5048      0.0309      8.8023    120.5030
  2093.5000      7.8593      2.5074      0.0272      8.6414    116.5205
  2093.6000      7.8593      2.5199      0.0717      7.8819    111.9243
  2093.7000      7.8593      2.5361      0.0672      6.9015    108.8587
  2093.8000      7.8641      2.5494      0.0443      6.0943    112.0795
  2093.9000      7.8641      2.5467      0.0900      6.2604    121.2759
  2094.0000      7.8698      2.5128      0.0813      8.3130    130.4757
  2094.1000      7.8698      2.4664     -0.0263     11.1301    134.5024
  2094.2000      7.8698      2.4468     -0.0039     12.3169    133.9460
  2094.3000      7.8744      2.4619      0.0088     11.3999    131.2600
  2094.4000      7.8744      2.4959      0.0090      9.3376    128.0100
  2094.5000      7.8778      2.5308      0.0714      7.2228    128.5054
  2094.6000      7.8778      2.5453      0.0706      6.3459    133.8013
  2094.7000      7.8778      2.5370      0.0537      6.8458    137.6996
  2094.8000      7.8792      2.5258      0.0686      7.5263    136.4721
  2094.9000      7.8792      2.5189      0.0790      7.9471    131.1803
  2095.0000      7.8789      2.5086      0.0860      8.5698    124.7450
  2095.1000      7.8789      2.4975      0.0653      9.2399    121.8308
  2095.2000      7.8789      2.4978      0.0734      9.2256    122.5174
  2095.3000      7.8753      2.5162      0.0625      8.1086    124.2228
  2095.4000      7.8753      2.5444      0.1229      6.3973    128.1787
  2095.5000      7.8691      2.5610      0.0995      5.3934    132.8088
  2095.6000      7.8691      2.5588      0.0875      5.5246    134.5786
  2095.7000      7.8691      2.5496      0.0926      6.0859    129.2382
  2095.8000      7.8634      2.5453      0.0521      6.3428    113.9811
  2095.9000      7.8634      2.5471      0.0848      6.2351     99.4044
  2096.0000      7.8602      2.5409      0.0808      6.6122     96.1628
  2096.1000      7.8602      2.5204      0.0771      7.8562     99.5492
  2096.2000      7.8602      2.5021      0.0225      8.9611    101.8680
  2096.3000      7.8610      2.5030      0.0215      8.9103    101.0863
  2096.4000      7.8610      2.5130      0.0568      8.3054     98.7293
  2096.5000      7.8667      2.5200      0.0258      7.8786    102.0354
  2096.6000      7.8667      2.5374      0.0135      6.8264    112.9606
  2096.7000      7.8667      2.5752      0.0305      4.5328    118.7970
  2096.8000      7.8726      2.6081      0.1300      2.5366    112.4271
  2096.9000      7.8726      2.6071      0.0914      2.6007    102.6681
  2097.0000      7.8740      2.5875      0.0362      3.7878     99.9689
  2097.1000      7.8740      2.5816      0.0503      4.1437    108.7310
  2097.2000      7.8740      2.5961      0.0730      3.2651    120.7563
  2097.3000      7.8749      2.6153      0.0732      2.1010    123.1452
  2097.4000      7.8749      2.6186      0.0883      1.9039    114.0942
  2097.5000      7.8771      2.6015      0.0377      2.9376    103.1640
  2097.6000      7.8771      2.5815      0.0400      4.1519     97.5919
  2097.7000      7.8771      2.5725      0.0051      4.6966     98.5495
  2097.8000      7.8784      2.5724      0.0441      4.7052    102.5857
  2097.9000      7.8784      2.5766      0.0234      4.4512    103.4790
  2098.0000      7.8773      2.5862      0.0475      3.8672    103.8248
  2098.1000      7.8773      2.5983      0.0672      3.1332    107.2082
  2098.2000      7.8773      2.6096      0.0858      2.4472    109.0312
  2098.3000      7.8752      2.6158      0.0767      2.0726    110.0544
  2098.4000      7.8752      2.6126      0.0421      2.2684    111.4615
  2098.5000      7.8758      2.6064      0.0562      2.6442    108.5945
  2098.6000      7.8758      2.6023      0.0753      2.8896    101.3912
  2098.7000      7.8758      2.5988      0.0522      3.1005     94.3716
  2098.8000      7.8780      2.6004      0.0394      3.0066     89.4800
  2098.9000      7.8780      2.6076      0.0684      2.5679     87.5325
  2099.0000      7.8785      2.6082      0.0876      2.5316     86.5780
  2099.1000      7.8785      2.5964      0.0576      3.2486     84.8729
  2099.2000      7.8785      2.5821      0.0414      4.1165     85.4023
  2099.3000      7.8768      2.5760      0.0080      4.4866     86.2322
  2099.4000      7.8768      2.5755      0.0434      4.5137     84.7764
  2099.5000      7.8747      2.5695      0.0269      4.8766     83.6210
  2099.6000      7.8747      2.5565      0.0466      5.6665     83.8908
  2099.7000      7.8747      2.5496     -0.0280      6.0857     81.4094
  2099.8000      7.8732      2.5608      0.0264      5.4086     77.4180
  2099.9000      7.8732      2.5795      0.0745      4.2705     78.2749
  2100.0000      7.8705      2.5908      0.0748      3.5908     81.1377
  2100.1000      7.8705      2.5857      0.0910      3.8942     84.9194
  2100.2000      7.8705      2.5618      0.0259      5.3466     91.2563
  2100.3000      7.8691      2.5338      0.0190      7.0414     95.4649
  2100.4000      7.8691      2.5168      0.0206      8.0711     97.0065
  2100.5000      7.8719      2.5123      0.0139      8.3471     99.1842
  2100.6000      7.8719      2.5190      0.0308      7.9406    103.8509
  2100.7000      7.8719      2.5274      0.0940      7.4324    111.8231
  2100.8000      7.8733      2.5174      0.0818      8.0384    119.6689
  2100.9000      7.8733      2.4900      0.0418      9.6979    126.2469
  2101.0000      7.8733      2.4651      0.0389     11.2066    138.0549
  2101.1000      7.8733      2.4543     -0.0107     11.8628    151.8616
  2101.2000      7.8733      2.4574      0.0641     11.6731    151.4147
  2101.3000      7.8740      2.4694      0.0219     10.9484    133.1877
  2101.4000      7.8740      2.4896      0.0760      9.7225    114.3775
  2101.5000      7.8719      2.5149      0.0288      8.1893    108.1046
  2101.6000      7.8719      2.5338      0.1055      7.0431    112.4079
  2101.7000      7.8719      2.5345      0.0867      7.0012    119.8179
  2101.8000      7.8695      2.5234      0.0379      7.6707    123.3098
  2101.9000      7.8695      2.5113      0.1043      8.4090    120.5242
  2102.0000      7.8685      2.5009      0.0313      9.0383    116.8056
  2102.1000      7.8685      2.5032      0.0616      8.8954    117.3666
  2102.2000      7.8685      2.5176      0.0739      8.0242    119.1523
  2102.3000      7.8666      2.5254      0.0718      7.5505    118.7064
  2102.4000      7.8666      2.5196      0.0616      7.9009    116.0535
  2102.5000      7.8647      2.5101      0.0491      8.4809    115.0646
  2102.6000      7.8647      2.5117      0.0566      8.3796    119.3476
  2102.7000      7.8647      2.5342      0.0787      7.0175    124.9215
  2102.8000      7.8634      2.5657      0.1006      5.1096    127.5831
  2102.9000      7.8634      2.5796      0.0895      4.2667    123.3781
  2103.0000      7.8620      2.5630      0.1142      5.2749    111.9197
  2103.1000      7.8620      2.5327      0.0256      7.1069    101.9437
  2103.2000      7.8620      2.5147      0.0686      8.1999    102.7130
  2103.3000      7.8593      2.5134      0.0500      8.2786    112.4539
  2103.4000      7.8593      2.5235      0.0473      7.6641    119.9306
  2103.5000      7.8585      2.5360      0.0668      6.9091    114.5258
