~Version Information
VERS.                      2.0: CWLS Log ASCII Standard - VERSION 2.0
WRAP.                       NO: One line per depth step
~Well Information Block
STRT.FT               483.5000: 
STOP.FT              2348.7500: 
STEP.FT                 0.2500: 
NULL.                -999.2500: 
COMP.          Pioneer Natural Resources: COMPANY
WELL.          Hill Climb 22-2: WELL
FLD.           Purgatoire River: FIELD
LOC.           1820' FNL & 2193' FWL: LOCATION
PROV.                 Colorado: PROVINCE
CNTY.               Las Animas: COUNTRY
SRVC.                Patterson: SERVICE COMPANY
DATE.          Wed Oct 20 08:57:51 2004: LOG DATE
UWI.           05 071 08175 00: UNIQUE WELL ID
~Curve Information Block
DEPT.FT            0 000 00 00: Depth
DIR.Ohm-m                     : IEL Induction Resistivity
SN.Ohm-m                      : IEL Short Normal
SP.mV                         : IEL Spontaneous Potential
GR.GAPI                       : Gamma Ray
~Parameter Information Block
~A  Depth       DIR          SN          SP          GR     
# ...
  2091.5000      8.2085      6.4555      3.5615    136.4683
  2091.7500      8.5665      6.9597      3.1018    135.3341
  2092.0000      8.9656      7.7340      2.5406    133.9468
  2092.2500      9.4054      8.7519      1.9030    133.7215
  2092.5000      9.8822      9.9468      1.2224    133.9680
  2092.7500     10.3879     11.2046      0.5383    133.7074
  2093.0000     10.9098     12.3704     -0.1069    131.7132
  2093.2500     11.4283     13.2925     -0.6705    129.3313
  2093.5000     11.9173     13.8841     -1.1146    124.7576
  2093.7500     12.3457     14.1548     -1.4112    121.4072
  2094.0000     12.6804     14.1814     -1.5492    116.4445
  2094.2500     12.8932     14.0474     -1.5383    113.3640
  2094.5000     12.9690     13.8123     -1.4080    109.1660
  2094.7500     12.9117     13.5201     -1.2019    106.8015
  2095.0000     12.7447     13.2093     -0.9678    104.9919
  2095.2500     12.5011     12.9011     -0.7482    105.9221
  2095.5000     12.2126     12.5970     -0.5752    111.4535
  2095.7500     11.9036     12.2957     -0.4703    117.3375
  2096.0000     11.5911     12.0036     -0.4493    126.5636
  2096.2500     11.2893     11.7278     -0.5281    131.0521
  2096.5000     11.0126     11.4696     -0.7267    134.0166
  2096.7500     10.7769     11.2385     -1.0667    134.3595
  2097.0000     10.5991     11.0653     -1.5638    134.6236
  2097.2500     10.4966     10.9958     -2.2194    134.9630
  2097.5000     10.4857     11.0778     -3.0145    134.6125
  2097.7500     10.5784     11.3537     -3.9117    133.1659
  2098.0000     10.7783     11.8517     -4.8608    129.3933
  2098.2500     11.0795     12.5687     -5.8091    126.4946
  2098.5000     11.4684     13.4646     -6.7115    122.3491
  2098.7500     11.9276     14.4797     -7.5395    119.5237
  2099.0000     12.4390     15.5579     -8.2858    114.2622
  2099.2500     12.9866     16.6515     -8.9627    109.6936
  2099.5000     13.5599     17.7173     -9.5905    101.4404
  2099.7500     14.1556     18.7212    -10.1806     95.5928
  2100.0000     14.7726     19.6439    -10.7206     87.6438
  2100.2500     15.4046     20.4617    -11.1701     83.5292
  2100.5000     16.0289     21.0957    -11.4704     79.4674
  2100.7500     16.5992     21.3746    -11.5648     77.7360
  2101.0000     17.0430     21.0849    -11.4173     75.4223
  2101.2500     17.2742     20.1221    -11.0241     73.8227
  2101.5000     17.2268     18.6287    -10.4135     71.7145
  2101.7500     16.8915     16.9660     -9.6390     70.5972
  2102.0000     16.3258     15.5120     -8.7688     69.4421
  2102.2500     15.6253     14.4566     -7.8757     69.7203
  2102.5000     14.8834     13.7601     -7.0266     73.6888
  2102.7500     14.1653     13.2728     -6.2708     79.1698
  2103.0000     13.5052     12.8788     -5.6300     90.1729
  2103.2500     12.9156     12.5452     -5.0929     97.9021
  2103.5000     12.4001     12.2774     -4.6174    108.5883
  2103.7500     11.9612     12.0647     -4.1419    115.0724
  2104.0000     11.6022     11.8754     -3.6016    123.8402
  2104.2500     11.3251     11.6828     -2.9470    128.6319
  2104.5000     11.1297     11.4883     -2.1584    133.8745
  2104.7500     11.0150     11.3223     -1.2521    136.5357
  2105.0000     10.9802     11.2251     -0.2785    139.7203
  2105.2500     11.0231     11.2213      0.6887    140.3537
  2105.5000     11.1366     11.3024      1.5687    136.3656
  2105.7500     11.3061     11.4303      2.2909    129.9755
  2106.0000     11.5115     11.5588      2.8090    117.9135
  2106.2500     11.7336     11.6603      3.1076    111.5730
  2106.5000     11.9594     11.7391      3.2000    109.1732
  2106.7500     12.1839     11.8229      3.1192    112.4103
  2107.0000     12.4084     11.9400      2.9045    120.3838
  2107.2500     12.6383     12.1004      2.5896    124.7218
  2107.5000     12.8843     12.2957      2.1943    126.5100
  2107.7500     13.1633     12.5134      1.7238    124.0674
  2108.0000     13.4942     12.7501      1.1719    116.0174
  2108.2500     13.8893     13.0131      0.5283    109.2994
  2108.5000     14.3451     13.3139     -0.2168    100.3660
  2108.7500     14.8384     13.6652     -1.0728     96.3472
  2109.0000     15.3289     14.0762     -2.0526     93.8586
  2109.2500     15.7627     14.5475     -3.1793     94.7073
  2109.5000     16.0724     15.0693     -4.4908     99.5628
  2109.7500     16.1767     15.6199     -6.0393    104.2691
  2110.0000     15.9941     16.1592     -7.8872    110.9765
  2110.2500     15.4795     16.6296    -10.0993    114.2389
  2110.5000     14.6680     16.9891    -12.7338    117.6985
  2110.7500     13.6825     17.2491    -15.8342    119.8747
  2111.0000     12.6877     17.4666    -19.4249    123.1471
  2111.2500     11.8286     17.6873    -23.5121    124.2776
  2111.5000     11.2035     17.8950    -28.0896    122.3229
  2111.7500     10.8881     18.0045    -33.1463    118.5042
  2112.0000     11.0044     17.8973    -38.6688    110.8387
  2112.2500     11.8646     17.4876    -44.6347    105.5703
  2112.5000     14.4184     16.7858    -50.9966     97.7820
  2112.7500     22.9103     15.9090    -57.6610     92.0741
  2113.0000    141.3920     15.0100    -64.4742     82.3245
  2113.2500 100000.0000     14.1731    -71.2243     75.9850
  2113.5000 100000.0000     13.3692    -77.6695     69.6484
  2113.7500 100000.0000     12.5084    -83.5870     68.6772
  2114.0000 100000.0000     11.5344    -88.8310     71.6106
  2114.2500 100000.0000     10.4689    -93.3733     75.2096
  2114.5000 100000.0000      9.3892    -97.3061     81.2910
  2114.7500 100000.0000      8.3849   -100.7950     85.7328
  2115.0000 100000.0000      7.5330   -103.9992     93.6462
  2115.2500 100000.0000      6.8828   -106.9908     99.4468
  2115.5000 100000.0000      6.4358   -109.7112    106.7271
  2115.7500 100000.0000      6.1357   -111.9877    109.4750
  2116.0000     20.0264      5.8876   -113.6052    110.6749
  2116.2500      9.2939      5.5968   -114.4064    110.7556
  2116.5000      6.4538      5.2092   -114.3806    111.7795
  2116.7500      5.5003      4.7345   -113.7116    113.3238
  2117.0000      5.6264      4.2430   -112.7643    115.7780
  2117.2500      7.3210      3.8312   -112.0189    116.5886
  2117.5000     15.9254      3.5718   -111.9792    116.2037
  2117.7500 100000.0000      3.4637   -113.0838    115.7034
  2118.0000 100000.0000      3.4043   -115.6448    116.6838
  2118.2500 100000.0000      3.2225   -119.8210    119.0577
  2118.5000 100000.0000      2.7741   -125.6202    123.9659
  2118.7500 100000.0000      2.0321   -132.9125    126.5122
  2119.0000 100000.0000      1.0919   -141.4386    126.6521
  2119.2500      2.1910      0.0989   -150.8092    123.6463
  2119.5000      0.6808     -0.8259   -160.5067    115.4735
  2119.7500      0.2677     -1.6122   -169.9209    109.2121
  2120.0000      0.1054     -2.2271   -178.4361    101.4277
  2120.2500      0.0451     -2.6608   -185.5579     97.6761
  2120.5000      0.0241     -2.9286   -191.0267     92.3714
  2120.7500      0.0168     -3.0734   -194.8590     87.8722
  2121.0000      0.0150     -3.1468   -197.2984     79.5800
  2121.2500      0.0167     -3.1788   -198.7036     73.7965
  2121.5000      0.0228     -3.1653   -199.4341     65.9338
  2121.7500      0.0384     -3.0875   -199.7763     61.7540
  2122.0000      0.0782     -2.9424   -199.9204     57.9286
  2122.2500      0.1781     -2.7473   -199.9748     56.9629
  2122.5000      0.4041     -2.5147   -199.9932     56.0005
  2122.7500      0.9226     -2.2180   -199.9988     54.3400
  2123.0000      2.4678     -1.7614   -200.0001     50.0775
  2123.2500     11.5268     -0.9634   -200.0001     47.1152
  2123.5000 100000.0000      0.4150   -200.0001     44.0998
  2123.7500 100000.0000      2.5463   -200.0001     43.1745
  2124.0000 100000.0000      5.3256   -200.0001     43.3193
  2124.2500 100000.0000      8.2239   -200.0001     44.8396
  2124.5000 100000.0000     10.4059   -200.0001     49.7870
  2124.7500    771.1417     11.1208   -200.0001     54.0578
