~Version Information
VERS.                      2.0: CWLS Log ASCII Standard - VERSION 2.0
WRAP.                       NO: One line per depth step
~Well Information Block
STRT.FT                -8.2500: 
STOP.FT               871.5000: 
STEP.FT                 0.2500: 
NULL.                -999.2500: 
COMP.          Pioneer Natural Resources: COMPANY
WELL.             Tomcat 32-10: WELL
FLD.           Purgatorie River: FIELD
LOC.           2286' FNL & 2463' FEL------: LOCATION
PROV.                       CO: PROVINCE
CNTY.               Las Animas: COUNTRY
SRVC.          Patterson Wireline: SERVICE COMPANY
DATE.          Mon Mar 28 09:03:25 2005: LOG DATE
UWI.           05 071 08301 00: UNIQUE WELL ID
~Curve Information Block
DEPT.FT            0 000 00 00: Depth
CCL.                          : Casing Collar Locator
TT3.usec                      : CBL 3' Travel Time
AMP3.mV                       : CBL 3' Amplitude
GR.GAPI                       : Gamma Ray
~Parameter Information Block
~A  Depth       CCL         TT3         AMP3         GR     
    -8.2500   -999.2500   -999.2500   -999.2500   -999.2500
    -8.0000   -999.2500   -999.2500   -999.2500   -999.2500
    -7.7500   -999.2500   -999.2500   -999.2500     74.1123
    -7.5000   -999.2500   -999.2500   -999.2500     76.5827
    -7.2500   -999.2500   -999.2500   -999.2500     79.6602
    -7.0000   -999.2500   -999.2500   -999.2500     82.2399
    -6.7500   -999.2500   -999.2500   -999.2500     82.8455
    -6.5000   -999.2500   -999.2500   -999.2500     81.1934
    -6.2500   -999.2500   -999.2500   -999.2500     78.3279
    -6.0000   -999.2500   -999.2500   -999.2500     75.4513
    -5.7500   -999.2500   -999.2500   -999.2500     73.0961
    -5.5000   -999.2500   -999.2500   -999.2500     71.2985
    -5.2500   -999.2500   -999.2500   -999.2500     70.1188
    -5.0000   -999.2500   -999.2500   -999.2500     69.8762
    -4.7500   -999.2500   -999.2500   -999.2500     70.9802
    -4.5000   -999.2500   -999.2500   -999.2500     73.4161
    -4.2500   -999.2500   -999.2500   -999.2500     76.3976
    -4.0000   -999.2500   -999.2500   -999.2500     78.9138
    -3.7500   -999.2500   -999.2500   -999.2500     80.7451
    -3.5000   -999.2500   -999.2500   -999.2500     82.4568
    -3.2500   -999.2500   -999.2500   -999.2500     84.2443
    -3.0000   -999.2500   -999.2500   -999.2500     85.3816
    -2.7500   -999.2500   -999.2500   -999.2500     85.1051
    -2.5000   -999.2500   1167.0000      2.3976     83.5873
    -2.2500   -999.2500   1167.0000      2.3863     81.6697
    -2.0000   -999.2500   1167.0000      2.3868     79.9442
    -1.7500   -999.2500   1167.0000      2.4025     78.2929
    -1.5000   -999.2500   1167.0000      2.4265     76.0331
    -1.2500   -999.2500   1167.0000      2.4480     72.3749
    -1.0000   -999.2500   1167.0000      2.4581     67.1251
    -0.7500   -999.2500   1167.0000      2.4528     61.2486
    -0.5000   -999.2500   1167.0000      2.4361     56.4779
    -0.2500   -999.2500   1167.0000      2.4212     53.9059
     0.0000   -999.2500   1167.0000      2.4466     51.8943
     0.2500   -999.2500   1167.0000      2.5070     49.5153
     0.5000   -999.2500   1167.0000      2.5144     45.8138
     0.7500   -999.2500   1167.0000      2.5090     41.6649
     1.0000   -999.2500   1167.0000      2.5042     38.1019
     1.2500   -999.2500   1167.0000      2.5038     35.9638
     1.5000   -999.2500   1167.0000      2.4977     35.7145
     1.7500   -999.2500   1167.0000      2.4744     37.3575
     2.0000   -999.2500   1167.0000      2.4350     40.6289
     2.2500   -999.2500   1167.0000      2.3948     45.2683
     2.5000   -999.2500   1167.0000      2.3724     50.8829
     2.7500      0.0000   1166.9799      2.3749     56.6106
     3.0000      0.0000   1166.8120      2.3961     61.2840
     3.2500      0.0000   1165.9065      2.4386     64.0466
     3.5000      0.0000   1162.0549      2.5713     64.6055
     3.7500      0.0000   1149.1244      3.0161     63.0291
     4.0000      0.0000   1114.8202      4.2165     59.7461
     4.2500      0.0000   1042.8828      6.7356     55.6915
     4.5000      0.0000    923.6820     10.8433     52.0565
     4.7500      0.0000    768.1285     16.0048     49.7659
     5.0000      0.0000    610.3818     20.8689     49.0985
     5.2500      0.0000    492.7935     24.0235     49.4442
     5.5000      0.0000    446.4248     24.8746     49.4914
     5.7500      0.0000    482.4602     23.8113     48.2211
     6.0000      0.0000    591.9498     21.6703     45.8003
     6.2500      0.0000    746.3314     19.1717     43.1571
     6.5000      0.0000    904.2267     16.7306     40.8538
     6.7500      0.0000   1029.4551     14.5367     38.9192
     7.0000      0.0000   1107.6155     12.6742     37.6049
     7.2500      0.0000   1146.1167     11.1865     37.5344
     7.5000      0.0000   1161.0774     10.0859     38.8231
     7.7500      0.0000   1165.6591      9.3395     40.5398
     8.0000     -2.0000   1166.7633      8.8724     41.5618
     8.2500      0.0000   1166.9724      8.5989     41.9047
     8.5000      0.0000   1167.0000      8.4506     42.7996
     8.7500      0.0000   1167.0000      8.3783     45.5215
     9.0000      0.0000   1167.0000      8.3419     50.6519
     9.2500      0.0000   1167.0000      8.3115     58.3549
     9.5000      0.0000   1166.9974      8.2739     68.4904
     9.7500      0.0000   1166.9830      8.2291     80.0054
    10.0000      0.0000   1166.9136      8.1814     90.6820
    10.2500      0.0000   1166.6582      8.1356     98.0499
    10.5000      0.0000   1165.9471      8.0974    100.5395
    10.7500      0.0000   1164.4744      8.0704     97.7730
    11.0000      0.0000   1162.2815      8.0535     90.2849
    11.2500      0.0000   1160.1346      8.0453     79.4187
    11.5000      0.0000   1159.2205      8.0472     67.3509
    11.7500      0.0000   1160.1346      8.0578     56.8175
    12.0000      0.0000   1162.2815      8.0668     50.2938
    12.2500      0.0000   1164.4744      8.0633     48.8242
    12.5000      0.0000   1165.9471      8.0454     51.3006
    12.7500      0.0000   1166.6582      8.0190     55.0506
    13.0000      0.0000   1166.9136      7.9903     57.5071
    13.2500      0.0000   1166.9830      7.9603     57.6859
    13.5000      0.0000   1166.9974      7.9242     56.3941
    13.7500      0.0000   1167.0000      7.8769     55.1977
    14.0000      0.0000   1167.0000      7.8235     55.0948
    14.2500      0.0000   1167.0000      7.7811     55.9694
    14.5000      0.0000   1167.0000      7.7651     57.0985
    14.7500      0.0000   1167.0000      7.7724     58.1602
    15.0000      0.0000   1167.0000      7.7855     59.8171
    15.2500      0.0000   1167.0000      7.7922     63.1671
    15.5000      0.0000   1166.9976      7.7948     68.4418
    15.7500      0.0000   1166.9843      7.7984     74.4693
    16.0000      0.0000   1166.9203      7.8013     79.6325
    16.2500      0.0000   1166.6849      7.8031     83.1460
    16.5000      0.0000   1166.0294      7.8117     85.3668
    16.7500      0.0000   1164.6716      7.8340     87.2235
    17.0000      0.0000   1162.6407      7.8645     89.3523
    17.2500      0.0000   1160.6101      7.8917     91.5036
    17.5000      0.0000   1159.5198      7.9131     92.7576
    17.7500      0.0000   1159.4512      7.9376     92.4030
    18.0000      0.0000   1158.8931      7.9775     90.5115
    18.2500      0.0000   1155.6591      8.0402     87.6761
    18.5000      0.0000   1149.1918      8.1265     84.5232
    18.7500      0.0000   1142.1863      8.2275     81.6802
    19.0000      0.0000   1139.1438      8.3246     79.7928
    19.2500      0.0000   1142.3813      8.3978     79.0851
    19.5000      0.0000   1149.6299      8.4396     78.9899
    19.7500      0.0000   1155.8910      8.4572     78.6369
    20.0000      0.0000   1156.7694      8.4596     77.8468
    20.2500      0.0000   1150.1855      8.4490     77.5291
    20.5000      0.0000   1137.2240      8.4279     78.9820
    20.7500      0.0000   1122.7483      8.4070     82.6804
    21.0000      0.0000   1112.8625      8.3990     87.5772
    21.2500      0.0000   1109.5092      8.4059     91.5813
    21.5000      0.0000   1109.3060      8.4144     93.0301
    21.7500      0.0000   1109.5767      8.4042     91.9710
    22.0000      0.0000   1112.5153      8.3641     90.0162
    22.2500      0.0000   1120.3647      8.3020     88.9839
    22.5000      0.0000   1128.6494      8.2388     89.6524
    22.7500      0.0000   1127.3594      8.1938     91.3945
    23.0000      0.0000   1108.8234      8.1760     92.7135
    23.2500      0.0000   1074.4167      8.1820     92.4413
    23.5000      0.0000   1034.8043      8.1949     90.7713
    23.7500      0.0000   1003.1539      8.1911     89.1827
    24.0000      0.0000    986.3128      8.1539     89.2782
    24.2500      0.0000    981.9299      8.0850     91.4730
    24.5000      0.0000    983.4109      7.9997     94.5274
    24.7500      0.0000    986.6727      7.9123     96.4313
    25.0000      0.0000    992.0214      7.8299     95.9716
