~Version Information
VERS.                      2.0: CWLS Log ASCII Standard - VERSION 2.0
WRAP.                       NO: One line per depth step
~Well Information Block
STRT.FT               550.0000: 
STOP.FT              2042.5000: 
STEP.FT                 0.2500: 
NULL.                -999.2500: 
COMP.          Petrogulf Corporation: COMPANY
WELL.          Robinson 15-12V: WELL
FLD.           Purgatorie River: FIELD
LOC.           1788' FNL & 466' FWL: LOCATION
PROV.                 Colorado: PROVINCE
CNTY.               Las Animas: COUNTRY
SRVC.                Patterson: SERVICE COMPANY
DATE.          Mon Sep 12 10:04:59 2005: LOG DATE
UWI.                          : UNIQUE WELL ID
~Curve Information Block
DEPT.FT            0 000 00 00: Depth
SP.mV                         : DIL Spontaneous Potential
RILD.Ohm-m                    : DIL Deep Resistivity
RILM.Ohm-m                    : DIL Medium Resistivity
RLL3.Ohm-m                    : DIL Shallow Resistivity
GR.GAPI                       : Gamma Ray
~Parameter Information Block
~A  Depth        SP         RILD        RILM        RLL3         GR     
# ...
   942.0000     94.5980      8.1890      8.7974     12.4121    179.1379
   942.2500     95.0475      8.2733      9.1508     13.9324    181.4838
   942.5000     94.7460      8.2475      9.3776     13.8517    169.8717
   942.7500     94.6409      8.1741      9.2212     12.2636    166.4364
   943.0000     94.4799      8.1451      8.8734     10.9926    165.9018
   943.2500     94.4370      8.0490      8.5506     10.5248    171.8920
   943.5000     94.5084      8.2702      8.4479     10.1973    175.9367
   943.7500     94.3186      8.2699      8.2877     10.1193    177.4206
   944.0000     94.1146      8.2823      8.1543      9.8466    173.5998
   944.2500     94.0388      8.3487      8.0232      9.8760    169.2739
   944.5000     94.0165      8.5614      8.0054      9.5225    173.9759
   944.7500     93.9635      8.4848      8.0510      9.3341    179.0475
   945.0000     93.6561      8.2641      8.0695      9.5372    174.7531
   945.2500     93.7701      8.5554      8.0220      9.5670    174.4637
   945.5000     93.9953      8.6917      8.2988      9.8118    179.3810
   945.7500     93.9833      8.7640      8.7034     10.2825    178.2869
   946.0000     93.7551      8.7596      8.9772     11.1863    168.5908
   946.2500     93.8321      9.0955      9.4370     12.4169    158.1722
   946.5000     93.7183      9.2518     10.0043     13.5496    153.6920
   946.7500     93.8352      9.4712     10.4798     14.3000    150.2785
   947.0000     94.1200      9.4514     11.0644     14.9545    154.9543
   947.2500     93.8824      9.6662     11.1375     15.1194    152.5305
   947.5000     94.2433     10.1286     11.4960     15.3372    146.0944
   947.7500     94.5176     10.2530     11.8456     13.7673    146.1994
   948.0000     94.5327     10.3528     12.0422     13.5315    151.2595
   948.2500     94.8326     10.0654     12.0390     14.3094    157.0017
   948.5000     95.2857     10.2414     12.2504     14.8837    159.3636
   948.7500     95.4976     10.1044     12.4273     14.3065    159.5533
   949.0000     95.8570      9.8163     11.6516     13.0972    146.3316
   949.2500     96.1238      9.7929     11.0688     11.7249    140.7054
   949.5000     95.9758      9.5695     10.5912     11.0780    169.7726
   949.7500     96.0975      9.4159     10.1004     10.5846    166.7695
   950.0000     96.1530      8.9968      9.5551     10.2917    162.4462
   950.2500     96.1531      8.7912      9.1903     10.2221    161.5972
   950.5000     96.1542      8.4736      8.6864     10.2881    155.6574
   950.7500     96.4427      8.4282      8.5390      9.7811    153.8139
   951.0000     96.7068      8.0870      8.1483      9.6106    159.9041
   951.2500     97.4272      7.8295      7.7947      9.3051    163.5539
   951.5000     98.2007      7.7116      7.5921      9.3675    163.3558
   951.7500     98.6132      7.6076      7.5276      9.1768    152.8520
   952.0000     99.1335      7.5595      7.5901      9.7374    144.2836
   952.2500     99.2787      7.6470      7.4187      9.9958    140.1737
   952.5000     99.3661      7.5956      7.3815     10.0381    144.0077
   952.7500     99.4334      7.6992      7.5104      9.8045    142.8308
   953.0000     99.1985      7.7128      7.5292     10.0296    142.3029
   953.2500     99.2226      7.7118      7.7338      9.5615    136.1777
   953.5000     99.0461      8.0629      7.8847     10.3488    134.9564
   953.7500     99.0707      8.2324      8.1209     11.9058    122.5649
   954.0000     98.6384      8.1806      8.3109     11.4393    121.1674
   954.2500     97.9387      8.2927      8.8077      9.7691    121.7493
   954.5000     97.8246      8.2548      8.9156     11.6727    119.1711
   954.7500     98.5842      8.2755      9.2215     18.6775    129.8299
   955.0000     98.9404      8.5431      9.3481     21.3763    151.1468
   955.2500     99.4133      8.5994      9.3729     15.4811    151.9169
   955.5000    100.1144      8.9475      9.2402     12.0449    164.3221
   955.7500     99.2270      9.0940      9.1120     11.0747    172.3787
   956.0000     98.8898      9.3154      9.0306     10.4837    185.4099
   956.2500     99.3090      9.5821      9.3157     10.6515    187.4207
   956.5000     99.5820     10.1894      9.4059     10.7496    182.8153
   956.7500     99.8949     10.6306      9.6556     10.6759    186.5853
   957.0000     99.8333     10.9471     10.4586     11.1437    177.8091
   957.2500    100.1238     11.0442     10.7624     11.8325    177.5958
   957.5000     99.8580     11.3483     11.2262     13.9801    159.1442
   957.7500     99.7894     11.5932     12.7967     17.7547    136.0589
   958.0000     99.7999     12.3640     13.5025     21.7307    130.7400
   958.2500     99.8515     12.6965     14.6683     24.9273    130.3525
   958.5000    100.2120     13.0230     16.5345     27.8055    120.9678
   958.7500    100.2445     13.6822     17.1240     28.7599    119.2216
   959.0000    100.5128     14.4835     18.9412     31.5443    110.0770
   959.2500    100.7302     15.0006     19.3628     36.6325    104.1049
   959.5000    100.4959     15.8938     21.3133     43.0792    104.3473
   959.7500    100.6396     17.1118     23.0158     47.2015    113.7664
   960.0000    100.7457     17.7531     24.2842     43.5703    113.1378
   960.2500    100.8523     18.4024     23.7505     32.9105    121.8114
   960.5000    101.0318     18.0115     24.0438     28.9972    143.6093
   960.7500    101.3717     18.0226     24.4380     26.8578    138.9087
   961.0000    101.7282     18.4785     24.9219     25.7447    139.6062
   961.2500    102.3005     18.1251     24.2182     25.2806    139.9583
   961.5000    102.8175     18.1368     23.3692     22.0063    137.2786
   961.7500    103.2518     18.4564     21.8445     20.6308    138.0048
   962.0000    103.9268     18.4117     21.3991     19.6390    144.8742
   962.2500    104.5661     17.6991     21.6275     17.6281    141.0602
   962.5000    104.8782     18.1410     21.7932     17.8973    146.6860
   962.7500    105.0467     17.6690     21.1967     19.1733    130.5472
   963.0000    105.2088     17.8987     22.1526     22.5018    138.7761
   963.2500    105.4613     18.1430     22.3253     22.4554    144.7812
   963.5000    105.5953     17.7252     21.7517     20.7164    130.6964
   963.7500    105.6336     17.1318     22.2472     22.3970    132.7841
   964.0000    105.6797     18.0639     21.7483     26.5420    131.2251
   964.2500    105.8634     17.2506     22.3273     27.4532    132.8605
   964.5000    106.0202     17.9758     21.7536     26.7342    138.2301
   964.7500    105.8136     17.4845     21.4536     26.1412    138.5726
   965.0000    105.7441     17.2171     20.7430     22.3917    144.4012
   965.2500    105.7465     17.3514     20.2885     17.7989    135.6982
   965.5000    105.5961     16.8300     19.3210     17.8089    136.1107
   965.7500    105.5007     16.9812     18.9981     18.1139    137.1285
   966.0000    105.1964     16.5117     19.0989     16.2774    152.8156
   966.2500    105.9181     15.7610     18.3149     16.0161    141.0675
   966.5000    106.4975     15.4508     17.8394     17.7147    137.3426
   966.7500    105.9185     14.8544     16.6290     18.1467    140.3208
   967.0000    105.6267     14.6766     15.5319     14.7163    159.3530
   967.2500    106.1218     13.8408     15.2304     12.9667    170.5412
   967.5000    106.6372     13.3762     14.7848     13.0579    168.8471
   967.7500    107.3339     13.5136     13.5673     13.5367    168.5788
   968.0000    107.5396     12.9417     13.4693     13.0198    161.4764
   968.2500    106.5395     12.2636     12.7678     12.2335    165.3915
   968.5000    106.1946     12.0462     12.5417     12.1008    179.1148
   968.7500    106.0855     11.8609     12.1082     11.8294    183.5840
   969.0000    105.9164     11.7348     11.7714     11.6261    179.4875
   969.2500    106.4050     11.4560     11.7795     11.0290    186.8733
   969.5000    106.6322     10.9432     11.3298     11.1305    184.8608
   969.7500    106.9516     10.7024     11.3183     11.5827    172.6899
