~Version Information
VERS.                      2.0: CWLS Log ASCII Standard - VERSION 2.0
WRAP.                       NO: One line per depth step
~Well Information Block
STRT.FT               240.0000: 
STOP.FT              1453.0000: 
STEP.FT                 0.2500: 
NULL.                -999.2500: 
COMP.          Petrogulf Corporation: COMPANY
WELL.          Robinson 15-12R: WELL
FLD.           Purgatorie River: FIELD
LOC.           1752' FNL & 561' FWL: LOCATION
PROV.                 Colorado: PROVINCE
CNTY.               Las Animas: COUNTRY
SRVC.                Patterson: SERVICE COMPANY
DATE.          Tue Sep 13 15:11:42 2005: LOG DATE
UWI.                          : UNIQUE WELL ID
~Curve Information Block
DEPT.FT            0 000 00 00: Depth
SP.mV                         : DIL Spontaneous Potential
RILD.Ohm-m                    : DIL Deep Resistivity
RILM.Ohm-m                    : DIL Medium Resistivity
RLL3.Ohm-m                    : DIL Shallow Resistivity
GR.GAPI                       : Gamma Ray
~Parameter Information Block
~A  Depth        SP         RILD        RILM        RLL3         GR     
# ...
   940.0000    169.1447     23.8046     55.1410    191.4343     62.5282
   940.2500    171.7354     21.8022     45.3926    211.1793     56.1380
   940.5000    174.6483     20.1421     42.3376    214.0387     58.9802
   940.7500    177.0064     18.1071     33.9050    191.2420     63.5754
   941.0000    180.1048     16.7389     26.5524    140.8392     90.7840
   941.2500    183.0760     15.2322     20.6665     63.5829     99.6414
   941.5000    185.5107     14.0214     16.8216     21.4997    133.3939
   941.7500    187.1497     13.0123     14.4857     12.6779    154.9167
   942.0000    188.3246     11.8239     12.5597     11.2432    165.8920
   942.2500    189.3002     11.2523     11.1471     10.4734    146.8815
   942.5000    190.0227     10.5289     10.0484      9.8820    167.9013
   942.7500    190.1219      9.9681      9.4720      8.9220    177.7803
   943.0000    189.9860      9.6188      8.8482      8.2239    192.0432
   943.2500    190.4811      9.1390      8.3532      8.0737    185.6182
   943.5000    191.2667      8.8311      8.0772      8.0492    168.4420
   943.7500    192.2490      8.5067      8.0621      7.9900    182.0371
   944.0000    192.8484      8.2132      8.0804      8.3896    162.2568
   944.2500    193.5115      7.9123      8.1407      9.0395    156.2822
   944.5000    194.5046      7.7021      8.3892     10.8201    144.7998
   944.7500    195.5705      7.5136      8.3296     12.6624    129.2356
   945.0000    196.2913      7.2793      8.2787     13.1122    135.5009
   945.2500    196.6290      7.2040      8.0315     11.8219    150.6521
   945.5000    197.2293      7.2146      7.7078     10.3917    171.7139
   945.7500    197.6199      7.1843      7.4485      9.2445    177.2224
   946.0000    197.7161      7.2147      7.2327      8.1618    177.9935
   946.2500    197.6428      7.3360      7.0569      7.8383    179.4806
   946.5000    197.6183      7.4023      6.9589      7.9721    143.1495
   946.7500    197.6642      7.4900      6.9070      8.0672    151.8673
   947.0000    197.6013      7.5212      6.9246      7.5584    157.7071
   947.2500    197.5318      7.6005      7.0348      7.3444    168.1874
   947.5000    197.4021      7.6459      7.1075      7.5964    153.0294
   947.7500    197.4190      7.7068      7.2098      7.8496    148.9562
   948.0000    197.3414      7.7490      7.4220      8.2306    167.1027
   948.2500    197.1880      7.8378      7.6931      8.8912    134.9786
   948.5000    197.1119      7.9168      8.0697     10.0138    160.1829
   948.7500    197.1079      8.1551      8.5380     11.5988    162.2798
   949.0000    197.1230      8.3669      9.0241     12.3599    142.6903
   949.2500    196.9859      8.5292      9.4531     13.3065    134.0116
   949.5000    196.6145      8.7353      9.9182     14.3308    142.1987
   949.7500    196.0334      9.1004     10.3627     14.4815    158.6929
   950.0000    195.2857      9.2861     10.7922     15.5170    143.1356
   950.2500    194.3985      9.5493     11.0689     16.0877    105.9538
   950.5000    193.3403      9.5015     11.3520     14.9433    141.4340
   950.7500    191.8540      9.6512     11.4685     13.1889    152.8963
   951.0000    190.3009      9.8430     11.5813     12.8050    148.3421
   951.2500    188.8372      9.6454     11.5172     13.4310    141.5508
   951.5000    187.0973      9.4906     11.3315     13.7712    126.0292
   951.7500    185.1481      9.2500     11.2244     12.9662    145.9492
   952.0000    183.3941      9.1509     10.5936     12.0023    127.5762
   952.2500    181.8160      8.7200     10.0931     10.7580    143.0491
   952.5000    180.6031      8.4079      9.5070      9.8164    142.4677
   952.7500    179.5115      8.1016      9.0107      9.3847    155.6485
   953.0000    178.6602      7.8624      8.5622      9.2655    151.8169
   953.2500    177.8787      7.6416      8.1440      8.9383    152.5365
   953.5000    177.2268      7.4272      7.6517      8.6277    144.0505
   953.7500    176.9679      7.2526      7.3758      8.4250    143.2716
   954.0000    176.5910      7.0990      7.0803      8.1814    161.9918
   954.2500    175.5972      6.9454      6.9474      7.7842    175.6406
   954.5000    174.3549      6.9250      6.7740      7.3706    129.1773
   954.7500    173.4526      6.8338      6.6388      7.3035    136.4038
   955.0000    173.2295      6.8878      6.6200      7.7482    122.2827
   955.2500    172.9988      6.9627      6.7085      8.2388    110.3897
   955.5000    172.4170      6.9620      6.8994      8.3579    106.6145
   955.7500    171.8057      7.0487      7.0373      8.5773    111.8433
   956.0000    172.1293      7.2166      7.2589      8.9565    116.1154
   956.2500    173.2642      7.2609      7.4987      9.9269    107.8280
   956.5000    174.6211      7.3315      7.8059     11.2786    113.1733
   956.7500    175.9882      7.3228      8.2072     10.8046    108.5953
   957.0000    177.6417      7.4159      8.5134     10.9605    116.3536
   957.2500    179.2330      7.4783      8.7812     15.8743    118.0752
   957.5000    180.8930      7.5499      8.8153     21.8631    130.5743
   957.7500    182.1371      7.5911      8.6725     17.4424    150.2746
   958.0000    182.9720      7.6907      8.5456     11.7513    151.8351
   958.2500    183.9630      7.7575      8.2003      9.9891    153.5356
   958.5000    184.8110      7.7373      8.1061      9.4179    158.3895
   958.7500    185.4764      8.0590      7.8843      8.8890    150.8870
   959.0000    185.7555      8.3378      7.7980      8.9616    165.4457
   959.2500    185.6721      8.6214      7.9229      8.6636    184.0576
   959.5000    184.9780      8.8460      8.0438      8.3631    169.0003
   959.7500    184.2693      9.0260      8.3815      8.3354    171.0538
   960.0000    183.7858      9.1120      8.8911      9.1317    172.7643
   960.2500    183.4492      9.2810      9.5881     11.3072    157.7655
   960.5000    183.3453      9.6310     10.5096     14.8419    134.8366
   960.7500    183.1220      9.7185     11.3493     17.6854    134.2236
   961.0000    182.6789     10.1758     12.0977     18.9431    136.5577
   961.2500    182.3333     10.6646     12.9135     20.8913    125.3947
   961.5000    182.2588     10.8891     13.7646     23.0628    131.0782
   961.7500    182.3123     11.1131     14.8467     25.7732    104.4083
   962.0000    182.3120     11.6871     15.8578     31.2053    114.7043
   962.2500    182.1063     12.3282     16.8202     39.0754    113.0397
   962.5000    181.7362     13.1321     16.4500     40.1931    122.6737
   962.7500    181.3860     13.7422     16.4636     28.8703    130.8019
   963.0000    181.1002     14.0551     16.0303     17.6556    140.5302
   963.2500    180.6425     14.1883     15.8791     13.2416    148.7031
   963.5000    179.8074     14.6479     15.7497     13.2597    131.5334
   963.7500    178.7868     14.8710     16.2903     15.0695    142.1831
   964.0000    177.8234     15.0054     16.8941     15.5927    139.7950
   964.2500    176.8077     14.9699     17.2293     14.9728    130.5740
   964.5000    175.7769     14.7639     17.9831     16.1943    147.7229
   964.7500    174.6756     14.4049     18.2418     20.3359    148.8792
   965.0000    173.8088     14.4051     17.9412     25.2871    131.4853
   965.2500    173.2108     14.2716     18.3992     25.5941    139.9152
   965.5000    172.6633     14.2133     18.7005     21.7455    128.2139
   965.7500    172.1410     13.9940     18.6459     18.7507    150.8408
   966.0000    171.6301     14.0132     18.1102     18.7792    149.5419
   966.2500    171.5308     13.8357     17.6135     19.3918    160.4938
   966.5000    171.8126     13.7767     17.6348     18.7347    163.6212
   966.7500    172.2334     13.7274     17.2471     17.1110    149.5597
   967.0000    172.6379     13.3372     16.8438     16.7692    163.3196
   967.2500    173.0943     12.7988     15.9559     17.8502    152.3906
   967.5000    173.6691     12.2941     15.0075     17.7978    152.8841
   967.7500    174.3448     11.6600     14.4061     15.8046    154.4979
