~Version Information
VERS.                      2.0: CWLS Log ASCII Standard - VERSION 2.0
WRAP.                       NO: One line per depth step
~Well Information Block
STRT.FT               -16.5000: 
STOP.FT              1695.5000: 
STEP.FT                 0.2500: 
NULL.                -999.2500: 
COMP.          Pioneer Natural Resources: COMPANY
WELL.          Rancher 12-35 Tr: WELL
FLD.           Purgatorie River: FIELD
LOC.           2242' FNL & 308' FWL SWNW 35 32S 67W: LOCATION
PROV.                       CO: PROVINCE
CNTY.               Las Animas: COUNTRY
SRVC.                         : SERVICE COMPANY
DATE.         Fri Jul 08 09:39:00 2005: LOG DATE
UWI.                071 08430 : UNIQUE WELL ID
~Curve Information Block
DEPT.FT            0 000 00 00: Depth
CCL.                          : Casing Collar Locator
TT3.usec                      : CBL 3' Travel Time
AMP3.mV                       : CBL 3' Amplitude
GR.GAPI                       : Gamma Ray
~Parameter Information Block
~A  Depth       CCL         TT3         AMP3         GR     
# ...
   318.5000      0.0000    806.9086      7.3681     88.3933
   318.7500      0.0000    813.3754      7.2852     89.4232
   319.0000      0.0000    810.1180      7.2149     92.1836
   319.2500      0.0000    798.7523      7.1347     96.6912
   319.5000      0.0000    783.6221      7.0316    101.6391
   319.7500      0.0000    769.3151      6.9223    105.3048
   320.0000      0.0000    758.8442      6.8342    107.0722
   320.2500      0.0000    752.8027      6.7681    107.8574
   320.5000      0.0000    750.0017      6.6978    108.9379
   320.7500      0.0000    748.8933      6.6073    110.6738
   321.0000      0.0000    748.4671      6.5138    112.4434
   321.2500      0.0000    748.3008      6.4453    113.3921
   321.5000      0.0000    748.2795      6.4080    113.0322
   321.7500      0.0000    748.3703      6.3849    111.4818
   322.0000      0.0000    748.5023      6.3595    109.3174
   322.2500      0.0000    748.5889      6.3283    106.9715
   322.5000      0.0000    748.5895      6.2940    104.3311
   322.7500      0.0000    748.5337      6.2576    101.2476
   323.0000      0.0000    748.5162      6.2207     98.1037
   323.2500      0.0000    748.7403      6.1865     95.3908
   323.5000      0.0000    749.6205      6.1563     93.1130
   323.7500      0.0000    751.8184      6.1291     91.1127
   324.0000      0.0000    756.0325      6.1072     89.5188
   324.2500      0.0000    762.6573      6.1033     88.3185
   324.5000      0.0000    771.4730      6.1391     86.9128
   324.7500      0.0000    781.2447      6.2306     84.6554
   325.0000      0.0000    789.4826      6.3671     81.5932
   325.2500      0.0000    793.4558      6.5096     78.3200
   325.5000      0.0000    792.3612      6.6200     75.3992
   325.7500      0.0000    788.2408      6.6909     73.1877
   326.0000      0.0000    784.3715      6.7429     71.8846
   326.2500      0.0000    783.0625      6.7990     71.4322
   326.5000      0.0000    784.8448      6.8687     71.5919
   326.7500      0.0000    789.1647      6.9479     72.2575
   327.0000      0.0000    795.5861      7.0208     73.4566
   327.2500      0.0000    804.2272      7.0648     75.0501
   327.5000      0.0000    814.9652      7.0655     76.7688
   327.7500      0.0000    826.5366      7.0285     78.6356
   328.0000      0.0000    836.4076      6.9725     81.0613
   328.2500      0.0000    841.1761      6.9125     84.3538
   328.5000      0.0000    837.8391      6.8526     88.2955
   328.7500      0.0000    826.3967      6.7917     92.3515
   329.0000      0.0000    811.5347      6.7332     96.1160
   329.2500      0.0000    800.2648      6.6888     99.3032
   329.5000      0.0000    796.7125      6.6742    101.3557
   329.7500      0.0000    798.9481      6.6952    101.4595
   330.0000      0.0000    801.0342      6.7335     99.4329
   330.2500      0.0000    798.2819      6.7538     96.6308
   330.5000      0.0000    790.5120      6.7340     95.4071
   330.7500      0.0000    780.6595      6.6857     97.1741
   331.0000      0.0000    771.4094      6.6388    101.1652
   331.2500      0.0000    763.8039      6.6090    105.2995
   331.5000      0.0000    757.9904      6.5881    107.8461
   331.7500      0.0000    753.9730      6.5646    108.0757
   332.0000      0.0000    751.5863      6.5399    105.9967
   332.2500      0.0000    750.4235      6.5211    102.1101
   332.5000      0.0000    750.0079      6.5095     97.3360
   332.7500      0.0000    749.9289      6.5058     92.8949
   333.0000      0.0000    749.8696      6.5166     90.1282
   333.2500      0.0000    749.6755      6.5457     90.0669
   333.5000      0.0000    749.5365      6.5836     92.6092
   333.7500      0.0000    750.0790      6.6107     96.0448
   334.0000      0.0000    752.1382      6.6102     98.0016
   334.2500      0.0000    756.0624      6.5823     97.3147
   334.5000      0.0000    760.9224      6.5470     94.7957
   334.7500      0.0000    764.6514      6.5312     92.0379
   335.0000      0.0000    765.6904      6.5490     89.7291
   335.2500      0.0000    764.7257      6.5979     87.2890
   335.5000      0.0000    764.2243      6.6688     83.9206
   335.7500      0.0000    765.9478      6.7486     79.5796
   336.0000      0.0000    769.3848      6.8153     74.6575
   336.2500      0.0000    772.7580      6.8403     69.0839
   336.5000      0.0000    774.8323      6.8032     62.3802
   336.7500      0.0000    775.2901      6.7063     54.6139
   337.0000      0.0000    774.0771      6.5777     46.9027
   337.2500      0.0000    771.1789      6.4557     40.8699
   337.5000      0.0000    766.8813      6.3667     37.6131
   337.7500      0.0000    761.8790      6.3125     37.0381
   338.0000      0.0000    757.0827      6.2732     38.2193
   338.2500      0.0000    753.2209      6.2201     40.4945
   338.5000      0.0000    750.5128      6.1355     44.0768
   338.7500      0.0000    748.7356      6.0261     49.5090
   339.0000      0.0000    747.5725      5.9179     56.6972
   339.2500      0.0000    746.8355      5.8346     64.6631
   339.5000      0.0000    746.4350      5.7800     72.1734
   339.7500      0.0000    746.2837      5.7383     78.5250
   340.0000      0.0000    746.2774      5.6880     83.8194
   340.2500      0.0000    746.3273      5.6188     88.7422
   340.5000      0.0000    746.3936      5.5362     94.0624
   340.7500      0.0000    746.4844      5.4541     99.9282
   341.0000      0.0000    746.6446      5.3834    105.4741
   341.2500      0.0000    746.9429      5.3343    109.3405
   341.5000      0.0000    747.4314      5.3219    110.6791
   341.7500      0.0000    748.0731      5.3612    109.5859
   342.0000      0.0000    748.7085      5.4510    106.7710
   342.2500      0.0000    749.1415      5.5666    103.1053
   342.5000      0.0000    749.2886      5.6683     99.4009
   342.7500      0.0000    749.2702      5.7213     96.3168
   343.0000      0.0000    749.3992      5.7118     94.3133
   343.2500      0.0000    750.1428      5.6484     93.5058
   343.5000      0.0000    752.0654      5.5537     93.4837
   343.7500      0.0000    755.7012      5.4571     93.5729
   344.0000      0.0000    761.5250      5.3893     93.4827
   344.2500      0.0000    770.2136      5.3701     93.5245
   344.5000      0.0000    782.4359      5.3983     93.9402
   344.7500      0.0000    797.5320      5.4554     94.0626
   345.0000      0.0000    812.7623      5.5239     92.6690
   345.2500      0.0000    825.1993      5.6017     89.6522
   345.5000      0.0000    833.9001      5.6999     87.0322
   345.7500      0.0000    838.8406      5.8244     87.4144
   346.0000      0.0000    838.8046      5.9625     91.1791
   346.2500      0.0000    832.4438      6.0890     95.7866
   346.5000      0.0000    820.9255      6.1880     98.1525
   346.7500      0.0000    808.2568      6.2671     97.2734
   347.0000      0.0000    799.3242      6.3464     94.4178
   347.2500      0.0000    797.4351      6.4359     91.3989
   347.5000      0.0000    802.3922      6.5262     89.2963
   347.7500      0.0000    810.9258      6.6025     88.5842
   348.0000      0.0000    819.5969      6.6621     89.6725
   348.2500      0.0000    826.6774      6.7114     92.9159
   348.5000      0.0000    831.3578      6.7448     98.2230
   348.7500      0.0000    832.9769      6.7402    104.7674
   349.0000      0.0000    831.2811      6.6830    111.0058
   349.2500      0.0000    826.3861      6.5864    115.2085
   349.5000      0.0000    819.0019      6.4816    116.5514
   349.7500      0.0000    811.5234      6.3905    115.9642
   350.0000      0.0000    807.3082      6.3133    115.6232
   350.2500      0.0000    807.9666      6.2396    117.1642
   350.5000      0.0000    812.5366      6.1618    120.1290
   350.7500      0.0000    819.2355      6.0712    122.2192
   351.0000      0.0000    826.0028      5.9392    121.3981
   351.2500      0.0000    829.0808      5.7227    117.7904
   351.5000      0.0000    823.7494      5.4050    113.3190
   351.7500      0.0000    809.0797      5.0272    109.6335
