~Version Information
VERS.                      2.0: CWLS Log ASCII Standard - VERSION 2.0
WRAP.                       NO: One line per depth step
~Well Information Block
STRT.FT                -5.7500: 
STOP.FT              1965.7500: 
STEP.FT                 0.2500: 
NULL.                -999.2500: 
COMP.          Pioneer Natural Resources: COMPANY
WELL.          Easton 12-30 Tr: WELL
FLD.           Purgatorie River: FIELD
LOC.           549' FWL & 2416' FNL--: LOCATION
PROV.                       CO: PROVINCE
CNTY.               Las Animas: COUNTRY
SRVC.          Patterson Wireline: SERVICE COMPANY
DATE.          Mon Jun 06 16:13:03 2005: LOG DATE
UWI.           05 071 08379 00: UNIQUE WELL ID
~Curve Information Block
DEPT.FT            0 000 00 00: Depth
CCL.                          : Casing Collar Locator
TT3.usec                      : CBL 3' Travel Time
AMP3.mV                       : CBL 3' Amplitude
GR.GAPI                       : Gamma Ray
~Parameter Information Block
~A  Depth       CCL         TT3         AMP3         GR     
# ...
  1937.2500      0.0000    590.0927      4.3996    130.4014
  1937.5000      0.0000    578.9439      4.2773    128.0502
  1937.7500      0.0000    578.8490      4.2964    130.2547
  1938.0000      0.0000    590.2495      4.4478    133.4471
  1938.2500      0.0000    611.9149      4.6694    133.5284
  1938.5000      0.0000    640.3704      4.8877    129.5958
  1938.7500      0.0000    670.3596      5.0672    124.3420
  1939.0000      0.0000    696.5742      5.1968    121.2649
  1939.2500      0.0000    715.6044      5.2442    121.6939
  1939.5000      0.0000    727.5696      5.1697    123.9539
  1939.7500      0.0000    736.4251      4.9838    124.9736
  1940.0000      0.0000    747.1345      4.7672    123.0625
  1940.2500      0.0000    761.2433      4.6244    119.6031
  1940.5000      0.0000    775.7617      5.6010    117.8939
  1940.7500      0.0000    786.5651      5.6708    120.0562
  1941.0000      0.0000    791.7747      5.7333    125.3453
  1941.2500      0.0000    791.9630      5.7226    131.4257
  1941.5000      0.0000    788.9619      5.6331    136.4061
  1941.7500      0.0000    785.3497      5.4987    139.2258
  1942.0000      0.0000    783.7690      5.3761    139.2917
  1942.2500      0.0000    785.1141      5.3272    136.9526
  1942.5000      0.0000    787.2821      5.3834    133.9023
  1942.7500      0.0000    786.3514      5.5217    132.1591
  1943.0000      0.0000    779.3631      5.6797    132.6741
  1943.2500      0.0000    766.5490      5.7895    135.1669
  1943.5000      0.0000    751.5960      5.8104    138.8558
  1943.7500      0.0000    739.7841      5.7546    142.7871
  1944.0000      0.0000    735.1856      5.6812    145.7962
  1944.2500      0.0000    738.6606      5.6372    147.0061
  1944.5000      0.0000    747.1793      5.6017    146.6679
  1944.7500      0.0000    754.6320      5.5200    146.2595
  1945.0000      0.0000    754.9618      5.3950    147.6245
  1945.2500      0.0000    746.7906      5.2941    151.8355
  1945.5000      0.0000    735.3025      5.2635    158.1970
  1945.7500      0.0000    728.0233      5.2904    164.0221
  1946.0000      0.0000    727.5947      5.3530    166.1094
  1946.2500      0.0000    729.1776      5.4475    163.1383
  1946.5000      0.0000    725.7054      5.5521    156.8372
  1946.7500      0.0000    715.0927      5.6161    150.9699
  1947.0000      0.0000    701.4202      5.6025    148.7476
  1947.2500      0.0000    690.0665      5.5070    150.2337
  1947.5000      0.0000    683.3708      5.3328    152.3054
  1947.7500      0.0000    680.6940      5.0974    151.8243
  1948.0000      0.0000    680.8687      4.8764    148.5620
  1948.2500      0.0000    684.0359      4.7857    144.6544
  1948.5000      0.0000    691.8006      4.8733    142.2335
  1948.7500      0.0000    705.6995      5.0491    142.4043
  1949.0000      0.0000    724.6254      5.1686    145.4378
  1949.2500      0.0000    743.5948      5.1919    150.5938
  1949.5000      0.0000    756.3759      5.2234    155.8070
  1949.7500      0.0000    760.3912      5.3813    158.5278
  1950.0000      0.0000    758.5485      5.6603    157.5301
  1950.2500      0.0000    755.5497      5.9570    153.8566
  1950.5000      0.0000    753.0753      6.1977    149.7487
  1950.7500      0.0000    749.4105      6.3914    146.6819
  1951.0000      0.0000    742.9269      6.5648    144.2749
  1951.2500      0.0000    734.4688      6.7042    140.1770
  1951.5000      0.0000    726.4038      6.7851    130.6297
  1951.7500      0.0000    720.5059      6.8235    112.4275
  1952.0000      0.0000    717.1385      6.8621     85.9950
  1952.2500      0.0000    715.8710      6.9037     56.5547
  1952.5000      0.0000    716.1362      6.8864     31.1653
  1952.7500      0.0000    717.0261      6.7478     14.1183
  1953.0000      0.0000    716.6289      6.5132      5.1845
  1953.2500      0.0000    712.3294      6.2960      1.5275
  1953.5000      0.0000    702.5359      6.1955      0.3577
  1953.7500      0.0000    688.3981      6.1996      0.0654
  1954.0000      0.0000    674.0013      6.2056      0.0084
  1954.2500      0.0000    664.9202      6.1343      0.0000
  1954.5000      0.0000    665.3766      6.0101   -999.2500
  1954.7500      0.0000    675.1055      5.9260   -999.2500
  1955.0000      0.0000    689.0887      5.9355   -999.2500
  1955.2500      0.0000    701.4370      5.9963   -999.2500
  1955.5000      0.0000    709.4919      6.0257   -999.2500
  1955.7500      0.0000    714.1371      5.9860   -999.2500
  1956.0000      0.0000    717.2426      5.9014   -999.2500
  1956.2500      0.0000    718.9106      5.8087   -999.2500
  1956.5000      0.0000    715.3285      5.7129   -999.2500
  1956.7500      0.0000    697.0350      5.5785   -999.2500
  1957.0000      0.0000    649.5873      5.3411   -999.2500
  1957.2500      0.0000    560.5639      4.9314   -999.2500
  1957.5000      0.0000    432.1353      4.3290   -999.2500
  1957.7500      0.0000    287.7323      3.6159   -999.2500
  1958.0000      0.0000    160.9311      2.9529   -999.2500
  1958.2500      0.0000     74.0259      2.4734   -999.2500
  1958.5000      0.0000     27.5767      2.2049   -999.2500
  1958.7500      0.0000      8.2277      2.0885   -999.2500
  1959.0000      0.0000      1.9477      2.0495   -999.2500
  1959.2500      0.0000      0.3605      2.0394   -999.2500
  1959.5000      0.0000      0.0479      2.0374   -999.2500
  1959.7500      0.0000   -999.2500   -999.2500   -999.2500
  1960.0000      0.0000   -999.2500   -999.2500   -999.2500
  1960.2500      0.0000   -999.2500   -999.2500   -999.2500
  1960.5000      0.0000   -999.2500   -999.2500   -999.2500
  1960.7500      0.0000   -999.2500   -999.2500   -999.2500
  1961.0000      0.0000   -999.2500   -999.2500   -999.2500
  1961.2500      0.0000   -999.2500   -999.2500   -999.2500
  1961.5000      0.0000   -999.2500   -999.2500   -999.2500
  1961.7500      0.0000   -999.2500   -999.2500   -999.2500
  1962.0000      0.0000   -999.2500   -999.2500   -999.2500
  1962.2500      0.0000   -999.2500   -999.2500   -999.2500
  1962.5000      0.0000   -999.2500   -999.2500   -999.2500
  1962.7500      0.0000   -999.2500   -999.2500   -999.2500
  1963.0000      0.0000   -999.2500   -999.2500   -999.2500
  1963.2500      0.0000   -999.2500   -999.2500   -999.2500
  1963.5000      0.0000   -999.2500   -999.2500   -999.2500
  1963.7500      0.0000   -999.2500   -999.2500   -999.2500
  1964.0000      0.0000   -999.2500   -999.2500   -999.2500
  1964.2500      0.0000   -999.2500   -999.2500   -999.2500
  1964.5000      0.0000   -999.2500   -999.2500   -999.2500
  1964.7500      0.0000   -999.2500   -999.2500   -999.2500
  1965.0000      0.0000   -999.2500   -999.2500   -999.2500
  1965.2500   -999.2500   -999.2500   -999.2500   -999.2500
  1965.5000   -999.2500   -999.2500   -999.2500   -999.2500
  1965.7500   -999.2500   -999.2500   -999.2500   -999.2500
