~Version Information
VERS.                      2.0: CWLS Log ASCII Standard - VERSION 2.0
WRAP.                       NO: One line per depth step
~Well Information Block
STRT.FT               811.0000: 
STOP.FT              2507.0000: 
STEP.FT                 0.1000: 
NULL.                -999.2500: 
COMP.          Petrogulf Corporation: COMPANY
WELL.               YWAM 7-32V: WELL
FLD.           Purgatoire River: FIELD
LOC.           2423' FNL & 2412' FEL: LOCATION
PROV.                 Colorado: PROVINCE
CNTY.               Las Animas: COUNTRY
SRVC.                Patterson: SERVICE COMPANY
DATE.          Mon Dec 15 07:18:47 2003: LOG DATE
UWI.                          : UNIQUE WELL ID
~Curve Information Block
DEPT.FT            0 000 00 00: Depth
DCAL.in                       : CDL Caliper
RHOB.g/cc                     : CDL Bulk Density
RHOC.g/cc                     : CDL Density Correction
DPOR.pu                       : CDL Density Porosity
NPOR.pu                       : Neutron Porosity
GR.GAPI                       : Gamma Ray
~Parameter Information Block
~A  Depth       DCAL        RHOB        RHOC        DPOR        NPOR         GR     
# ...
  1377.4000      8.2906      2.5574      0.0458      5.6114     16.5039     65.5340
  1377.5000      8.2957      2.5501      0.0635      6.0543     17.0083     67.4266
  1377.6000      8.2957      2.5468      0.0432      6.2573     17.8263     67.0259
  1377.7000      8.2957      2.5457      0.0247      6.3231     17.9242     63.2984
  1377.8000      8.3061      2.5444      0.0320      6.4028     17.2758     58.1436
  1377.9000      8.3061      2.5438      0.0079      6.4378     16.4117     54.6028
  1378.0000      8.3028      2.5533     -0.0318      5.8629     15.9752     53.5742
  1378.1000      8.3028      2.5697      0.0384      4.8653     16.3488     56.6479
  1378.2000      8.3028      2.5715      0.0283      4.7562     17.4210     64.4323
  1378.3000      8.2991      2.5559      0.0180      5.7019     18.5601     70.1785
  1378.4000      8.2991      2.5448      0.0059      6.3784     18.8275     68.0848
  1378.5000      8.3005      2.5457      0.0431      6.3222     18.1221     64.8194
  1378.6000      8.3005      2.5554     -0.0026      5.7345     16.9995     69.4332
  1378.7000      8.3005      2.5774      0.0452      4.3990     15.9856     81.3004
  1378.8000      8.2955      2.5995      0.0608      3.0635     15.5822     94.2573
  1378.9000      8.2955      2.6054      0.0282      2.7050     15.8325    103.6086
  1379.0000      8.3068      2.5931      0.0545      3.4455     16.3286    109.5244
  1379.1000      8.3068      2.5667      0.0237      5.0471     16.7964    112.8316
  1379.2000      8.3068      2.5451      0.0016      6.3571     17.2680    113.8271
  1379.3000      8.3411      2.5512      0.0098      5.9900     17.7330    112.0994
  1379.4000      8.3411      2.5804      0.0551      4.2209     18.0467    106.2627
  1379.5000      8.3154      2.6021      0.0591      2.9009     18.2143    101.2774
  1379.6000      8.3154      2.5978      0.0560      3.1638     18.2299    101.0912
  1379.7000      8.3154      2.5818      0.0250      4.1310     18.1332    102.4755
  1379.8000      8.3034      2.5773      0.0405      4.4070     18.0462    103.1489
  1379.9000      8.3034      2.5847      0.0541      3.9574     18.0104    103.1959
  1380.0000      8.3055      2.5884      0.0465      3.7354     18.0165    102.0929
  1380.1000      8.3055      2.5854      0.0038      3.9176     18.2779     99.4105
  1380.2000      8.3055      2.5869     -0.0139      3.8233     18.8491     95.8698
  1380.3000      8.3050      2.5935      0.0301      3.4252     19.3603     93.2395
  1380.4000      8.3050      2.5926      0.0316      3.4772     19.6464     93.6889
  1380.5000      8.3125      2.5774      0.0284      4.4023     19.6702     97.6122
  1380.6000      8.3125      2.5576     -0.0089      5.6023     19.5315     99.1829
  1380.7000      8.3125      2.5465      0.0177      6.2722     19.8102     94.9898
  1380.8000      8.3094      2.5441     -0.0317      6.4175     20.7026     89.9981
  1380.9000      8.3094      2.5488     -0.0061      6.1319     21.6124     88.8557
  1381.0000      8.3130      2.5593      0.0399      5.4976     22.1064     92.3016
  1381.1000      8.3130      2.5725      0.0169      4.6975     22.3320    100.3384
  1381.2000      8.3130      2.5877      0.0609      3.7772     22.3871    108.5173
  1381.3000      8.3088      2.5977      0.0727      3.1683     22.5311    110.8587
  1381.4000      8.3088      2.5947      0.0855      3.3508     23.4626    106.7404
  1381.5000      8.3090      2.5811      0.0810      4.1756     24.6028    100.2671
  1381.6000      8.3090      2.5677      0.0368      4.9878     24.4470     97.8471
  1381.7000      8.3090      2.5601      0.0613      5.4515     23.0675    103.2203
  1381.8000      8.3097      2.5587      0.0195      5.5324     21.9547    113.3591
  1381.9000      8.3097      2.5650      0.0720      5.1508     22.1899    123.4350
  1382.0000      8.3092      2.5724      0.0578      4.7039     23.4930    133.5928
  1382.1000      8.3092      2.5726      0.0919      4.6882     24.9365    141.9705
  1382.2000      8.3092      2.5582      0.0624      5.5662     25.8573    141.1713
  1382.3000      8.3100      2.5268      0.0396      7.4670     26.2545    134.6741
  1382.4000      8.3100      2.4943      0.0149      9.4336     26.8431    134.8290
  1382.5000      8.3075      2.4831     -0.0091     10.1125     27.5128    139.4910
  1382.6000      8.3075      2.4907      0.0490      9.6535     27.2005    141.7952
  1382.7000      8.3075      2.4954      0.0193      9.3696     26.2555    144.7966
  1382.8000      8.3177      2.4937      0.0205      9.4736     25.7030    147.2689
  1382.9000      8.3177      2.4976      0.0463      9.2334     25.2076    144.5630
  1383.0000      8.3164      2.5095      0.0764      8.5131     24.7026    141.5336
  1383.1000      8.3164      2.5199      0.0864      7.8877     25.0282    144.3474
  1383.2000      8.3164      2.5207      0.0933      7.8351     25.9574    149.5858
  1383.3000      8.3203      2.5123      0.0434      8.3454     26.4364    147.4172
  1383.4000      8.3203      2.5019      0.0517      8.9731     26.3418    135.5229
  1383.5000      8.3179      2.4930      0.0710      9.5163     26.1015    123.6226
  1383.6000      8.3179      2.4870      0.0742      9.8799     25.7455    119.9776
  1383.7000      8.3179      2.4915      0.0402      9.6048     25.2337    123.7343
  1383.8000      8.3262      2.5137      0.0156      8.2602     24.6708    130.0162
  1383.9000      8.3262      2.5475      0.0683      6.2118     24.1344    134.5484
  1384.0000      8.3304      2.5719      0.1097      4.7349     23.8335    134.7349
  1384.1000      8.3304      2.5780      0.0569      4.3630     23.6472    133.0579
  1384.2000      8.3304      2.5749      0.0811      4.5537     23.3117    132.1647
  1384.3000      8.3281      2.5689      0.0391      4.9152     22.8333    130.2877
  1384.4000      8.3281      2.5624      0.0761      5.3065     22.4554    125.9878
  1384.5000      8.3329      2.5531      0.0398      5.8739     22.6350    123.4124
  1384.6000      8.3329      2.5388      0.0435      6.7382     23.1757    124.7993
  1384.7000      8.3329      2.5252      0.0083      7.5610     23.3835    124.2001
  1384.8000      8.3315      2.5236     -0.0078      7.6590     23.2212    118.6806
  1384.9000      8.3315      2.5362      0.0380      6.8969     23.3330    116.6976
  1385.0000      8.3350      2.5528      0.0459      5.8917     23.6568    123.9897
  1385.1000      8.3350      2.5659      0.0531      5.0988     23.5586    133.3520
  1385.2000      8.3350      2.5665      0.0935      5.0623     23.5442    137.0994
  1385.3000      8.3275      2.5465      0.0422      6.2756     24.2970    138.5744
  1385.4000      8.3275      2.5141      0.0192      8.2337     25.3273    142.9672
  1385.5000      8.3296      2.4798      0.0346     10.3155     26.0876    150.2955
  1385.6000      8.3296      2.4500     -0.0042     12.1222     26.8571    156.5102
  1385.7000      8.3296      2.4357     -0.0029     12.9886     27.7298    157.0366
  1385.8000      8.3332      2.4406     -0.0085     12.6939     27.9504    153.1380
  1385.9000      8.3332      2.4593      0.0306     11.5560     27.4809    150.1186
  1386.0000      8.3357      2.4829      0.0627     10.1297     26.9836    150.7677
  1386.1000      8.3357      2.5033      0.0871      8.8918     26.5269    151.5140
  1386.2000      8.3357      2.5140      0.1219      8.2438     25.7787    148.1436
  1386.3000      8.3313      2.5100      0.1093      8.4822     24.8562    142.3771
  1386.4000      8.3313      2.4952      0.1027      9.3843     24.1000    137.5494
  1386.5000      8.3311      2.4805      0.0554     10.2727     23.6635    129.9602
  1386.6000      8.3311      2.4800      0.0200     10.3046     23.8371    114.3802
  1386.7000      8.3311      2.4954      0.0512      9.3691     24.6017     99.1398
  1386.8000      8.3300      2.5033      0.0943      8.8921     25.2819     98.2967
  1386.9000      8.3300      2.4870      0.0410      9.8805     25.5069    108.8348
