~Version Information
VERS.                      2.0: CWLS Log ASCII Standard - VERSION 2.0
WRAP.                       NO: One line per depth step
~Well Information Block
STRT.FT               -11.2500: 
STOP.FT              1934.7500: 
STEP.FT                 0.2500: 
NULL.                -999.2500: 
COMP.          Pioneer Natural Resources: COMPANY
WELL.          Commander 43-26 Tr: WELL
FLD.           Purgatorie River: FIELD
LOC.           2439' FSL  & 446' FEL--------: LOCATION
PROV.                       CO: PROVINCE
CNTY.               Las Animas: COUNTRY
SRVC.          Patterson Wireline: SERVICE COMPANY
DATE.          Tue Apr 26 09:07:23 2005: LOG DATE
UWI.           05 071 08341 00: UNIQUE WELL ID
~Curve Information Block
DEPT.FT            0 000 00 00: Depth
CCL.                          : Casing Collar Locator
TT3.usec                      : CBL 3' Travel Time
AMP3.mV                       : CBL 3' Amplitude
GR.GAPI                       : Gamma Ray
~Parameter Information Block
~A  Depth       CCL         TT3         AMP3         GR     
# ...
   993.7500      0.0000    785.8240      7.1027    137.3753
   994.0000      0.0000    790.2608      6.9609    131.4628
   994.2500      0.0000    797.8524      6.7710    123.0995
   994.5000      0.0000    808.6941      6.6133    113.2947
   994.7500      0.0000    821.6461      6.5406    104.1345
   995.0000      0.0000    833.9977      6.5354     96.9051
   995.2500      0.0000    842.7126      6.5439     91.4834
   995.5000      0.0000    845.6570      6.5340     87.3392
   995.7500      0.0000    842.2218      6.5043     84.5243
   996.0000      0.0000    834.1403      6.4587     83.5502
   996.2500      0.0000    825.6594      6.3971     84.6017
   996.5000      0.0000    820.9377      6.3187     87.1143
   996.7500      0.0000    819.7852      6.2121     89.9233
   997.0000      0.0000    817.0608      6.0488     91.5362
   997.2500      0.0000    807.8613      5.8032     90.7022
   997.5000      0.0000    793.0368      5.4859     87.3750
   997.7500      0.0000    779.1164      5.1605     82.8741
   998.0000      0.0000    773.3712      4.9106     78.5876
   998.2500      0.0000    778.8124      4.7698     74.9671
   998.5000      0.0000    792.4741      4.6870     72.1521
   998.7500      0.0000    807.6420      4.5870     70.6952
   999.0000      0.0000    818.3340      4.4597     70.8027
   999.2500      0.0000    822.8517      4.3653     71.5440
   999.5000     -2.0000    823.7141      4.3618     71.9928
   999.7500     -2.0000    824.4060      4.4540     73.1281
  1000.0000      0.0000    826.5539      4.6104     77.6387
  1000.2500      0.0000    829.6757      4.8139     87.4662
  1000.5000      0.0000    832.1474      5.0826    101.7221
  1000.7500      0.0000    832.1677      5.4201    116.8348
  1001.0000      0.0000    829.2546      5.7432    128.5313
  1001.2500      0.0000    825.2028      5.9150    134.1795
  1001.5000      0.0000    822.6295      5.8928    133.9511
  1001.7500      0.0000    822.5139      5.7993    130.0242
  1002.0000      0.0000    823.8158      5.7973    124.7060
  1002.2500      0.0000    825.1372      5.9292    119.1552
  1002.5000      0.0000    825.9516      6.1125    113.3627
  1002.7500      0.0000    826.4804      6.2547    106.9117
  1003.0000      0.0000    827.0790      6.3342     99.8531
  1003.2500      0.0000    827.9206      6.3894     93.1388
  1003.5000      0.0000    828.9643      6.4606     88.1880
  1003.7500      0.0000    829.9930      6.5611     85.9682
  1004.0000      0.0000    830.7061      6.6855     86.5732
  1004.2500      0.0000    830.8873      6.8195     89.6924
  1004.5000      0.0000    830.5659      6.9338     95.1066
  1004.7500      0.0000    829.9944      6.9915    102.2285
  1005.0000      0.0000    829.4517      6.9749    109.2254
  1005.2500      0.0000    829.0738      6.9100    113.3489
  1005.5000      0.0000    828.8940      6.8557    112.7760
  1005.7500      0.0000    829.0520      6.8588    108.1107
  1006.0000      0.0000    829.9836      6.9139    102.0256
  1006.2500      0.0000    832.3994      6.9718     97.7125
  1006.5000      0.0000    836.9050      6.9866     97.5139
  1006.7500      0.0000    843.3686      6.9524    101.8096
  1007.0000      0.0000    850.6118      6.8966    108.4549
  1007.2500      0.0000    856.9813      6.8458    114.0545
  1007.5000      0.0000    861.4091      6.8074    116.3884
  1007.7500      0.0000    863.9008      6.7841    115.3529
  1008.0000      0.0000    865.0794      6.7917    111.9158
  1008.2500      0.0000    865.4343      6.8455    107.0612
  1008.5000      0.0000    864.9072      6.9327    101.6548
  1008.7500      0.0000    862.9586      7.0107     96.5649
  1009.0000      0.0000    859.0723      7.0381     92.6749
  1009.2500      0.0000    853.5108      7.0058     90.9314
  1009.5000      0.0000    847.5369      6.9405     92.2679
  1009.7500      0.0000    842.4272      6.8797     97.1474
  1010.0000      0.0000    837.9490      6.8501    104.9526
  1010.2500      0.0000    832.2101      6.8736    113.8758
  1010.5000      0.0000    823.4664      6.9770    121.7406
  1010.7500      0.0000    811.8262      7.1733    127.0323
  1011.0000      0.0000    798.9117      7.4333    129.1006
  1011.2500      0.0000    786.6035      7.6897    127.8066
  1011.5000      0.0000    777.0734      7.8783    123.7261
  1011.7500      0.0000    773.2418      7.9794    118.6672
  1012.0000      0.0000    777.3380      8.0208    115.0779
  1012.2500      0.0000    788.4290      8.0472    114.4307
  1012.5000      0.0000    802.1200      8.0871    116.3849
  1012.7500      0.0000    813.2714      8.1484    119.4529
  1013.0000      0.0000    818.9216      8.2311    122.1146
  1013.2500      0.0000    818.6290      8.3289    123.5338
  1013.5000      0.0000    812.9230      8.4209    123.7707
  1013.7500      0.0000    802.3245      8.4733    123.4009
  1014.0000      0.0000    787.5174      8.4571    122.8924
  1014.2500      0.0000    769.4648      8.3703    122.5572
  1014.5000      0.0000    749.4114      8.2484    122.8170
  1014.7500      0.0000    729.8834      8.1489    123.9204
  1015.0000      0.0000    715.8793      8.1126    125.6609
  1015.2500      0.0000    713.1758      8.1311    127.7917
  1015.5000      0.0000    723.7771      8.1563    130.4106
  1015.7500      0.0000    743.7201      8.1431    133.7042
  1016.0000      0.0000    766.2842      8.0815    137.4083
  1016.2500      0.0000    786.4597      7.9908    140.6243
  1016.5000      0.0000    802.0853      7.8938    142.4806
  1016.7500      0.0000    812.6147      7.8000    143.2424
  1017.0000      0.0000    818.2120      7.7006    144.3082
  1017.2500      0.0000    819.6288      7.5775    146.4835
  1017.5000      0.0000    818.2480      7.4297    148.2928
  1017.7500      0.0000    816.0159      7.2973    146.4890
  1018.0000      0.0000    814.9238      7.2466    138.6807
  1018.2500      0.0000    815.9265      7.3211    125.5519
  1018.5000      0.0000    818.4137      7.5092    110.4898
  1018.7500      0.0000    820.9608      7.7602     97.1514
  1019.0000      0.0000    822.4624      8.0182     87.2855
  1019.2500      0.0000    822.3903      8.2356     80.4572
  1019.5000      0.0000    820.3426      8.3780     75.5323
  1019.7500      0.0000    815.9177      8.4447     72.3434
  1020.0000      0.0000    809.1581      8.4791     71.9468
  1020.2500      0.0000    800.7455      8.5339     75.3487
  1020.5000      0.0000    791.5963      8.6180     82.0218
  1020.7500      0.0000    782.7756      8.6919     89.8027
  1021.0000      0.0000    775.9839      8.7153     96.4097
  1021.2500      0.0000    773.0276      8.6851    101.0158
  1021.5000      0.0000    773.8651      8.6266    104.1097
  1021.7500      0.0000    776.0187      8.5686    106.1410
  1022.0000      0.0000    777.0042      8.5358    107.0419
  1022.2500      0.0000    777.0256      8.5444    107.0632
  1022.5000      0.0000    778.5618      8.5815    107.2637
  1022.7500      0.0000    783.7009      8.5952    108.6434
  1023.0000      0.0000    792.4647      8.5238    110.9763
  1023.2500      0.0000    803.0795      8.3437    112.8467
  1023.5000      0.0000    813.0836      8.0883    112.9972
  1023.7500      0.0000    820.5745      7.8218    111.4365
  1024.0000      0.0000    825.0571      7.5993    109.1817
  1024.2500      0.0000    827.2831      7.4531    107.4678
  1024.5000      0.0000    828.3729      7.4012    107.4405
  1024.7500      0.0000    829.0786      7.4488    109.7830
  1025.0000      0.0000    829.6011      7.5759    113.9544
  1025.2500      0.0000    829.8022      7.7352    118.2783
  1025.5000      0.0000    829.5280      7.8744    121.3158
  1025.7500      0.0000    828.8238      7.9658    122.9636
  1026.0000      0.0000    827.9093      8.0157    124.1699
  1026.2500      0.0000    827.0297      8.0505    126.0043
  1026.5000      0.0000    826.3304      8.0910    129.0049
  1026.7500      0.0000    825.8378      8.1377    132.8194
  1027.0000      0.0000    825.5131      8.1731    136.1273
