~Version Information
VERS.                      2.0: CWLS Log ASCII Standard - VERSION 2.0
WRAP.                       NO: One line per depth step
~Well Information Block
STRT.FT               -11.2500: 
STOP.FT              1597.0000: 
STEP.FT                 0.2500: 
NULL.                -999.2500: 
COMP.          Petrogulf Corporation: COMPANY
WELL.          Great Plains 22-21R: WELL
FLD.           Purgatorie River: FIELD
LOC.           73' FNL & 1992' FWL--: LOCATION
PROV.                       CO: PROVINCE
CNTY.               Las Animas: COUNTRY
SRVC.          Patterson Wireline: SERVICE COMPANY
DATE.          Fri Sep 09 09:02:35 2005: LOG DATE
UWI.           05 071 08343 00: UNIQUE WELL ID
~Curve Information Block
DEPT.FT            0 000 00 00: Depth
CCL.                          : Casing Collar Locator
TT3.usec                      : CBL 3' Travel Time
AMP3.mV                       : CBL 3' Amplitude
GR.GAPI                       : Gamma Ray
~Parameter Information Block
~A  Depth       CCL         TT3         AMP3         GR     
# ...
   424.2500      0.0000    794.1267      9.7067     84.0604
   424.5000      0.0000    815.7845      9.9129     85.7798
   424.7500      0.0000    824.2742     10.1227     89.2633
   425.0000      0.0000    823.8857     10.2630     93.4811
   425.2500      0.0000    821.2944     10.3214     96.3037
   425.5000      0.0000    820.7662     10.3450     95.9843
   425.7500      0.0000    823.3686     10.3903     92.1683
   426.0000      0.0000    828.2914     10.4789     86.1171
   426.2500      0.0000    833.6806     10.5916     80.3294
   426.5000      0.0000    836.7720     10.6936     77.1357
   426.7500      0.0000    834.8056     10.7596     76.9710
   427.0000      0.0000    826.8295     10.7796     78.2548
   427.2500      0.0000    814.6655     10.7485     79.1575
   427.5000      0.0000    801.8838     10.6632     79.2759
   427.7500      0.0000    791.5891     10.5347     79.6674
   428.0000      0.0000    784.9588     10.3946     81.6018
   428.2500      0.0000    781.6273     10.2800     85.3527
   428.5000      0.0000    781.2224     10.2072     89.9566
   428.7500      0.0000    784.6927     10.1638     93.9641
   429.0000      0.0000    794.4047     10.1260     96.3143
   429.2500      0.0000    812.2413     10.0821     96.6138
   429.5000      0.0000    836.0671     10.0403     95.0200
   429.7500      0.0000    858.1346     10.0205     92.1521
   430.0000      0.0000    869.5126     10.0386     88.9208
   430.2500      0.0000    867.7915     10.0949     86.1324
   430.5000      0.0000    859.0805     10.1727     84.0777
   430.7500      0.0000    851.4174     10.2462     82.4316
   431.0000      0.0000    847.7297     10.2938     80.5995
   431.2500      0.0000    845.7988     10.3070     78.2824
   431.5000      0.0000    843.0374     10.2907     75.8265
   431.7500      0.0000    839.9179     10.2567     73.9828
   432.0000      0.0000    839.8677     10.2196     73.2575
   432.2500      0.0000    847.3120     10.1952     73.4926
   432.5000      0.0000    865.6761     10.1923     74.1571
   432.7500      0.0000    895.5004     10.2034     75.1772
   433.0000      0.0000    933.2502     10.2053     77.2628
   433.2500      0.0000    972.6125     10.1712     80.9917
   433.5000      0.0000   1007.1237     10.0875     85.7163
   433.7500      0.0000   1029.9603      9.9671     89.8407
   434.0000      0.0000   1032.1777      9.8516     92.0090
   434.2500      0.0000   1006.0521      9.7840     91.8122
   434.5000      0.0000    953.1877      9.7663     89.9009
   434.7500      0.0000    887.2340      9.7422     87.7973
   435.0000      0.0000    826.2995      9.6340     87.0756
   435.2500      0.0000    783.6507      9.4066     88.3164
   435.5000      0.0000    766.3479      9.0920     90.8920
   435.7500      0.0000    778.9271      8.7477     93.5932
   436.0000      0.0000    822.5099      8.4078     95.3207
   436.2500      0.0000    888.6501      8.1001     95.3783
   436.5000      0.0000    958.2354      7.8887     93.3307
   436.7500      0.0000   1010.9810      7.8462     88.8594
   437.0000     -2.0000   1036.4058      7.9806     82.1437
   437.2500      2.0000   1035.6974      8.2191     74.3645
   437.5000      0.0000   1016.8640      8.4619     67.3451
   437.7500      0.0000    990.4835      8.6410     62.4659
   438.0000      0.0000    966.5359      8.7495     60.0456
   438.2500      0.0000    951.2806      8.8507     59.6256
   438.5000      0.0000    945.8030      9.0615     60.4743
   438.7500      0.0000    946.2208      9.4829     61.8867
   439.0000      0.0000    946.1149     10.1057     63.3635
   439.2500      0.0000    942.2396     10.7852     64.5432
   439.5000      0.0000    938.5436     11.3383     64.9313
   439.7500      0.0000    942.0466     11.6697     64.0972
   440.0000      0.0000    954.6566     11.8033     62.4424
   440.2500      0.0000    971.1959     11.8190     61.3083
   440.5000      0.0000    985.0115     11.7877     61.8897
   440.7500      0.0000    993.2358     11.7559     64.2766
   441.0000      0.0000    996.8026     11.7545     67.5813
   441.2500      0.0000    997.6359     11.7991     70.4499
   441.5000      0.0000    996.5393     11.8836     71.5679
   441.7500      0.0000    992.4969     11.9823     70.6413
   442.0000      0.0000    982.8870     12.0639     69.0678
   442.2500      0.0000    965.0512     12.1064     68.7213
   442.5000      0.0000    939.1434     12.1059     69.7436
   442.7500      0.0000    909.7715     12.0769     70.1168
   443.0000      0.0000    883.7966     12.0435     67.6939
   443.2500      0.0000    865.8146     12.0286     62.4218
   443.5000      0.0000    855.8387     12.0446     56.4659
   443.7500      0.0000    850.7652     12.0893     52.2617
   444.0000      0.0000    847.1432     12.1485     50.4980
   444.2500      0.0000    842.9963     12.2031     49.8454
   444.5000      0.0000    838.5090     12.2401     48.4263
   444.7500      0.0000    835.5890     12.2584     45.4083
   445.0000      0.0000    836.0958     12.2664     41.3461
   445.2500      0.0000    839.9362     12.2728     37.4141
   445.5000      0.0000    845.0123     12.2805     34.5907
   445.7500      0.0000    848.9220     12.2847     33.3600
   446.0000      0.0000    850.2811     12.2770     33.7878
   446.2500      0.0000    848.5897     12.2524     35.6072
   446.5000      0.0000    843.7675     12.2126     38.2100
   446.7500      0.0000    836.5001     12.1634     40.6490
   447.0000      0.0000    828.8055     12.1109     41.8005
   447.2500      0.0000    823.4572     12.0598     40.8461
   447.5000      0.0000    822.1743     12.0131     37.9437
   447.7500      0.0000    824.1118     11.9723     34.3876
   448.0000      0.0000    826.2640     11.9382     31.7840
   448.2500      0.0000    825.7723     11.9129     30.9512
   448.5000      0.0000    822.0837     11.9000     31.6443
   448.7500      0.0000    816.8283     11.9025     33.1235
   449.0000      0.0000    811.7996     11.9201     34.7518
   449.2500      0.0000    807.5148     11.9487     36.1408
   449.5000      0.0000    803.7208     11.9816     37.0200
   449.7500      0.0000    800.6836     12.0126     37.2243
   450.0000      0.0000    799.3930     12.0368     36.9194
   450.2500      0.0000    800.4513     12.0507     36.6298
   450.5000      0.0000    803.2789     12.0531     36.7474
   450.7500      0.0000    806.6702     12.0455     36.9721
   451.0000      0.0000    809.8168     12.0320     36.4567
   451.2500      0.0000    812.7559     12.0162     34.6826
   451.5000      0.0000    816.3353     11.9991     32.1559
   451.7500      0.0000    821.6891     11.9798     30.1375
   452.0000      0.0000    829.0393     11.9580     29.6997
   452.2500      0.0000    836.9849     11.9359     30.9962
   452.5000      0.0000    843.5034     11.9185     33.1683
   452.7500      0.0000    847.5729     11.9104     34.8173
   453.0000      0.0000    849.5416     11.9114     34.9580
   453.2500      0.0000    850.3163     11.9177     33.8987
   453.5000      0.0000    850.6063     11.9256     32.9662
   453.7500      0.0000    850.7436     11.9342     33.0765
   454.0000      0.0000    850.8152     11.9442     33.7818
   454.2500      0.0000    850.8068     11.9565     33.9346
   454.5000      0.0000    850.6973     11.9724     33.1051
   454.7500      0.0000    850.4849     11.9919     32.1662
   455.0000      0.0000    850.1874     12.0123     32.6674
   455.2500      0.0000    849.8401     12.0298     35.9673
   455.5000      0.0000    849.4926     12.0439     42.8487
   455.7500      0.0000    849.1825     12.0575     53.2583
   456.0000      0.0000    848.8386     12.0740     65.7561
   456.2500      0.0000    848.1507     12.0932     77.3718
   456.5000      0.0000    846.4971     12.1116     85.0178
   456.7500      0.0000    843.3046     12.1253     87.7579
   457.0000      0.0000    839.2173     12.1313     87.4558
   457.2500      0.0000    837.5082     12.1279     86.9215
   457.5000      0.0000    843.9344     12.1138     87.6919
