~Version Information
VERS.                      2.0: CWLS Log ASCII Standard - VERSION 2.0
WRAP.                       NO: One line per depth step
~Well Information Block
STRT.FT                 0.0000: 
STOP.FT              2430.7500: 
STEP.FT                 0.2500: 
NULL.                -999.2500: 
COMP.          Petrogulf Corporation: COMPANY
WELL.             Leier 17-42V: WELL
FLD.           Purgatorie River: FIELD
LOC.           2309' FNL & 1062' FEL: LOCATION
PROV.                 Colorado: PROVINCE
CNTY.               Las Animas: COUNTRY
SRVC.                Patterson: SERVICE COMPANY
DATE.          Thu Oct 06 10:18:00 2005: LOG DATE
UWI.                          : UNIQUE WELL ID
~Curve Information Block
DEPT.FT            0 000 00 00: Depth
CCL.                          : Casing Collar Locator
TT3.usec                      : CBL 3' Travel Time
AMP3.mV                       : CBL 3' Amplitude
GR.GAPI                       : Gamma Ray
~Parameter Information Block
~A  Depth       CCL         TT3         AMP3         GR     
# ...
   636.5000      0.0000    781.3817      5.2318     85.0234
   636.7500      0.0000    774.9861      5.1581     88.0185
   637.0000      0.0000    755.1771      5.1363     91.0660
   637.2500      0.0000    716.5797      5.3602     92.8899
   637.5000      0.0000    676.2474      5.8923     93.5928
   637.7500      0.0000    658.3972      6.4984     93.4020
   638.0000      0.0000    676.7551      6.7863     91.7234
   638.2500      0.0000    743.2492      6.5955     88.0306
   638.5000      0.0000    853.5650      6.1713     82.9312
   638.7500      0.0000    956.8752      5.8988     77.7509
   639.0000      0.0000    996.0806      5.9336     73.5976
   639.2500      2.0000    973.0722      6.1632     71.0882
   639.5000      0.0000    928.0878      6.4437     70.3008
   639.7500     -2.0000    888.3207      6.7585     70.6151
   640.0000      0.0000    860.5148      7.1709     71.0329
   640.2500      0.0000    841.6577      7.7382     71.1115
   640.5000      0.0000    828.9702      8.5019     71.4817
   640.7500      0.0000    826.5826      9.3916     73.1153
   641.0000      0.0000    839.4647     10.0499     76.1143
   641.2500      0.0000    863.9341     10.2042     79.5210
   641.5000      0.0000    888.7150     10.1714     82.3760
   641.7500      0.0000    902.6039     10.3655     84.6287
   642.0000      0.0000    895.1835     10.7329     86.6805
   642.2500      0.0000    861.2013     11.0058     88.3660
   642.5000      0.0000    816.5297     11.0638     89.0170
   642.7500      0.0000    792.3050     10.9900     88.4807
   643.0000      0.0000    804.4207     10.9118     87.5614
   643.2500      0.0000    844.0685     10.8558     87.4286
   643.5000      0.0000    892.3739     10.8025     88.7248
   643.7500      0.0000    931.8240     10.7623     91.0481
   644.0000      0.0000    954.7894     10.7429     93.3189
   644.2500      0.0000    968.0076     10.7162     94.9105
   644.5000      0.0000    977.0343     10.6606     96.1101
   644.7500      0.0000    975.1357     10.5987     97.1829
   645.0000      0.0000    961.3455     10.5420     97.6011
   645.2500      0.0000    946.2463     10.4660     96.8516
   645.5000      0.0000    936.7626     10.3869     95.5516
   645.7500      0.0000    929.1729     10.3711     94.9131
   646.0000      0.0000    914.1625     10.4204     95.1527
   646.2500      0.0000    891.3139     10.4568     95.0933
   646.5000      0.0000    875.2233     10.4513     93.5516
   646.7500      0.0000    876.1996     10.4510     90.9013
   647.0000      0.0000    884.4098     10.4670     89.2286
   647.2500      0.0000    884.1989     10.4536     90.8046
   647.5000      0.0000    874.3578     10.3961     95.9426
   647.7500      0.0000    868.3328     10.3233    102.2828
   648.0000      0.0000    875.6875     10.2508    106.5243
   648.2500      0.0000    889.7634     10.1862    106.9149
   648.5000      0.0000    899.7906     10.1673    104.0840
   648.7500      0.0000    903.7696     10.2410    100.0436
   649.0000      0.0000    905.1967     10.3981     96.9268
   649.2500      0.0000    907.5900     10.5693     96.3589
   649.5000      0.0000    914.4009     10.7147     99.0494
   649.7500      0.0000    928.1068     10.8418    104.2159
   650.0000      0.0000    944.2573     10.9188    109.4338
   650.2500      0.0000    948.7463     10.9084    111.7986
   650.5000      0.0000    930.1321     10.8582    109.9171
   650.7500      0.0000    896.4600     10.8406    104.7887
   651.0000      0.0000    870.8700     10.8843     98.6431
   651.2500      0.0000    871.0467     10.9856     93.1881
   651.5000      0.0000    898.7244     11.0969     89.0159
   651.7500      0.0000    941.0186     11.1556     86.1481
   652.0000      0.0000    979.6111     11.1720     84.5617
   652.2500      0.0000   1001.9847     11.2204     84.0611
   652.5000      0.0000   1002.6182     11.3272     83.9912
   652.7500      0.0000    985.0652     11.4264     83.5774
   653.0000      0.0000    963.7988     11.4368     82.6591
   653.2500      0.0000    950.8163     11.3309     81.8161
   653.5000      0.0000    946.3093     11.1327     81.6342
   653.7500      0.0000    945.4968     10.9122     81.9897
   654.0000      0.0000    945.3065     10.7593     82.2051
   654.2500      0.0000    943.7422     10.6871     81.7938
   654.5000      0.0000    935.8734     10.6016     80.8426
   654.7500      0.0000    911.5904     10.4249     79.7952
   655.0000      0.0000    864.0402     10.1868     79.1872
   655.2500      0.0000    804.5435      9.9618     79.5910
   655.5000      0.0000    756.8336      9.7978     81.5335
   655.7500      0.0000    732.2235      9.7084     85.1091
   656.0000      0.0000    723.9977      9.6471     89.4191
   656.2500      0.0000    722.3716      9.5076     92.6643
   656.5000      0.0000    723.4073      9.2414     93.3821
   656.7500      0.0000    728.6081      8.9339     91.7041
   657.0000      0.0000    741.3583      8.7053     89.1273
   657.2500      0.0000    758.6592      8.5916     87.2052
   657.5000      0.0000    769.0807      8.5520     86.7430
   657.7500      0.0000    769.9963      8.5272     87.8093
   658.0000      0.0000    770.6473      8.4653     89.8957
   658.2500      0.0000    767.9005      8.3272     92.0710
   658.5000      0.0000    753.5712      8.0925     93.3610
   658.7500      0.0000    741.9469      7.7808     93.2894
   659.0000      0.0000    749.8293      7.4715     92.2607
   659.2500      0.0000    764.3216      7.2548     91.3998
   659.5000      0.0000    765.6231      7.1648     91.7861
   659.7500      0.0000    764.4828      7.1967     93.5624
   660.0000      0.0000    781.9952      7.3424     95.6233
   660.2500      0.0000    809.4427      7.5545     96.2979
   660.5000      0.0000    824.6409      7.7370     94.6459
   660.7500      0.0000    831.0499      7.8165     91.1825
   661.0000      0.0000    841.3878      7.7677     87.3113
   661.2500      0.0000    842.8114      7.5843     84.2944
   661.5000      0.0000    818.6658      7.3239     82.9012
   661.7500      0.0000    786.6077      7.1383     83.5387
   662.0000      0.0000    781.3372      7.1561     86.1264
   662.2500      0.0000    804.8207      7.3763     89.8033
   662.5000      0.0000    819.0648      7.7278     93.0690
   662.7500      0.0000    791.1428      8.1586     94.4383
   663.0000      0.0000    731.8235      8.5915     93.2020
   663.2500      0.0000    682.3406      8.9085     89.8078
   663.5000      0.0000    668.9038      9.0764     85.5399
   663.7500      0.0000    686.8958      9.1691     81.8737
   664.0000      0.0000    718.2800      9.2470     80.2770
   664.2500      0.0000    740.6923      9.3271     82.2263
   664.5000      0.0000    734.9637      9.4382     88.4217
   664.7500      0.0000    699.2683      9.6191     97.4947
   665.0000      0.0000    645.5172      9.8381    105.9583
   665.2500      0.0000    589.9682      9.9738    110.1266
   665.5000      0.0000    549.5858      9.9535    108.5977
   665.7500      0.0000    531.7098      9.8243    103.1783
   666.0000      0.0000    528.3857      9.6477     97.4107
   666.2500      0.0000    527.1021      9.4627     93.9516
   666.5000      0.0000    523.5540      9.3243     93.0459
   666.7500      0.0000    519.6982      9.2575     93.2195
   667.0000      0.0000    512.9370      9.2309     93.1309
   667.2500      0.0000    495.1570      9.2321     92.5155
   667.5000      0.0000    464.3124      9.2906     91.5950
   667.7500      0.0000    436.5568      9.3699     90.3093
   668.0000      0.0000    446.0409      9.3143     88.5375
   668.2500      0.0000    520.1140      9.0149     86.7458
   668.5000      0.0000    631.0714      8.5716     86.0128
   668.7500      0.0000    687.4047      8.1810     87.2604
   669.0000      0.0000    631.2520      7.9240     90.3671
   669.2500      0.0000    515.8627      7.7389     94.1267
   669.5000      0.0000    426.4003      7.5347     97.2794
   669.7500      0.0000    386.3961      7.2685     99.3884
