~Version Information
VERS.                      2.0: CWLS Log ASCII Standard - VERSION 2.0
WRAP.                       NO: One line per depth step
~Well Information Block
STRT.FT               460.0000: 
STOP.FT               961.2000: 
STEP.FT                 0.1000: 
NULL.                -999.2500: 
COMP.          Pioneer Natural Resources: COMPANY
WELL.                Pug 33-19: WELL
FLD.           Purgatoire River: FIELD
LOC.           1381' FSL & 2140' FEL: LOCATION
PROV.                 Colorado: PROVINCE
CNTY.               Las Animas: COUNTRY
SRVC.                Patterson: SERVICE COMPANY
DATE.          Wed Dec 15 07:19:20 2004: LOG DATE
UWI.           05 071 08193 00: UNIQUE WELL ID
~Curve Information Block
DEPT.FT            0 000 00 00: Depth
DCAL.in                       : CDL Caliper
RHOB.g/cc                     : CDL Bulk Density
RHOC.g/cc                     : CDL Density Correction
DPOR.pu                       : CDL Density Porosity
NPOR.pu                       : Neutron Porosity
GR.GAPI                       : Gamma Ray
~Parameter Information Block
~A  Depth       DCAL        RHOB        RHOC        DPOR        NPOR         GR     
# ...
   863.2000      7.9061      2.5237      0.0708      7.6552     14.7393     88.1990
   863.3000      7.9042      2.5176      0.0338      8.0235     15.5122     90.9558
   863.4000      7.9042      2.5023      0.0060      8.9495     16.2367     95.0852
   863.5000      7.9033      2.4849      0.0414     10.0081     16.6889    100.5134
   863.6000      7.9033      2.4696      0.0319     10.9338     16.9498    102.0097
   863.7000      7.9033      2.4571      0.0359     11.6921     17.0904     98.4155
   863.8000      7.9012      2.4483      0.0086     12.2244     17.0282     92.3985
   863.9000      7.9012      2.4441      0.0427     12.4806     16.7853     85.6775
   864.0000      7.8991      2.4407      0.0150     12.6867     16.6827     81.8493
   864.1000      7.8991      2.4372      0.0295     12.8982     16.6930     83.1548
   864.2000      7.8991      2.4425      0.0258     12.5742     16.6513     85.6956
   864.3000      7.8982      2.4627      0.0182     11.3505     16.4939     84.8079
   864.4000      7.8982      2.4776      0.0909     10.4468     16.1684     81.6535
   864.5000      7.9024      2.4662      0.0536     11.1421     16.0087     83.0462
   864.6000      7.9024      2.4431      0.0146     12.5391     16.1471     90.5085
   864.7000      7.9024      2.4329      0.0447     13.1594     16.4661     97.6845
   864.8000      7.9070      2.4427      0.0047     12.5615     16.7438     99.3788
   864.9000      7.9070      2.4647      0.0821     11.2287     16.8904     97.5114
   865.0000      7.9031      2.4816      0.0722     10.2079     17.2857     96.6683
   865.1000      7.9031      2.4888      0.0376      9.7720     17.9667     94.3820
   865.2000      7.9031      2.4934      0.0559      9.4883     18.4585     86.7904
   865.3000      7.9000      2.4895      0.0986      9.7258     18.4806     78.4482
   865.4000      7.9000      2.4734      0.0379     10.7013     18.2331     77.6095
   865.5000      7.9022      2.4585      0.0269     11.6067     17.7500     85.0232
   865.6000      7.9022      2.4494      0.0263     12.1586     16.9957     91.0066
   865.7000      7.9022      2.4455     -0.0088     12.3926     16.6666     87.5817
   865.8000      7.9049      2.4512      0.0390     12.0457     17.0036     81.7392
   865.9000      7.9049      2.4639      0.0559     11.2760     17.4418     83.3560
   866.0000      7.9040      2.4817      0.0596     10.1991     17.7390     89.4954
   866.1000      7.9040      2.5002      0.0945      9.0812     17.8291     91.8135
   866.2000      7.9040      2.5024      0.0787      8.9425     17.7252     89.5146
   866.3000      7.9017      2.4862      0.0075      9.9292     17.7799     88.4871
   866.4000      7.9017      2.4669      0.0378     11.0968     17.8778     91.4633
   866.5000      7.9002      2.4530      0.0565     11.9396     17.5580     94.2634
   866.6000      7.9002      2.4507      0.0125     12.0792     16.9380     92.0054
   866.7000      7.9002      2.4636      0.0508     11.2978     16.5178     86.6251
   866.8000      7.9002      2.4818      0.0530     10.1939     16.5420     81.2092
   866.9000      7.9002      2.4961      0.0615      9.3256     16.7252     79.9842
   867.0000      7.8994      2.5060      0.0651      8.7279     16.7239     84.8481
   867.1000      7.8994      2.5121      0.0603      8.3584     16.4063     89.1777
   867.2000      7.8994      2.5142      0.0372      8.2329     15.6809     89.3453
   867.3000      7.8973      2.5146      0.0240      8.2053     15.1848     88.1761
   867.4000      7.8973      2.5234      0.0341      7.6702     15.6952     85.7288
   867.5000      7.8989      2.5481      0.0785      6.1784     16.4854     78.1903
   867.6000      7.8989      2.5740      0.1091      4.6056     16.6119     68.3795
   867.7000      7.8989      2.5811      0.1065      4.1757     16.4753     64.9669
   867.8000      7.9020      2.5685      0.0940      4.9418     16.6190     68.3400
   867.9000      7.9020      2.5448      0.0871      6.3734     17.0012     72.0644
   868.0000      7.9024      2.5203      0.0695      7.8577     17.5021     73.1843
   868.1000      7.9024      2.5053      0.0461      8.7713     17.8924     71.0074
   868.2000      7.9024      2.4945      0.0625      9.4260     18.0294     69.7202
   868.3000      7.9016      2.4759      0.0391     10.5527     17.9335     75.7581
   868.4000      7.9016      2.4596     -0.0040     11.5421     17.3927     83.6404
   868.5000      7.9011      2.4612      0.0149     11.4427     16.6953     88.1913
   868.6000      7.9011      2.4727      0.0555     10.7460     16.6056     93.2735
   868.7000      7.9011      2.4822      0.0301     10.1698     17.0950     97.4772
   868.8000      7.9007      2.4921      0.0338      9.5705     17.3644     97.2310
   868.9000      7.9007      2.4961      0.0864      9.3259     17.2342     96.8972
   869.0000      7.9007      2.4860      0.0586      9.9406     17.1617     99.6187
   869.1000      7.9007      2.4730      0.0348     10.7288     17.0583    100.5133
   869.2000      7.9007      2.4677      0.0582     11.0513     16.6685     98.3320
   869.3000      7.9020      2.4698      0.0349     10.9208     16.3516     97.5040
   869.4000      7.9020      2.4783      0.0643     10.4045     16.4692     98.9779
   869.5000      7.9026      2.4827      0.0819     10.1408     16.8355    100.1299
   869.6000      7.9026      2.4722      0.0488     10.7751     17.2102     99.2250
   869.7000      7.9026      2.4565      0.0348     11.7296     17.4862     98.4298
   869.8000      7.9005      2.4475      0.0330     12.2749     17.3599     97.6117
   869.9000      7.9005      2.4424      0.0143     12.5788     16.6958     93.7854
   870.0000      7.8973      2.4368     -0.0185     12.9183     16.0056     89.6281
   870.1000      7.8973      2.4333     -0.0113     13.1312     15.9662     89.8026
   870.2000      7.8973      2.4365      0.0089     12.9422     16.6933     93.1925
   870.3000      7.8972      2.4495      0.0060     12.1516     17.7969     94.0410
   870.4000      7.8972      2.4692      0.0734     10.9546     18.5392     89.2044
   870.5000      7.8998      2.4857      0.0460      9.9563     18.3482     85.7512
   870.6000      7.8998      2.4920      0.0477      9.5734     17.7233     89.3843
   870.7000      7.8998      2.4893      0.0349      9.7380     17.5013     93.8293
   870.8000      7.9022      2.4883      0.0237      9.8020     17.7669     94.9059
   870.9000      7.9022      2.4940      0.0451      9.4545     17.9712     95.0415
   871.0000      7.9029      2.5005      0.0440      9.0609     17.6916     92.6990
   871.1000      7.9029      2.5021      0.0533      8.9657     17.3770     87.1600
   871.2000      7.9029      2.4991      0.0305      9.1426     17.7253     85.6104
   871.3000      7.9021      2.4974      0.0242      9.2457     18.6569     91.4989
   871.4000      7.9021      2.4977      0.0664      9.2295     19.5254     99.4886
   871.5000      7.9004      2.4925      0.0349      9.5481     19.8804    102.0770
   871.6000      7.9004      2.4802      0.0219     10.2891     19.5830     96.4415
   871.7000      7.9004      2.4681      0.0017     11.0267     18.9408     87.4044
   871.8000      7.8992      2.4630     -0.0098     11.3322     18.7306     83.4513
   871.9000      7.8992      2.4608      0.0372     11.4684     18.9728     83.8253
   872.0000      7.9002      2.4496      0.0315     12.1452     19.0011     81.7692
   872.1000      7.9002      2.4316     -0.0128     13.2377     18.8594     78.3988
   872.2000      7.9002      2.4167      0.0210     14.1408     19.0676     75.3950
   872.3000      7.9012      2.4093      0.0050     14.5886     19.2151     71.8954
   872.4000      7.9012      2.4161      0.0150     14.1754     18.7933     71.7803
   872.5000      7.9006      2.4336      0.0349     13.1181     18.5012     75.1499
   872.6000      7.9006      2.4482      0.0291     12.2278     18.8818     77.2014
   872.7000      7.9006      2.4575      0.0613     11.6693     19.2689     78.9962
