~Version Information
VERS.                      2.0: CWLS Log ASCII Standard - VERSION 2.0
WRAP.                       NO: One line per depth step
~Well Information Block
STRT.FT               -13.5000: 
STOP.FT              2092.5000: 
STEP.FT                 0.2500: 
NULL.                -999.2500: 
COMP.          Petrogulf Corporation: COMPANY
WELL.          Robinson 15-11V: WELL
FLD.           Purgatorie River: FIELD
LOC.           226' FNL & 592' FWL--: LOCATION
CNTY.               Las Animas: COUNTY
SRVC.                         : SERVICE COMPANY
DATE.          Tue Aug 17 13:05:46 2004: LOG DATE
UWI.                          : UNIQUE WELL ID
STAT.                       CO: STATE
~Curve Information Block
DEPT.FT            0 000 00 00: Depth
CCL.                          : Casing Collar Locator
TT3.usec                      : CBL 3' Travel Time
AMP3.mV                       : CBL 3' Amplitude
GR.GAPI                       : Gamma Ray
~Parameter Information Block
~A  Depth       CCL         TT3         AMP3         GR     
# ...
  2063.5000      0.0000    707.1370      2.1216     83.8356
  2063.7500      0.0000    698.0004      1.9909     83.3390
  2064.0000      0.0000    681.5338      1.9113     86.2626
  2064.2500      0.0000    659.7984      1.9392     90.9001
  2064.5000      0.0000    637.3165      2.0863     94.9819
  2064.7500      0.0000    619.8531      2.2966     96.8378
  2065.0000      0.0000    612.6942      2.4749     96.1257
  2065.2500      0.0000    618.8068      2.5510     93.7189
  2065.5000      0.0000    636.6931      2.5222     90.9008
  2065.7500      0.0000    659.5920      2.4328     88.8642
  2066.0000      0.0000    678.7166      2.3155     88.8423
  2066.2500      0.0000    689.0151      2.1679     91.8928
  2066.5000      0.0000    691.9127      1.9873     97.7896
  2066.7500      0.0000    692.6044      1.8051    104.2531
  2067.0000      0.0000    695.1637      1.6645    108.1065
  2067.2500      0.0000    699.7050      1.5774    107.7549
  2067.5000      0.0000    703.1741      1.5249    104.5395
  2067.7500      0.0000    702.6686      1.4900    101.6056
  2068.0000      0.0000    698.3665      1.4792    101.4390
  2068.2500      0.0000    693.4298      1.5185    104.1355
  2068.5000      0.0000    691.2640      1.6255    107.5311
  2068.7500      0.0000    692.9114      1.7799    109.0517
  2069.0000      0.0000    696.4218      1.9334    107.8772
  2069.2500      0.0000    698.0828      2.0558    105.4632
  2069.5000      0.0000    694.6745      2.1594    103.9153
  2069.7500      0.0000    685.7238      2.2771    103.9556
  2070.0000      0.0000    674.1155      2.4263    104.4432
  2070.2500      0.0000    664.0048      2.5958    103.6731
  2070.5000      0.0000    657.5096      2.7574    101.0117
  2070.7500      0.0000    653.5444      2.8865     97.4251
  2071.0000      0.0000    649.9991      2.9656     94.6323
  2071.2500      0.0000    646.4937      2.9796     93.7809
  2071.5000      0.0000    644.4567      2.9285     94.7920
  2071.7500      0.0000    644.8204      2.8404     96.7394
  2072.0000      0.0000    646.3622      2.7588     98.6265
  2072.2500      0.0000    646.4311      2.7142     99.8349
  2072.5000      0.0000    642.7888      2.7150    100.2796
  2072.7500      0.0000    634.6351      2.7586    100.4632
  2073.0000      0.0000    622.4785      2.8327    101.0480
  2073.2500      0.0000    607.7375      2.9065    102.0534
  2073.5000      0.0000    592.6249      2.9377    102.7432
  2073.7500      0.0000    579.7289      2.8958    102.5625
  2074.0000      0.0000    570.8873      2.7763    101.8191
  2074.2500      0.0000    566.4787      2.5948    101.0776
  2074.5000      0.0000    566.1931      2.3754    100.2298
  2074.7500      0.0000    570.4833      2.1518     98.7715
  2075.0000      0.0000    580.8236      1.9640     96.8428
  2075.2500      0.0000    598.0188      1.8351     95.3040
  2075.5000      0.0000    619.9078      1.7567     94.6735
  2075.7500      0.0000    641.2503      1.7152     94.5970
  2076.0000      0.0000    656.9172      1.7208     94.5489
  2076.2500      0.0000    665.5948      1.7861     94.4533
  2076.5000      0.0000    669.8174      1.8857     94.2835
  2076.7500      0.0000    672.3173      1.9684     93.7169
  2077.0000      0.0000    673.0272      2.0091     92.7151
  2077.2500      0.0000    669.5841      2.0341     91.9201
  2077.5000      0.0000    659.8433      2.0900     91.9532
  2077.7500      0.0000    644.0137      2.1857     92.7626
  2078.0000      0.0000    625.7234      2.2602     93.8786
  2078.2500      0.0000    610.9857      2.2129     94.3185
  2078.5000      0.0000    604.4166      1.9856     91.7159
  2078.7500      0.0000    605.6996      1.6216     82.8333
  2079.0000      0.0000    610.8528      1.2460     66.4459
  2079.2500      0.0000    617.3036      0.9949     45.6112
  2079.5000      0.0000    626.0416      0.9522     26.0743
  2079.7500      0.0000    637.6586      1.1258     12.1797
  2080.0000      0.0000    648.1793      1.4543      4.5870
  2080.2500      0.0000    651.4318      1.8341      1.3799
  2080.5000      0.0000    645.7592      2.1599      0.3289
  2080.7500      0.0000    636.7884      2.3643      0.0612
  2081.0000      0.0000    632.7491      2.4385      0.0083
  2081.2500      0.0000    637.5396      2.4192      0.0000
  2081.5000      0.0000    648.1568      2.3483   -999.2500
  2081.7500      0.0000    657.7119      2.2460   -999.2500
  2082.0000      0.0000    661.0197      2.1222   -999.2500
  2082.2500      0.0000    658.5846      2.0026   -999.2500
  2082.5000      0.0000    655.7850      1.9267   -999.2500
  2082.7500      0.0000    657.6101      1.9114   -999.2500
  2083.0000      0.0000    663.4600      1.9300   -999.2500
  2083.2500      0.0000    666.2159      1.9420   -999.2500
  2083.5000      0.0000    654.2661      1.9403   -999.2500
  2083.7500      0.0000    613.5773      1.9516   -999.2500
  2084.0000      0.0000    532.6571      1.9912   -999.2500
  2084.2500      0.0000    413.1114      2.0404   -999.2500
  2084.5000      0.0000    276.6541      2.0728   -999.2500
  2084.7500      0.0000    155.5203      2.0825   -999.2500
  2085.0000      0.0000     71.8379      2.0802   -999.2500
  2085.2500      0.0000     26.8515      2.0763   -999.2500
  2085.5000      0.0000      8.0326      2.0741   -999.2500
  2085.7500      0.0000      1.9059      2.0734   -999.2500
  2086.0000      0.0000      0.3535      2.0732   -999.2500
  2086.2500      0.0000      0.0473      2.0732   -999.2500
  2086.5000      0.0000   -999.2500   -999.2500   -999.2500
  2086.7500      0.0000   -999.2500   -999.2500   -999.2500
  2087.0000      0.0000   -999.2500   -999.2500   -999.2500
  2087.2500      0.0000   -999.2500   -999.2500   -999.2500
  2087.5000      0.0000   -999.2500   -999.2500   -999.2500
  2087.7500      0.0000   -999.2500   -999.2500   -999.2500
  2088.0000      0.0000   -999.2500   -999.2500   -999.2500
  2088.2500      0.0000   -999.2500   -999.2500   -999.2500
  2088.5000      0.0000   -999.2500   -999.2500   -999.2500
  2088.7500      0.0000   -999.2500   -999.2500   -999.2500
  2089.0000      0.0000   -999.2500   -999.2500   -999.2500
  2089.2500      0.0000   -999.2500   -999.2500   -999.2500
  2089.5000      0.0000   -999.2500   -999.2500   -999.2500
  2089.7500      0.0000   -999.2500   -999.2500   -999.2500
  2090.0000      2.0000   -999.2500   -999.2500   -999.2500
  2090.2500      0.0000   -999.2500   -999.2500   -999.2500
  2090.5000      0.0000   -999.2500   -999.2500   -999.2500
  2090.7500      0.0000   -999.2500   -999.2500   -999.2500
  2091.0000      0.0000   -999.2500   -999.2500   -999.2500
  2091.2500      0.0000   -999.2500   -999.2500   -999.2500
  2091.5000      0.0000   -999.2500   -999.2500   -999.2500
  2091.7500      0.0000   -999.2500   -999.2500   -999.2500
  2092.0000   -999.2500   -999.2500   -999.2500   -999.2500
  2092.2500   -999.2500   -999.2500   -999.2500   -999.2500
  2092.5000   -999.2500   -999.2500   -999.2500   -999.2500
