~Version Information
VERS.                      2.0: CWLS Log ASCII Standard - VERSION 2.0
WRAP.                       NO: One line per depth step
~Well Information Block
STRT.FT               745.0000: 
STOP.FT              2945.7500: 
STEP.FT                 0.2500: 
NULL.                -999.2500: 
COMP.          Pioneer Natural Resources: COMPANY
WELL.          Old Yeller 31-32: WELL
FLD.           Purgatoire River: FIELD
LOC.           1832' FEL & 793' FNL--: LOCATION
STAT.                 Colorado: State
CNTY.               Las Animas: COUNTY
CTRY. USA : Country
SECT. 32 : Section
TOWN. 32S : Township
RANG. 67W : Range
SRVC.                Patterson: SERVICE COMPANY
DATE.          Sun Aug 28 20:20:00 2005: LOG DATE
API.           05 071 08356 00: UNIQUE WELL ID
~Curve Information Block
DEPT.FT            0 000 00 00: Depth
SN.Ohm-m                      : IEL Short Normal
SP.mV                         : IEL Spontaneous Potential
DIR.Ohm-m                     : IEL Induction Resistivity
GR.GAPI                       : Gamma Ray
~Parameter Information Block
~A  Depth        SN          SP         DIR          GR     
# ...
  2185.5000     20.2182    -62.6410     19.8772    111.7863
  2185.7500     19.5698    -62.4386     19.2403    113.2753
  2186.0000     19.0706    -62.3201     18.7024    114.2865
  2186.2500     18.7155    -62.2833     18.2761    113.9331
  2186.5000     18.4700    -62.3199     17.9555    112.9005
  2186.7500     18.2855    -62.4157     17.7212    112.7092
  2187.0000     18.1179    -62.5502     17.5462    113.4035
  2187.2500     17.9358    -62.6969     17.4020    114.0537
  2187.5000     17.7143    -62.8252     17.2628    114.6680
  2187.7500     17.4269    -62.9028     17.1061    114.7008
  2188.0000     17.0510    -62.8999     16.9107    113.9480
  2188.2500     16.5835    -62.7937     16.6556    112.9288
  2188.5000     16.0477    -62.5729     16.3262    111.6468
  2188.7500     15.4813    -62.2394     15.9216    112.0101
  2189.0000     14.9145    -61.8087     15.4570    115.6398
  2189.2500     14.3577    -61.3069     14.9577    119.9504
  2189.5000     13.8098    -60.7668     14.4469    127.7468
  2189.7500     13.2773    -60.2221     13.9392    132.8998
  2190.0000     12.7824    -59.7039     13.4415    139.6340
  2190.2500     12.3528    -59.2378     12.9587    143.3253
  2190.5000     12.0075    -58.8439     12.4985    147.9527
  2190.7500     11.7495    -58.5376     12.0733    150.6638
  2191.0000     11.5695    -58.3322     11.7000    153.9706
  2191.2500     11.4535    -58.2394     11.3985    155.1480
  2191.5000     11.3899    -58.2693     11.1885    154.6378
  2191.7500     11.3735    -58.4289     11.0853    152.8125
  2192.0000     11.4036    -58.7184     11.0945    148.4845
  2192.2500     11.4785    -59.1277     11.2083    144.9554
  2192.5000     11.5916    -59.6339     11.4058    139.0532
  2192.7500     11.7286    -60.1997     11.6547    134.6711
  2193.0000     11.8702    -60.7763     11.9162    127.4387
  2193.2500     11.9965    -61.3075     12.1520    122.5442
  2193.5000     12.0933    -61.7379     12.3312    116.1362
  2193.7500     12.1565    -62.0219     12.4344    113.0274
  2194.0000     12.1930    -62.1318     12.4565    111.0004
  2194.2500     12.2141    -62.0635     12.4051    112.1424
  2194.5000     12.2221    -61.8379     12.2974    118.7977
  2194.7500     12.2009    -61.4971     12.1533    126.4305
  2195.0000     12.1191    -61.0963     11.9885    140.1432
  2195.2500     11.9462    -60.6932     11.8096    148.3740
  2195.5000     11.6724    -60.3371     11.6136    155.7435
  2195.7500     11.3188    -60.0605     11.3934    156.4901
  2196.0000     10.9314    -59.8741     11.1431    152.3419
  2196.2500     10.5624    -59.7676     10.8638    147.5633
  2196.5000     10.2474    -59.7135     10.5650    140.2071
  2196.7500      9.9919    -59.6750     10.2613    136.3759
  2197.0000      9.7739    -59.6145      9.9662    133.1247
  2197.2500      9.5576    -59.5016      9.6867    132.6431
  2197.5000      9.3090    -59.3190      9.4222    134.1067
  2197.7500      9.0063    -59.0654      9.1668    136.2567
  2198.0000      8.6426    -58.7544      8.9152    140.6778
  2198.2500      8.2259    -58.4107      8.6665    144.0533
  2198.5000      7.7846    -58.0645      8.4258    149.1722
  2198.7500      7.3725    -57.7456      8.2028    152.3433
  2199.0000      7.0609    -57.4778      8.0093    156.1884
  2199.2500      6.9136    -57.2764      7.8561    157.7405
  2199.5000      6.9564    -57.1476      7.7508    158.1679
  2199.7500      7.1597    -57.0894      7.6967    157.4153
  2200.0000      7.4480    -57.0947      7.6917    155.5739
  2200.2500      7.7343    -57.1537      7.7289    154.1825
  2200.5000      7.9566    -57.2561      7.7979    151.7375
  2200.7500      8.0950    -57.3924      7.8869    149.7289
  2201.0000      8.1627    -57.5539      7.9841    146.6414
  2201.2500      8.1853    -57.7322      8.0794    145.3159
  2201.5000      8.1838    -57.9188      8.1650    145.7382
  2201.7500      8.1684    -58.1041      8.2354    147.8223
  2202.0000      8.1387    -58.2778      8.2863    152.8102
  2202.2500      8.0870    -58.4297      8.3143    156.4377
  2202.5000      8.0038    -58.5511      8.3170    160.5832
  2202.7500      7.8850    -58.6371      8.2950    161.7948
  2203.0000      7.7390    -58.6876      8.2538    161.3988
  2203.2500      7.5873    -58.7077      8.2039    160.5099
  2203.5000      7.4576    -58.7069      8.1585    160.1962
  2203.7500      7.3753    -58.6974      8.1307    161.3934
  2204.0000      7.3574    -58.6905      8.1297    164.9019
  2204.2500      7.4080    -58.6946      8.1590    167.1676
  2204.5000      7.5156    -58.7133      8.2164    167.7642
  2204.7500      7.6569    -58.7439      8.2948    165.3805
  2205.0000      7.8069    -58.7787      8.3849    158.5738
  2205.2500      7.9481    -58.8067      8.4763    153.5957
  2205.5000      8.0717    -58.8153      8.5606    148.0576
  2205.7500      8.1742    -58.7943      8.6322    145.9906
  2206.0000      8.2568    -58.7377      8.6896    144.4762
  2206.2500      8.3272    -58.6471      8.7353    144.2531
  2206.5000      8.3997    -58.5327      8.7756    145.7865
  2206.7500      8.4921    -58.4146      8.8190    148.4907
  2207.0000      8.6222    -58.3221      8.8757    154.4020
  2207.2500      8.8040    -58.2920      8.9564    158.3617
  2207.5000      9.0469    -58.3654      9.0720    162.1013
  2207.7500      9.3572    -58.5826      9.2331    162.3384
  2208.0000      9.7401    -58.9770      9.4496    158.7708
  2208.2500     10.2003    -59.5684      9.7305    153.6640
  2208.5000     10.7436    -60.3558     10.0823    142.2055
  2208.7500     11.3754    -61.3124     10.5089    132.7647
  2209.0000     12.0927    -62.3838     11.0087    117.9446
  2209.2500     12.8660    -63.4910     11.5711    108.8897
  2209.5000     13.6259    -64.5385     12.1703     98.4194
  2209.7500     14.2748    -65.4272     12.7583     94.3050
  2210.0000     14.7256    -66.0702     13.2629     92.8325
  2210.2500     14.9382    -66.4066     13.5987     94.6305
  2210.5000     14.9183    -66.4118     13.6933    100.8037
  2210.7500     14.6872    -66.1004     13.5201    107.2664
  2211.0000     14.2583    -65.5221     13.1112    120.7533
  2211.2500     13.6455    -64.7505     12.5400    131.7529
  2211.5000     12.8850    -63.8695     11.8873    148.6116
  2211.7500     12.0420    -62.9598     11.2173    158.1450
  2212.0000     11.1938    -62.0884     10.5718    167.8103
  2212.2500     10.4075    -61.3028      9.9763    171.2183
  2212.5000      9.7248    -60.6304      9.4467    173.3824
  2212.7500      9.1603    -60.0810      8.9922    173.8425
  2213.0000      8.7084    -59.6507      8.6159    173.7306
  2213.2500      8.3535    -59.3270      8.3150    172.9560
  2213.5000      8.0776    -59.0926      8.0821    170.4794
  2213.7500      7.8638    -58.9280      7.9066    168.3067
  2214.0000      7.6980    -58.8139      7.7767    165.5044
  2214.2500      7.5694    -58.7324      7.6814    164.4391
  2214.5000      7.4722    -58.6681      7.6115    164.0054
  2214.7500      7.4053    -58.6086      7.5620    164.2365
  2215.0000      7.3712    -58.5454      7.5316    165.1053
  2215.2500      7.3748    -58.4747      7.5227    165.8777
  2215.5000      7.4207    -58.3977      7.5387    166.6071
  2215.7500      7.5097    -58.3212      7.5821    166.2729
  2216.0000      7.6388    -58.2576      7.6550    164.2718
  2216.2500      7.8053    -58.2238      7.7604    162.2310
  2216.5000      8.0132    -58.2399      7.9049    158.3936
  2216.7500      8.2755    -58.3265      8.0992    155.0473
  2217.0000      8.6099    -58.5015      8.3562    148.4712
  2217.2500      9.0295    -58.7768      8.6873    143.3852
  2217.5000      9.5342    -59.1544      9.1001    135.8146
  2217.7500     10.1095    -59.6248      9.5972    131.1278
  2218.0000     10.7339    -60.1658     10.1764    124.1308
  2218.2500     11.3917    -60.7439     10.8304    118.9151
  2218.5000     12.0855    -61.3180     11.5458    109.8801
  2218.7500     12.8390    -61.8449     12.3041    103.5297
