~Version Information
VERS.                                  2.0 : CWLS LAS VERSION
WRAP.                                   NO : WRAPING MODE
SWARE .                 MController 2.5.0E : SOFTWARE VERSION
~Well Information
WELL.                         Warrior 32-1 : WELL
COMP.             Evergreen Operating Corp : COMPANY
FLD.                      Purgatorie River : FIELD
LOC.                SW/NE Sec 11 T33S R67W : LOCATION
DATE.                    10/02/04-10/03/04 : DATE(S) LOGGED
SRVC.       Blanco Geological Services LLC : SERVICE COMPANY
STAT.                                   CO : STATE
CNTY.                           Las Animas : COUNTY
CTRY.                                  USA : COUNTRY
API.                       05-071-08176-00 : API NUMBER
STRT.FT                             386.00 : START DEPTH
STOP.FT                            2265.00 : STOP DEPTH
STEP.FT                               1.00 : DEPTH INCREMENT
NULL.                                -9999 : NULL VALUE
~Curve information
DEPTH.FT                                   :
ROP.MIN/FT                                 :
GAS.UNITS                                  :
~ASCII Log data
# ...
     1210.00        0.267         16.0
     1211.00        0.233         16.0
     1212.00        0.233         15.8
     1213.00        0.233         15.8
     1214.00        0.233         14.6
     1215.00        0.200         14.7
     1216.00        0.233         14.2
     1217.00        0.217         12.9
     1218.00        0.233         13.4
     1219.00        0.167         12.7
     1220.00        0.233         12.9
     1221.00        0.200         12.2
     1222.00        0.233         12.1
     1223.00        0.300         12.6
     1224.00        0.200         12.6
     1225.00        0.167         12.5
     1226.00        0.267         11.9
     1227.00        0.333         10.9
     1228.00        0.133         10.5
     1229.00        0.267         10.7
     1230.00        0.233         10.6
     1231.00        0.200         11.4
     1232.00        0.183         11.2
     1233.00        5.050         26.7
     1234.00        0.233         30.7
     1235.00        0.300         36.4
     1236.00        0.233         45.6
     1237.00        0.233         52.9
     1238.00        0.367         42.7
     1239.00        0.350         27.2
     1240.00        0.267         19.1
     1241.00        0.233         16.2
     1242.00        0.233         15.9
     1243.00        0.267         16.1
     1244.00        0.533         15.2
     1245.00        0.333         14.5
     1246.00        0.200         14.4
     1247.00        0.100         14.1
     1248.00        0.200         13.5
     1249.00        0.233         12.4
     1250.00        0.300         11.7
     1251.00        0.317         11.0
     1252.00        0.233         11.7
     1253.00        0.100         12.3
     1254.00        0.100         12.6
     1255.00        0.200         12.6
     1256.00        0.200         13.4
     1257.00        0.067         13.8
     1258.00        0.233         13.5
     1259.00        0.267         12.2
     1260.00        0.200         12.4
     1261.00        0.300         12.7
     1262.00        0.233         13.2
     1263.00        6.133         35.1
     1264.00        0.267         45.4
     1265.00        0.433         39.7
     1266.00        0.333         24.2
     1267.00        0.300         16.4
     1268.00        0.350         13.2
     1269.00        0.333         12.2
     1270.00        0.300         13.7
     1271.00        0.267         14.6
     1272.00        0.233         14.4
     1273.00        0.167         13.8
     1274.00        0.233         13.7
     1275.00        0.200         13.0
     1276.00        0.233         12.8
     1277.00        0.267         12.5
     1278.00        0.233         12.1
     1279.00        0.200         11.8
     1280.00        0.233         11.4
     1281.00        0.200         11.4
     1282.00        0.250         10.3
     1283.00        0.200         11.4
     1284.00        0.167         11.6
     1285.00        0.133         11.4
     1286.00        0.200         11.4
     1287.00        0.233         11.6
     1288.00        0.200         10.8
     1289.00        0.233         11.6
     1290.00        0.267         11.2
     1291.00        0.267         11.5
     1292.00        0.333         11.6
     1293.00        5.133         40.4
     1294.00        0.300         50.8
     1295.00        0.133         56.0
     1296.00        0.167         63.2
     1297.00        0.333         63.1
     1298.00        0.400         44.7
     1299.00        0.200         37.8
     1300.00        0.233         32.5
     1301.00        0.267         30.9
     1302.00        0.233         32.6
     1303.00        0.233         34.0
     1304.00        0.283         34.0
     1305.00        0.200         34.5
     1306.00        0.233         33.1
     1307.00        0.200         31.9
     1308.00        0.267         29.5
     1309.00        0.200         28.2
     1310.00        0.267         27.6
     1311.00        0.267         26.9
     1312.00        0.200         26.2
     1313.00        0.200         25.2
     1314.00        0.200         25.1
     1315.00        0.233         25.3
     1316.00        0.233         25.1
     1317.00        0.200         25.0
     1318.00        0.200         24.0
     1319.00        0.250         24.0
     1320.00        0.200         23.9
     1321.00        0.133         24.2
     1322.00        0.200         23.0
     1323.00        5.617         55.9
     1324.00        0.267         72.9
     1325.00        0.317         72.5
     1326.00        0.300         53.4
     1327.00        0.333         36.9
     1328.00        0.200         31.1
     1329.00        0.200         27.2
     1330.00        0.333         27.0
     1331.00        0.367         28.2
     1332.00        0.300         29.4
     1333.00        0.167         29.1
     1334.00        0.133         28.3
     1335.00        0.133         26.8
     1336.00        0.100         26.1
     1337.00        0.167         25.6
     1338.00        0.167         24.0
     1339.00        0.200         23.9
     1340.00        0.183         23.5
     1341.00        0.133         24.2
     1342.00        0.233         24.1
     1343.00        0.200         23.5
     1344.00        0.200         23.2
     1345.00        0.233         22.4
     1346.00        0.200         22.1
     1347.00        0.233         21.7
     1348.00        0.200         21.4
     1349.00        0.233         21.1
     1350.00        0.200         21.2
     1351.00        0.200         21.1
     1352.00        0.200         20.7
     1353.00        4.200         30.2
     1354.00        0.567         44.7
     1355.00        0.367         50.3
     1356.00        0.267         42.9
     1357.00        0.267         34.0
     1358.00        0.267         26.9
     1359.00        0.300         23.8
     1360.00        0.167         22.4
     1361.00        0.133         22.9
     1362.00        0.100         23.7
     1363.00        0.133         23.6
     1364.00        0.200         25.3
     1365.00        0.200         26.1
     1366.00        0.100         26.3
     1367.00        0.250         25.1
     1368.00        0.200         24.6
     1369.00        0.233         24.1
     1370.00        0.233         23.7
     1371.00        0.233         24.6
     1372.00        0.300         25.7
     1373.00        0.233         24.7
     1374.00        0.167         24.2
     1375.00        0.167         23.4
     1376.00        0.233         24.3
     1377.00        0.233         27.6
     1378.00        0.167         35.9
     1379.00        0.167         46.8
     1380.00        0.200         61.4
     1381.00        0.200         68.9
     1382.00        0.267         65.6
     1383.00        5.033         60.5
     1384.00        0.167         67.6
     1385.00        0.300         84.1
     1386.00        0.267        106.2
     1387.00        0.233        110.1
     1388.00        0.300         88.5
     1389.00        0.267         66.8
     1390.00        0.250         52.9
     1391.00        0.267         44.2
     1392.00        0.200         42.1
     1393.00        0.167         42.3
     1394.00        0.500         43.2
     1395.00        0.600         41.5
     1396.00        0.267         41.3
     1397.00        0.267         45.8
     1398.00        0.233         48.7
     1399.00        0.200         43.7
     1400.00        0.167         38.7
     1401.00        0.200         32.1
     1402.00        0.200         27.8
     1403.00        0.150         27.0
     1404.00        0.100         26.9
     1405.00        0.100         27.7
     1406.00        0.233         30.2
     1407.00        0.233         34.2
     1408.00        0.200         36.1
     1409.00        0.200         37.1
     1410.00        0.200         36.5
     1411.00        0.200         34.2
     1412.00        0.267         32.2
     1413.00        0.200         31.1
     1414.00        4.667         43.4
     1415.00        0.133         43.4
