~Version Information
 VERS.                                  2.0 : CWLS LAS VERSION
 WRAP.                                   NO : WRAPING MODE
 SWARE .                 MController 2.5.0J : SOFTWARE VERSION
~Well Information
 WELL.                  Lorencito 6-3-34-66 : WELL
 COMP.    Pioneer Natural Resources USA Inc : COMPANY
 FLD.                      Purgatoire River : FIELD
 LOC.                  SE/NW SEC3 T34S R66W : LOCATION
 DATE.                             09/09/05 : DATE(S) LOGGED
 SRVC.       Blanco Geological Services LLC : SERVICE COMPANY
 STAT.                             Colorado : STATE
 CNTY.                           Las Animas : COUNTY
 CTRY.                                  USA : COUNTRY
 API.                       05-071-08369-00 : API NUMBER
 STRT.FT                             394.00 : START DEPTH
 STOP.FT                            1390.00 : STOP DEPTH
 STEP.FT                               1.00 : DEPTH INCREMENT
 NULL.                                -9999 : NULL VALUE
~Curve information
 DEPTH.FT                                   :
 ROP.MIN/FT                                 :
 GAS.UNITS                                  :
~ASCII Log data
# ...
       994.0         0.27        666.0 
       995.0         0.20        685.3 
       996.0         0.30        713.0 
       997.0         0.38        740.4 
       998.0         0.43        730.7 
       999.0         0.37        737.2 
      1000.0         0.37        738.5 
      1001.0         0.37        744.6 
      1002.0         0.40        753.0 
      1003.0         0.37        744.6 
      1004.0         0.37        730.1 
      1005.0         0.37        708.2 
      1006.0         0.45        701.4 
      1007.0         0.40        698.5 
      1008.0         0.40        695.0 
      1009.0         0.30        695.3 
      1010.0         0.33        698.8 
      1011.0         0.30        704.3 
      1012.0         0.33        714.6 
      1013.0         0.30        723.3 
      1014.0         0.30        745.2 
      1015.0         0.62        832.9 
      1016.0         2.57        638.9 
      1017.0         0.37       1172.2 
      1018.0         0.38       1956.0 
      1019.0         0.47        943.7 
      1020.0         0.33        870.3 
      1021.0         0.30        826.4 
      1022.0         0.27        773.3 
      1023.0         0.30        727.8 
      1024.0         0.30        708.2 
      1025.0         0.33        714.0 
      1026.0         0.37        737.2 
      1027.0         0.33        757.2 
      1028.0         0.32        757.5 
      1029.0         0.30        756.5 
      1030.0         0.33        753.0 
      1031.0         0.30        744.9 
      1032.0         0.27        735.2 
      1033.0         0.37        721.4 
      1034.0         0.40        721.7 
      1035.0         0.37        735.9 
      1036.0         0.30        722.7 
      1037.0         0.33        713.7 
      1038.0         0.32        712.0 
      1039.0         0.30        713.3 
      1040.0         0.30        721.4 
      1041.0         0.27        730.1 
      1042.0         0.37        746.8 
      1043.0         0.33        752.6 
      1044.0         0.30        752.0 
      1045.0         0.37        756.8 
      1046.0         3.72        696.2 
      1047.0         0.37       2213.5 
      1048.0         0.45       1223.5 
      1049.0         0.40        761.3 
      1050.0         0.37        796.5 
      1051.0         0.43        752.6 
      1052.0         0.40        703.7 
      1053.0         0.33        686.6 
      1054.0         0.37        685.6 
      1055.0         0.50        698.5 
      1056.0         0.48        707.8 
      1057.0         0.47        723.0 
      1058.0         0.53        728.2 
      1059.0         0.67        745.2 
      1060.0         0.67        738.8 
      1061.0         0.57        733.3 
      1062.0         0.30        731.1 
      1063.0         0.32        731.4 
      1064.0         0.33        733.3 
      1065.0         0.37        739.8 
      1066.0         0.30        726.5 
      1067.0         0.40        722.4 
      1068.0         0.37        748.8 
      1069.0         0.43        752.0 
      1070.0         0.33        746.2 
      1071.0         0.30        760.1 
      1072.0         0.32        753.3 
      1073.0         0.37        743.6 
      1074.0         0.37        734.6 
      1075.0         0.30        746.8 
      1076.0         4.15        532.9 
      1077.0         0.67       2364.6 
      1078.0         0.43       1054.9 
      1079.0         0.35        904.8 
      1080.0         0.27        893.8 
      1081.0         0.20        850.9 
      1082.0         0.17        819.4 
      1083.0         0.20        786.2 
      1084.0         0.20        762.3 
      1085.0         0.27        743.3 
      1086.0         0.27        742.3 
      1087.0         0.37        864.1 
      1088.0         0.40        933.4 
      1089.0         0.33        916.0 
      1090.0         0.40        882.5 
      1091.0         0.38        856.1 
      1092.0         0.30        841.3 
      1093.0         0.33        830.0 
      1094.0         0.33        819.4 
      1095.0         0.33        813.2 
      1096.0         0.33        814.5 
      1097.0         0.30        815.8 
      1098.0         0.23        816.1 
      1099.0         0.40        814.2 
      1100.0         0.57        833.5 
      1101.0         0.65       1073.6 
      1102.0         0.53        985.0 
      1103.0         0.50        929.9 
      1104.0         0.40        895.7 
      1105.0         0.53        865.8 
      1106.0        13.23       1087.8 
      1107.0         0.43        933.8 
      1108.0         0.55        757.8 
      1109.0         0.57        846.7 
      1110.0         0.60        845.1 
      1111.0         0.60        825.5 
      1112.0         0.57        816.1 
      1113.0         0.60        738.1 
      1114.0         0.52        703.3 
      1115.0         0.20        700.4 
      1116.0         0.13        704.3 
      1117.0         0.33        709.8 
      1118.0         0.27        711.7 
      1119.0         0.33        764.6 
      1120.0         0.33        797.1 
      1121.0         0.33        766.2 
      1122.0         0.33        750.1 
      1123.0         0.37        739.8 
      1124.0         0.40        715.6 
      1125.0         0.38        684.6 
      1126.0         0.40        700.8 
      1127.0         0.37        706.9 
      1128.0         0.27        708.8 
      1129.0         0.23        707.2 
      1130.0         0.27        704.3 
      1131.0         0.27        699.1 
      1132.0         0.33        673.4 
      1133.0         0.33        673.0 
      1134.0         0.33        687.2 
      1135.0         0.32        739.1 
      1136.0         4.88       4395.2 
      1137.0         0.73       1216.1 
      1138.0         0.63        894.4 
      1139.0         0.62        761.7 
      1140.0         0.67        732.7 
      1141.0         0.70        734.3 
      1142.0         0.60        732.7 
      1143.0         0.60        716.9 
      1144.0         0.48        711.7 
      1145.0         0.40        704.6 
      1146.0         0.30        701.7 
      1147.0         0.17        703.7 
      1148.0         0.17        726.5 
      1149.0         0.13        745.6 
      1150.0         0.20        750.4 
      1151.0         0.27        738.8 
      1152.0         0.27        720.4 
      1153.0         0.43        714.6 
      1154.0         0.37        721.7 
      1155.0         0.33        714.9 
      1156.0         0.35        709.8 
      1157.0         0.33        708.5 
      1158.0         0.33        705.3 
      1159.0         0.27        704.3 
      1160.0         0.33        698.5 
      1161.0         0.33        698.5 
      1162.0         0.37        698.2 
      1163.0         0.30        698.5 
      1164.0         0.27        697.2 
      1165.0         0.33        694.3 
      1166.0         4.20       1785.8 
      1167.0         0.63        910.6 
      1168.0         0.50        919.9 
      1169.0         0.43        845.1 
      1170.0         0.40        785.8 
      1171.0         0.40        741.7 
      1172.0         0.40        726.5 
      1173.0         0.42        727.5 
      1174.0         0.40        721.1 
      1175.0         0.40        705.9 
      1176.0         0.40        701.4 
      1177.0         0.40        695.3 
      1178.0         0.40        692.7 
      1179.0         0.40        693.0 
      1180.0         0.43        692.7 
      1181.0         0.45        694.0 
      1182.0         0.37        697.9 
      1183.0         0.47        694.6 
      1184.0         0.40        679.5 
      1185.0         0.37        683.0 
      1186.0         0.37        704.9 
      1187.0         0.33        718.2 
      1188.0         0.33        719.8 
      1189.0         0.37        711.4 
      1190.0         0.35        709.1 
      1191.0         0.30        704.6 
      1192.0         0.37        701.7 
      1193.0         0.33        698.5 
