~Version Information
 VERS.                                  2.0 : CWLS LAS VERSION
 WRAP.                                   NO : WRAPING MODE
 SWARE .                 MController 2.5.0E : SOFTWARE VERSION
~Well Information
 WELL.                         Justin 32-10 : WELL
 COMP.             Evergreen Operating Corp : COMPANY
 FLD.                      Purgatorie River : FIELD
 LOC.                SW/NE Sec 10 T32S R65W : LOCATION
 DATE.                              8/29/04 : DATE(S) LOGGED
 SRVC.       Blanco Geological Services LLC : SERVICE COMPANY
 STAT.                                   CO : STATE
 CNTY.                           Las Animas : COUNTY
 CTRY.                                  USA : COUNTRY
 API.                       05-071-08053-00 : API NUMBER
 STRT.FT                             322.00 : START DEPTH
 STOP.FT                            1195.00 : STOP DEPTH
 STEP.FT                               1.00 : DEPTH INCREMENT
 NULL.                                -9999 : NULL VALUE
~Curve information
 DEPTH.FT                                   :
 ROP.MIN/FT                                 :
 GAS.UNITS                                  :
~ASCII Log data
# ...
      922.00        0.183       1439.5 
      923.00        0.200       1780.4 
      924.00        0.167       1780.4 
      925.00        0.200       2160.1 
      926.00        4.583       3714.0 
      927.00        0.300       1216.4 
      928.00        0.267       1144.3 
      929.00        0.267       1097.5 
      930.00        0.233       1079.3 
      931.00        0.200       1092.1 
      932.00        0.133       1152.7 
      933.00        0.100       1152.7 
      934.00        0.150       1196.2 
      935.00        0.200       1222.1 
      936.00        0.200       1206.7 
      937.00        0.200       1186.8 
      938.00        0.167       1186.8 
      939.00        0.167       1154.1 
      940.00        0.133       1154.1 
      941.00        0.100       1115.3 
      942.00        0.133       1115.3 
      943.00        0.133       1076.3 
      944.00        0.167       1067.2 
      945.00        0.167       1067.2 
      946.00        0.167       1110.3 
      947.00        0.200       1163.5 
      948.00        0.133       1163.5 
      949.00        0.133       1197.6 
      950.00        0.167       1395.0 
      951.00        0.133       1395.0 
      952.00        0.167       1686.1 
      953.00        0.133       2045.6 
      954.00        0.167       2045.6 
      955.00        0.150       2436.4 
      956.00        4.583       3723.7 
      957.00        0.167       1052.0 
      958.00        0.300       1023.7 
      959.00        0.267        992.0 
      960.00        0.233       1041.6 
      961.00        0.167       1050.7 
      962.00        0.167       1050.7 
      963.00        0.200       1043.6 
      964.00        0.233        997.1 
      965.00        0.200       1020.3 
      966.00        0.217       1020.3 
      967.00        0.167       1069.5 
      968.00        0.133       1133.2 
      969.00        0.167       1133.2 
      970.00        0.167       1178.4 
      971.00        0.200       1188.5 
      972.00        0.200       1188.5 
      973.00        0.200       1183.1 
      974.00        0.167       1148.0 
      975.00        0.167       1148.0 
      976.00        0.167       1075.3 
      977.00        0.133       1075.3 
      978.00        0.133       1040.6 
      979.00        0.167       1067.5 
      980.00        0.133       1067.5 
      981.00        0.167       1134.6 
      982.00        0.200       1134.6 
      983.00        0.200       1455.0 
      984.00        0.167       1455.0 
      985.00        0.167       1729.2 
      986.00        5.100       3723.7 
      987.00        0.467       1019.7 
      988.00        0.333        982.3 
      989.00        0.267       1020.0 
      990.00        0.300       1096.5 
      991.00        0.250       1136.9 
      992.00        0.167       1165.2 
      993.00        0.167       1179.7 
      994.00        0.200       1187.4 
      995.00        0.200       1187.1 
      996.00        0.167       1182.1 
      997.00        0.133       1171.9 
      998.00        0.167       1171.9 
      999.00        0.167       1147.0 
     1000.00        0.167       1124.1 
     1001.00        0.167       1124.1 
     1002.00        0.200       1112.0 
     1003.00        0.167       1087.4 
     1004.00        0.233       1087.4 
     1005.00        0.167       1031.5 
     1006.00        0.200       1004.8 
     1007.00        0.200       1000.5 
     1008.00        0.167       1000.5 
     1009.00        0.200       1034.8 
     1010.00        0.183       1083.7 
     1011.00        0.167       1105.9 
     1012.00        0.167       1146.3 
     1013.00        0.167       1146.3 
     1014.00        0.167       1218.1 
     1015.00        0.200       1398.4 
     1016.00        5.550       4836.2 
     1017.00        0.283       1117.7 
     1018.00        0.267       1048.6 
     1019.00        0.300        992.7 
     1020.00        0.233        965.4 
     1021.00        0.233        953.6 
     1022.00        0.167        951.3 
     1023.00        0.167        954.6 
     1024.00        0.233        972.8 
     1025.00        0.233        980.9 
     1026.00        0.200        970.5 
     1027.00        0.167        956.3 
     1028.00        0.233        954.6 
     1029.00        0.267        989.0 
     1030.00        0.200        989.0 
     1031.00        0.167       1037.5 
     1032.00        0.167       1047.3 
     1033.00        0.117       1064.5 
     1034.00        0.133       1064.5 
     1035.00        0.167       1034.5 
     1036.00        0.233       1047.6 
     1037.00        0.133       1047.6 
     1038.00        0.167       1104.6 
     1039.00        0.133       1104.6 
     1040.00        0.133       1155.4 
     1041.00        0.133       1155.4 
     1042.00        0.133       1175.3 
     1043.00        0.133       1175.3 
     1044.00        0.133       1158.5 
     1045.00        0.133       1158.5 
     1046.00        4.750       2369.3 
     1047.00        0.150       1295.9 
     1048.00        0.300       1252.5 
     1049.00        0.267       1182.7 
     1050.00        0.233       1098.2 
     1051.00        0.067       1061.1 
     1052.00        0.200       1037.9 
     1053.00        0.233        977.5 
     1054.00        0.100        977.5 
     1055.00        0.100        977.5 
     1056.00        0.100        965.4 
     1057.00        0.133        965.4 
     1058.00        0.233        958.0 
     1059.00        0.233        954.3 
     1060.00        0.233        949.9 
     1061.00        0.200        948.6 
     1062.00        0.233        947.9 
     1063.00        0.233        946.6 
     1064.00        0.250        945.2 
     1065.00        0.267        943.5 
     1066.00        0.233        939.5 
     1067.00        0.233        937.8 
     1068.00        0.200        937.8 
     1069.00        0.233        936.1 
     1070.00        0.233        941.2 
     1071.00        0.233        982.9 
     1072.00        0.267       1064.5 
     1073.00        0.267       1209.0 
     1074.00        0.200       1398.4 
     1075.00        0.433       1769.6 
     1076.00        3.617       1830.3 
     1077.00        0.383       1002.8 
     1078.00        0.367        959.0 
     1079.00        0.267        948.2 
     1080.00        0.300        946.6 
     1081.00        0.267        944.9 
     1082.00        0.267        944.2 
     1083.00        0.300        942.2 
     1084.00        0.300        941.5 
     1085.00        0.233        941.2 
     1086.00        0.133        941.2 
     1087.00        0.233        938.5 
     1088.00        0.267        940.5 
     1089.00        0.233        940.5 
     1090.00        0.317        938.5 
     1091.00        0.233        938.8 
     1092.00        0.233        940.5 
     1093.00        0.267        940.8 
     1094.00        0.267        940.5 
     1095.00        0.233        940.5 
     1096.00        0.233        941.8 
     1097.00        0.233        941.5 
     1098.00        0.233        937.8 
     1099.00        0.267        938.5 
     1100.00        0.233        954.3 
     1101.00        0.233        996.8 
     1102.00        0.233       1050.7 
     1103.00        0.250       1086.7 
     1104.00        0.233       1214.1 
     1105.00        0.233       1432.0 
     1106.00        4.517       2568.8 
     1107.00        0.567        945.2 
     1108.00        0.533        942.2 
     1109.00        0.617        942.2 
     1110.00        0.567        940.8 
     1111.00        0.567        938.8 
     1112.00        0.567        937.8 
     1113.00        0.567        938.8 
     1114.00        0.567        988.3 
     1115.00        0.583       1012.9 
     1116.00        0.500       1067.5 
     1117.00        0.533       1121.7 
     1118.00        0.533       1122.1 
     1119.00        0.500        981.3 
     1120.00        0.500        979.2 
     1121.00        0.267        941.2 
