~Version Information
VERS.                      2.0: CWLS Log ASCII Standard - VERSION 2.0
WRAP.                       NO: One line per depth step
~Well Information Block
STRT.FT               647.0000: 
STOP.FT              1166.0000: 
STEP.FT                 0.1000: 
NULL.                -999.2500: 
COMP.          Pioneer Natural Resources: COMPANY
WELL.             Linda T 32-3: WELL
FLD.           Purgatoire River: FIELD
LOC.           1350' FNL & 2290' FEL: LOCATION
PROV.                 Colorado: PROVINCE
CNTY.               Las Animas: COUNTRY
SRVC.                Patterson: SERVICE COMPANY
DATE.          Sat Feb 05 08:06:50 2005: LOG DATE
UWI.           05 071 08215 00: UNIQUE WELL ID
~Curve Information Block
DEPT.FT            0 000 00 00: Depth
DCAL.in                       : CDL Caliper
RHOB.g/cc                     : CDL Bulk Density
RHOC.g/cc                     : CDL Density Correction
DPOR.pu                       : CDL Density Porosity
GR.GAPI                       : Gamma Ray
NPOR.pu                       : Neutron Porosity
~Parameter Information Block
~A  Depth       DCAL        RHOB        RHOC        DPOR         GR         NPOR    
# ...
   848.6000      8.0975      2.5311      0.0924      7.2085     91.7659     27.0799
   848.7000      8.0975      2.5389      0.0735      6.7359     88.5306     26.9964
   848.8000      8.1090      2.5379      0.0655      6.7969     87.3561     27.0091
   848.9000      8.1090      2.5239      0.0837      7.6402     88.1589     27.0047
   849.0000      8.1091      2.4998      0.0404      9.1047     87.2697     26.8303
   849.1000      8.1091      2.4752      0.0351     10.5953     84.1979     26.2426
   849.2000      8.1091      2.4537      0.0358     11.8958     83.6852     25.5986
   849.3000      8.1071      2.4292      0.0521     13.3806     88.0152     25.4522
   849.4000      8.1071      2.3986      0.0013     15.2384     92.0838     25.6815
   849.5000      8.1040      2.3597      0.0259     17.5969     88.1855     26.1614
   849.6000      8.1040      2.2983      0.0217     21.3175     77.1161     26.8758
   849.7000      8.1040      2.2057     -0.0102     26.9249     67.6954     27.5287
   849.8000      8.1024      2.0935     -0.0115     33.7250     64.0615     27.8388
   849.9000      8.1024      1.9751     -0.0228     40.9001     62.5467     28.0567
   850.0000      8.1128      1.8527     -0.0778     48.3188     59.0599     28.8414
   850.1000      8.1128      1.7248     -0.0854     56.0699     51.5287     30.3714
   850.2000      8.1128      1.6022     -0.1024     63.5040     41.8393     31.6316
   850.3000      8.1352      1.5029     -0.1039     69.5205     35.8837     31.6265
   850.4000      8.1352      1.4308     -0.0449     73.8921     34.3326     30.9343
   850.5000      8.1588      1.3853     -0.0203     76.6472     34.8059     30.9004
   850.6000      8.1588      1.3800     -0.0004     76.9705     37.7215     31.8977
   850.7000      8.1588      1.4254      0.0301     74.2203     42.7747     32.8634
   850.8000      8.2747      1.5117      0.0768     68.9885     48.9097     32.7815
   850.9000      8.2747      1.6230      0.1063     62.2395     56.1807     32.1200
   851.0000      8.3355      1.7591      0.1169     53.9956     64.5786     31.5091
   851.1000      8.3355      1.9143      0.2054     44.5876     72.2977     30.7601
   851.2000      8.3355      2.0654      0.2384     35.4309     76.7112     30.2048
   851.3000      8.2986      2.2063      0.2335     26.8895     76.8790     30.4731
   851.4000      8.2986      2.3394      0.2841     18.8213     75.6128     31.2822
   851.5000      8.2937      2.4428      0.2469     12.5586     78.5485     31.7730
   851.6000      8.2937      2.4944      0.2153      9.4332     87.5361     31.2970
   851.7000      8.2937      2.5069      0.0953      8.6749     98.1297     29.8626
   851.8000      8.2888      2.5125      0.0723      8.3323    103.2132     28.3048
   851.9000      8.2888      2.5224      0.0851      7.7361     99.4849     27.3932
   852.0000      8.1421      2.5307      0.0501      7.2287     89.8176     26.9686
   852.1000      8.1421      2.5376      0.0532      6.8138     81.4838     26.5633
   852.2000      8.1421      2.5436      0.0433      6.4497     81.6603     26.1357
   852.3000      8.1079      2.5475      0.0653      6.2124     88.4227     25.7312
   852.4000      8.1079      2.5455      0.0708      6.3310     92.3248     25.4845
   852.5000      8.0991      2.5359      0.0564      6.9140     90.7883     25.6408
   852.6000      8.0991      2.5299      0.0331      7.2816     90.3205     25.9728
   852.7000      8.0991      2.5350      0.0606      6.9693     92.7320     26.3219
   852.8000      8.0922      2.5395      0.0699      6.6960     95.5432     26.7487
   852.9000      8.0922      2.5339      0.0549      7.0394     98.0052     27.1173
   853.0000      8.1000      2.5255      0.0319      7.5430     97.6480     27.0695
   853.1000      8.1000      2.5198      0.0514      7.8930     93.0717     26.3025
   853.2000      8.1000      2.5086      0.0472      8.5683     86.9288     25.2047
   853.3000      8.1050      2.4917      0.0401      9.5911     84.4640     24.6762
   853.4000      8.1050      2.4772      0.0110     10.4708     86.3868     25.2178
   853.5000      8.1253      2.4629      0.0269     11.3376     88.8846     26.1043
   853.6000      8.1253      2.4503     -0.0126     12.1045     93.5977     25.9948
   853.7000      8.1253      2.4553      0.0125     11.8001    100.6061     24.6632
   853.8000      8.1372      2.4746      0.0410     10.6275    103.6592     23.4939
   853.9000      8.1372      2.4867      0.0521      9.8948    100.3222     23.7810
   854.0000      8.1175      2.4867      0.0217      9.8997     93.2873     25.1749
   854.1000      8.1175      2.4850      0.0331      9.9970     87.0495     26.2575
   854.2000      8.1175      2.4940      0.0042      9.4521     83.6480     26.3647
   854.3000      8.1048      2.5159      0.0672      8.1273     81.4069     26.0235
   854.4000      8.1048      2.5389      0.0884      6.7340     78.5181     25.8869
   854.5000      8.0775      2.5592      0.0937      5.5036     75.5714     25.8164
   854.6000      8.0775      2.5869      0.0826      3.8252     74.9180     25.6673
   854.7000      8.0775      2.6308      0.0862      1.1638     74.0819     25.6281
   854.8000      8.0625      2.6810      0.1428     -1.8787     69.9859     25.6811
   854.9000      8.0625      2.7132      0.1352     -3.8310     64.3569     25.9356
   855.0000      8.0652      2.7256      0.1099     -4.5839     58.2212     26.1895
   855.1000      8.0652      2.7267      0.1505     -4.6510     53.9361     26.0394
   855.2000      8.0652      2.7004      0.1292     -3.0559     55.8847     25.8810
   855.3000      8.0708      2.6449      0.0009      0.3100     64.0197     25.9135
   855.4000      8.0708      2.5912     -0.0290      3.5612     74.1708     25.6797
   855.5000      8.0879      2.5545     -0.1249      5.7882     82.5964     25.3588
   855.6000      8.0879      2.5357     -0.1885      6.9273     88.2306     25.2728
   855.7000      8.0879      2.5485     -0.1564      6.1486     92.9536     25.2327
   855.8000      8.0917      2.5899      0.0257      3.6403     95.7570     25.6475
   855.9000      8.0917      2.6248      0.1592      1.5272     94.6893     26.4322
   856.0000      8.0584      2.6263      0.1253      1.4381     94.2489     26.2677
   856.1000      8.0584      2.5980      0.1046      3.1540     99.9462     25.0496
   856.2000      8.0584      2.5603      0.0684      5.4371    108.6784     24.2718
   856.3000      8.0366      2.5290      0.0809      7.3352    112.7393     24.5531
   856.4000      8.0366      2.5051      0.0784      8.7847    111.0237     25.2433
   856.5000      8.0381      2.4885      0.0553      9.7888    106.0788     25.9234
   856.6000      8.0381      2.4802      0.0944     10.2912     99.8262     26.8152
   856.7000      8.0381      2.4748      0.0566     10.6169     95.8871     27.8784
   856.8000      8.0542      2.4726      0.0443     10.7534     96.0598     28.6060
   856.9000      8.0542      2.4768      0.0573     10.4963     98.0324     28.7282
   857.0000      8.0847      2.4836      0.0556     10.0869     99.8316     28.4456
   857.1000      8.0847      2.4848      0.0731     10.0140    101.5122     28.3962
   857.2000      8.0847      2.4803      0.0352     10.2853    102.8274     28.5582
   857.3000      8.0887      2.4802      0.0659     10.2911    104.5650     28.0839
   857.4000      8.0887      2.4909      0.0795      9.6437    108.3647     27.0758
   857.5000      8.0966      2.5035      0.1114      8.8780    111.2554     26.7193
   857.6000      8.0966      2.5027      0.1097      8.9274    108.8616     27.0293
   857.7000      8.0966      2.4871      0.0674      9.8708    104.5169     27.3970
   857.8000      8.0998      2.4661      0.0315     11.1444    102.6121     27.9859
   857.9000      8.0998      2.4517      0.0396     12.0209    103.0637     28.5526
   858.0000      8.1145      2.4551      0.0552     11.8111    104.7080     28.4393
   858.1000      8.1145      2.4693      0.1072     10.9514    104.6621     27.9090
