~Version Information
VERS.                      2.0: CWLS Log ASCII Standard - VERSION 2.0
WRAP.                       NO: One line per depth step
~Well Information Block
STRT.FT               750.3000: 
STOP.FT              1254.0000: 
STEP.FT                 0.1000: 
NULL.                -999.2500: 
COMP.          Petrogulf Corporation: COMPANY
WELL.           Montoya 13-41V: WELL
FLD.           Purgatorie River: FIELD
LOC.           449' FNL & 891' FEL: LOCATION
CNTY.               Las Animas: COUNTY
SRVC.                         : SERVICE COMPANY
DATE.          Tue Aug 17 15:47:43 2004: LOG DATE
UWI.           05 071 08021 00: UNIQUE WELL ID
STAT.                 Colorado: STATE
~Curve Information Block
DEPT.FT            0 000 00 00: Depth
DCAL.in                       : CDL Caliper
RHOB.g/cc                     : CDL Bulk Density
RHOC.g/cc                     : CDL Density Correction
DPOR.pu                       : CDL Density Porosity
GR.GAPI                       : Gamma Ray
NPOR.pu                       : Neutron Porosity
~Parameter Information Block
~A  Depth       DCAL        RHOB        RHOC        DPOR         GR         NPOR    
# ...
  1019.1000      8.1025      2.6311      0.0931      1.1427    134.1065     19.0201
  1019.2000      8.1025      2.6193      0.0585      1.8582    141.2890     19.1885
  1019.3000      8.1021      2.6089      0.0787      2.4938    141.9334     20.1333
  1019.4000      8.1021      2.6018      0.0873      2.9187    133.2213     20.6680
  1019.5000      8.1007      2.5922      0.1043      3.5028    123.9849     20.1176
  1019.6000      8.1007      2.5812      0.1010      4.1687    120.2135     19.5533
  1019.7000      8.1007      2.5773      0.0241      4.4049    119.3267     19.4942
  1019.8000      8.1014      2.5867      0.0563      3.8380    120.0569     19.3578
  1019.9000      8.1014      2.6002      0.1100      3.0168    123.0039     19.1083
  1020.0000      8.0994      2.6106      0.0674      2.3908    124.1975     19.6392
  1020.1000      8.0994      2.6210      0.0791      1.7549    120.3741     20.9775
  1020.2000      8.0994      2.6295      0.1036      1.2454    116.6613     21.9514
  1020.3000      8.0997      2.6361      0.0769      0.8418    116.1265     22.0852
  1020.4000      8.0997      2.6444      0.1157      0.3390    114.3249     22.0259
  1020.5000      8.0990      2.6466      0.0968      0.2084    110.2902     22.0324
  1020.6000      8.0990      2.6384      0.0438      0.7012    110.5322     21.8430
  1020.7000      8.0990      2.6288      0.0426      1.2868    119.4455     21.4826
  1020.8000      8.0988      2.6200      0.0384      1.8165    130.1259     21.2200
  1020.9000      8.0988      2.6094      0.0399      2.4594    135.6052     21.4594
  1021.0000      8.1006      2.6037      0.0422      2.8034    138.2311     22.3913
  1021.1000      8.1006      2.6078      0.0511      2.5568    141.1588     23.7021
  1021.2000      8.1006      2.6143      0.0682      2.1614    144.7186     24.8452
  1021.3000      8.1008      2.6209      0.0517      1.7629    144.5027     25.3672
  1021.4000      8.1008      2.6334      0.0542      1.0040    138.9703     25.2661
  1021.5000      8.1002      2.6490      0.0770      0.0584    134.8664     24.8307
  1021.6000      8.1002      2.6609      0.0598     -0.6582    135.0961     24.5231
  1021.7000      8.1002      2.6675      0.0628     -1.0629    134.7259     24.7291
  1021.8000      8.0986      2.6662      0.0989     -0.9823    133.8096     24.9311
  1021.9000      8.0986      2.6582      0.0743     -0.4980    139.5366     24.6495
  1022.0000      8.1001      2.6495      0.0730      0.0307    152.3900     24.3957
  1022.1000      8.1001      2.6331      0.0446      1.0242    163.3487     24.6254
  1022.2000      8.1001      2.6034      0.0241      2.8257    166.8386     25.1645
  1022.3000      8.1008      2.5790     -0.0101      4.3060    165.7739     25.4371
  1022.4000      8.1008      2.5795     -0.0067      4.2735    160.7594     25.3273
  1022.5000      8.1076      2.5962      0.0185      3.2632    154.3937     25.1328
  1022.6000      8.1076      2.6039      0.0576      2.7965    149.1950     24.8790
  1022.7000      8.1076      2.5954      0.0207      3.3102    143.1371     24.6958
  1022.8000      8.1156      2.5842      0.0435      3.9852    137.7739     24.8010
  1022.9000      8.1156      2.5735      0.0366      4.6383    135.6542     25.0067
  1023.0000      8.1183      2.5638     -0.0193      5.2218    135.5446     25.1135
  1023.1000      8.1183      2.5618     -0.0008      5.3429    133.8713     25.1548
  1023.2000      8.1183      2.5610     -0.0353      5.3917    131.1064     25.1196
  1023.3000      8.1170      2.5555     -0.0255      5.7264    131.8196     24.8975
  1023.4000      8.1170      2.5510     -0.0842      6.0014    135.7803     24.6022
  1023.5000      8.1136      2.5469     -0.0365      6.2513    138.9512     24.5856
  1023.6000      8.1136      2.5324     -0.0786      7.1275    138.1580     25.0685
  1023.7000      8.1136      2.5118     -0.0964      8.3748    135.7983     25.9495
  1023.8000      8.1107      2.4985     -0.0426      9.1810    138.1306     26.6737
  1023.9000      8.1107      2.4933     -0.0740      9.4998    142.9555     26.6165
  1024.0000      8.1109      2.4956     -0.0431      9.3563    144.5394     26.1144
  1024.1000      8.1109      2.5063      0.0310      8.7096    144.4793     26.0847
  1024.2000      8.1109      2.5212      0.0212      7.8059    146.0404     26.6463
  1024.3000      8.1092      2.5406      0.0125      6.6321    146.3036     27.2002
  1024.4000      8.1092      2.5648      0.0325      5.1662    143.7730     27.0950
  1024.5000      8.1031      2.5914      0.0143      3.5541    142.3561     26.2998
  1024.6000      8.1031      2.6196      0.0310      1.8404    146.0494     25.3601
  1024.7000      8.1031      2.6414      0.0939      0.5230    155.6634     25.1257
  1024.8000      8.0998      2.6485      0.0941      0.0879    165.6472     26.0278
  1024.9000      8.0998      2.6475      0.0949      0.1540    167.7584     27.2131
  1025.0000      8.0992      2.6356      0.1145      0.8722    160.8512     27.8808
  1025.1000      8.0992      2.6027      0.0603      2.8643    152.1302     28.2612
  1025.2000      8.0992      2.5637      0.0191      5.2273    143.7902     28.1547
  1025.3000      8.1008      2.5465      0.0331      6.2748    140.5575     27.2850
  1025.4000      8.1008      2.5568      0.0250      5.6457    148.9494     26.3934
  1025.5000      8.1017      2.5757      0.0751      4.5046    158.1313     26.1313
  1025.6000      8.1017      2.5796      0.1085      4.2678    153.8291     26.1344
  1025.7000      8.1017      2.5684      0.1069      4.9476    139.3553     25.7840
  1025.8000      8.1021      2.5622      0.0912      5.3216    127.4958     25.3686
  1025.9000      8.1021      2.5697      0.0939      4.8642    124.1584     25.8415
  1026.0000      8.1051      2.5844      0.0767      3.9733    123.0676     27.1704
  1026.1000      8.1051      2.6012      0.0614      2.9599    116.4681     28.0158
  1026.2000      8.1051      2.6153      0.0239      2.1020    110.2715     27.8404
  1026.3000      8.1098      2.6179      0.0297      1.9426    112.3685     27.2423
  1026.4000      8.1098      2.6073     -0.0024      2.5897    117.5303     26.5849
  1026.5000      8.0990      2.5970     -0.0215      3.2113    119.6123     26.0947
  1026.6000      8.0990      2.5936      0.0416      3.4153    120.2300     26.0797
  1026.7000      8.0990      2.5841      0.0325      3.9917    123.7175     26.4260
  1026.8000      8.1005      2.5637     -0.0070      5.2321    128.8393     26.6008
  1026.9000      8.1005      2.5516     -0.0175      5.9631    130.8564     26.3531
  1027.0000      8.1302      2.5658     -0.0374      5.1004    131.6328     26.1430
  1027.1000      8.1302      2.5935      0.0121      3.4227    130.5752     26.4784
  1027.2000      8.1302      2.6044      0.0441      2.7615    123.6519     27.1101
  1027.3000      8.1496      2.5957     -0.0085      3.2888    113.1500     27.2718
  1027.4000      8.1496      2.5908      0.0042      3.5866    105.2103     26.7068
  1027.5000      8.1526      2.5913      0.0199      3.5605    102.1431     25.9822
  1027.6000      8.1526      2.5815     -0.0349      4.1486    105.7454     25.3675
  1027.7000      8.1526      2.5555     -0.0192      5.7287    115.8094     24.8520
  1027.8000      8.1512      2.5144     -0.0085      8.2176    124.3969     24.7163
  1027.9000      8.1512      2.4681     -0.0535     11.0253    127.4528     25.2232
  1028.0000      8.1508      2.4357     -0.0720     12.9877    128.4208     26.4676
  1028.1000      8.1508      2.4290     -0.0434     13.3946    131.0174     27.9162
  1028.2000      8.1508      2.4366     -0.0167     12.9351    136.1154     28.5791
  1028.3000      8.1519      2.4419     -0.0000     12.6099    141.9422     28.5201
  1028.4000      8.1519      2.4450      0.0178     12.4261    146.0097     28.4127
  1028.5000      8.1524      2.4525      0.0314     11.9723    147.7109     28.1424
  1028.6000      8.1524      2.4586      0.0913     11.6024    147.0645     27.2978
