~Version Information
VERS.                      2.0: CWLS Log ASCII Standard - VERSION 2.0
WRAP.                       NO: One line per depth step
~Well Information Block
STRT.FT               953.8000: 
STOP.FT              2226.0000: 
STEP.FT                 0.1000: 
NULL.                -999.2500: 
COMP.          Petrogulf Corporation: COMPANY
WELL.             Burson 8-13R: WELL
FLD.           Purgatorie River: FIELD
LOC.           1045' FNL & 2189' FEL: LOCATION
CNTY.               Las Animas: COUNTY
SRVC.                         : SERVICE COMPANY
DATE.          Fri Apr 30 07:30:36 2004: LOG DATE
UWI.           05 071 08039 00: UNIQUE WELL ID
STAT.                 Colorado: STATE
~Curve Information Block
DEPT.FT            0 000 00 00: Depth
DCAL.in                       : CDL Caliper
RHOB.g/cc                     : CDL Bulk Density
RHOC.g/cc                     : CDL Density Correction
DPOR.pu                       : CDL Density Porosity
NPOR.pu                       : Neutron Porosity
GR.GAPI                       : Gamma Ray
~Parameter Information Block
~A  Depth       DCAL        RHOB        RHOC        DPOR        NPOR         GR     
# ...
  1126.6000      8.0102      2.6692      0.1405     -1.1649     23.3897    136.5510
  1126.7000      8.0102      2.6648      0.1024     -0.8978     23.9886    138.9171
  1126.8000      8.0220      2.6668      0.1177     -1.0203     24.4422    138.2361
  1126.9000      8.0220      2.6773      0.0618     -1.6559     24.8487    133.6103
  1127.0000      8.0383      2.6937      0.0548     -2.6476     25.3828    127.5278
  1127.1000      8.0383      2.7143      0.0434     -3.8990     25.9398    121.4591
  1127.2000      8.0383      2.7364      0.0473     -5.2369     26.4959    117.3525
  1127.3000      7.9923      2.7487      0.0680     -5.9800     27.1915    116.6027
  1127.4000      7.9923      2.7404      0.0387     -5.4799     27.6215    118.2421
  1127.5000      7.9953      2.7197     -0.0224     -4.2239     27.4311    120.9348
  1127.6000      7.9953      2.7034      0.0039     -3.2338     26.9325    124.9032
  1127.7000      7.9953      2.6968     -0.0469     -2.8345     26.5204    128.6981
  1127.8000      8.0093      2.6907      0.0139     -2.4646     26.2558    130.4982
  1127.9000      8.0093      2.6730     -0.0116     -1.3950     26.0768    131.0114
  1128.0000      7.9979      2.6498     -0.0462      0.0116     26.1562    131.0027
  1128.1000      7.9979      2.6382     -0.0029      0.7176     26.6524    130.4556
  1128.2000      7.9979      2.6473     -0.0431      0.1631     27.2586    127.5189
  1128.3000      8.0231      2.6739     -0.0082     -1.4482     27.4923    122.4416
  1128.4000      8.0231      2.6974      0.0290     -2.8701     27.2562    121.4171
  1128.5000      8.0195      2.6997     -0.0021     -3.0117     26.8622    127.8523
  1128.6000      8.0195      2.6874      0.0441     -2.2689     26.5238    133.9059
  1128.7000      8.0195      2.6719      0.0064     -1.3288     26.1623    131.8793
  1128.8000      8.0000      2.6537      0.0485     -0.2267     25.7430    126.6100
  1128.9000      8.0000      2.6237      0.0426      1.5942     25.6079    125.3518
  1129.0000      7.9835      2.5838     -0.0111      4.0099     26.0262    127.5764
  1129.1000      7.9835      2.5587     -0.0426      5.5330     26.5159    129.8426
  1129.2000      7.9835      2.5649     -0.0538      5.1603     26.3899    131.2492
  1129.3000      7.9932      2.5852      0.0146      3.9301     25.8405    132.7186
  1129.4000      7.9932      2.5867      0.0048      3.8352     25.6888    134.4557
  1129.5000      7.9849      2.5654     -0.0350      5.1296     26.1931    134.7023
  1129.6000      7.9849      2.5487     -0.0397      6.1394     27.1083    134.0964
  1129.7000      7.9849      2.5473     -0.0092      6.2251     28.0342    134.9075
  1129.8000      7.9565      2.5450     -0.0214      6.3644     28.3459    134.3858
  1129.9000      7.9565      2.5387     -0.0537      6.7462     27.9312    132.2141
  1130.0000      7.9481      2.5351      0.0136      6.9657     27.3594    132.9417
  1130.1000      7.9481      2.5282      0.0000      7.3841     27.1473    133.2319
  1130.2000      7.9481      2.5194     -0.0347      7.9164     27.3143    128.7906
  1130.3000      7.9450      2.5244     -0.0426      7.6142     27.6311    126.0386
  1130.4000      7.9450      2.5441      0.0127      6.4159     27.9563    128.5923
  1130.5000      7.9459      2.5578      0.0452      5.5875     28.0473    129.6540
  1130.6000      7.9459      2.5561      0.0104      5.6919     27.6031    127.9100
  1130.7000      7.9459      2.5520     -0.0043      5.9364     26.8064    129.4941
  1130.8000      7.9494      2.5500      0.0690      6.0614     26.1770    132.8429
  1130.9000      7.9494      2.5425     -0.0128      6.5182     26.1874    131.5223
  1131.0000      7.9431      2.5358     -0.0087      6.9207     26.8241    127.5737
  1131.1000      7.9431      2.5395      0.0215      6.6946     27.4492    129.3224
  1131.2000      7.9431      2.5471      0.0610      6.2344     27.5514    136.5478
  1131.3000      7.9471      2.5498      0.0051      6.0725     27.2872    140.2482
  1131.4000      7.9471      2.5556      0.0064      5.7198     27.0942    136.7637
  1131.5000      7.9431      2.5721      0.0126      4.7239     27.2076    131.0584
  1131.6000      7.9431      2.5884      0.0673      3.7350     27.5282    129.6177
  1131.7000      7.9431      2.5958      0.0022      3.2821     27.7652    131.9320
  1131.8000      7.9440      2.6019      0.0368      2.9153     27.6037    131.8520
  1131.9000      7.9440      2.6079      0.0342      2.5514     27.0677    125.5094
  1132.0000      7.9390      2.6057      0.0494      2.6868     26.7611    117.8086
  1132.1000      7.9390      2.5934      0.0294      3.4283     27.0252    117.0576
  1132.2000      7.9390      2.5846      0.0056      3.9606     27.6111    122.6110
  1132.3000      7.9497      2.5943      0.0211      3.3738     28.1818    129.3870
  1132.4000      7.9497      2.6188      0.0155      1.8897     28.5246    137.0311
  1132.5000      7.9464      2.6420      0.0512      0.4862     28.4295    143.8200
  1132.6000      7.9464      2.6566      0.0294     -0.4010     27.7880    143.4517
  1132.7000      7.9464      2.6605      0.0919     -0.6371     27.0217    134.9731
  1132.8000      7.9393      2.6449      0.0467      0.3109     26.9065    124.7527
  1132.9000      7.9393      2.6178      0.0038      1.9526     27.8084    120.2321
  1133.0000      7.9463      2.6000      0.0197      3.0313     28.9245    124.5101
  1133.1000      7.9463      2.5945      0.0240      3.3625     29.0898    133.1547
  1133.2000      7.9463      2.5957     -0.0184      3.2883     28.3252    139.0708
  1133.3000      7.9482      2.5961      0.0182      3.2684     27.3206    139.3462
  1133.4000      7.9482      2.5850      0.0076      3.9408     26.6009    136.3013
  1133.5000      7.9370      2.5654     -0.0114      5.1243     26.4474    133.2488
  1133.6000      7.9370      2.5466      0.0312      6.2680     26.5858    130.6561
  1133.7000      7.9370      2.5331     -0.0011      7.0866     26.7681    128.2895
  1133.8000      7.9405      2.5364     -0.0095      6.8869     26.9585    127.2314
  1133.9000      7.9405      2.5592      0.0211      5.5049     27.0882    128.6239
  1134.0000      7.9465      2.5841      0.0019      3.9915     27.0778    134.8559
  1134.1000      7.9465      2.5986      0.0420      3.1157     26.8680    142.9953
  1134.2000      7.9465      2.6022      0.0731      2.8973     26.6936    145.8127
  1134.3000      7.9484      2.6021      0.0482      2.9037     26.6583    145.6551
  1134.4000      7.9484      2.6052      0.0670      2.7145     26.6156    147.0315
  1134.5000      7.9423      2.6049      0.0566      2.7322     26.5208    145.1144
  1134.6000      7.9423      2.6010      0.0438      2.9718     26.3838    138.2067
  1134.7000      7.9423      2.6023      0.0818      2.8885     26.2512    135.7578
  1134.8000      7.9383      2.6007      0.1010      2.9886     26.0940    140.0720
  1134.9000      7.9383      2.5848      0.0820      3.9544     25.7395    141.0393
  1135.0000      7.9426      2.5589      0.0802      5.5192     25.4591    135.9050
  1135.1000      7.9426      2.5342      0.0066      7.0157     25.7541    128.9279
  1135.2000      7.9426      2.5242     -0.0305      7.6238     26.4781    123.3140
  1135.3000      7.9455      2.5300      0.0503      7.2697     26.8424    122.2648
  1135.4000      7.9455      2.5395      0.0399      6.6981     26.7004    126.6157
  1135.5000      7.9484      2.5489      0.0263      6.1245     26.7976    133.0348
  1135.6000      7.9484      2.5492      0.0494      6.1080     27.0379    135.4317
  1135.7000      7.9484      2.5265      0.0353      7.4848     26.7929    132.8407
  1135.8000      7.9441      2.4986     -0.0352      9.1782     26.0345    129.2883
  1135.9000      7.9441      2.4940     -0.0136      9.4574     25.1857    126.0495
  1136.0000      7.9407      2.5075      0.0019      8.6364     24.8020    122.6906
  1136.1000      7.9407      2.5252     -0.0304      7.5619     24.9239    122.2035
