~Version Information
 VERS.                                  2.0 : CWLS LAS VERSION
 WRAP.                                   NO : WRAPING MODE
 SWARE .                 MController 2.5.0I : SOFTWARE VERSION
~Well Information
 WELL.                                  N/A : WELL
 COMP.                                  N/A : COMPANY
 FLD.                                   N/A : FIELD
 LOC.                                   N/A : LOCATION
 DATE.                                  N/A : DATE(S) LOGGED
 SRVC.                                  N/A : SERVICE COMPANY
 STAT.                                  N/A : STATE
 CNTY.                                  N/A : COUNTY
 CTRY.                                  N/A : COUNTRY
 API.                                   N/A : API NUMBER
 STRT.FT                             801.00 : START DEPTH
 STOP.FT                            2405.00 : STOP DEPTH
 STEP.FT                               1.00 : DEPTH INCREMENT
 NULL.                                -9999 : NULL VALUE
~Curve information
 DEPTH.FT                                   :
 ROP.MIN/FT                                 :
 GAS.UNITS                                  :
~ASCII Log data
       801.0        826.4        246.6 
       802.0         12.1          3.1 
       803.0          5.4          3.7 
       804.0          0.3          3.6 
       805.0          0.3          3.6 
       806.0          0.2          3.5 
       807.0          0.3          3.6 
       808.0          0.2          3.5 
       809.0          0.2          3.4 
       810.0          0.2          3.6 
       811.0          0.4          3.7 
       812.0          0.2          3.6 
       813.0          0.3          3.8 
       814.0          0.2          3.5 
       815.0          0.2          3.7 
       816.0          0.2          3.6 
       817.0          0.2          3.5 
       818.0          0.2          3.6 
       819.0          0.2          3.5 
       820.0          0.2          3.9 
       821.0          0.2          3.7 
       822.0          0.2          3.6 
       823.0          0.3          3.6 
       824.0          0.2          3.6 
       825.0          0.2          3.7 
       826.0          0.2          3.8 
       827.0          0.2          3.7 
       828.0          0.1          3.6 
       829.0          0.2          3.8 
       830.0          0.2          3.7 
       831.0          0.1          3.8 
       832.0          0.1          3.6 
       833.0          0.1          3.9 
       834.0          0.1          3.9 
       835.0          0.1          4.0 
       836.0          0.1          3.9 
       837.0          0.1          4.0 
       838.0          1.4          3.9 
       839.0          0.1          3.6 
       840.0          0.1          3.8 
       841.0          0.1          3.7 
       842.0          0.2          3.7 
       843.0          0.1          3.7 
       844.0          0.1          4.0 
       845.0          0.2          3.7 
       846.0          0.2          3.7 
       847.0          0.1          3.7 
       848.0          0.1          4.1 
       849.0          0.2          3.8 
       850.0          0.2          4.0 
       851.0          0.2          3.8 
       852.0          0.2          3.6 
       853.0          0.2          3.7 
       854.0          0.2          3.8 
       855.0          0.2          4.2 
       856.0          0.2          4.0 
       857.0          0.3          4.2 
       858.0          0.2          4.2 
       859.0          0.1          4.5 
       860.0          0.2          4.2 
       861.0          0.2          4.2 
       862.0          0.2          4.3 
       863.0          0.2          4.2 
       864.0          0.1          4.2 
       865.0          0.1          4.3 
       866.0          0.2          4.2 
       867.0          0.1          4.2 
       868.0          1.8          4.3 
       869.0          0.4          3.9 
       870.0          0.2          3.9 
       871.0          0.2          3.8 
       872.0          0.2          3.6 
       873.0          0.2          3.7 
       874.0          0.2          3.6 
       875.0          0.2          3.8 
       876.0          0.2          3.8 
       877.0          0.2          3.9 
       878.0          0.2          4.1 
       879.0          0.2          3.9 
       880.0          0.2          3.8 
       881.0          0.2          3.3 
       882.0          0.2          2.6 
       883.0          0.2          2.0 
       884.0          0.2          1.8 
       885.0          0.2          2.0 
       886.0          0.2          2.5 
       887.0          0.2          2.7 
       888.0          0.2          2.7 
       889.0          0.1          2.7 
       890.0          0.2          2.9 
       891.0          0.2          3.1 
       892.0          0.2          3.1 
       893.0          0.2          3.3 
       894.0          0.2          2.2 
       895.0          0.2          0.5 
       896.0          0.2          0.2 
       897.0          0.4          1.2 
       898.0          1.1          2.3 
       899.0          0.3          1.0 
       900.0          0.3          1.3 
       901.0          0.2          1.7 
       902.0          0.2          1.7 
       903.0          0.2          1.6 
       904.0          0.2          1.5 
       905.0          0.2          1.3 
       906.0          0.1          1.1 
       907.0          0.1          0.9 
       908.0          0.2          1.0 
       909.0          0.2          0.7 
       910.0          0.2          0.7 
       911.0          0.2          0.9 
       912.0          0.2          0.7 
       913.0          0.2          0.9 
       914.0          0.2          1.4 
       915.0          0.2         53.1 
       916.0          0.2        119.0 
       917.0          0.2        137.8 
       918.0          0.2        117.3 
       919.0          0.2         67.6 
       920.0          0.2         34.4 
       921.0          0.2         16.4 
       922.0          0.2          8.9 
       923.0          0.2          3.6 
       924.0          0.2          1.1 
       925.0          0.2         -0.4 
       926.0          0.2         -0.9 
       927.0          0.7         -1.4 
       928.0          1.4          1.2 
       929.0          0.2          5.4 
       930.0          0.2          4.1 
       931.0          0.3          3.8 
       932.0          0.2          1.2 
       933.0          0.3          0.7 
       934.0          0.2          1.1 
       935.0          0.2          1.0 
       936.0          0.2          1.1 
       937.0          0.2          1.1 
       938.0          0.2          1.3 
       939.0          0.2          1.5 
       940.0          0.2          1.6 
       941.0          0.2          1.5 
       942.0          0.2          1.4 
       943.0          0.2          1.3 
       944.0          0.2          1.2 
       945.0          0.2          1.5 
       946.0          0.2          1.5 
       947.0          0.2          1.6 
       948.0          0.2          1.4 
       949.0          0.2          1.3 
       950.0          0.2          1.2 
       951.0          0.2          1.2 
       952.0          0.2          1.3 
       953.0          0.3          1.4 
       954.0          0.3          1.2 
       955.0          0.2          1.3 
       956.0          0.2          1.4 
       957.0          0.2          1.3 
       958.0          2.1          3.8 
       959.0          0.3          2.4 
       960.0          0.2          2.3 
       961.0          0.2          2.1 
       962.0          0.2          2.4 
       963.0          0.2          2.4 
       964.0          0.2          2.3 
       965.0          0.2          2.3 
       966.0          0.2          2.3 
       967.0          0.2          2.2 
       968.0          0.1          2.3 
       969.0          0.2          2.2 
       970.0          0.2          2.1 
       971.0          0.1          2.1 
       972.0          0.1          2.2 
       973.0          0.2          2.2 
       974.0          0.2          2.3 
       975.0          0.2          2.2 
       976.0          0.2          2.2 
       977.0          0.2          2.5 
       978.0          0.1          2.4 
       979.0          0.1          2.5 
       980.0          0.2          2.7 
       981.0          0.1          2.7 
       982.0          0.2          2.5 
       983.0          0.2          2.6 
       984.0          0.1          2.7 
       985.0          0.2          2.8 
       986.0          0.1          3.0 
       987.0          0.1          2.8 
       988.0          1.9          5.2 
       989.0          0.4          4.5 
       990.0          0.3          3.6 
       991.0          0.3          3.5 
       992.0          0.2          3.3 
       993.0          0.2          3.1 
       994.0          0.2          3.2 
       995.0          0.2          3.0 
       996.0          0.2          3.2 
       997.0          0.2          3.4 
       998.0          0.2          3.1 
       999.0          0.2          3.2 
      1000.0          0.1          3.2 
