~Version Information
VERS.                      2.0: CWLS Log ASCII Standard - VERSION 2.0
WRAP.                       NO: One line per depth step
~Well Information Block
STRT.FT                -7.5000: 
STOP.FT               872.5000: 
STEP.FT                 0.5000: 
NULL.                -999.2500: 
COMP.          Pioneer Natural Resources: COMPANY
WELL.          New Mexico 21-5: WELL
FLD.           Purgatorie River: FIELD
LOC.           175' FNL & 1700' FWL: LOCATION
PROV.                 Colorado: PROVINCE
CNTY.               Las Animas: COUNTRY
SRVC.          Patterson Wireline: SERVICE COMPANY
DATE.          Fri Dec 17 09:32:01 2004: LOG DATE
UWI.           05-071-08234-00: UNIQUE WELL ID
~Curve Information Block
DEPT.FT            0 000 00 00: Depth
CCL.                          : Casing Collar Locator
TT3.usec                      : CBL 3' Travel Time
AMP3.mV                       : CBL 3' Amplitude
GR.GAPI                       : Gamma Ray
~Parameter Information Block
~A  Depth       CCL         TT3         AMP3         GR     
# ...
   126.5000      0.0000    766.5741      6.9676     92.8127
   127.0000      0.0000    770.4613      7.4789     88.8305
   127.5000      0.0000    763.2809      7.5652     86.3411
   128.0000      0.0000    766.3726      7.5190     88.5026
   128.5000      0.0000    781.5858      7.7128     91.9771
   129.0000      0.0000    778.7231      7.8687     93.1260
   129.5000      0.0000    771.7404      7.4982     93.7721
   130.0000      0.0000    783.0591      7.0555     87.5881
   130.5000      3.1375    810.8916      7.0337     74.2087
   131.0000      0.0000    840.1236      7.2687     66.7872
   131.5000      0.0000    817.7956      7.8697     67.0751
   132.0000      0.0000    780.5067      8.7619     63.1436
   132.5000      0.0000    797.7927      9.0301     61.2325
   133.0000      0.0000    824.2783      8.6970     73.1181
   133.5000      0.0000    826.4842      8.2622     89.5390
   134.0000      0.0000    820.6099      7.8860     96.8414
   134.5000      0.0000    813.3807      7.5405     96.3113
   135.0000      0.0000    806.4861      7.1774     92.7849
   135.5000      0.0000    799.1344      6.7410     90.2355
   136.0000      0.0000    791.7055      6.4218     89.2339
   136.5000      0.0000    787.4022      6.3308     86.0568
   137.0000      0.0000    793.1647      6.2991     88.5533
   137.5000      0.0000    798.6826      6.2140    101.9621
   138.0000      0.0000    788.5956      6.0520    111.1941
   138.5000      0.0000    775.9244      5.8528    107.4796
   139.0000      0.0000    784.5861      5.6649     99.3968
   139.5000      0.0000    812.6172      5.5101     92.2488
   140.0000      0.0000    835.9239      5.4107     93.4968
   140.5000      0.0000    837.6696      5.2648     95.4957
   141.0000      0.0000    823.8151      5.0812     92.8687
   141.5000      0.0000    819.4382      4.9312     94.4683
   142.0000      0.0000    834.3231      4.8925     96.0324
   142.5000      0.0000    849.0197      5.0420     91.3072
   143.0000      0.0000    853.6685      5.3480     84.7369
   143.5000      0.0000    851.4779      5.6738     88.6709
   144.0000      0.0000    837.5119      5.8557    101.4854
   144.5000      0.0000    808.6734      5.9025    102.2398
   145.0000      0.0000    786.2520      5.8358     97.5620
   145.5000      0.0000    778.2033      5.6712     98.2709
   146.0000      0.0000    775.0153      5.5739     99.9374
   146.5000      0.0000    787.1519      5.6877     97.6068
   147.0000      0.0000    804.2505      5.8377     90.4559
   147.5000      0.0000    815.7665      5.8431     85.2634
   148.0000      0.0000    832.3338      5.7959     88.9062
   148.5000      0.0000    846.5029      5.8802     93.4000
   149.0000      0.0000    851.1177      6.1124     90.9701
   149.5000      0.0000    851.7061      6.3493     89.7208
   150.0000      0.0000    850.6306      6.4241     93.3020
   150.5000      0.0000    840.7427      6.2940     94.6358
   151.0000      0.0000    817.2776      6.0261     93.1903
   151.5000      0.0000    798.5046      5.6566     90.2775
   152.0000      0.0000    798.3154      5.2917     84.5456
   152.5000      0.0000    815.5187      5.0472     80.1396
   153.0000      0.0000    860.2859      4.8697     83.9197
   153.5000      0.0000    938.0148      4.6866     91.7803
   154.0000      0.0000    982.9964      4.6088     96.0696
   154.5000      0.0000    946.5809      4.7209     94.2857
   155.0000      0.0000    940.9291      4.9307     90.7378
   155.5000      0.0000    957.9529      5.0256     92.9049
   156.0000      0.0000    925.9986      5.0796     95.8041
   156.5000      0.0000    876.0895      5.4283     93.7294
   157.0000      0.0000    873.2050      6.1564     93.6015
   157.5000      0.0000    885.3331      6.8032     96.7903
   158.0000      0.0000    870.5779      6.9560     93.2938
   158.5000      0.0000    856.1647      6.7943     91.4937
   159.0000      0.0000    853.4159      6.6229     93.3862
   159.5000      0.0000    843.0941      6.5967     92.5875
   160.0000      0.0000    821.9537      6.6305     90.2373
   160.5000      0.0000    807.8814      6.6342     89.0300
   161.0000      0.0000    801.0566      6.6196     90.3568
   161.5000      0.0000    792.6292      6.5978     90.1736
   162.0000      0.0000    789.7090      6.5309     87.8872
   162.5000      0.0000    796.9119      6.5006     86.3107
   163.0000      0.0000    802.3907      6.6266     85.0802
   163.5000      0.0000    803.3596      6.7648     84.7936
   164.0000      0.0000    800.0228      6.8300     83.6797
   164.5000      0.0000    791.1819      6.9897     83.0667
   165.0000      0.0000    787.4058      7.1990     88.4861
   165.5000      0.0000    794.4723      7.2890     92.6878
   166.0000      0.0000    800.2690      7.2788     87.1573
   166.5000      0.0000    801.7538      7.2092     83.8922
   167.0000      0.0000    801.0292      7.1261     86.5207
   167.5000      0.0000    797.2533      7.1058     88.3312
   168.0000      0.0000    794.8592      7.0863     86.3143
   168.5000      0.0000    800.3762      6.9741     80.8758
   169.0000      0.0000    810.1973      6.8104     71.7096
   169.5000      0.0000    818.7588      6.6103     62.1624
   170.0000      0.0000    823.1513      6.3791     54.0799
   170.5000      0.0000    828.8345      6.1831     49.9162
   171.0000      0.0000    830.2483      5.9841     49.3186
   171.5000      0.0000    819.6688      5.6236     48.4271
   172.0000      0.0000    800.8773      5.1297     49.4673
   172.5000      0.0000    810.2996      4.7735     48.7065
   173.0000      0.0000    844.8983      4.6908     42.1427
   173.5000      0.0000    877.0499      4.7541     38.3974
   174.0000      0.0000    892.6503      4.8180     43.2420
   174.5000      0.0000    872.4945      4.9971     46.9956
   175.0000      0.0000    835.9196      5.5841     48.0362
   175.5000      0.0000    809.7546      6.0899     49.6962
   176.0000      0.0000    802.7149      6.1268     52.9366
   176.5000      0.0000    800.5797      6.0989     63.1165
   177.0000      0.0000    799.2170      6.0647     75.9509
   177.5000      0.0000    798.9103      5.9942     87.6746
   178.0000      0.0000    797.4609      5.9693     95.2178
   178.5000      0.0000    797.4420      5.9664     92.5818
   179.0000      0.0000    813.1196      5.8593     85.3695
   179.5000      0.0000    838.5385      5.7907     83.7050
   180.0000      0.0000    852.1455      5.9169     86.2718
   180.5000      0.0000    855.2164      6.0743     91.9636
   181.0000      0.0000    855.5278      6.1558     96.1634
   181.5000      0.0000    855.4959      6.2022     96.0924
   182.0000      0.0000    855.3835      6.4050     93.3908
   182.5000      0.0000    855.2413      6.7792     88.7160
   183.0000      0.0000    855.4981      7.1325     85.7629
   183.5000      0.0000    857.6216      7.3694     85.6407
   184.0000      0.0000    860.6597      7.4284     85.4363
   184.5000      0.0000    852.8441      7.3464     87.5776
   185.0000      0.0000    825.1568      7.2826     91.7199
   185.5000      0.0000    792.0060      7.3303     90.5995
   186.0000      0.0000    776.1015      7.3789     84.8531
   186.5000      0.0000    777.0679      7.3065     77.7515
   187.0000      0.0000    783.2297      7.1241     78.2380
   187.5000      0.0000    788.7713      6.9831     85.4389
   188.0000      0.0000    802.5480      6.8424     89.5747
   188.5000      0.0000    821.6155      6.6676     87.2639
   189.0000      0.0000    836.0781      6.6108     78.3575
   189.5000      0.0000    838.5416      6.6908     70.8258
   190.0000      0.0000    832.5127      6.7334     68.7423
   190.5000      0.0000    826.2366      6.6593     73.6809
   191.0000      0.0000    820.4767      6.6014     83.8618
   191.5000      0.0000    819.1086      6.7042     88.1563
   192.0000      0.0000    824.1830      6.8914     84.6491
   192.5000      0.0000    825.4222      6.9914     83.9055
   193.0000      0.0000    825.8553      7.0314     83.8325
