~Version Information
VERS.                      2.0: CWLS Log ASCII Standard - VERSION 2.0
WRAP.                       NO: One line per depth step
~Well Information Block
STRT.FT               652.0000: 
STOP.FT              1880.0000: 
STEP.FT                 0.1000: 
NULL.                -999.2500: 
COMP.          Pioneer Natural Resources: COMPANY
WELL.          Corkscrew 33-12 Tr: WELL
FLD.           Purgatoire River: FIELD
LOC.           1870' FSL & 1706' FEL: LOCATION
PROV.                 Colorado: PROVINCE
CNTY.               Las Animas: COUNTRY
SRVC.                Patterson: SERVICE COMPANY
DATE.          Tue Mar 29 09:18:51 2005: LOG DATE
UWI.           05 071 08295 00: UNIQUE WELL ID
~Curve Information Block
DEPT.FT            0 000 00 00: Depth
DCAL.in                       : CDL Caliper
RHOB.g/cc                     : CDL Bulk Density
RHOC.g/cc                     : CDL Density Correction
DPOR.pu                       : CDL Density Porosity
GR.GAPI                       : Gamma Ray
NPOR.pu                       : Neutron Porosity
~Parameter Information Block
~A  Depth       DCAL        RHOB        RHOC        DPOR         GR         NPOR    
   652.0000      4.8484      2.2773      0.2624     22.5880    108.7830     20.2070
   652.1000      4.8484      2.2971      0.1945     21.3857    102.7868     20.4035
   652.2000      4.8484      2.3035      0.2205     21.0004     98.2868     20.7933
   652.3000      4.8562      2.3002      0.2623     21.1998     97.7818     20.8742
   652.4000      4.8562      2.2853      0.2306     22.1019    100.2749     20.4846
   652.5000      4.8530      2.2806      0.1790     22.3893    102.5330     20.3053
   652.6000      4.8530      2.3088      0.2364     20.6800    103.6254     20.5846
   652.7000      4.8530      2.3623      0.2178     17.4340    108.0058     20.6611
   652.8000      4.8497      2.4238      0.2892     13.7098    116.6892     19.8979
   652.9000      4.8497      2.4840      0.2580     10.0620    118.7304     19.6510
   653.0000      4.8388      2.5193      0.3737      7.9182    111.5282     21.3322
   653.1000      4.8388      2.4961      0.3072      9.3250    105.8959     23.1010
   653.2000      4.8388      2.4229      0.2745     13.7619    103.9792     23.0528
   653.3000      4.8528      2.3395      0.2048     18.8163    104.3781     22.0784
   653.4000      4.8528      2.2737      0.1514     22.8056    109.5993     21.2288
   653.5000      4.8507      2.2325      0.1168     25.3049    115.3397     20.5915
   653.6000      4.8507      2.2114      0.1289     26.5798    118.8850     20.3556
   653.7000      4.8507      2.2065      0.0862     26.8815    127.0381     20.8200
   653.8000      4.8472      2.2154      0.1406     26.3392    140.3038     21.5680
   653.9000      4.8472      2.2304      0.1616     25.4300    148.9845     21.5573
   654.0000      4.8494      2.2423      0.1866     24.7116    149.8642     20.8664
   654.1000      4.8494      2.2527      0.1833     24.0758    146.9147     20.8930
   654.2000      4.8494      2.2694      0.2274     23.0657    142.0813     22.2348
   654.3000      4.8494      2.2910      0.2264     21.7573    136.7278     23.7787
   654.4000      4.8494      2.3058      0.2797     20.8595    131.8757     24.6445
   654.5000      4.8359      2.3121      0.2258     20.4789    126.2967     24.9372
   654.6000      4.8359      2.3343      0.1796     19.1350    122.0113     24.5830
   654.7000      4.8359      2.3837      0.3190     16.1395    119.0579     23.9108
   654.8000      4.8548      2.4312      0.2849     13.2606    115.1912     23.7227
   654.9000      4.8548      2.4527      0.3303     11.9590    108.7280     24.2959
   655.0000      4.8485      2.4500      0.2929     12.1232    100.8934     24.9628
   655.1000      4.8485      2.4304      0.2948     13.3102     98.9038     24.9602
   655.2000      4.8485      2.3883      0.2868     15.8584    104.4188     24.5493
   655.3000      4.8510      2.3107      0.2163     20.5652    113.8959     24.0221
   655.4000      4.8510      2.2069      0.1156     26.8555    123.7753     23.4234
   655.5000      4.8427      2.1127      0.0220     32.5666    129.2829     23.4677
   655.6000      4.8427      2.0543      0.0421     36.1050    131.8182     24.4040
   655.7000      4.8427      2.0295      0.0344     37.6037    132.1849     25.5202
   655.8000      4.8484      2.0256      0.0580     37.8412    126.6956     26.2255
   655.9000      4.8484      2.0421      0.0715     36.8450    117.1319     26.6490
   656.0000      4.8473      2.0833      0.0972     34.3452    107.7641     27.0597
   656.1000      4.8473      2.1323      0.2249     31.3770    101.2309     27.6157
   656.2000      4.8473      2.1719      0.2076     28.9765     98.9073     28.3143
   656.3000      4.8608      2.2157      0.2761     26.3211     99.1451     28.6064
   656.4000      4.8608      2.2743      0.3535     22.7671     97.5826     28.1688
   656.5000      4.8494      2.3526      0.3116     18.0261     91.9925     27.5117
   656.6000      4.8494      2.4605      0.3620     11.4844     86.5909     26.4081
   656.7000      4.8494      2.5764      0.4740      4.4614     88.3584     24.5216
   656.8000      4.8431      2.6596      0.4757     -0.5798     96.9105     23.0830
   656.9000      4.8431      2.6883      0.5692     -2.3183    104.0838     23.0103
   657.0000      4.8408      2.6452      0.5194      0.2924    108.5893     23.6252
   657.1000      4.8408      2.5136      0.4307      8.2673    114.1935     23.7875
   657.2000      4.8408      2.2931      0.3185     21.6315    118.8747     23.2606
   657.3000      4.8400      2.0136      0.1457     38.5704    121.1486     22.5569
   657.4000      4.8400      1.7302      0.0609     55.7437    122.0686     21.8623
   657.5000      4.8489      1.4734      0.0436     71.3106    119.9759     21.2623
   657.6000      4.8489      1.2415     -0.0275     85.3631    115.4464     20.9020
   657.7000      4.8489      1.0515     -0.0978     96.8779    113.2283     20.4826
   657.8000      4.8444      0.9371     -0.0646    103.8141    114.0996     20.1344
   657.9000      4.8444      0.8928      0.1414    106.4945    115.3281     20.5817
   658.0000      4.8252      0.8632      0.2633    108.2937    114.1819     21.6729
   658.1000      4.8252      0.8014      0.2165    112.0335    111.6888     22.3095
   658.2000      4.8252      0.7008      0.1434    118.1360    112.1092     21.6502
   658.3000      4.8185      0.5652      0.0189    126.3487    112.7166     20.4763
   658.4000      4.8185      0.3978     -0.1468    136.4984    109.3898     20.2694
   658.5000      4.8134      0.2129     -0.3566    147.7008    108.1237     21.1188
   658.6000      4.8134      0.0393     -0.5685    158.2269    112.5325     21.7793
   658.7000      4.8134     -0.1011     -0.6931    166.7308    118.9210     21.6205
   658.8000      4.8224     -0.2098     -0.7861    173.3219    120.3428     21.2045
   658.9000      4.8224     -0.2987     -0.8624    178.7077    114.7256     20.9381
   659.0000      4.8110     -0.3624     -0.9875    182.5679    112.2503     21.0230
   659.1000      4.8110     -0.3828     -0.9720    183.8039    116.6418     21.4609
   659.2000      4.8110     -0.3614     -0.9138    182.5089    118.5733     21.8782
   659.3000      4.8028     -0.3239     -0.8638    180.2349    116.3802     21.9195
   659.4000      4.8028     -0.2921     -0.8567    178.3118    116.2782     20.9197
   659.5000      4.8064     -0.2691     -0.8780    176.9146    114.4183     19.0645
   659.6000      4.8064     -0.2563     -0.7988    176.1369    104.1710     17.4093
   659.7000      4.8064     -0.2612     -0.8174    176.4376     90.2183     16.2328
   659.8000      4.8052     -0.2695     -0.9533    176.9378     80.1757     15.8364
   659.9000      4.8052     -0.2581     -0.8258    176.2455     74.5758     16.4339
   660.0000      4.8056     -0.2249     -0.8891    174.2381     71.5790     16.9465
   660.1000      4.8056     -0.1721     -0.8101    171.0358     70.1864     16.7234
   660.2000      4.8056     -0.1120     -0.7127    167.3961     70.1691     16.5733
   660.3000      4.8017     -0.0640     -0.6996    164.4818     72.9935     16.4889
   660.4000      4.8017     -0.0266     -0.6941    162.2210     77.7602     16.1250
   660.5000      4.7906      0.0092     -0.6583    160.0464     82.8443     16.0539
   660.6000      4.7906      0.0437     -0.6344    157.9565     86.4913     16.5901
   660.7000      4.7906      0.0770     -0.6378    155.9374     85.2954     17.3339
   660.8000      4.7995      0.1123     -0.5747    153.8006     79.3645     17.7243
   660.9000      4.7995      0.1482     -0.5418    151.6232     75.6929     17.8778
   661.0000      4.8114      0.1793     -0.4526    149.7392     82.8553     18.2987
   661.1000      4.8114      0.2109     -0.5131    147.8234     96.3406     18.9990
   661.2000      4.8114      0.2618     -0.4738    144.7371    100.8304     19.7367
   661.3000      4.8123      0.3220     -0.3453    141.0924     95.9765     19.9548
   661.4000      4.8123      0.3574     -0.3492    138.9453     92.9575     19.4156
   661.5000      4.8058      0.3743     -0.4565    137.9223     92.9621     18.7661
