~Version Information
VERS.                      2.0: CWLS Log ASCII Standard - VERSION 2.0
WRAP.                       NO: One line per depth step
~Well Information Block
STRT.FT                 0.0000: 
STOP.FT              2234.2500: 
STEP.FT                 0.2500: 
NULL.                -999.2500: 
COMP.          Pioner Natural Resources: COMPANY
WELL.          Casablanca 11-28 Tr: WELL
FLD.           Purgatoire River: FIELD
LOC.           422' FNL & 215' FWL--: LOCATION
PROV.                 Colorado: PROVINCE
CNTY.               Las Animas: COUNTRY
SRVC.                         : SERVICE COMPANY
DATE.          Fri Mar 11 13:02:46 2005: LOG DATE
UWI.           005 071 08314  : UNIQUE WELL ID
~Curve Information Block
DEPT.FT            0 000 00 00: Depth
CCL.                          : Casing Collar Locator
TT3.usec                      : CBL 3' Travel Time
AMP3.mV                       : CBL 3' Amplitude
AMP5.mV                       : CBL 5' Amplitude
GR.GAPI                       : Gamma Ray
~Parameter Information Block
~A  Depth       CCL         TT3         AMP3        AMP5         GR     
# ...
   140.0000      5.0000    797.8395      6.5257      1.5186     66.8580
   140.2500      0.0000    797.9594      6.7489      2.1280     72.0954
   140.5000      0.0000    797.9920      6.9767      1.7798     78.6228
   140.7500      0.0000    797.9988      7.1938      1.6927     84.9028
   141.0000      0.0000    798.0000      7.4080      2.8243     89.1656
   141.2500      0.0000    798.0000      7.5978      2.0409     91.0728
   141.5000      0.0000    798.0000      7.7133      1.8668     92.1770
   141.7500      0.0000    798.0000      7.7422      0.9964     94.3878
   142.0000      0.0000    798.0000      7.7452      0.8223     98.0560
   142.2500      0.0000    798.0000      7.8052      1.9539    101.9004
   142.5000      0.0000    798.0000      7.9624      1.7798    104.7475
   142.7500      0.0000    798.0000      8.1999     -1.0057    106.6101
   143.0000      0.0000    798.0000      8.4642      0.2129    107.9036
   143.2500      0.0000    798.0000      8.6872     -0.4834    108.5477
   143.5000      0.0000    798.0000      8.8146     -0.3093    108.3841
   143.7500      0.0000    797.9989      8.8391      0.3000    107.7416
   144.0000      0.0000    797.9928      8.8091      0.2129    107.0131
   144.2500      0.0000    797.9624      8.7907      0.4741    106.1327
   144.5000      0.0000    797.8476      8.8143      0.2129    104.8925
   144.7500      0.0000    797.5120      8.8547     -0.2223    103.4655
   145.0000      0.0000    796.7506      8.8663      0.0389    102.3684
   145.2500      0.0000    795.3974      8.8336     -7.7083    101.9193
   145.5000      0.0000    793.4738      8.7812      0.6482    101.7581
   145.7500      0.0000    791.2179      8.7413      1.9539    101.0210
   146.0000      0.0000    788.9861      8.7196      0.4741     99.2632
   146.2500      0.0000    787.2167      8.6902      0.9093     97.1315
   146.5000      0.0000    786.4442      8.6193      1.1705     95.7779
   146.7500      0.0000    787.1042      8.4982      3.7819     95.6160
   147.0000      0.0000    789.1558      8.3656      4.9135     95.9275
   147.2500      0.0000    791.9442      8.2903      4.5653     95.4916
   147.5000      0.0000    794.5630      8.3208      3.6078     93.3190
   147.7500      0.0000    796.4056      8.4458      3.7819     89.2644
   148.0000      0.0000    797.3966      8.6059      1.6927     84.6032
   148.2500      0.0000    797.7843      8.7434      2.0409     81.6925
   148.5000      0.0000    797.8047      8.8391      1.2575     82.3548
   148.7500      0.0000    797.4971      8.9082      3.4337     86.4747
   149.0000      0.0000    796.7374      8.9788      3.7819     92.2538
   149.2500      0.0000    795.4652      9.0819      4.5653     97.5335
   149.5000      0.0000    793.9797      9.2502      5.1746    100.9353
   149.7500      0.0000    792.9572      9.5100      3.6078    102.3856
   150.0000      0.0000    792.9794      9.8583      3.5207    102.9789
   150.2500      0.0000    793.9506     10.2448      3.2596    104.1178
   150.5000      0.0000    795.0436     10.5793      3.1725    106.3936
   150.7500      0.0000    795.1828     10.7746      1.9539    109.0342
   151.0000      0.0000    793.6360     10.8000      3.5207    110.5468
   151.2500      0.0000    790.5668     10.6968      3.4337    110.1983
   151.5000      0.0000    787.3555     10.5346      2.1280    108.8355
   151.7500      0.0000    785.9700     10.3434      1.4316    107.9879
   152.0000      0.0000    787.3879     10.0850      1.4316    108.3195
   152.2500      0.0000    790.7037      9.6954      2.5632    109.2260
   152.5000      0.0000    794.0765      9.1535      4.8264    109.8005
   152.7500      0.0000    796.2850      8.5067      7.4378    109.8226
   153.0000      0.0000    797.1614      7.8409      8.3953    109.8179
   153.2500      0.0000    796.9785      7.2472      9.3528    110.4397
   153.5000      0.0000    795.8676      6.8160      9.0917    111.9298
   153.7500      0.0000    793.7458      6.6292      8.3953    113.8692
   154.0000      0.0000    790.4547      6.7223      8.0471    115.2085
   154.2500      0.0000    785.8350      7.0401      7.0026    114.8283
   154.5000      0.0000    779.8325      7.4347      5.4357    112.3323
   154.7500      0.0000    772.6887      7.7291      5.0005    108.1984
   155.0000      0.0000    765.0043      7.8129      3.6078    103.3309
   155.2500      0.0000    757.5803      7.6980      4.1300     98.8138
   155.5000      0.0000    751.3879      7.4888      3.5207     95.8260
   155.7500      0.0000    747.5750      7.2982      3.9559     95.2263
   156.0000      0.0000    747.0307      7.1824      3.6948     97.1011
   156.2500      0.0000    749.8045      7.1335      3.5207    100.7552
   156.5000      0.0000    755.1555      7.1073      2.8243    105.0537
   156.7500      0.0000    762.0251      7.0554      2.9114    108.7799
   157.0000      0.0000    768.9858      6.9441      2.8243    110.9785
   157.2500      0.0000    773.8420      6.7647      1.6927    111.3436
   157.5000      0.0000    774.1989      6.5333      0.9093    110.4119
   157.7500      0.0000    769.2543      6.2798      0.4741    109.0609
   158.0000      0.0000    761.0371      6.0325      0.0389    107.5679
   158.2500      0.0000    753.5333      5.8186      0.2129    105.5036
   158.5000      0.0000    750.3739      5.6758     -0.7446    102.7642
   158.7500      0.0000    752.9205      5.6573     -0.3964    100.1264
   159.0000      0.0000    759.5408      5.8157      0.0389     98.3542
   159.2500      0.0000    766.1880      6.1815      0.4741     97.2379
   159.5000      0.0000    768.5795      6.7563      1.4316     96.1156
   159.7500      0.0000    765.0051      7.5160      2.6503     95.1671
   160.0000      0.0000    757.3220      8.4075      6.4803     95.5163
   160.2500      0.0000    749.1187      9.3417      4.3041     97.8688
   160.5000      0.0000    743.0560     10.2018      6.1321    101.4361
   160.7500      0.0000    739.8291     10.8735      7.0026    104.4135
   161.0000      0.0000    738.9049     11.2783      6.3062    105.3173
   161.2500      0.0000    739.6708     11.3966      6.7414    103.8865
   161.5000      0.0000    741.9881     11.2705      7.1767    101.0434
   161.7500      0.0000    746.0529     10.9868      5.7839     98.0690
   162.0000      0.0000    751.9187     10.6456      5.4357     95.5701
   162.2500      0.0000    759.1285     10.3226      3.9559     93.1629
   162.5000      0.0000    766.6293     10.0483      5.1746     90.2226
   162.7500      0.0000    772.8527      9.8229      5.1746     86.8290
   163.0000      0.0000    776.0998      9.6445      4.3041     83.8949
   163.2500      0.0000    775.5263      9.5057      4.9135     82.5219
   163.5000      0.0000    772.2799      9.3640      3.6948     83.2211
   163.7500      0.0000    769.4963      9.1329      2.3891     85.5104
   164.0000      0.0000    770.3740      8.7153     -0.5705     88.0965
   164.2500      0.0000    775.6746      8.0572     -0.7446     89.4914
   164.5000      0.0000    783.2300      7.1888     -0.4834     88.7949
   164.7500      0.0000    789.9716      6.2306      0.5611     86.3636
   165.0000      0.0000    794.0876      5.3524     -0.5705     83.7686
   165.2500      0.0000    795.3611      4.6990     -0.9187     82.8294
   165.5000      0.0000    794.2172      4.3296      0.3870     84.4402
   165.7500      0.0000    791.0601      4.2155      1.3446     88.1060
   166.0000      0.0000    786.4804      4.2853      0.7352     92.3364
   166.2500      0.0000    781.6883      4.4815      1.7798     95.4725
   166.5000      0.0000    778.2108      4.7853      2.9114     96.5252
   166.7500      0.0000    776.7427      5.1861      3.2596     95.5542
   167.0000      0.0000    776.4852      5.6275      3.3466     93.3241
   167.2500      0.0000    776.0938      6.0037      3.3466     90.7058
   167.5000      0.0000    775.2341      6.2328      4.7394     88.3648
   167.7500      0.0000    774.7804      6.3267      4.0430     86.6154
