~Version Information
VERS.                      2.0: CWLS Log ASCII Standard - VERSION 2.0
WRAP.                       NO: One line per depth step
~Well Information Block
STRT.FT               620.0000: 
STOP.FT              2660.0000: 
STEP.FT                 0.1000: 
NULL.                -999.2500: 
COMP.          Evergreen Operating Corporation: COMPANY
WELL.             Carbon 34-21: WELL
FLD.           Purgatoire River: FIELD
LOC.           56' FSL & 2304' FEL: LOCATION
PROV.                 Colorado: PROVINCE
CNTY.               Las Animas: COUNTRY
SRVC.                Patterson: SERVICE COMPANY
DATE.          Mon Sep 13 14:13:15 2004: LOG DATE
UWI.           05 071 08117 00: UNIQUE WELL ID
~Curve Information Block
DEPT.FT            0 000 00 00: Depth
DCAL.in                       : CDL Caliper
DPOR.pu                       : CDL Density Porosity
NPOR.pu                       : Neutron Porosity
RHOB.g/cc                     : CDL Bulk Density
RHOC.g/cc                     : CDL Density Correction
GR.GAPI                       : Gamma Ray
~Parameter Information Block
~A  Depth       DCAL        DPOR        NPOR        RHOB        RHOC         GR     
# ...
  1301.6000      0.0000      0.0000      0.0000      0.0000      0.0000     79.5869
  1301.7000      0.0000      0.0000      0.0000      0.0000      0.0000     84.8687
  1301.8000      0.0000      0.0000      0.0000      0.0000      0.0000     93.1298
  1301.9000      0.0000      0.0000      0.0000      0.0000      0.0000     95.6590
  1302.0000      0.0000      0.0000      0.0000      0.0000      0.0000     93.3711
  1302.1000      0.0000      0.0000      0.0000      0.0000      0.0000     95.5569
  1302.2000      0.0000      0.0000      0.0000      0.0000      0.0000    102.1846
  1302.3000      0.0000      0.0000      0.0000      0.0000      0.0000    106.8694
  1302.4000      0.0000      0.0000      0.0000      0.0000      0.0000    109.1226
  1302.5000      0.0000      0.0000      0.0000      0.0000      0.0000    107.4350
  1302.6000      0.0000      0.0000      0.0000      0.0000      0.0000     99.7343
  1302.7000      0.0000      0.0000      0.0000      0.0000      0.0000     91.9241
  1302.8000      0.0000      0.0000      0.0000      0.0000      0.0000     89.5476
  1302.9000      0.0000      0.0000      0.0000      0.0000      0.0000     89.6340
  1303.0000      0.0000      0.0000      0.0000      0.0000      0.0000     89.6629
  1303.1000      0.0000      0.0000      0.0000      0.0000      0.0000     89.7335
  1303.2000      0.0000      0.0000      0.0000      0.0000      0.0000     87.3327
  1303.3000      0.0000      0.0000      0.0000      0.0000      0.0000     84.2886
  1303.4000      0.0000      0.0000      0.0000      0.0000      0.0000     84.7558
  1303.5000      0.0000      0.0000      0.0000      0.0000      0.0000     84.9496
  1303.6000      0.0000      0.0000      0.0000      0.0000      0.0000     83.1920
  1303.7000      0.0000      0.0000      0.0000      0.0000      0.0000     85.2437
  1303.8000      0.0000      0.0000      0.0000      0.0000      0.0000     89.4899
  1303.9000      0.0000      0.0000      0.0000      0.0000      0.0000     87.4456
  1304.0000      0.0000      0.0000      0.0000      0.0000      0.0000     85.0471
  1304.1000      0.0000      0.0000      0.0000      0.0000      0.0000     93.5297
  1304.2000      0.0000      0.0000      0.0000      0.0000      0.0000    101.8058
  1304.3000      0.0000      0.0000      0.0000      0.0000      0.0000    100.6821
  1304.4000      0.0000      0.0000      0.0000      0.0000      0.0000    101.0888
  1304.5000      0.0000      0.0000      0.0000      0.0000      0.0000    105.7708
  1304.6000      0.0000      0.0000      0.0000      0.0000      0.0000    111.1849
  1304.7000      0.0000      0.0000      0.0000      0.0000      0.0000    121.3132
  1304.8000      0.0000      0.0000      0.0000      0.0000      0.0000    123.6592
  1304.9000      0.0000      0.0000      0.0000      0.0000      0.0000    105.5546
  1305.0000      0.0000      0.0000      0.0000      0.0000      0.0000     89.8446
  1305.1000      0.0000      0.0000      0.0000      0.0000      0.0000     95.4096
  1305.2000      0.0000      0.0000      0.0000      0.0000      0.0000    109.8365
  1305.3000      0.0000      0.0000      0.0000      0.0000      0.0000    115.7038
  1305.4000      0.0000      0.0000      0.0000      0.0000      0.0000    105.0959
  1305.5000      0.0000      0.0000      0.0000      0.0000      0.0000     87.2934
  1305.6000      0.0000      0.0000      0.0000      0.0000      0.0000     80.2689
  1305.7000      0.0000      0.0000      0.0000      0.0000      0.0000     81.0876
  1305.8000      0.0000      0.0000      0.0000      0.0000      0.0000     78.4777
  1305.9000      0.0000      0.0000      0.0000      0.0000      0.0000     77.4200
  1306.0000      0.0000      0.0000      0.0000      0.0000      0.0000     78.4410
  1306.1000      0.0000      0.0000      0.0000      0.0000      0.0000     78.5167
  1306.2000      0.0000      0.0000      0.0000      0.0000      0.0000     80.2871
  1306.3000      0.0000      0.0000      0.0000      0.0000      0.0000     85.0457
  1306.4000      0.0000      0.0000      0.0000      0.0000      0.0000     94.2822
  1306.5000      0.0000      0.0000      0.0000      0.0000      0.0000    102.3831
  1306.6000      0.0000      0.0000      0.0000      0.0000      0.0000     99.6341
  1306.7000      0.0000      0.0000      0.0000      0.0000      0.0000     88.9906
  1306.8000      0.0000      0.0000      0.0000      0.0000      0.0000     83.7970
  1306.9000      0.0000      0.0000      0.0000      0.0000      0.0000     89.9307
  1307.0000      0.0000      0.0000      0.0000      0.0000      0.0000     98.2023
  1307.1000      0.0000      0.0000      0.0000      0.0000      0.0000     99.9478
  1307.2000      0.0000      0.0000      0.0000      0.0000      0.0000     98.0344
  1307.3000      0.0000      0.0000      0.0000      0.0000      0.0000     99.6642
  1307.4000      0.0000      0.0000      0.0000      0.0000      0.0000    101.8062
  1307.5000      0.0000      0.0000      0.0000      0.0000      0.0000     97.4882
  1307.6000      0.0000      0.0000      0.0000      0.0000      0.0000     91.0197
  1307.7000      0.0000      0.0000      0.0000      0.0000      0.0000     94.9487
  1307.8000      0.0000      0.0000      0.0000      0.0000      0.0000    109.4728
  1307.9000      0.0000      0.0000      0.0000      0.0000      0.0000    118.4082
  1308.0000      0.0000      0.0000      0.0000      0.0000      0.0000    112.3510
  1308.1000      0.0000      0.0000      0.0000      0.0000      0.0000     96.8037
  1308.2000      0.0000      0.0000      0.0000      0.0000      0.0000     86.5872
  1308.3000      0.0000      0.0000      0.0000      0.0000      0.0000     92.5370
  1308.4000      0.0000      0.0000      0.0000      0.0000      0.0000    106.4590
  1308.5000      0.0000      0.0000      0.0000      0.0000      0.0000    115.5521
  1308.6000      0.0000      0.0000      0.0000      0.0000      0.0000    117.9492
  1308.7000      0.0000      0.0000      0.0000      0.0000      0.0000    112.4495
  1308.8000      0.0000      0.0000      0.0000      0.0000      0.0000    101.7140
  1308.9000      0.0000      0.0000      0.0000      0.0000      0.0000     97.1330
  1309.0000      0.0000      0.0000      0.0000      0.0000      0.0000    103.4666
  1309.1000      0.0000      0.0000      0.0000      0.0000      0.0000    113.5755
  1309.2000      0.0000      0.0000      0.0000      0.0000      0.0000    121.6815
  1309.3000      0.0000      0.0000      0.0000      0.0000      0.0000    124.9385
  1309.4000      0.0000      0.0000      0.0000      0.0000      0.0000    121.8133
  1309.5000      0.0000      0.0000      0.0000      0.0000      0.0000    120.6007
  1309.6000      0.0000      0.0000      0.0000      0.0000      0.0000    125.3095
  1309.7000      0.0000      0.0000      0.0000      0.0000      0.0000    128.2137
  1309.8000      0.0000      0.0000      0.0000      0.0000      0.0000    122.7209
  1309.9000      0.0000      0.0000      0.0000      0.0000      0.0000    109.3243
  1310.0000      0.0000      0.0000      0.0000      0.0000      0.0000    100.2010
  1310.1000      0.0000      0.0000      0.0000      0.0000      0.0000    102.1231
  1310.2000      0.0000      0.0000      0.0000      0.0000      0.0000    111.3266
  1310.3000      0.0000      0.0000      0.0000      0.0000      0.0000    121.3018
  1310.4000      0.0000      0.0000      0.0000      0.0000      0.0000    122.3647
  1310.5000      0.0000      0.0000      0.0000      0.0000      0.0000    114.0505
  1310.6000      0.0000      0.0000      0.0000      0.0000      0.0000    111.9676
  1310.7000      0.0000      0.0000      0.0000      0.0000      0.0000    123.5919
  1310.8000      0.0000      0.0000      0.0000      0.0000      0.0000    133.8317
  1310.9000      0.0000      0.0000      0.0000      0.0000      0.0000    125.6744
  1311.0000      0.0000      0.0000      0.0000      0.0000      0.0000    103.4226
  1311.1000      0.0000      0.0000      0.0000      0.0000      0.0000     88.9347
