~Version Information
VERS.                      2.0: CWLS Log ASCII Standard - VERSION 2.0
WRAP.                       NO: One line per depth step
~Well Information Block
STRT.FT               430.0000: 
STOP.FT              2827.0000: 
STEP.FT                 0.1000: 
NULL.                -999.2500: 
COMP.          Pioneer Natural Resources: COMPANY
WELL.           Ei-ei-oh 31-24: WELL
FLD.           Purgatoire River: FIELD
LOC.           235' FNL & 2001' FEL--: LOCATION
PROV.                 Colorado: PROVINCE
CNTY.               Las Animas: COUNTRY
SRVC.                Patterson: SERVICE COMPANY
DATE.          Thu Jun 16 07:14:41 2005: LOG DATE
UWI.           05 071 08403 00: UNIQUE WELL ID
~Curve Information Block
DEPT.FT            0 000 00 00: Depth
DCAL.in                       : CDL Caliper
DPOR.pu                       : CDL Density Porosity
NPOR.pu                       : Neutron Porosity
RHOB.g/cc                     : CDL Bulk Density
RHOC.g/cc                     : CDL Density Correction
GR.GAPI                       : Gamma Ray
~Parameter Information Block
~A  Depth       DCAL        DPOR        NPOR        RHOB        RHOC         GR     
# ...
  1793.2000      7.9378      5.4255     28.0106      2.5605      0.0367    148.7843
  1793.3000      7.9332      6.7721     27.7591      2.5383     -0.0096    146.4029
  1793.4000      7.9332      7.3642     27.8765      2.5285     -0.0051    150.7872
  1793.5000      7.9323      7.8539     28.2476      2.5204     -0.0229    161.1095
  1793.6000      7.9323      8.6722     28.5378      2.5069     -0.0056    168.7955
  1793.7000      7.9323      9.0344     28.0987      2.5009      0.0014    168.0373
  1793.8000      7.9313      8.2093     26.9609      2.5145      0.0520    162.3204
  1793.9000      7.9313      6.7990     26.0801      2.5378      0.0988    159.7844
  1794.0000      7.9314      5.7231     26.2598      2.5556      0.0823    161.4435
  1794.1000      7.9314      5.5054     27.4020      2.5592      0.1270    161.2724
  1794.2000      7.9314      6.6021     28.5034      2.5411      0.0895    157.1526
  1794.3000      7.9277      8.3689     28.9925      2.5119      0.0298    156.6018
  1794.4000      7.9277      9.2252     29.0309      2.4978      0.0157    164.4503
  1794.5000      7.9183      8.9149     28.8357      2.5029      0.0717    174.4347
  1794.6000      7.9183      8.3719     28.4210      2.5119      0.0374    180.2379
  1794.7000      7.9183      8.0710     27.7652      2.5168      0.0693    179.9217
  1794.8000      7.9110      8.0175     27.2053      2.5177      0.0417    175.3118
  1794.9000      7.9110      7.7379     27.1785      2.5223      0.0569    170.7823
  1795.0000      7.9079      6.6385     27.6985      2.5405      0.0637    168.1420
  1795.1000      7.9079      5.0328     28.2442      2.5670      0.1088    164.5524
  1795.2000      7.9079      3.8856     28.2801      2.5859      0.0883    157.6707
  1795.3000      7.9075      3.2064     28.1735      2.5971      0.0721    150.4961
  1795.4000      7.9075      2.0447     28.5048      2.6163      0.0855    144.8102
  1795.5000      7.9074      0.2259     28.9049      2.6463      0.1295    137.9835
  1795.6000      7.9074     -1.4822     28.9705      2.6745      0.1004    129.8170
  1795.7000      7.9074     -2.7195     28.9912      2.6949      0.1447    123.7203
  1795.8000      7.9079     -3.6581     29.1014      2.7104      0.0936    121.8114
  1795.9000      7.9079     -4.6488     28.9340      2.7267      0.1080    124.6372
  1796.0000      7.9086     -5.2645     28.2996      2.7369      0.1673    129.8334
  1796.1000      7.9086     -4.9444     27.3706      2.7316      0.0965    133.4417
  1796.2000      7.9086     -4.0822     26.5080      2.7174      0.0701    133.7660
  1796.3000      7.9083     -2.8774     26.1509      2.6975      0.0185    130.4326
  1796.4000      7.9083     -1.4019     26.1940      2.6731      0.0364    125.0984
  1796.5000      7.9104      0.0325     26.1165      2.6495      0.0083    122.9199
  1796.6000      7.9104      1.0247     25.6187      2.6331      0.0188    128.3727
  1796.7000      7.9104      1.2804     24.6288      2.6289      0.0130    136.6430
  1796.8000      7.9118      1.1701     23.3872      2.6307      0.0809    140.0547
  1796.9000      7.9118      1.0933     22.3226      2.6320      0.0504    135.4523
  1797.0000      7.9089      0.4598     21.6180      2.6424      0.1047    126.1941
  1797.1000      7.9089     -1.3156     21.5083      2.6717      0.0729    119.1304
  1797.2000      7.9089     -3.7882     22.2443      2.7125      0.1275    117.1015
  1797.3000      7.9055     -5.3906     23.3263      2.7389      0.1379    118.9095
  1797.4000      7.9055     -5.6267     23.9731      2.7428      0.0911    117.9541
  1797.5000      7.9056     -5.7929     24.0199      2.7456      0.1157    109.4197
  1797.6000      7.9056     -5.9283     23.8804      2.7478      0.1680    101.0554
  1797.7000      7.9056     -4.5648     24.0451      2.7253      0.1005    100.5010
  1797.8000      7.9074     -1.8431     24.7130      2.6804      0.0117    103.8565
  1797.9000      7.9074      0.6122     25.9238      2.6399      0.0153    106.2395
  1798.0000      7.9084      2.2712     27.1353      2.6125      0.0336    107.4814
  1798.1000      7.9084      3.8142     27.7214      2.5871      0.0288    108.4167
  1798.2000      7.9084      5.6992     28.3597      2.5560      0.0303    108.3342
  1798.3000      7.9108      7.6631     29.5011      2.5236     -0.0095    110.1827
  1798.4000      7.9108      9.3592     30.2507      2.4956      0.0100    119.6578
  1798.5000      7.9162     10.5579     30.2265      2.4758     -0.0440    131.6017
  1798.6000      7.9162     10.8631     30.1452      2.4708      0.0111    137.3212
  1798.7000      7.9162     10.9392     30.5440      2.4695      0.0686    139.6873
  1798.8000      7.9239     11.8285     31.0954      2.4548      0.0400    144.6146
  1798.9000      7.9239     12.9019     31.2410      2.4371      0.0479    150.2228
  1799.0000      7.9274     13.0284     31.1385      2.4350      0.0527    151.4768
  1799.1000      7.9274     12.1060     31.1990      2.4503      0.0408    148.4819
  1799.2000      7.9274     11.0327     31.3376      2.4680      0.0896    142.0474
  1799.3000      7.9171     10.7473     31.1023      2.4727      0.0475    133.1039
  1799.4000      7.9171     10.9686     30.1150      2.4690      0.0599    127.2638
  1799.5000      7.8974     11.1322     28.6971      2.4663      0.0738    126.4534
  1799.6000      7.8974     10.9131     27.7673      2.4699      0.0553    127.9302
  1799.7000      7.8974      9.5176     27.5927      2.4930      0.0603    131.9031
  1799.8000      7.8843      6.7468     27.5125      2.5387      0.1078    136.4663
  1799.9000      7.8843      3.7927     27.3032      2.5874      0.1227    134.7081
  1800.0000      7.8799      2.0485     27.3355      2.6162      0.1730    127.4500
  1800.1000      7.8799      2.0387     27.4896      2.6164      0.1141    122.8164
  1800.2000      7.8799      3.4681     27.3859      2.5928      0.0829    122.0305
  1800.3000      7.8791      5.5096     26.9699      2.5591      0.0513    123.5945
  1800.4000      7.8791      6.6045     26.4362      2.5410     -0.0079    130.5758
  1800.5000      7.8794      5.9077     25.9175      2.5525      0.0472    137.3406
  1800.6000      7.8794      4.4007     25.8365      2.5774      0.0513    137.4791
  1800.7000      7.8794      3.1989     26.6394      2.5972      0.0759    135.2941
  1800.8000      7.8781      2.4721     27.7587      2.6092      0.0850    135.3317
  1800.9000      7.8781      2.0113     28.4067      2.6168      0.0669    138.2988
  1801.0000      7.8774      2.1727     28.7483      2.6142      0.1054    142.7777
  1801.1000      7.8774      3.2012     29.1104      2.5972      0.0307    146.6179
  1801.2000      7.8774      3.7978     29.4444      2.5873      0.0065    147.6425
  1801.3000      7.8782      2.9354     29.6144      2.6016      0.0744    145.7098
  1801.4000      7.8782      1.5366     29.4611      2.6246      0.0522    144.8044
  1801.5000      7.8793      0.8183     28.7239      2.6365      0.0891    144.6809
  1801.6000      7.8793      0.6114     27.6381      2.6399      0.0341    140.4761
  1801.7000      7.8793     -0.0280     26.8962      2.6505      0.0820    133.4132
  1801.8000      7.8810     -1.1715     26.8330      2.6693      0.0503    130.1794
  1801.9000      7.8810     -2.4018     27.1458      2.6896      0.0828    134.4442
  1802.0000      7.8832     -3.5148     27.6374      2.7080      0.0723    141.3971
  1802.1000      7.8832     -3.9008     28.2348      2.7144      0.0876    145.1765
  1802.2000      7.8832     -2.5777     28.8306      2.6925      0.0656    146.8064
  1802.3000      7.8835     -0.0924     29.2748      2.6515     -0.0016    146.7357
  1802.4000      7.8835      1.5189     29.1017      2.6249     -0.0291    140.8156
  1802.5000      7.8823      1.7538     28.3104      2.6211      0.0060    128.4806
  1802.6000      7.8823      2.2749     27.6971      2.6125      0.0349    116.0808
  1802.7000      7.8823      4.1006     27.5204      2.5823     -0.0449    110.3006
