~Version Information
VERS.                      2.0: CWLS Log ASCII Standard - VERSION 2.0
WRAP.                       NO: One line per depth step
~Well Information Block
STRT.FT               550.0000: 
STOP.FT              1577.7000: 
STEP.FT                 0.1000: 
NULL.                -999.2500: 
COMP.          Pioneer Natural Resources: COMPANY
WELL.          Kristin 22-23 Tr: WELL
FLD.           Purgatoire River: FIELD
LOC.           2273' FNL & 2029' FWL: LOCATION
PROV.                 Colorado: PROVINCE
CNTY.               Las Animas: COUNTRY
SRVC.                Patterson: SERVICE COMPANY
DATE.          Fri Jan 21 06:58:50 2005: LOG DATE
UWI.           05 071 08259 00: UNIQUE WELL ID
~Curve Information Block
DEPT.FT            0 000 00 00: Depth
DCAL.in                       : CDL Caliper
RHOB.g/cc                     : CDL Bulk Density
RHOC.g/cc                     : CDL Density Correction
DPOR.pu                       : CDL Density Porosity
NPOR.pu                       : Neutron Porosity
GR.GAPI                       : Gamma Ray
~Parameter Information Block
~A  Depth       DCAL        RHOB        RHOC        DPOR        NPOR         GR     
# ...
   818.8000      8.2160      2.5049      0.0168      8.7934     25.8814    140.6440
   818.9000      8.2160      2.5107      0.0292      8.4405     25.6678    140.2367
   819.0000      8.2324      2.5247      0.0457      7.5956     25.4535    137.9924
   819.1000      8.2324      2.5396      0.0703      6.6939     25.3084    139.6311
   819.2000      8.2324      2.5514      0.0693      5.9781     25.2281    140.1072
   819.3000      8.2289      2.5577      0.1053      5.5930     25.3909    135.2248
   819.4000      8.2289      2.5582      0.0498      5.5663     25.9533    130.8976
   819.5000      8.2175      2.5581      0.0624      5.5712     26.6259    133.9365
   819.6000      8.2175      2.5579      0.0864      5.5795     27.1022    139.9867
   819.7000      8.2175      2.5539      0.0632      5.8257     27.3281    139.5641
   819.8000      8.2114      2.5478      0.0550      6.1948     27.4049    133.9321
   819.9000      8.2114      2.5409      0.0448      6.6137     27.5164    130.9544
   820.0000      8.2110      2.5346      0.0443      6.9960     27.8335    131.9967
   820.1000      8.2110      2.5419      0.0182      6.5542     28.1302    135.6482
   820.2000      8.2110      2.5649      0.0915      5.1572     28.3825    142.8963
   820.3000      8.2114      2.5753      0.0915      4.5263     28.7025    149.5548
   820.4000      8.2114      2.5530      0.0887      5.8773     28.7871    149.4743
   820.5000      8.2132      2.5115      0.0505      8.3920     28.5187    143.9115
   820.6000      8.2132      2.4758      0.0410     10.5603     28.5068    138.7082
   820.7000      8.2132      2.4635      0.0593     11.3056     29.0827    139.0896
   820.8000      8.2146      2.4757      0.0919     10.5665     29.4025    145.9811
   820.9000      8.2146      2.4954      0.0842      9.3702     28.8325    153.3557
   821.0000      8.2134      2.5046      0.1104      8.8127     28.0903    156.4873
   821.1000      8.2134      2.4991      0.1030      9.1432     28.0367    154.5792
   821.2000      8.2134      2.4864      0.0988      9.9148     28.6467    149.4454
   821.3000      8.2150      2.4693      0.0875     10.9487     29.5292    146.5527
   821.4000      8.2150      2.4391      0.1045     12.7838     30.2760    148.6995
   821.5000      8.2275      2.3874      0.0977     15.9163     30.7038    151.2938
   821.6000      8.2275      2.3234      0.0438     19.7917     31.2438    147.8399
   821.7000      8.2275      2.2672      0.0493     23.1990     32.1201    141.4615
   821.8000      8.2476      2.2281      0.0478     25.5685     32.8908    139.3676
   821.9000      8.2476      2.2022      0.0513     27.1423     33.1590    139.4372
   822.0000      8.2596      2.1825      0.0534     28.3306     32.9915    137.6886
   822.1000      8.2596      2.1600      0.0787     29.6997     32.8688    137.2789
   822.2000      8.2596      2.1276      0.0410     31.6590     33.3464    141.0157
   822.3000      8.2630      2.0946      0.0235     33.6577     34.2562    142.8097
   822.4000      8.2630      2.0692      0.0708     35.2000     34.8217    139.6163
   822.5000      8.2657      2.0429      0.0639     36.7916     34.7358    136.6382
   822.6000      8.2657      2.0019      0.0684     39.2788     34.5789    136.3994
   822.7000      8.2657      1.9341      0.0535     43.3856     34.9016    136.9312
   822.8000      8.2744      1.8459      0.0022     48.7331     35.4213    134.4898
   822.9000      8.2744      1.7690     -0.0237     53.3923     35.5912    125.9936
   823.0000      8.2931      1.7295     -0.0048     55.7863     35.2370    113.6759
   823.1000      8.2931      1.7215      0.0265     56.2737     34.5713    103.5267
   823.2000      8.2931      1.7291      0.0404     55.8104     34.1545     98.5933
   823.3000      8.3108      1.7536      0.0387     54.3259     34.2201     96.0146
   823.4000      8.3108      1.8027      0.0909     51.3533     34.0880     91.5858
   823.5000      8.3124      1.8755      0.1391     46.9410     33.3137     87.3030
   823.6000      8.3124      1.9698      0.1779     41.2262     32.4242     88.3565
   823.7000      8.3124      2.0753      0.2845     34.8303     32.0558     94.2854
   823.8000      8.2659      2.1628      0.2972     29.5284     32.2719    100.8591
   823.9000      8.2659      2.2096      0.2586     26.6927     32.6678    105.5765
   824.0000      8.1737      2.2253      0.1721     25.7388     32.7356    107.1520
   824.1000      8.1737      2.2382      0.1252     24.9548     32.3608    105.3605
   824.2000      8.1737      2.2585      0.1449     23.7289     32.0638    101.0398
   824.3000      8.1139      2.2742      0.1126     22.7780     31.9099     98.1598
   824.4000      8.1139      2.2854      0.0503     22.0942     31.6404     99.1656
   824.5000      8.0985      2.3036      0.0807     20.9951     31.3781    100.9223
   824.6000      8.0985      2.3283      0.1051     19.4973     31.1294    102.0519
   824.7000      8.0985      2.3543      0.1393     17.9193     31.0566    104.9417
   824.8000      8.0973      2.3785      0.1303     16.4529     31.0191    108.7362
   824.9000      8.0973      2.3971      0.1551     15.3246     30.6725    111.3237
   825.0000      8.0981      2.4093      0.1402     14.5854     30.3742    113.6951
   825.1000      8.0981      2.4207      0.1028     13.8986     30.5378    115.3197
   825.2000      8.0981      2.4325      0.1388     13.1814     30.6748    115.6859
   825.3000      8.0938      2.4362      0.1193     12.9581     30.0954    114.8003
   825.4000      8.0938      2.4367      0.0898     12.9293     29.3635    111.9653
   825.5000      8.0778      2.4513      0.1315     12.0438     29.1710    110.7887
   825.6000      8.0778      2.4821      0.1222     10.1766     29.1047    115.3309
   825.7000      8.0778      2.5107      0.1750      8.4424     28.7315    121.0357
   825.8000      8.0458      2.5153      0.1328      8.1655     28.3698    122.6496
   825.9000      8.0458      2.5006      0.0864      9.0522     28.5012    122.3643
   826.0000      8.0105      2.4917      0.0996      9.5966     28.9443    122.3169
   826.1000      8.0105      2.4995      0.0882      9.1207     29.0657    122.0556
   826.2000      8.0105      2.5183      0.1017      7.9830     28.9089    121.2167
   826.3000      7.9819      2.5363      0.1104      6.8890     28.8447    120.4324
   826.4000      7.9819      2.5406      0.1463      6.6328     28.6920    119.8974
   826.5000      7.9579      2.5289      0.0826      7.3392     28.5519    118.2126
   826.6000      7.9579      2.5189      0.0951      7.9425     28.7227    119.4144
   826.7000      7.9579      2.5192      0.0964      7.9243     29.0502    125.7592
   826.8000      7.9448      2.5183      0.0939      7.9807     29.2524    131.7753
   826.9000      7.9448      2.5133      0.0620      8.2830     29.3009    134.1135
   827.0000      7.9415      2.5127      0.0686      8.3203     29.6070    133.7927
   827.1000      7.9415      2.5163      0.0505      8.1041     30.0214    132.7116
   827.2000      7.9415      2.5161      0.0725      8.1166     29.7161    132.4497
   827.3000      7.9401      2.5075      0.0785      8.6366     28.8662    132.5888
   827.4000      7.9401      2.4979      0.0006      9.2169     28.4823    131.6030
   827.5000      7.9401      2.4953      0.0719      9.3765     28.9375    129.1255
   827.6000      7.9401      2.4934      0.0761      9.4909     29.4096    124.7590
   827.7000      7.9401      2.4930      0.0584      9.5125     28.9029    118.6732
   827.8000      7.9407      2.5028      0.0945      8.9202     27.8979    115.6543
   827.9000      7.9407      2.5162      0.1024      8.1067     27.2975    118.5732
   828.0000      7.9401      2.5213      0.0681      7.8000     26.9463    121.4214
   828.1000      7.9401      2.5184      0.1029      7.9787     26.2589    120.2428
   828.2000      7.9401      2.5194      0.0483      7.9135     25.6065    119.5077
   828.3000      7.9395      2.5347      0.1169      6.9888     25.5615    122.6261
