~Version Information
 VERS.                                  2.0 : CWLS LAS VERSION
 WRAP.                                   NO : WRAPING MODE
 SWARE .                 MController 2.5.0J : SOFTWARE VERSION
~Well Information
 WELL.                        Rancher 12-35 : WELL
 COMP.        Pioneer Natural Resources Inc : COMPANY
 FLD.                      PURGATOIRE RIVER : FIELD
 LOC.                    SW/NW 35 T32S R67W : LOCATION
 DATE.                             10/11/04 : DATE(S) LOGGED
 SRVC.       BLANCO GEOLOGICAL SERVICES LLC : SERVICE COMPANY
 STAT.                             COLORADO : STATE
 CNTY.                           LAS ANIMAS : COUNTY
 CTRY.                                  USA : COUNTRY
 API.                       05-071-08179-00 : API NUMBER
 STRT.FT                             449.00 : START DEPTH
 STOP.FT                            2520.00 : STOP DEPTH
 STEP.FT                               1.00 : DEPTH INCREMENT
 NULL.                                -9999 : NULL VALUE
~Curve information
 DEPTH.FT                                   :
 ROP.MIN/FT                                 :
 GAS.UNITS                                  :
~ASCII Log data
# ...
      1249.0         0.17       1505.8 
      1250.0         0.17       1449.9 
      1251.0         0.20       1408.1 
      1252.0         0.20       1394.6 
      1253.0         0.20       1387.2 
      1254.0         0.20       1375.1 
      1255.0         0.20       1354.9 
      1256.0         0.17       1332.7 
      1257.0         0.20       1297.3 
      1258.0         0.20       1267.0 
      1259.0         0.17       1243.4 
      1260.0         0.27       6760.3 
      1261.0         0.17       7124.2 
      1262.0         0.23       7152.5 
      1263.0         0.20       6249.9 
      1264.0         0.17       5204.5 
      1265.0         0.27       3806.6 
      1266.0         0.23       3074.8 
      1267.0         0.20       2619.0 
      1268.0         0.20       2257.8 
      1269.0         0.17       1999.7 
      1270.0         0.20       1779.1 
      1271.0         0.30       1560.7 
      1272.0         0.17       1488.0 
      1273.0         0.20       1451.9 
      1274.0         0.22       1441.8 
      1275.0         0.17       1435.8 
      1276.0         0.17       1426.0 
      1277.0         0.13       1407.1 
      1278.0         0.20       1363.7 
      1279.0         0.23       1327.3 
      1280.0         0.17       1310.8 
      1281.0         0.17       1297.3 
      1282.0         0.17       1280.8 
      1283.0         0.17       1262.9 
      1284.0         0.23       1236.3 
      1285.0         0.17       1218.4 
      1286.0         0.20       1201.9 
      1287.0         0.17       1192.5 
      1288.0         0.20       1189.5 
      1289.0         0.13       1189.5 
      1290.0         0.27       4623.6 
      1291.0         0.17       3833.2 
      1292.0         0.10       3454.9 
      1293.0         0.17       3067.8 
      1294.0         0.23       2669.5 
      1295.0         0.30       2287.1 
      1296.0         0.23       2035.8 
      1297.0         0.17       1870.7 
      1298.0         0.17       1746.4 
      1299.0         0.17       1663.2 
      1300.0         0.13       1614.3 
      1301.0         0.10       1587.7 
      1302.0         0.10       1566.8 
      1303.0         0.10       1549.6 
      1304.0         0.10       1532.8 
      1305.0         0.07       1521.0 
      1306.0         0.15       1496.1 
      1307.0         0.13       1467.8 
      1308.0         0.13       1432.7 
      1309.0         0.17       1388.6 
      1310.0         0.13       1353.9 
      1311.0         0.13       1315.8 
      1312.0         0.13       1273.4 
      1313.0         0.10       1246.4 
      1314.0         0.13       1238.0 
      1315.0         0.10       1252.8 
      1316.0         0.13       1291.9 
      1317.0         0.13       1342.8 
      1318.0         0.20       1408.1 
      1319.0         0.27       1476.2 
      1320.0         0.30       7038.6 
      1321.0         0.23       7727.3 
      1322.0         0.17       7952.0 
      1323.0         0.28       7471.9 
      1324.0         0.37       4940.0 
      1325.0         0.33       3611.9 
      1326.0         0.37       2691.4 
      1327.0         0.23       2305.3 
      1328.0         0.30       1968.4 
      1329.0         0.20       1824.9 
      1330.0         0.20       1720.4 
      1331.0         0.17       1658.8 
      1332.0         0.17       1618.0 
      1333.0         0.17       1590.4 
      1334.0         0.17       1574.2 
      1335.0         0.17       1566.1 
      1336.0         0.13       1553.7 
      1337.0         0.12       1539.2 
      1338.0         0.13       1519.6 
      1339.0         0.13       1504.1 
      1340.0         0.10       1496.4 
      1341.0         0.07       1490.7 
      1342.0         0.13       1476.2 
      1343.0         0.10       1464.4 
      1344.0         0.13       1446.2 
      1345.0         0.17       1429.4 
      1346.0         0.17       1409.1 
      1347.0         0.17       1388.6 
      1348.0         0.17       1366.0 
      1349.0         0.17       1344.4 
      1350.0         0.17       2085.3 
      1351.0         0.20       2461.3 
      1352.0         0.23       2862.9 
      1353.0         0.35       3267.6 
      1354.0         0.30       3286.4 
      1355.0         0.27       3055.3 
      1356.0         0.23       2911.8 
      1357.0         0.10       2868.0 
      1358.0         0.27       2730.2 
      1359.0         0.27       2522.6 
      1360.0         0.20       2337.0 
      1361.0         0.20       2173.6 
      1362.0         0.17       2039.5 
      1363.0         0.20       1891.6 
      1364.0         0.20       1762.6 
      1365.0         0.17       1668.9 
      1366.0         0.17       1606.6 
      1367.0         0.20       1574.2 
      1368.0         0.17       1565.5 
      1369.0         0.13       1560.7 
      1370.0         0.18       1553.3 
      1371.0         0.17       1539.5 
      1372.0         0.13       1523.3 
      1373.0         0.17       1504.5 
      1374.0         0.17       1482.2 
      1375.0         0.13       1463.7 
      1376.0         0.17       1438.1 
      1377.0         0.17       1412.8 
      1378.0         0.17       1390.6 
      1379.0         0.13       1371.1 
      1380.0         0.17       1212.0 
      1381.0         0.27       1006.9 
      1382.0         0.28        881.9 
      1383.0         0.27        999.4 
      1384.0         0.27       1317.8 
      1385.0         0.27       1769.6 
      1386.0         0.27       2248.1 
      1387.0         0.27       2679.6 
      1388.0         0.30       2952.5 
      1389.0         0.27       2932.3 
      1390.0         0.27       2764.9 
      1391.0         0.40       2352.5 
      1392.0         0.27       2214.7 
      1393.0         0.25       2099.8 
      1394.0         0.27       1854.5 
      1395.0         0.27       1614.7 
      1396.0         0.27       1449.9 
      1397.0         0.27       1433.7 
      1398.0         0.27       1545.6 
      1399.0         0.40       1698.9 
      1400.0         0.27       1712.7 
      1401.0         0.27       1668.9 
      1402.0         0.27       1564.1 
      1403.0         0.27       1448.2 
      1404.0         0.27       1421.6 
      1405.0         0.28       1426.0 
      1406.0         0.27       1428.7 
      1407.0         0.27       1416.9 
      1408.0         0.27       1411.8 
      1409.0         0.27       1414.2 
      1410.0         0.27       2902.0 
      1411.0         0.27       3107.5 
      1412.0         0.23       3006.8 
      1413.0         0.23       2737.3 
      1414.0         0.27       2568.8 
      1415.0         0.20       2487.6 
      1416.0         0.20       2407.8 
      1417.0         0.17       2304.0 
      1418.0         0.20       2136.9 
      1419.0         0.17       1998.4 
      1420.0         0.17       1879.8 
      1421.0         0.17       1785.5 
      1422.0         0.17       1711.0 
      1423.0         0.18       1644.3 
      1424.0         0.17       1588.4 
      1425.0         0.17       1550.6 
      1426.0         0.17       1530.1 
      1427.0         0.13       1519.0 
      1428.0         0.13       1509.2 
      1429.0         0.13       1498.8 
      1430.0         0.17       1488.6 
      1431.0         0.27       1461.4 
      1432.0         0.27       1417.2 
      1433.0         0.23       1320.9 
      1434.0         0.17       1253.1 
      1435.0         0.30       1284.8 
      1436.0         0.30       1364.7 
      1437.0         0.33       1408.5 
      1438.0         0.35       1402.1 
      1439.0         0.27       1387.9 
      1440.0         0.27       2925.2 
      1441.0         0.23       3423.9 
      1442.0         0.13       3680.3 
      1443.0         0.13       3865.6 
      1444.0         0.17       3999.7 
      1445.0         0.30       3909.7 
      1446.0         0.27       3657.4 
      1447.0         0.27       3292.8 
      1448.0         0.23       2858.2 
