~Version Information
VERS.                      2.0: CWLS Log ASCII Standard - VERSION 2.0
WRAP.                       NO: One line per depth step
~Well Information Block
STRT.FT                -6.5000: 
STOP.FT              1719.0000: 
STEP.FT                 0.5000: 
NULL.                -999.2500: 
COMP.          Pioneer Natural Resources: COMPANY
WELL.             Tami J 23-18: WELL
FLD.           Purgatorie River: FIELD
LOC.           2250' FSL & 2400' FWL: LOCATION
PROV.                 Colorado: PROVINCE
CNTY.               Las Animas: COUNTRY
SRVC.          Patterson Wireline: SERVICE COMPANY
DATE.          Fri Dec 17 13:50:12 2004: LOG DATE
UWI.           05-071-08073-00: UNIQUE WELL ID
~Curve Information Block
DEPT.FT            0 000 00 00: Depth
CCL.                          : Casing Collar Locator
TT3.usec                      : CBL 3' Travel Time
AMP3.mV                       : CBL 3' Amplitude
GR.GAPI                       : Gamma Ray
~Parameter Information Block
~A  Depth       CCL         TT3         AMP3         GR     
# ...
   194.5000      0.0000    736.3795     10.4637     87.1492
   195.0000      0.0000    744.3646     10.2480     84.5784
   195.5000      0.0000    757.0833      9.8860     86.1634
   196.0000      0.0000    758.8505      9.2344     90.3187
   196.5000      0.0000    749.3148      8.6678     91.9644
   197.0000      0.0000    793.8392      8.2181     92.3236
   197.5000      0.0000    859.6193      7.8459     92.5831
   198.0000     -5.0000    884.6511      7.8365     93.6375
   198.5000      0.0000    909.7805      7.9886     97.4415
   199.0000      0.0000    888.5351      8.5207     97.1465
   199.5000      0.0000    809.4391      9.4905     91.5169
   200.0000      0.0000    779.4645     10.1103     87.4972
   200.5000      0.0000    788.7310     10.3290     86.2491
   201.0000      0.0000    788.5544     10.1780     84.0342
   201.5000      0.0000    803.2579      9.7275     85.1136
   202.0000      0.0000    827.9166      9.2911     89.8739
   202.5000      0.0000    846.7859      9.1144     92.2594
   203.0000      0.0000    886.4987      9.1798     94.9352
   203.5000      0.0000    925.3214      9.1121     97.4970
   204.0000      0.0000    932.4263      8.7297     96.6780
   204.5000      0.0000    924.6181      8.2662     94.1647
   205.0000      0.0000    924.5573      8.0238     92.7756
   205.5000      0.0000    937.4263      8.1402     89.0898
   206.0000      0.0000    962.5452      8.3762     84.7839
   206.5000      0.0000    960.9254      8.5692     82.9021
   207.0000      0.0000    900.9142      8.7645     80.8107
   207.5000      0.0000    835.3101      8.9129     81.3455
   208.0000      0.0000    787.6140      9.0528     82.8169
   208.5000      0.0000    769.9033      9.1712     82.5739
   209.0000      0.0000    784.5427      9.2088     84.3678
   209.5000      0.0000    810.6951      9.2449     84.2065
   210.0000      0.0000    830.7573      9.2697     82.1091
   210.5000      0.0000    837.5460      9.1916     79.0538
   211.0000      0.0000    838.9564      9.0844     73.9971
   211.5000      0.0000    835.8458      9.0024     72.8856
   212.0000      0.0000    816.3643      8.9120     76.3816
   212.5000      0.0000    784.0734      8.8882     78.3203
   213.0000      0.0000    767.0750      8.9176     76.0786
   213.5000      0.0000    765.1336      8.8930     72.2521
   214.0000      0.0000    767.4874      8.8736     72.6312
   214.5000      0.0000    802.1009      9.0350     77.1294
   215.0000      0.0000    863.4167      9.2963     83.4382
   215.5000      0.0000    898.5029      9.2653     89.3526
   216.0000      0.0000    900.7833      8.9027     86.6159
   216.5000      0.0000    893.4157      8.6316     80.5035
   217.0000      0.0000    883.2073      8.6270     75.4261
   217.5000      0.0000    870.9916      8.6681     67.2173
   218.0000      0.0000    857.3119      8.6334     60.8629
   218.5000      0.0000    827.4425      8.4869     55.7989
   219.0000      0.0000    805.6785      8.3799     51.3207
   219.5000      0.0000    811.1563      8.6120     50.4446
   220.0000      0.0000    816.3839      9.2016     50.0255
   220.5000      0.0000    813.0965      9.7227     49.4992
   221.0000      0.0000    806.3487      9.7409     51.9512
   221.5000      0.0000    801.2571      9.4250     60.0470
   222.0000      0.0000    797.2972      9.1332     69.5962
   222.5000      0.0000    783.8970      9.1146     72.1048
   223.0000      0.0000    755.4641      9.4038     70.3424
   223.5000      0.0000    745.6649      9.6923     71.0658
   224.0000      0.0000    767.1796      9.7944     79.9742
   224.5000      0.0000    761.2841      9.8297     89.8959
   225.0000      0.0000    741.7020      9.6902     85.2147
   225.5000      0.0000    757.0165      9.3256     76.6917
   226.0000      0.0000    788.9413      9.0049     77.0760
   226.5000      0.0000    773.7042      8.9182     77.8765
   227.0000      0.0000    713.9549      8.8802     78.9108
   227.5000      0.0000    675.5737      8.6157     84.0730
   228.0000      0.0000    661.1260      8.1265     92.1546
   228.5000      0.0000    648.1859      7.7468     98.9893
   229.0000      0.0000    630.0192      7.7269    102.8407
   229.5000      0.0000    615.1584      7.9683    101.5876
   230.0000      0.0000    635.5644      8.1641     99.4281
   230.5000      0.0000    699.7628      8.2306     99.5313
   231.0000      0.0000    742.1267      8.2071     97.0519
   231.5000      0.0000    736.0530      8.2911     94.9178
   232.0000      0.0000    691.8234      8.4602     96.1905
   232.5000      0.0000    618.8170      8.4759     96.2560
   233.0000      0.0000    545.5861      8.4125     97.4123
   233.5000      0.0000    514.1100      8.4467    100.0273
   234.0000      0.0000    517.4234      8.5254     98.1210
   234.5000      0.0000    527.3314      8.7321     94.4829
   235.0000      0.0000    533.7957      8.9858     90.9027
   235.5000      0.0000    543.4875      9.1037     86.2798
   236.0000      0.0000    544.9826      9.2032     80.3260
   236.5000      0.0000    497.8829      9.3539     70.6456
   237.0000      0.0000    475.6670      9.4205     64.6763
   237.5000      0.0000    549.7070      9.3249     67.4039
   238.0000      0.0000    645.9272      9.1536     75.4228
   238.5000      0.0000    707.2267      8.9793     84.3233
   239.0000      0.0000    707.0860      8.5638     87.2300
   239.5000      0.0000    677.4186      7.6581     84.8989
   240.0000      0.0000    700.9600      6.5314     82.8484
   240.5000      0.0000    785.1956      5.5451     76.0131
   241.0000      4.0778    817.4944      5.1631     68.6333
   241.5000      0.0000    784.3228      5.1744     72.3958
   242.0000      0.0000    759.4189      5.5057     79.1373
   242.5000      0.0000    737.5513      6.7783     86.1391
   243.0000      0.0000    720.2073      8.2603     93.2270
   243.5000      0.0000    718.7672      8.5921     93.2991
   244.0000      0.0000    715.0166      8.2185     90.4770
   244.5000      0.0000    726.4183      7.9201     87.3010
   245.0000      0.0000    764.1791      7.7961     82.6933
   245.5000      0.0000    785.5932      7.6024     79.8243
   246.0000      0.0000    794.2692      7.3682     78.7999
   246.5000      0.0000    800.2844      7.1807     78.9037
   247.0000      0.0000    791.2091      7.0409     79.5391
   247.5000      0.0000    774.8252      7.0114     82.5821
   248.0000      0.0000    784.2017      7.0936     85.7113
   248.5000      0.0000    805.6183      7.2312     86.0358
   249.0000      0.0000    815.5571      7.3895     86.9231
   249.5000      0.0000    822.4562      7.4959     82.7884
   250.0000      0.0000    836.0067      7.5858     78.3107
   250.5000      0.0000    839.5583      7.6298     82.3257
   251.0000      0.0000    834.5770      7.6326     87.0351
   251.5000      0.0000    834.7867      7.8172     89.6146
   252.0000      0.0000    830.4478      8.0197     95.3169
   252.5000      0.0000    828.9732      8.0211    100.3787
   253.0000      0.0000    832.5378      7.9215    105.1088
   253.5000      0.0000    822.5839      7.8421    113.6950
   254.0000      0.0000    801.8620      7.9897    119.1990
   254.5000      0.0000    783.6795      8.3127    122.1786
   255.0000      0.0000    774.5912      8.4521    122.9273
   255.5000      0.0000    775.7407      8.4811    119.8353
   256.0000      0.0000    784.9626      8.6367    118.3492
   256.5000      0.0000    797.5306      8.9543    118.4851
   257.0000      0.0000    804.2587      9.3900    120.6675
   257.5000      0.0000    806.0205      9.7452    117.4912
   258.0000      0.0000    809.8699      9.8894    109.4980
   258.5000      0.0000    818.7555     10.0043    103.2420
   259.0000      0.0000    824.9057     10.1821    103.4562
   259.5000      0.0000    820.2398     10.3362    105.5493
   260.0000      0.0000    813.5205     10.4476    103.2036
   260.5000      0.0000    808.9068     10.3862     96.5969
   261.0000      0.0000    803.1748     10.0676     93.0126
