~Version Information
 VERS.                                  2.0 : CWLS LAS VERSION
 WRAP.                                   NO : WRAPING MODE
 SWARE .                 MController 2.5.0E : SOFTWARE VERSION
~Well Information
 WELL.                          Chase 21-10 : WELL
 COMP.             Evergreen Operating Corp : COMPANY
 FLD.                      Purgatorie River : FIELD
 LOC.                NE/NW Sec 10 t32S R65W : LOCATION
 DATE.                              5/23/04 : DATE(S) LOGGED
 SRVC.       Blanco Geological Services LLC : SERVICE COMPANY
 STAT.                                   CO : STATE
 CNTY.                           Las Animas : COUNTY
 CTRY.                                  USA : COUNTRY
 API.                        05 071 08006 00: API NUMBER
 UWI.                        05 071 08006 00: UNIQUE WELL ID
 STRT.FT                             481.00 : START DEPTH
 STOP.FT                            1525.00 : STOP DEPTH
 STEP.FT                               1.00 : DEPTH INCREMENT
 NULL.                                -9999 : NULL VALUE
~Curve information
 DEPTH.FT                                   :
 ROP.MIN/FT                                 :
 GAS.UNITS                                  :
~ASCII Log data
# ...
     1081.00        0.183        229.6 
     1082.00        0.167        194.9 
     1083.00        0.167        191.0 
     1084.00        0.133        166.0 
     1085.00        0.133        156.9 
     1086.00        0.167        150.3 
     1087.00        0.133        144.9 
     1088.00        0.167        136.2 
     1089.00        0.133        133.3 
     1090.00        0.167        129.9 
     1091.00        0.133        126.9 
     1092.00        0.133        125.0 
     1093.00        0.133        121.8 
     1094.00        0.133        121.8 
     1095.00        0.133        121.0 
     1096.00        0.100        120.1 
     1097.00        0.133        119.7 
     1098.00        0.133        117.4 
     1099.00        0.100        115.1 
     1100.00        0.133        115.1 
     1101.00        0.167        114.9 
     1102.00        0.133        116.8 
     1103.00        0.133        116.8 
     1104.00        0.150        115.8 
     1105.00        0.133        106.2 
     1106.00        1.100        205.9 
     1107.00        0.400        287.7 
     1108.00        0.233        329.9 
     1109.00        0.233        308.7 
     1110.00        0.167        296.5 
     1111.00        0.200        245.3 
     1112.00        0.167        239.4 
     1113.00        0.200        203.1 
     1114.00        0.233        173.3 
     1115.00        0.183        157.0 
     1116.00        0.200        152.4 
     1117.00        0.167        135.6 
     1118.00        0.200        134.2 
     1119.00        0.167        122.6 
     1120.00        0.167        121.7 
     1121.00        0.133        115.9 
     1122.00        0.133        114.5 
     1123.00        0.133        113.2 
     1124.00        0.100        112.3 
     1125.00        0.133        111.5 
     1126.00        0.100        111.5 
     1127.00        0.133        110.6 
     1128.00        0.100        109.7 
     1129.00        0.133        109.3 
     1130.00        0.133        108.1 
     1131.00        0.133        105.8 
     1132.00        0.133        105.8 
     1133.00        0.167        105.3 
     1134.00        0.133        104.5 
     1135.00        0.167        102.5 
     1136.00        1.750        315.5 
     1137.00        0.267        317.0 
     1138.00        0.300        283.0 
     1139.00        0.233        230.6 
     1140.00        0.267        196.6 
     1141.00        0.200        169.7 
     1142.00        0.233        150.2 
     1143.00        0.200        130.3 
     1144.00        0.200        121.2 
     1145.00        0.217        115.4 
     1146.00        0.200        109.0 
     1147.00        0.300        106.1 
     1148.00        0.200         99.1 
     1149.00        0.167         97.8 
     1150.00        0.200         95.9 
     1151.00        0.167         92.5 
     1152.00        0.200         90.8 
     1153.00        0.167         90.0 
     1154.00        0.167         89.2 
     1155.00        0.133         88.6 
     1156.00        0.167         88.3 
     1157.00        0.167         87.9 
     1158.00        0.200         87.2 
     1159.00        0.167         86.3 
     1160.00        0.133         84.6 
     1161.00        0.133         84.6 
     1162.00        0.100         84.6 
     1163.00        0.133         87.6 
     1164.00        0.100         87.6 
     1165.00        0.150         85.3 
     1166.00        1.467        274.6 
     1167.00        0.333        328.4 
     1168.00        0.267        329.3 
     1169.00        0.267        290.5 
     1170.00        0.200        233.7 
     1171.00        0.100        204.4 
     1172.00        0.200        189.7 
     1173.00        0.200        161.7 
     1174.00        0.217        148.9 
     1175.00        0.167        133.8 
     1176.00        0.167        120.5 
     1177.00        0.167        113.9 
     1178.00        0.167        108.7 
     1179.00        0.133        107.5 
     1180.00        0.200        101.6 
     1181.00        0.200         99.0 
     1182.00        0.200         96.8 
     1183.00        0.167         94.5 
     1184.00        0.167         93.5 
     1185.00        0.200         92.8 
     1186.00        0.167         92.1 
     1187.00        0.200         91.2 
     1188.00        0.200         90.0 
     1189.00        0.200         89.9 
     1190.00        0.167         89.9 
     1191.00        0.133         90.4 
     1192.00        0.167         92.9 
     1193.00        0.100         92.9 
     1194.00        0.150        106.6 
     1195.00        0.133        106.6 
     1196.00        1.433        285.0 
     1197.00        0.200        316.3 
     1198.00        0.100        330.9 
     1199.00        0.167        329.4 
     1200.00        0.300        316.2 
     1201.00        0.233        280.5 
     1202.00        0.267        226.8 
     1203.00        0.200        185.7 
     1204.00        0.167        164.1 
     1205.00        0.183        158.3 
     1206.00        0.200        139.9 
     1207.00        0.167        138.0 
     1208.00        0.200        125.1 
     1209.00        0.200        112.5 
     1210.00        0.200        109.0 
     1211.00        0.167        106.3 
     1212.00        0.167        104.7 
     1213.00        0.200        103.8 
     1214.00        0.233        102.7 
     1215.00        0.167        101.2 
     1216.00        0.200        101.1 
     1217.00        0.200        100.2 
     1218.00        0.167         99.9 
     1219.00        0.167         99.4 
     1220.00        0.200         99.4 
     1221.00        0.167         98.5 
     1222.00        0.217         99.1 
     1223.00        0.167         99.1 
     1224.00        0.200         98.9 
     1225.00        0.167         96.8 
     1226.00        1.400        280.6 
     1227.00        0.133        280.6 
     1228.00        0.133        321.9 
     1229.00        0.267        323.4 
     1230.00        0.300        293.6 
     1231.00        0.267        287.2 
     1232.00        0.267        227.4 
     1233.00        0.250        166.6 
     1234.00        0.133        160.0 
     1235.00        0.133        142.4 
     1236.00        0.200        155.2 
     1237.00        0.233        166.0 
     1238.00        0.200        168.8 
     1239.00        0.200        167.6 
     1240.00        0.133        163.9 
     1241.00        0.100        163.9 
     1242.00        0.167        158.1 
     1243.00        0.200        154.3 
     1244.00        0.200        153.2 
     1245.00        0.167        152.4 
     1246.00        0.200        151.3 
     1247.00        0.167        149.0 
     1248.00        0.200        147.1 
     1249.00        0.200        145.9 
     1250.00        0.167        143.5 
     1251.00        0.150        141.8 
     1252.00        0.100        141.8 
     1253.00        0.133        141.3 
     1254.00        0.167        140.1 
     1255.00        0.167        139.4 
     1256.00        1.900        360.1 
     1257.00        0.267        251.9 
     1258.00        0.167        111.8 
     1259.00        0.267         54.0 
     1260.00        0.250        104.5 
     1261.00        0.267        141.7 
     1262.00        0.200        152.4 
     1263.00        0.267        152.2 
     1264.00        0.200        143.1 
     1265.00        0.233        137.9 
     1266.00        0.200        135.4 
     1267.00        0.233        134.8 
     1268.00        0.167        128.6 
     1269.00        0.200        127.7 
     1270.00        0.200        126.8 
     1271.00        0.100        132.6 
     1272.00        0.100        132.6 
     1273.00        0.100        149.7 
     1274.00        0.100        149.7 
     1275.00        0.100        161.0 
     1276.00        0.100        161.0 
     1277.00        0.100        165.0 
     1278.00        0.100        165.0 
     1279.00        0.167        171.4 
     1280.00        0.183        182.7 
