~Version Information
VERS.                      2.0: CWLS Log ASCII Standard - VERSION 2.0
WRAP.                       NO: One line per depth step
~Well Information Block
STRT.FT               898.0000: 
STOP.FT              2360.0000: 
STEP.FT                 0.2500: 
NULL.                -999.2500: 
COMP.          Pioneer Natural Resources: COMPANY
WELL.             Trimax 44-23: WELL
FLD.           Purgatoire River: FIELD
LOC.           527' FSL & 1064' FEL: LOCATION
PROV.                 Colorado: PROVINCE
CNTY.               Las Animas: COUNTRY
SRVC.                Patterson: SERVICE COMPANY
DATE.          Sun Mar 13 04:57:04 2005: LOG DATE
UWI.           05 071 08326 00: UNIQUE WELL ID
~Curve Information Block
DEPT.FT            0 000 00 00: Depth
SN.Ohm-m                      : IEL Short Normal
SP.mV                         : IEL Spontaneous Potential
DIR.Ohm-m                     : IEL Induction Resistivity
GR.GAPI                       : Gamma Ray
~Parameter Information Block
~A  Depth        SN          SP         DIR          GR     
# ...
  2338.5000     20.6118     33.2304     17.6438    100.9145
  2338.7500     20.9541     33.2808     17.7748     95.8982
  2339.0000     21.3300     33.1344     17.9261     89.7318
  2339.2500     21.7334     32.8847     18.0936     86.3996
  2339.5000     22.1387     32.6101     18.2632     82.1170
  2339.7500     22.5049     32.3750     18.4053     79.1302
  2340.0000     22.8223     32.2308     18.4801     72.4280
  2340.2500     23.0797     32.2098     18.4565     65.0791
  2340.5000     23.2076     32.3249     18.3357     48.9974
  2340.7500     23.1490     32.5757     18.1526     36.3283
  2341.0000     22.9258     32.9498     17.9472     18.9379
  2341.2500     22.5788     33.4151     17.7333     10.5434
  2341.5000     22.1047     33.9175     17.4888      3.4211
  2341.7500     21.4930     34.4058     17.1764      1.3584
  2342.0000     20.7994     34.8653     16.7756      0.2588
  2342.2500     20.1389     35.3207     16.2995      0.0702
  2342.5000     19.5895     35.7976     15.7873      0.0063
  2342.7500     19.1248     36.2827     15.2836      0.0000
  2343.0000     18.6653     36.7249     14.8233   -999.2500
  2343.2500     18.1805     37.0655     14.4274   -999.2500
  2343.5000     17.7082     37.2663     14.1060   -999.2500
  2343.7500     17.2891     37.3168     13.8597   -999.2500
  2344.0000     16.9255     37.2248     13.6804   -999.2500
  2344.2500     16.6070     36.9983     13.5530   -999.2500
  2344.5000     16.3293     36.6354     13.4604   -999.2500
  2344.7500     16.0802     36.1304     13.3883   -999.2500
  2345.0000     15.8570     35.4917     13.3262   -999.2500
  2345.2500     15.7132     34.7631     13.2671   -999.2500
  2345.5000     15.7537     34.0505     13.2071   -999.2500
  2345.7500     16.0745     33.5330     13.1483   -999.2500
  2346.0000     16.6815     33.4166     13.0995   -999.2500
  2346.2500     17.4275     33.8296     13.0726   -999.2500
  2346.5000     18.0661     34.7355     13.0769   -999.2500
  2346.7500     18.4169     35.9499     13.1174   -999.2500
  2347.0000     18.4673     37.2432     13.1450   -999.2500
  2347.2500     18.2958     38.4405     13.2725   -999.2500
  2347.5000     17.9590     39.4536     13.4507   -999.2500
  2347.7500     17.5247     40.2592     13.6687   -999.2500
  2348.0000     17.1229     40.8672     13.8930   -999.2500
  2348.2500     16.8530     41.3019     14.0748   -999.2500
  2348.5000     16.6931     41.5939     14.1730   -999.2500
  2348.7500     16.5630     41.7771     14.1750   -999.2500
  2349.0000     16.4326     41.8843     14.1019   -999.2500
  2349.2500     16.3421     41.9419     14.0023   -999.2500
  2349.5000     16.3528     41.9641     13.9523   -999.2500
  2349.7500     16.4924     41.9518     14.0702   -999.2500
  2350.0000     16.7209     41.8992     14.5398   -999.2500
  2350.2500     16.9375     41.8047     15.6405   -999.2500
  2350.5000     17.0286     41.6780     17.9191   -999.2500
  2350.7500     16.9219     41.5364     21.9019   -999.2500
  2351.0000     16.6278     41.3900     28.9021   -999.2500
  2351.2500     16.2307     41.2277     40.9060   -999.2500
  2351.5000     15.8199     41.0196     60.4411   -999.2500
  2351.7500     15.4480     40.7398     88.3661   -999.2500
  2352.0000     15.1651     40.3872    119.4273   -999.2500
  2352.2500     15.0433     39.9848    143.5416   -999.2500
  2352.5000     15.1264     39.5642    156.4898   -999.2500
  2352.7500     15.3833     39.1556    162.4818   -999.2500
  2353.0000     15.7531     38.7856    167.3442   -999.2500
  2353.2500     16.2144     38.4737    175.2887   -999.2500
  2353.5000     16.7656     38.2270 100000.0000   -999.2500
  2353.7500     17.3397     38.0406 100000.0000   -999.2500
  2354.0000     17.7934     37.9067 100000.0000   -999.2500
  2354.2500     18.0090     37.8252 100000.0000   -999.2500
  2354.5000     17.9936     37.8073 100000.0000   -999.2500
  2354.7500     17.8753     37.8627 100000.0000   -999.2500
  2355.0000     17.7992     37.9724 100000.0000   -999.2500
  2355.2500     17.8369     38.0421 100000.0000   -999.2500
  2355.5000     17.9987     37.8306 100000.0000   -999.2500
  2355.7500     18.2967     36.8512 100000.0000   -999.2500
  2356.0000     18.7626     34.3622 100000.0000   -999.2500
  2356.2500     19.3043     29.6951 100000.0000   -999.2500
  2356.5000     19.2984     22.9308 100000.0000   -999.2500
  2356.7500     17.3850     15.2905 100000.0000   -999.2500
  2357.0000     12.5927      8.5609 100000.0000   -999.2500
  2357.2500      6.1633      3.9403 100000.0000   -999.2500
  2357.5000      0.8768      1.4684 100000.0000   -999.2500
  2357.7500     -1.8695      0.4382 100000.0000   -999.2500
  2358.0000     -2.7790      0.1038 100000.0000   -999.2500
  2358.2500     -2.9716      0.0192 100000.0000   -999.2500
  2358.5000     -2.9977      0.0026 100000.0000   -999.2500
  2358.7500   -999.2500   -999.2500 100000.0000   -999.2500
  2359.0000   -999.2500   -999.2500 100000.0000   -999.2500
  2359.2500   -999.2500   -999.2500 100000.0000   -999.2500
  2359.5000   -999.2500   -999.2500 100000.0000   -999.2500
  2359.7500   -999.2500   -999.2500 100000.0000   -999.2500
  2360.0000   -999.2500   -999.2500 100000.0000   -999.2500
