~Version Information
VERS.                      2.0: CWLS Log ASCII Standard - VERSION 2.0
WRAP.                       NO: One line per depth step
~Well Information Block
STRT.FT                -4.0000: 
STOP.FT              2638.2500: 
STEP.FT                 0.2500: 
NULL.                -999.2500: 
COMP.          Petrogulf Corporation: COMPANY
WELL.            Montoya 6-14V: WELL
FLD.           Purgatorie River: FIELD
LOC.           318' FSL & 882' FWL--: LOCATION
PROV.                       CO: PROVINCE
CNTY.               Las Animas: COUNTRY
SRVC.                         : SERVICE COMPANY
DATE.          Mon May 02 08:32:04 2005: LOG DATE
UWI.      005 071 08020: UNIQUE WELL ID
~Curve Information Block
DEPT.FT            0 000 00 00: Depth
AMP3.mV                       : CBL 3' Amplitude
CCL.                          : Casing Collar Locator
GR.GAPI                       : Gamma Ray
TT3.usec                      : CBL 3' Travel Time
~Parameter Information Block
~A  Depth       AMP3        CCL          GR         TT3     
# ...
  2609.0000      2.8375      0.0000     62.4069    703.1308
  2609.2500      2.9681      0.0000     64.0667    705.5819
  2609.5000      3.0841      0.0000     66.6163    702.8260
  2609.7500      3.1632      0.0000     68.9506    696.7014
  2610.0000      3.2000      0.0000     70.0575    690.7952
  2610.2500      3.1690      0.0000     69.7226    687.9296
  2610.5000      3.0323      0.0000     68.9566    688.4080
  2610.7500      2.7943      0.0000     69.4773    690.4549
  2611.0000      2.5261      0.0000     72.3179    692.2295
  2611.2500      2.3191      0.0000     76.7661    693.3549
  2611.5000      2.2187      0.0000     80.8266    694.8959
  2611.7500      2.2066      0.0000     82.7784    698.1819
  2612.0000      2.2314      0.0000     82.1906    703.2018
  2612.2500      2.2489      0.0000     79.7110    707.6578
  2612.5000      2.2407      0.0000     76.4069    708.2740
  2612.7500      2.2101      0.0000     73.3740    703.9432
  2613.0000      2.1671      0.0000     71.4230    697.1415
  2613.2500      2.1272      0.0000     70.7258    691.4307
  2613.5000      2.1124      0.0000     70.7925    688.0556
  2613.7500      2.1382      0.0000     70.8936    685.7800
  2614.0000      2.1935      0.0000     70.6364    683.5901
  2614.2500      2.2442      0.0000     70.3358    682.3753
  2614.5000      2.2599      0.0000     70.8414    683.6182
  2614.7500      2.2333      0.0000     72.7807    687.2871
  2615.0000      2.1744      0.0000     75.8954    691.7764
  2615.2500      2.0955      0.0000     79.2237    695.4412
  2615.5000      2.0066      0.0000     81.9067    697.4106
  2615.7500      1.9182      0.0000     83.8256    697.1700
  2616.0000      1.8395      0.0000     85.5678    694.4206
  2616.2500      1.7758      0.0000     87.7215    689.6345
  2616.5000      1.7329      0.0000     90.1361    684.0249
  2616.7500      1.7210      0.0000     91.9699    678.6179
  2617.0000      1.7462      0.0000     92.4014    673.9024
  2617.2500      1.7957      0.0000     91.1907    670.6760
  2617.5000      1.8409      0.0000     88.8721    670.5191
  2617.7500      1.8584      0.0000     86.7482    674.6439
  2618.0000      1.8423      0.0000     86.3993    682.2660
  2618.2500      1.7986      0.0000     88.7198    690.6185
  2618.5000      1.7378      0.0000     93.3421    696.8491
  2618.7500      1.6771      0.0000     98.9310    699.7605
  2619.0000      1.6409      0.0000    103.8868    699.7657
  2619.2500      1.6539      0.0000    106.9619    697.9134
  2619.5000      1.7331      0.0000    107.7187    695.3988
  2619.7500      1.8812      0.0000    106.5478    693.2418
  2620.0000      2.0901      0.0000    104.1086    691.5980
  2620.2500      2.3520      0.0000    100.8325    689.5506
  2620.5000      2.6647      0.0000     96.9640    686.3078
  2620.7500      3.0196      0.0000     92.6097    682.8232
  2621.0000      3.3896      0.0000     87.5544    681.6898
  2621.2500      3.7373      0.0000     81.5906    684.8634
  2621.5000      4.0359      0.0000     75.5081    691.4318
  2621.7500      4.2848      0.0000     71.5650    697.8123
  2622.0000      4.5047      0.0000     72.3409    700.4183
  2622.2500      4.7166      0.0000     78.6293    698.5566
  2622.5000      4.9307      0.0000     88.3259    694.8458
  2622.7500      5.1560      0.0000     97.5740    692.6738
  2623.0000      5.4069      0.0000    103.1769    693.2822
  2623.2500      5.6851      0.0000    104.0178    695.2367
  2623.5000      5.9579      0.0000    100.7990    696.1057
  2623.7500      6.1711      0.0000     95.1803    694.3386
  2624.0000      6.2861      0.0000     89.0371    690.0419
  2624.2500      6.2948      0.0000     83.5708    684.7238
  2624.5000      6.2028      0.0000     78.4612    680.7443
  2624.7500      6.0198      0.0000     71.8765    680.6513
  2625.0000      5.7745      0.0000     61.7235    685.9276
  2625.2500      5.5168      0.0000     47.5654    695.5045
  2625.5000      5.2842      0.0000     31.6464    705.7191
  2625.7500      5.0743      0.0000     17.6423    712.5720
  2626.0000      4.8636      0.0000      8.0663    714.5174
  2626.2500      4.6441      0.0000      2.9810    712.9509
  2626.5000      4.4323      0.0000      0.8814    709.9639
  2626.7500      4.2463      0.0000      0.2065    705.8820
  2627.0000      4.0771      0.0000      0.0381    699.0495
  2627.2500      3.8837      0.0000      0.0048    687.7894
  2627.5000      3.6216      0.0000      0.0000    672.4236
  2627.7500      3.2848      0.0000   -999.2500    655.8389
  2628.0000      2.9227      0.0000   -999.2500    642.7137
  2628.2500      2.6198      0.0000   -999.2500    637.7423
  2628.5000      2.4489      0.0000   -999.2500    642.9941
  2628.7500      2.4257      0.0000   -999.2500    656.0078
  2629.0000      2.5085      0.0000   -999.2500    670.7442
  2629.2500      2.6463      0.0000   -999.2500    680.7722
  2629.5000      2.8146      0.0000   -999.2500    681.6220
  2629.7500      2.9988      0.0000   -999.2500    670.3716
  2630.0000      3.1659      0.0000   -999.2500    642.4517
  2630.2500      3.2617      0.0000   -999.2500    588.8902
  2630.5000      3.2271      0.0000   -999.2500    500.5952
  2630.7500      3.0298      0.0000   -999.2500    380.3369
  2631.0000      2.7076      0.0000   -999.2500    249.4932
  2631.2500      2.3640      0.0000   -999.2500    137.4420
  2631.5000      2.0986      0.0000   -999.2500     62.2961
  2631.7500      1.9452      0.0000   -999.2500     22.8927
  2632.0000      1.8778      0.0000   -999.2500      6.7479
  2632.2500      1.8551      0.0000   -999.2500      1.5812
  2632.5000      1.8492      0.0000   -999.2500      0.2895
  2632.7500      1.8480      0.0000   -999.2500      0.0373
  2633.0000   -999.2500      0.0000   -999.2500   -999.2500
  2633.2500   -999.2500      0.0000   -999.2500   -999.2500
  2633.5000   -999.2500      0.0000   -999.2500   -999.2500
  2633.7500   -999.2500      0.0000   -999.2500   -999.2500
  2634.0000   -999.2500      0.0000   -999.2500   -999.2500
  2634.2500   -999.2500      0.0000   -999.2500   -999.2500
  2634.5000   -999.2500      0.0000   -999.2500   -999.2500
  2634.7500   -999.2500      0.0000   -999.2500   -999.2500
  2635.0000   -999.2500      0.0000   -999.2500   -999.2500
  2635.2500   -999.2500      0.0000   -999.2500   -999.2500
  2635.5000   -999.2500      0.0000   -999.2500   -999.2500
  2635.7500   -999.2500      0.0000   -999.2500   -999.2500
  2636.0000   -999.2500      0.0000   -999.2500   -999.2500
  2636.2500   -999.2500      0.0000   -999.2500   -999.2500
  2636.5000   -999.2500      0.0000   -999.2500   -999.2500
  2636.7500   -999.2500      0.0000   -999.2500   -999.2500
  2637.0000   -999.2500      0.0000   -999.2500   -999.2500
  2637.2500   -999.2500      0.0000   -999.2500   -999.2500
  2637.5000   -999.2500      0.0000   -999.2500   -999.2500
  2637.7500   -999.2500      0.0000   -999.2500   -999.2500
  2638.0000   -999.2500      0.0000   -999.2500   -999.2500
  2638.2500   -999.2500      0.0000   -999.2500   -999.2500
