~Version Information
VERS.                      2.0: CWLS Log ASCII Standard - VERSION 2.0
WRAP.                       NO: One line per depth step
~Well Information Block
STRT.FT               275.0000: 
STOP.FT              1682.2000: 
STEP.FT                 0.1000: 
NULL.                -999.2500: 
COMP.          Pioneer Natural Resources: COMPANY
WELL.               Elmo 14-21: WELL
FLD.           Purgatoire River: FIELD
LOC.           623' FSL & 450' FWL----: LOCATION
PROV.                 Colorado: PROVINCE
CNTY.               Las Animas: COUNTRY
SRVC.                Patterson: SERVICE COMPANY
DATE.          Wed May 18 08:17:30 2005: LOG DATE
UWI.           05 071 08360 00: UNIQUE WELL ID
~Curve Information Block
DEPT.FT            0 000 00 00: Depth
DCAL.in                       : CDL Caliper
RHOB.g/cc                     : CDL Bulk Density
RHOC.g/cc                     : CDL Density Correction
DPOR.pu                       : CDL Density Porosity
NPOR.pu                       : Neutron Porosity
GR.GAPI                       : Gamma Ray
~Parameter Information Block
~A  Depth       DCAL        RHOB        RHOC        DPOR        NPOR         GR     
# ...
   639.8000      8.0650      2.5799      0.0134      4.2510     24.8291    124.4003
   639.9000      8.0650      2.5802      0.0815      4.2324     24.6344    126.4266
   640.0000      8.0650      2.5662      0.0316      5.0790     24.3559    130.7304
   640.1000      8.0650      2.5453      0.0071      6.3433     24.2160    134.7244
   640.2000      8.0650      2.5373      0.0055      6.8306     24.2407    138.1298
   640.3000      8.0639      2.5426      0.0592      6.5117     24.4596    141.2448
   640.4000      8.0639      2.5499      0.0372      6.0665     24.7167    140.4303
   640.5000      8.0649      2.5526      0.0713      5.9028     24.7325    136.3712
   640.6000      8.0649      2.5451      0.0627      6.3584     24.6123    136.2277
   640.7000      8.0649      2.5386     -0.0200      6.7539     24.6454    143.3582
   640.8000      8.0683      2.5499      0.0353      6.0640     24.8556    149.8300
   640.9000      8.0683      2.5646      0.0541      5.1774     24.9955    146.7643
   641.0000      8.0713      2.5640      0.0483      5.2107     25.0304    138.9304
   641.1000      8.0713      2.5630      0.0048      5.2709     25.3033    132.9883
   641.2000      8.0713      2.5876      0.0127      3.7844     25.9459    128.7849
   641.3000      8.0704      2.6271      0.1072      1.3866     26.5509    125.5852
   641.4000      8.0704      2.6373      0.1221      0.7696     26.7494    123.3218
   641.5000      8.0680      2.6037      0.0552      2.8042     26.9048    122.3395
   641.6000      8.0680      2.5637      0.0027      5.2330     27.5550    122.5969
   641.7000      8.0680      2.5537     -0.0235      5.8349     28.4588    123.6196
   641.8000      8.0660      2.5627      0.0387      5.2901     28.8123    124.9458
   641.9000      8.0660      2.5539     -0.0016      5.8229     28.3623    125.1128
   642.0000      8.0637      2.5251     -0.0374      7.5703     27.5989    124.3475
   642.1000      8.0637      2.5055     -0.0552      8.7599     27.1011    123.9639
   642.2000      8.0637      2.5098     -0.0088      8.4970     27.0341    121.8660
   642.3000      8.0618      2.5234      0.0129      7.6704     27.0844    115.6466
   642.4000      8.0618      2.5285     -0.0114      7.3659     26.9545    109.6013
   642.5000      8.0615      2.5252     -0.0337      7.5641     26.5851    108.6886
   642.6000      8.0615      2.5194      0.0073      7.9122     26.0228    109.2773
   642.7000      8.0615      2.5118      0.0075      8.3747     25.3405    105.8597
   642.8000      8.0628      2.5097     -0.0074      8.5037     24.6812    100.6862
   642.9000      8.0628      2.5198      0.0175      7.8883     24.3048    100.3643
   643.0000      8.0661      2.5313      0.0327      7.1930     24.3436    106.6832
   643.1000      8.0661      2.5329      0.0307      7.0951     24.6335    117.1893
   643.2000      8.0661      2.5308      0.0424      7.2213     24.8419    127.0672
   643.3000      8.0697      2.5338      0.0615      7.0431     24.9655    132.2784
   643.4000      8.0697      2.5397      0.0279      6.6859     25.1002    134.0916
   643.5000      8.0719      2.5433      0.0252      6.4694     25.1392    132.0598
   643.6000      8.0719      2.5368      0.0617      6.8587     25.2351    125.0443
   643.7000      8.0719      2.5150      0.0458      8.1815     25.3378    117.7515
   643.8000      8.0725      2.4983     -0.0189      9.1953     25.2731    113.9988
   643.9000      8.0725      2.5114      0.0371      8.3975     25.3744    111.1538
   644.0000      8.0711      2.5355      0.0746      6.9394     25.8707    108.1102
   644.1000      8.0711      2.5431      0.0771      6.4787     26.3567    111.0727
   644.2000      8.0711      2.5463      0.0465      6.2821     26.2471    120.7690
   644.3000      8.0691      2.5537      0.1163      5.8387     25.6461    126.6914
   644.4000      8.0691      2.5373      0.1349      6.8304     25.2037    125.5291
   644.5000      8.0695      2.4901      0.0361      9.6892     24.9164    122.6486
   644.6000      8.0695      2.4516      0.0177     12.0215     24.4259    119.0936
   644.7000      8.0695      2.4458      0.0465     12.3747     23.9219    114.4169
   644.8000      8.0711      2.4535      0.0711     11.9119     23.6345    111.3094
   644.9000      8.0711      2.4542      0.0175     11.8656     23.4428    113.2194
   645.0000      8.0704      2.4498      0.0382     12.1320     23.3202    117.6573
   645.1000      8.0704      2.4546      0.0081     11.8408     23.2771    118.4979
   645.2000      8.0704      2.4761      0.0799     10.5372     23.2584    118.9525
   645.3000      8.0680      2.5061      0.0892      8.7239     23.2879    124.7358
   645.4000      8.0680      2.5419      0.1015      6.5507     23.4261    131.7424
   645.5000      8.0658      2.5923      0.1158      3.4943     23.6690    134.4833
   645.6000      8.0658      2.6528      0.2143     -0.1714     23.9653    134.4603
   645.7000      8.0658      2.6941      0.2609     -2.6725     24.2678    135.8221
   645.8000      8.0641      2.7013      0.1709     -3.1111     24.6759    136.6524
   645.9000      8.0641      2.6975      0.1209     -2.8762     25.3330    133.0114
   646.0000      8.0640      2.7014      0.1397     -3.1135     26.0972    126.9152
   646.1000      8.0640      2.7010      0.1384     -3.0885     26.6506    122.6679
   646.2000      8.0640      2.6810      0.0841     -1.8782     26.9558    122.1889
   646.3000      8.0638      2.6506      0.0223     -0.0382     26.9904    124.9069
   646.4000      8.0638      2.6268      0.0234      1.4090     26.8482    127.4730
   646.5000      8.0629      2.6114     -0.0149      2.3414     26.8617    126.3633
   646.6000      8.0629      2.6036     -0.0282      2.8093     26.9082    122.8244
   646.7000      8.0629      2.5985      0.0096      3.1188     26.6358    119.1367
   646.8000      8.0629      2.5808      0.0150      4.1917     26.2110    117.4598
   646.9000      8.0629      2.5528     -0.0052      5.8907     25.8871    119.7865
   647.0000      8.0643      2.5375     -0.0057      6.8197     25.6295    124.2981
   647.1000      8.0643      2.5422      0.0188      6.5339     25.3932    126.6667
   647.2000      8.0643      2.5529      0.0317      5.8826     25.2771    126.3402
   647.3000      8.0651      2.5606      0.0410      5.4158     25.1607    127.4345
   647.4000      8.0651      2.5608      0.0536      5.4081     25.0973    131.4457
   647.5000      8.0660      2.5491      0.0430      6.1179     25.6785    137.3242
   647.6000      8.0660      2.5345      0.0204      7.0004     26.5830    142.4368
   647.7000      8.0660      2.5322      0.0384      7.1370     27.0215    140.7915
   647.8000      8.0665      2.5399      0.0359      6.6735     27.0592    134.9989
   647.9000      8.0665      2.5459      0.0319      6.3113     27.0965    133.8535
   648.0000      8.0659      2.5480     -0.0026      6.1790     27.0891    134.8438
   648.1000      8.0659      2.5487      0.0156      6.1407     26.8880    132.9043
   648.2000      8.0659      2.5473      0.0161      6.2259     26.6497    129.4086
   648.3000      8.0668      2.5464     -0.0046      6.2805     26.4911    126.0263
   648.4000      8.0668      2.5527      0.0480      5.8965     26.2799    124.3148
   648.5000      8.0713      2.5666      0.0652      5.0554     25.9603    125.5871
   648.6000      8.0713      2.5797      0.0578      4.2602     25.5177    129.4462
   648.7000      8.0713      2.5854      0.0635      3.9168     25.0988    132.6940
   648.8000      8.0750      2.5846      0.0729      3.9640     24.9220    131.4457
   648.9000      8.0750      2.5819      0.0664      4.1285     24.9230    129.4756
   649.0000      8.0760      2.5789      0.0686      4.3114     24.9062    131.4978
   649.1000      8.0760      2.5741      0.0910      4.5979     24.8609    133.5043
   649.2000      8.0760      2.5719      0.0503      4.7348     24.9004    132.2326
   649.3000      8.0764      2.5784      0.1101      4.3412     25.1269    130.5045
