~Version Information
VERS.                      2.0: CWLS Log ASCII Standard - VERSION 2.0
WRAP.                       NO: One line per depth step
~Well Information Block
STRT.FT              1727.9000: 
STOP.FT              1961.0000: 
STEP.FT                 0.1000: 
NULL.                -999.2500: 
COMP.          Petrogulf Corporation: COMPANY
WELL.              Royal 8-33R: WELL
FLD.           Purgatorie River: FIELD
LOC.           2401' FSL & 2270' FEL: LOCATION
CNTY.               Las Animas: COUNTY
SRVC.                         : SERVICE COMPANY
DATE.          Mon Apr 26 06:57:24 2004: LOG DATE
UWI.           05 071 08041 00: UNIQUE WELL ID
STAT.                 Colorado: STATE
~Curve Information Block
DEPT.FT            0 000 00 00: Depth
DCAL.in                       : CDL Caliper
RHOB.g/cc                     : CDL Bulk Density
RHOC.g/cc                     : CDL Density Correction
DPOR.pu                       : CDL Density Porosity
GR.GAPI                       : Gamma Ray
~Parameter Information Block
~A  Depth       DCAL        RHOB        RHOC        DPOR         GR     
# ...
  1951.9000      7.7745      2.5485      0.1049      6.1507   -999.2500
  1952.0000      7.7828      2.5507      0.0331      6.0154   -999.2500
  1952.1000      7.7828      2.5729      0.1001      4.6719   -999.2500
  1952.2000      7.7828      2.5958      0.1040      3.2843   -999.2500
  1952.3000      7.8147      2.5858      0.0697      3.8912   -999.2500
  1952.4000      7.8147      2.5478      0.0212      6.1910   -999.2500
  1952.5000      7.8233      2.5151      0.0057      8.1743   -999.2500
  1952.6000      7.8233      2.4994      0.0429      9.1269   -999.2500
  1952.7000      7.8233      2.4868     -0.0060      9.8918   -999.2500
  1952.8000      7.8193      2.4824     -0.0381     10.1562   -999.2500
  1952.9000      7.8193      2.4949      0.0878      9.4014   -999.2500
  1953.0000      7.8109      2.5022      0.0521      8.9565   -999.2500
  1953.1000      7.8109      2.5021     -0.0026      8.9616   -999.2500
  1953.2000      7.8109      2.5107      0.1257      8.4412   -999.2500
  1953.3000      7.7841      2.5217      0.1303      7.7773   -999.2500
  1953.4000      7.7841      2.5345      0.0770      6.9993   -999.2500
  1953.5000      7.7484      2.5509      0.1070      6.0073   -999.2500
  1953.6000      7.7484      2.5540      0.0863      5.8211   -999.2500
  1953.7000      7.7484      2.5356      0.1092      6.9308   -999.2500
  1953.8000      7.7433      2.5275      0.0412      7.4248   -999.2500
  1953.9000      7.7433      2.5714      0.0775      4.7617   -999.2500
  1954.0000      7.7524      2.6480      0.1377      0.1195   -999.2500
  1954.1000      7.7524      2.6985      0.1623     -2.9405   -999.2500
  1954.2000      7.7524      2.7017      0.1447     -3.1363   -999.2500
  1954.3000      7.7520      2.6683      0.2323     -1.1087   -999.2500
  1954.4000      7.7520      2.6031      0.1880      2.8425   -999.2500
  1954.5000      7.7678      2.5297      0.0814      7.2885   -999.2500
  1954.6000      7.7678      2.4923     -0.0420      9.5598   -999.2500
  1954.7000      7.7678      2.5028      0.0577      8.9217   -999.2500
  1954.8000      7.7679      2.5287      0.0805      7.3529   -999.2500
  1954.9000      7.7679      2.5465      0.0228      6.2749   -999.2500
  1955.0000      7.7818      2.5680      0.0591      4.9691   -999.2500
  1955.1000      7.7818      2.6029      0.1274      2.8541   -999.2500
  1955.2000      7.7818      2.6359      0.1717      0.8540   -999.2500
  1955.3000      7.7874      2.6515      0.1841     -0.0905   -999.2500
  1955.4000      7.7874      2.6520      0.1380     -0.1194   -999.2500
  1955.5000      7.7796      2.6237      0.1595      1.5951   -999.2500
  1955.6000      7.7796      2.5426      0.1052      6.5120   -999.2500
  1955.7000      7.7796      2.4373     -0.0883     12.8923   -999.2500
  1955.8000      7.7224      2.3734      0.0031     16.7616   -999.2500
  1955.9000      7.7224      2.3802     -0.0287     16.3522   -999.2500
  1956.0000      7.6924      2.4334      0.0475     13.1278   -999.2500
  1956.1000      7.6924      2.4789      0.1056     10.3680   -999.2500
  1956.2000      7.6924      2.5000      0.0345      9.0920   -999.2500
  1956.3000      7.6742      2.5390      0.0999      6.7300   -999.2500
  1956.4000      7.6742      2.6008      0.2241      2.9829   -999.2500
  1956.5000      7.6673      2.6278      0.2558      1.3455   -999.2500
  1956.6000      7.6673      2.5994      0.1999      3.0643   -999.2500
  1956.7000      7.6673      2.5674      0.0833      5.0034   -999.2500
  1956.8000      7.6324      2.5895      0.1807      3.6673   -999.2500
  1956.9000      7.6324      2.6798      0.2769     -1.8036   -999.2500
  1957.0000      7.4063      2.6941      0.2554     -2.6745   -999.2500
  1957.1000      7.4063      2.2333      0.6065     25.2547   -999.2500
  1957.2000      7.4063      1.2597      0.0500     84.2591   -999.2500
  1957.3000      7.1963      0.4256      0.0500    134.8148   -999.2500
  1957.4000      7.1963      0.0806   -999.2500    155.7183   -999.2500
  1957.5000      6.5556      0.0083   -999.2500    160.1028   -999.2500
  1957.6000      6.5556      0.0005   -999.2500    160.5788   -999.2500
  1957.7000      6.5556      0.0000   -999.2500    160.6061   -999.2500
  1957.8000      2.6141      0.0000   -999.2500    160.6061   -999.2500
  1957.9000      2.6141   -999.2500   -999.2500   -999.2500   -999.2500
  1958.0000      2.0822   -999.2500   -999.2500   -999.2500   -999.2500
  1958.1000      2.0822   -999.2500   -999.2500   -999.2500   -999.2500
  1958.2000      2.0822   -999.2500   -999.2500   -999.2500   -999.2500
  1958.3000   -999.2500   -999.2500   -999.2500   -999.2500   -999.2500
  1958.4000   -999.2500   -999.2500   -999.2500   -999.2500   -999.2500
  1958.5000   -999.2500   -999.2500   -999.2500   -999.2500   -999.2500
  1958.6000   -999.2500   -999.2500   -999.2500   -999.2500   -999.2500
  1958.7000   -999.2500   -999.2500   -999.2500   -999.2500   -999.2500
  1958.8000   -999.2500   -999.2500   -999.2500   -999.2500   -999.2500
  1958.9000   -999.2500   -999.2500   -999.2500   -999.2500   -999.2500
  1959.0000   -999.2500   -999.2500   -999.2500   -999.2500   -999.2500
  1959.1000   -999.2500   -999.2500   -999.2500   -999.2500   -999.2500
  1959.2000   -999.2500   -999.2500   -999.2500   -999.2500   -999.2500
  1959.3000   -999.2500   -999.2500   -999.2500   -999.2500   -999.2500
  1959.4000   -999.2500   -999.2500   -999.2500   -999.2500   -999.2500
  1959.5000   -999.2500   -999.2500   -999.2500   -999.2500   -999.2500
  1959.6000   -999.2500   -999.2500   -999.2500   -999.2500   -999.2500
  1959.7000   -999.2500   -999.2500   -999.2500   -999.2500   -999.2500
  1959.8000   -999.2500   -999.2500   -999.2500   -999.2500   -999.2500
  1959.9000   -999.2500   -999.2500   -999.2500   -999.2500   -999.2500
  1960.0000   -999.2500   -999.2500   -999.2500   -999.2500   -999.2500
  1960.1000   -999.2500   -999.2500   -999.2500   -999.2500   -999.2500
  1960.2000   -999.2500   -999.2500   -999.2500   -999.2500   -999.2500
  1960.3000   -999.2500   -999.2500   -999.2500   -999.2500   -999.2500
  1960.4000   -999.2500   -999.2500   -999.2500   -999.2500   -999.2500
  1960.5000   -999.2500   -999.2500   -999.2500   -999.2500   -999.2500
  1960.6000   -999.2500   -999.2500   -999.2500   -999.2500   -999.2500
  1960.7000   -999.2500   -999.2500   -999.2500   -999.2500   -999.2500
  1960.8000   -999.2500   -999.2500   -999.2500   -999.2500   -999.2500
  1960.9000   -999.2500   -999.2500   -999.2500   -999.2500   -999.2500
  1961.0000   -999.2500   -999.2500   -999.2500   -999.2500   -999.2500
