~Version Information
VERS.                      2.0: CWLS Log ASCII Standard - VERSION 2.0
WRAP.                       NO: One line per depth step
~Well Information Block
STRT.FT               955.2500: 
STOP.FT              2226.0000: 
STEP.FT                 0.2500: 
NULL.                -999.2500: 
COMP.          Petrogulf Corporation: COMPANY
WELL.             Burson 8-13R: WELL
FLD.           Purgatorie River: FIELD
LOC.           1045' FNL & 2189' FEL: LOCATION
CNTY.               Las Animas: COUNTY
SRVC.                         : SERVICE COMPANY
DATE.          Fri Apr 30 04:52:15 2004: LOG DATE
UWI.           05 071 08039 00: UNIQUE WELL ID
STAT.                 Colorado: STATE
~Curve Information Block
DEPT.FT            0 000 00 00: Depth
SP.mV                         : DIL Spontaneous Potential
RILD.Ohm-m                    : DIL Deep Resistivity
RILM.Ohm-m                    : DIL Medium Resistivity
RLL3.Ohm-m                    : DIL Shallow Resistivity
~Parameter Information Block
~A  Depth        SP         RILD        RILM        RLL3    
# ...
  1390.7500    106.2599      9.7412      9.9166     13.8852
  1391.0000    106.3928      9.7565      9.8977     13.5675
  1391.2500    106.5314      9.7721      9.9875     13.9558
  1391.5000    106.6802      9.7937     10.1652     14.9986
  1391.7500    106.8405      9.8369     10.4036     16.6235
  1392.0000    107.0078      9.9161     10.6723     18.5503
  1392.2500    107.1758     10.0355     10.9420     20.3195
  1392.5000    107.3399     10.1879     11.1905     21.5082
  1392.7500    107.4972     10.3620     11.4081     21.9425
  1393.0000    107.6451     10.5500     11.5992     21.7465
  1393.2500    107.7859     10.7502     11.7783     21.2286
  1393.5000    107.9323     10.9639     11.9620     20.7157
  1393.7500    108.0993     11.1912     12.1610     20.4329
  1394.0000    108.2839     11.4284     12.3758     20.4870
  1394.2500    108.4583     11.6659     12.5989     20.9456
  1394.5000    108.5921     11.8881     12.8204     21.8989
  1394.7500    108.6799     12.0773     13.0309     23.3860
  1395.0000    108.7450     12.2231     13.2196     25.2597
  1395.2500    108.8203     12.3296     13.3711     27.1707
  1395.5000    108.9276     12.4136     13.4703     28.6898
  1395.7500    109.0702     12.4952     13.5156     29.4490
  1396.0000    109.2372     12.5889     13.5249     29.2779
  1396.2500    109.4156     12.7006     13.5266     28.3389
  1396.5000    109.6014     12.8290     13.5421     27.0989
  1396.7500    109.8000     12.9685     13.5759     26.0384
  1397.0000    110.0158     13.1113     13.6229     25.3488
  1397.2500    110.2397     13.2504     13.6853     24.9449
  1397.5000    110.4490     13.3829     13.7815     24.7237
  1397.7500    110.6201     13.5108     13.9365     24.7273
  1398.0000    110.7476     13.6383     14.1588     25.0688
  1398.2500    110.8500     13.7689     14.4238     25.7842
  1398.5000    110.9609     13.9037     14.6793     26.7774
  1398.7500    111.1089     14.0436     14.8756     27.8633
  1399.0000    111.3044     14.1917     14.9929     28.8261
  1399.2500    111.5420     14.3544     15.0472     29.4489
  1399.5000    111.8141     14.5393     15.0749     29.5440
  1399.7500    112.1201     14.7513     15.1163     29.0421
  1400.0000    112.4629     14.9882     15.2089     28.2200
  1400.2500    112.8431     15.2393     15.3856     28.1945
  1400.5000    113.2618     15.4867     15.6761     31.7099
  1400.7500    113.7259     15.7090     16.1085     43.7940
  1401.0000    114.2422     15.8843     16.7091     71.1762
  1401.2500    114.8036     15.9936     17.4874    119.2933
  1401.5000    115.3799     16.0267     18.4041    187.0592
  1401.7500    115.9224     15.9876     19.3304    262.2755
  1402.0000    116.3750     15.8967     20.0337    322.5965
  1402.2500    116.6889     15.7859     20.2462    344.9699
  1402.5000    116.8402     15.6866     19.8147    319.3313
  1402.7500    116.8413     15.6192     18.8187    255.8780
  1403.0000    116.7368     15.5895     17.5259    178.7424
  1403.2500    116.5851     15.5943     16.2344    111.2296
  1403.5000    116.4389     15.6300     15.1513     65.0199
  1403.7500    116.3364     15.6972     14.3675     39.7701
  1404.0000    116.3006     15.7971     13.8873     29.2635
  1404.2500    116.3434     15.9253     13.6672     27.1068
  1404.5000    116.4673     16.0724     13.6441     28.8849
  1404.7500    116.6658     16.2290     13.7546     31.9121
  1405.0000    116.9227     16.3915     13.9482     34.7155
  1405.2500    117.2123     16.5629     14.1952     37.1321
  1405.5000    117.4995     16.7499     14.4870     40.4704
  1405.7500    117.7410     16.9604     14.8313     46.9863
  1406.0000    117.8914     17.2083     15.2495     58.8266
  1406.2500    117.9177     17.5224     15.7764     77.3122
  1406.5000    117.8127     17.9511     16.4577    102.8550
  1406.7500    117.5990     18.5506     17.3350    134.5934
  1407.0000    117.3236     19.3582     18.4219    169.1009
  1407.2500    117.0484     20.3656     19.6863    199.7323
  1407.5000    116.8370     21.5093     21.0639    218.8899
  1407.7500    116.7383     22.6860     22.4989    222.2692
  1408.0000    116.7705     23.7831     23.9764    211.0560
  1408.2500    116.9157     24.7096     25.4979    190.2015
  1408.5000    117.1308     25.4205     27.0157    165.3219
  1408.7500    117.3678     25.9362     28.3915    141.0990
  1409.0000    117.5929     26.3406     29.4384    120.9709
  1409.2500    117.7920     26.7405     30.0362    106.7630
  1409.5000    117.9631     27.2003     30.2264     98.4060
  1409.7500    118.1052     27.6939     30.2004     94.5233
  1410.0000    118.2157     28.1158     30.2004     93.5903
  1410.2500    118.2926     28.3467     30.4149     94.7353
  1410.5000    118.3356     28.3310     30.9110     97.7590
  1410.7500    118.3511     28.1053     31.6016    102.5750
  1411.0000    118.3553     27.7644     32.2527    108.5632
  1411.2500    118.3695     27.4042     32.5610    114.4534
  1411.5000    118.4060     27.0819     32.3079    118.9285
  1411.7500    118.4601     26.8070     31.4927    121.3095
  1412.0000    118.5151     26.5533     30.3247    121.6019
  1412.2500    118.5546     26.2786     29.0815    120.0250
  1412.5000    118.5686     25.9432     27.9641    116.6114
  1412.7500    118.5519     25.5210     27.0420    111.1139
  1413.0000    118.5004     25.0088     26.2887    103.2121
  1413.2500    118.4165     24.4267     25.6522     93.0611
  1413.5000    118.3195     23.8055     25.1082     82.0508
  1413.7500    118.2482     23.1688     24.6620     73.3254
  1414.0000    118.2474     22.5260     24.3113     71.6003
  1414.2500    118.3499     21.8812     24.0134     81.8602
  1414.5000    118.5638     21.2478     23.6829    106.3839
  1414.7500    118.8687     20.6547     23.2187    140.6656
  1415.0000    119.2245     20.1409     22.5410    171.8980
  1415.2500    119.5921     19.7453     21.6305    184.4122
  1415.5000    119.9528     19.4965     20.5577    170.1656
  1415.7500    120.3084     19.4073     19.4729    134.9248
  1416.0000    120.6664     19.4731     18.5527     93.7967
  1416.2500    121.0379     19.6746     17.9408     61.1524
  1416.5000    121.4530     19.9800     17.7234     44.8228
  1416.7500    121.9671     20.3459     17.9363     47.7669
  1417.0000    122.6362     20.7210     18.5828     72.6842
  1417.2500    123.4781     21.0618     19.6445    124.1917
  1417.5000    124.4565     21.3565     21.0790    206.6433
  1417.7500    125.4987     21.6419     22.8134    318.6992
  1418.0000    126.5273     21.9960     24.7535    448.0033
  1418.2500    127.4787     22.5124     26.8252    571.3568
  1418.5000    128.3017     23.2747     29.0330    664.2692
  1418.7500    128.9544     24.3422     31.4798    715.5366
  1419.0000    129.4136     25.7400     34.3141    734.2197
  1419.2500    129.6863     27.4436     37.6334    741.2778
  1419.5000    129.8050     29.3520     41.4025    753.7943
  1419.7500    129.8066     31.2668     45.4240    776.3494
  1420.0000    129.7139     32.9056     49.3831    803.8452
  1420.2500    129.5342     33.9796     52.9524    828.5891
  1420.5000    129.2669     34.3101     55.9012    844.4025
  1420.7500    128.9085     33.9033     58.1189    846.5487
  1421.0000    128.4495     32.9235     59.5237    830.0396
  1421.2500    127.8760     31.5903     59.9319    789.5680
  1421.5000    127.1810     30.0845     59.0282    722.9330
  1421.7500    126.3779     28.5130     56.5049    636.1324
  1422.0000    125.5037     26.9213     52.3012    544.2231
  1422.2500    124.6096     25.3165     46.7605    463.2774
  1422.5000    123.7448     23.6856     40.5635    398.2708
  1422.7500    122.9377     22.0199     34.4677    339.8705
  1423.0000    122.1828     20.3431     29.0400    275.6044
  1423.2500    121.4408     18.7228     24.5493    203.6627
  1423.5000    120.6584     17.2425     21.0153    134.3063
  1423.7500    119.7985     15.9595     18.3187     79.6308
  1424.0000    118.8627     14.8817     16.2937     44.4854
