~Version Information
VERS.                      2.0: CWLS Log ASCII Standard - VERSION 2.0
WRAP.                       NO: One line per depth step
~Well Information Block
STRT.FT               548.0000: 
STOP.FT              1916.0000: 
STEP.FT                 0.2500: 
NULL.                -999.2500: 
COMP.          Pioneer Natural Resources: COMPANY
WELL.          Blackjack 32-11 Tr: WELL
FLD.           Purgatorie River: FIELD
LOC.           2066' FNL & 1453' FEL: LOCATION
PROV.                 Colorado: PROVINCE
CNTY.               Las Animas: COUNTRY
SRVC.                Patterson: SERVICE COMPANY
DATE.          Tue Aug 16 12:08:23 2005: LOG DATE
UWI.                          : UNIQUE WELL ID
~Curve Information Block
DEPT.FT            0 000 00 00: Depth
SN.Ohm-m                      : IEL Short Normal
SP.mV                         : IEL Spontaneous Potential
DIR.Ohm-m                     : IEL Induction Resistivity
GR.GAPI                       : Gamma Ray
~Parameter Information Block
~A  Depth        SN          SP         DIR          GR     
# ...
   816.0000   2000.0000   2000.0000     23.3338    135.6748
   816.2500   2000.0000   2000.0000     18.5321    132.8604
   816.5000   2000.0000   2000.0000     22.2689    131.4844
   816.7500   2000.0000   2000.0000     23.6566    131.3866
   817.0000   2000.0000   2000.0000     22.0097    135.7344
   817.2500   2000.0000   2000.0000     18.7729    131.3518
   817.5000   2000.0000   2000.0000     22.8157    128.5427
   817.7500   2000.0000   2000.0000     22.5527    130.8999
   818.0000   2000.0000   2000.0000     22.1964    132.7885
   818.2500   2000.0000   2000.0000     23.4902    145.4000
   818.5000   2000.0000   2000.0000     21.9592    134.7961
   818.7500   2000.0000   2000.0000     20.3143    130.7766
   819.0000   2000.0000   2000.0000     22.5751    127.8214
   819.2500   2000.0000   2000.0000     18.9616    122.3448
   819.5000   2000.0000   2000.0000     18.6566    117.7819
   819.7500   2000.0000   2000.0000     21.5101    127.8557
   820.0000   2000.0000   2000.0000     22.4229    128.3757
   820.2500   2000.0000   2000.0000     22.1186    128.2127
   820.5000   2000.0000   2000.0000     21.1419    134.0699
   820.7500   2000.0000   2000.0000     21.0665    134.8213
   821.0000   2000.0000   2000.0000     21.2838    136.7941
   821.2500   2000.0000   2000.0000     22.6006    130.9093
   821.5000   2000.0000   2000.0000     22.2436    123.9370
   821.7500   2000.0000   2000.0000     19.6057    127.4321
   822.0000   2000.0000   2000.0000     21.2671    129.6596
   822.2500   2000.0000   2000.0000     21.0456    125.1503
   822.5000   2000.0000   2000.0000     20.4153    134.2199
   822.7500   2000.0000   2000.0000     21.2033    125.8588
   823.0000   2000.0000   2000.0000     21.6203    123.7399
   823.2500   2000.0000   2000.0000     21.3191    120.3178
   823.5000   2000.0000   2000.0000     22.1154    129.0008
   823.7500   2000.0000   2000.0000     22.5252    121.5920
   824.0000   2000.0000   2000.0000     23.0074    119.9701
   824.2500   2000.0000   2000.0000     23.0537    114.4900
   824.5000   2000.0000   2000.0000     22.7374    122.6263
   824.7500   2000.0000   2000.0000     23.7081    119.0560
   825.0000   2000.0000   2000.0000     22.8986    113.5720
   825.2500   2000.0000   2000.0000     25.5777    111.2313
   825.5000   2000.0000   2000.0000     24.3190    107.0440
   825.7500   2000.0000   2000.0000     24.4529    108.1608
   826.0000   2000.0000   2000.0000     25.4787    106.9308
   826.2500   2000.0000   2000.0000     28.7525    103.9559
   826.5000   2000.0000   2000.0000     27.5935    101.0730
   826.7500   2000.0000   2000.0000     30.0415    101.3816
   827.0000   2000.0000   2000.0000     32.2378    100.0882
   827.2500   2000.0000   2000.0000     29.5400    103.2182
   827.5000   2000.0000   2000.0000     34.9636    104.0942
   827.7500   2000.0000   2000.0000     33.6371     97.2650
   828.0000   2000.0000   2000.0000     32.1422     91.6993
   828.2500   2000.0000   2000.0000     40.3885     91.5467
   828.5000   2000.0000   2000.0000     37.2553     85.2705
   828.7500   2000.0000   2000.0000     29.7991     84.8594
   829.0000   2000.0000   2000.0000     38.6471     83.1400
   829.2500   2000.0000   2000.0000     44.1196     82.6779
   829.5000   2000.0000   2000.0000     47.4835     81.4697
   829.7500   2000.0000   2000.0000     47.1831     84.1115
   830.0000   2000.0000   2000.0000     36.1783     96.3477
   830.2500   2000.0000   2000.0000     31.3992    103.4039
   830.5000   2000.0000   2000.0000     41.2022    113.8627
   830.7500   2000.0000   2000.0000     42.7794    123.8455
   831.0000   2000.0000   2000.0000     40.5724    118.9815
   831.2500   2000.0000   2000.0000     39.3601    125.4058
   831.5000   2000.0000   2000.0000     39.6952    120.9147
   831.7500   2000.0000   2000.0000     36.2036    123.4790
   832.0000   2000.0000   2000.0000     37.6304    119.4055
   832.2500   2000.0000   2000.0000     32.2507    115.4667
   832.5000   2000.0000   2000.0000     33.4346    119.4116
   832.7500   2000.0000   2000.0000     36.9537    102.7824
   833.0000   2000.0000   2000.0000     33.8234    104.8386
   833.2500   2000.0000   2000.0000     31.9074    102.0050
   833.5000   2000.0000   2000.0000     29.8691    102.9317
   833.7500   2000.0000   2000.0000     30.2775     95.7270
   834.0000   2000.0000   2000.0000     32.0403    107.3374
   834.2500   2000.0000   2000.0000     32.6806    119.7369
   834.5000   2000.0000   2000.0000     34.1933    117.3184
   834.7500   2000.0000   2000.0000     33.4888    124.2736
   835.0000   2000.0000   2000.0000     30.5516    134.0035
   835.2500   2000.0000   2000.0000     33.5436    127.8947
   835.5000   2000.0000   2000.0000     32.4665    121.0498
   835.7500   2000.0000   2000.0000     27.1885    115.9375
   836.0000   2000.0000   2000.0000     27.1824    111.9581
   836.2500   2000.0000   2000.0000     29.4447    115.0663
   836.5000   2000.0000   2000.0000     29.2202    116.7514
   836.7500   2000.0000   2000.0000     30.1230    112.2058
   837.0000   2000.0000   2000.0000     29.3825    117.9708
   837.2500   2000.0000   2000.0000     26.5623    111.3735
   837.5000   2000.0000   2000.0000     28.7589    111.5114
   837.7500   2000.0000   2000.0000     27.4075    117.5924
   838.0000   2000.0000   2000.0000     25.8466    132.3016
   838.2500   2000.0000   2000.0000     27.6869    139.2650
   838.5000   2000.0000   2000.0000     25.2337    139.6355
   838.7500   2000.0000   2000.0000     25.5018    133.2569
   839.0000   2000.0000   2000.0000     25.5877    128.0385
   839.2500   2000.0000   2000.0000     25.3059    124.8395
   839.5000   2000.0000   2000.0000     23.2603    127.5328
   839.7500   2000.0000   2000.0000     25.0665    131.0222
   840.0000   2000.0000   2000.0000     25.3707    121.8492
   840.2500   2000.0000   2000.0000     26.5443    125.6505
   840.5000   2000.0000   2000.0000     28.3671    124.8072
   840.7500   2000.0000   2000.0000     26.8242    132.1635
   841.0000   2000.0000   2000.0000     23.0769    120.1887
   841.2500   2000.0000   2000.0000     25.7825    112.9919
   841.5000   2000.0000   2000.0000     27.8713    106.6157
   841.7500   2000.0000   2000.0000     29.1138    103.8393
   842.0000   2000.0000   2000.0000     27.5733     99.6466
   842.2500   2000.0000   2000.0000     27.3804     99.5711
   842.5000   2000.0000   2000.0000     23.8771    100.4620
   842.7500   2000.0000   2000.0000     26.2919     95.0674
   843.0000   2000.0000   2000.0000     26.4640     93.9307
   843.2500   2000.0000   2000.0000     24.2349     91.1700
   843.5000   2000.0000   2000.0000     25.6423    111.0978
   843.7500   2000.0000   2000.0000     24.5695    123.6092
   844.0000   2000.0000   2000.0000     22.6417    136.6353
   844.2500   2000.0000   2000.0000     17.8496    140.0299
   844.5000   2000.0000   2000.0000     20.8491    137.2477
   844.7500   2000.0000   2000.0000     21.7414    141.9405
   845.0000   2000.0000   2000.0000     21.8540    146.0042
   845.2500   2000.0000   2000.0000     21.4028    143.1709
   845.5000   2000.0000   2000.0000     20.0162    131.5975
   845.7500   2000.0000   2000.0000     21.0352    125.3123
   846.0000   2000.0000   2000.0000     21.1878    120.5564
   846.2500   2000.0000   2000.0000     21.4204    119.3362
   846.5000   2000.0000   2000.0000     20.8213    112.8946
   846.7500   2000.0000   2000.0000     18.9517    104.4851
   847.0000   2000.0000   2000.0000     22.1055    112.9786
   847.2500   2000.0000   2000.0000     21.6393    112.0031
   847.5000   2000.0000   2000.0000     23.9392    107.4722
   847.7500   2000.0000   2000.0000     24.9495    106.5718
   848.0000   2000.0000   2000.0000     25.8215     99.5218
   848.2500   2000.0000   2000.0000     28.1008    103.8578
   848.5000   2000.0000   2000.0000     27.1215    117.4291
   848.7500   2000.0000   2000.0000     29.1875    123.5846
   849.0000   2000.0000   2000.0000     30.0521    119.8151
   849.2500   2000.0000   2000.0000     30.3649    118.9518
