~Version Information
VERS.                      2.0: CWLS Log ASCII Standard - VERSION 2.0
WRAP.                       NO: One line per depth step
~Well Information Block
STRT.FT               340.0000: 
STOP.FT              1542.5000: 
STEP.FT                 0.2500: 
NULL.                -999.2500: 
COMP.          Petrogulf Corporation: COMPANY
WELL.            Montoya 7-21R: WELL
FLD.           Purgatorie River: FIELD
LOC.           445' FNL & 1942' FWL: LOCATION
PROV.                 Colorado: PROVINCE
CNTY.               Las Animas: COUNTRY
SRVC.                Patterson: SERVICE COMPANY
DATE.          Thu Sep 15 10:37:42 2005: LOG DATE
UWI.                          : UNIQUE WELL ID
~Curve Information Block
DEPT.FT            0 000 00 00: Depth
SP.mV                         : DIL Spontaneous Potential
RILD.Ohm-m                    : DIL Deep Resistivity
RILM.Ohm-m                    : DIL Medium Resistivity
RLL3.Ohm-m                    : DIL Shallow Resistivity
GR.GAPI                       : Gamma Ray
~Parameter Information Block
~A  Depth        SP         RILD        RILM        RLL3         GR     
   340.0000   2000.0000      8.9088   -999.2500   2000.0000     91.7060
   340.2500   2000.0000      9.0067   -999.2500   2000.0000     87.4329
   340.5000   2000.0000      9.1950   -999.2500   2000.0000     89.8007
   340.7500   2000.0000      9.1783   -999.2500   2000.0000     92.4246
   341.0000   2000.0000      9.0567 100000.0000   2000.0000    117.8167
   341.2500   2000.0000      8.8520 100000.0000   2000.0000     97.4053
   341.5000   2000.0000      8.8615 100000.0000   2000.0000     86.7107
   341.7500   2000.0000      8.8693 100000.0000   2000.0000     86.3413
   342.0000   2000.0000      8.9779 100000.0000   2000.0000    103.1269
   342.2500   2000.0000      9.0441 100000.0000   2000.0000    116.2708
   342.5000   2000.0000      8.9601 100000.0000   2000.0000    119.9408
   342.7500   2000.0000      8.7305 100000.0000   2000.0000    101.4714
   343.0000   2000.0000      8.6534 100000.0000   2000.0000    119.5762
   343.2500   2000.0000      8.5864 100000.0000   2000.0000    112.8069
   343.5000   2000.0000      8.5861 100000.0000   2000.0000    104.9390
   343.7500   2000.0000      8.5847 100000.0000   2000.0000    118.9355
   344.0000   2000.0000      8.5832 100000.0000   2000.0000    120.5926
   344.2500   2000.0000      8.5666 100000.0000   2000.0000    112.6081
   344.5000   2000.0000      8.7087 100000.0000   2000.0000    101.1539
   344.7500   2000.0000      8.6953 100000.0000   2000.0000     94.0549
   345.0000   2000.0000      8.5404 100000.0000   2000.0000     91.5002
   345.2500   2000.0000      8.5569 100000.0000   2000.0000     98.0123
   345.5000   2000.0000      8.6595 100000.0000   2000.0000    100.0327
   345.7500   2000.0000      8.5947 100000.0000   2000.0000     94.0782
   346.0000   2000.0000      8.5084 100000.0000   2000.0000     92.1216
   346.2500   2000.0000      8.4985 100000.0000   2000.0000     87.4485
   346.5000   2000.0000      8.2950 100000.0000   2000.0000    118.4678
   346.7500   2000.0000      8.2011 100000.0000   2000.0000    116.2352
   347.0000   2000.0000      8.3901 100000.0000   2000.0000    107.6958
   347.2500   2000.0000      8.1263 100000.0000   2000.0000    105.8394
   347.5000   2000.0000      8.0813 100000.0000   2000.0000     99.2778
   347.7500   2000.0000      8.1838 100000.0000   2000.0000     85.0504
   348.0000   2000.0000      8.2402 100000.0000   2000.0000     78.7852
   348.2500   2000.0000      8.3205 100000.0000   2000.0000     89.1770
   348.5000   2000.0000      8.4298 100000.0000   2000.0000     82.5283
   348.7500   2000.0000      8.4098 100000.0000   2000.0000     89.8456
   349.0000   2000.0000      8.4191 100000.0000   2000.0000     90.2507
   349.2500   2000.0000      8.4401 100000.0000   2000.0000    100.1432
   349.5000   2000.0000      8.5583 100000.0000   2000.0000    110.2226
   349.7500   2000.0000      8.7736 100000.0000   2000.0000    110.6142
   350.0000   2000.0000      8.6370 100000.0000   2000.0000    105.4699
   350.2500   2000.0000      8.1971 100000.0000   2000.0000    109.1156
   350.5000   2000.0000      8.0563 100000.0000   2000.0000     92.2029
   350.7500   2000.0000      7.9557 100000.0000   2000.0000    105.2271
   351.0000   2000.0000      7.9018 100000.0000   2000.0000    106.3264
   351.2500   2000.0000      7.8056 100000.0000   2000.0000    100.6734
   351.5000   2000.0000      7.9634 100000.0000   2000.0000    116.7165
   351.7500   2000.0000      8.0342 100000.0000   2000.0000    114.9843
   352.0000   2000.0000      8.1809 100000.0000   2000.0000     99.9449
   352.2500   2000.0000      8.2642 100000.0000   2000.0000    113.2473
   352.5000   2000.0000      8.2804 100000.0000   2000.0000    102.4022
   352.7500   2000.0000      8.2886 100000.0000   2000.0000     95.3729
   353.0000   2000.0000      8.3032 100000.0000   2000.0000     96.9080
   353.2500   2000.0000      8.3249 100000.0000   2000.0000     99.6489
   353.5000   2000.0000      8.1899 100000.0000   2000.0000    107.5689
   353.7500   2000.0000      8.1918 100000.0000   2000.0000     93.6145
   354.0000   2000.0000      7.9461 100000.0000   2000.0000    101.2487
   354.2500   2000.0000      7.5749 100000.0000   2000.0000     93.4372
   354.5000   2000.0000      7.0301 100000.0000   2000.0000     91.9885
   354.7500   2000.0000      6.8805 100000.0000   2000.0000    108.7431
   355.0000   2000.0000      8.3058 100000.0000   2000.0000     91.8074
   355.2500   2000.0000      9.9907 100000.0000   2000.0000     88.4808
   355.5000   2000.0000     10.1306 100000.0000   2000.0000     93.6645
   355.7500   2000.0000     10.1951 100000.0000   2000.0000     85.5490
   356.0000   2000.0000      9.8086 100000.0000   2000.0000     75.2633
   356.2500   2000.0000      9.4983 100000.0000   2000.0000     82.5529
   356.5000   2000.0000      9.1414 100000.0000   2000.0000    100.2766
   356.7500   2000.0000      9.0047 100000.0000   2000.0000     77.5909
   357.0000   2000.0000      8.8067 100000.0000   2000.0000     87.6755
   357.2500   2000.0000      8.5412 100000.0000   2000.0000     77.0458
   357.5000   2000.0000      8.9948 100000.0000   2000.0000     76.8104
   357.7500   2000.0000     11.8835 100000.0000   2000.0000     86.6956
   358.0000   2000.0000     18.9326 100000.0000   2000.0000     83.1856
   358.2500   2000.0000     26.9178 100000.0000   2000.0000     78.2801
   358.5000   2000.0000     16.6817 100000.0000   2000.0000     80.7267
   358.7500   2000.0000      9.6766 100000.0000   2000.0000     82.2937
   359.0000   2000.0000      7.6420 100000.0000   2000.0000     67.6749
   359.2500   2000.0000      7.0844 100000.0000   2000.0000     68.2674
   359.5000   2000.0000      7.1791 100000.0000   2000.0000     85.7774
   359.7500   2000.0000      7.3217 100000.0000   2000.0000     72.9468
   360.0000   2000.0000      7.5367 100000.0000   2000.0000     82.3581
   360.2500   2000.0000      7.2954 100000.0000   2000.0000     93.2870
   360.5000   2000.0000      7.1760 100000.0000   2000.0000    106.8800
   360.7500   2000.0000      8.4795 100000.0000   2000.0000    116.5580
   361.0000   2000.0000     20.8155 100000.0000   2000.0000     98.0487
   361.2500   2000.0000 100000.0000 100000.0000   2000.0000     86.5912
   361.5000   2000.0000 100000.0000 100000.0000   2000.0000     85.9920
   361.7500   2000.0000      7.1557 100000.0000   2000.0000     89.5510
   362.0000   2000.0000      3.1622 100000.0000   2000.0000    105.2307
   362.2500   2000.0000      2.8112 100000.0000   2000.0000     98.1036
   362.5000   2000.0000      3.5474 100000.0000   2000.0000    114.3215
   362.7500   2000.0000      4.5454 100000.0000   2000.0000    105.8144
   363.0000   2000.0000      5.3441 100000.0000   2000.0000    108.2582
   363.2500   2000.0000      6.0316 100000.0000   2000.0000    109.7608
   363.5000   2000.0000      7.6793 100000.0000   2000.0000    118.7695
   363.7500   2000.0000     21.4445 100000.0000   2000.0000    127.1106
   364.0000   2000.0000 100000.0000 100000.0000   2000.0000    137.9511
   364.2500   2000.0000      5.3832 100000.0000   2000.0000    132.0990
   364.5000   2000.0000      2.0438 100000.0000   2000.0000    128.9812
   364.7500   2000.0000      1.1422 100000.0000   2000.0000    145.0761
   365.0000   2000.0000      1.4053      9.2439   2000.0000    152.0834
   365.2500   2000.0000      3.0554      2.2256   2000.0000    129.4879
   365.5000   2000.0000      8.0019      2.2767   2000.0000    124.4831
   365.7500   2000.0000     21.1965      4.4130   2000.0000    121.4789
   366.0000   2000.0000     62.4235     15.7439   2000.0000    128.4899
   366.2500   2000.0000   1240.1365     19.1335   2000.0000    130.4906
   366.5000   2000.0000 100000.0000     12.9206   2000.0000    133.0143
   366.7500   2000.0000 100000.0000     11.2013   2000.0000    123.1610
   367.0000   2000.0000 100000.0000     10.7582   2000.0000    131.8575
   367.2500   2000.0000 100000.0000     10.7528   2000.0000    127.0637
   367.5000   2000.0000 100000.0000     11.3507   2000.0000    110.8686
   367.7500   2000.0000     21.5551     15.9083   2000.0000    107.0346
