~Version Information
VERS.                      2.0: CWLS Log ASCII Standard - VERSION 2.0
WRAP.                       NO: One line per depth step
~Well Information Block
STRT.FT               640.0000: 
STOP.FT               927.0000: 
STEP.FT                 0.1000: 
NULL.                -999.2500: 
COMP.          Pioneer Natural Resources: COMPANY
WELL.          Claim Jumper 41-22: WELL
FLD.           Purgatoire River: FIELD
LOC.           1120' FNL & 977' FEL: LOCATION
PROV.                 Colorado: PROVINCE
CNTY.               Las Animas: COUNTRY
SRVC.                Patterson: SERVICE COMPANY
DATE.          Thu Jun 23 08:35:14 2005: LOG DATE
UWI.           05-071-08405-00: UNIQUE WELL ID
~Curve Information Block
DEPT.FT            0 000 00 00: Depth
DCAL.in                       : CDL Caliper
RHOB.g/cc                     : CDL Bulk Density
RHOC.g/cc                     : CDL Density Correction
DPOR.pu                       : CDL Density Porosity
GR.GAPI                       : Gamma Ray
NPOR.pu                       : Neutron Porosity
~Parameter Information Block
~A  Depth       DCAL        RHOB        RHOC        DPOR         GR         NPOR    
# ...
   707.2000      8.1076      2.5725      0.2012      4.6975    108.5943     26.0439
   707.3000      8.0566      2.5778      0.2167      4.3762    112.1421     25.5497
   707.4000      8.0566      2.5511      0.1606      5.9934    113.1849     25.0540
   707.5000      8.0441      2.5093      0.0515      8.5280    110.2150     24.7290
   707.6000      8.0441      2.4865      0.0038      9.9092    110.4519     24.5929
   707.7000      8.0441      2.4912      0.0546      9.6270    116.9109     24.4957
   707.8000      8.0450      2.5077      0.0311      8.6233    122.9968     24.4733
   707.9000      8.0450      2.5269      0.0561      7.4612    122.9903     24.2234
   708.0000      8.0417      2.5381      0.1123      6.7812    118.8588     23.5381
   708.1000      8.0417      2.5238      0.1253      7.6506    115.6779     23.0419
   708.2000      8.0417      2.4897      0.0380      9.7162    113.6329     23.1454
   708.3000      8.0386      2.4706      0.0417     10.8719    111.5404     23.5218
   708.4000      8.0386      2.4879      0.0556      9.8270    108.6887     23.5779
   708.5000      8.0381      2.5269      0.1126      7.4588    104.1534     23.2907
   708.6000      8.0381      2.5531      0.1571      5.8733     98.0742     23.1541
   708.7000      8.0381      2.5518      0.1236      5.9487     92.6996     23.3013
   708.8000      8.0346      2.5410      0.0875      6.6058     90.1673     23.4254
   708.9000      8.0346      2.5310      0.1553      7.2102     90.8011     23.2845
   709.0000      8.0404      2.5174      0.1208      8.0338     96.8735     22.9249
   709.1000      8.0404      2.5009      0.1471      9.0393    106.7985     22.3405
   709.2000      8.0404      2.4768      0.1554     10.4992    113.9593     21.4706
   709.3000      8.0626      2.4368      0.1274     12.9233    117.4558     20.2718
   709.4000      8.0626      2.3837      0.0411     16.1366    118.1323     18.7196
   709.5000      8.0947      2.3128      0.0910     20.4383    112.5756     17.2453
   709.6000      8.0947      2.2075      0.0275     26.8167    102.5433     16.2952
   709.7000      8.0947      2.0805     -0.0420     34.5158     93.9662     15.7059
   709.8000      8.1296      1.9686     -0.0127     41.2942     87.6948     15.2366
   709.9000      8.1296      1.8901      0.0201     46.0518     82.0240     14.8967
   710.0000      8.1583      1.8492      0.0265     48.5305     77.0728     14.9419
   710.1000      8.1583      1.8536      0.1031     48.2664     73.9767     15.6045
   710.2000      8.1583      1.9000      0.1616     45.4559     73.1398     16.7379
   710.3000      8.1763      1.9756      0.2424     40.8730     72.3279     18.0170
   710.4000      8.1763      2.0692      0.3386     35.1982     69.2910     19.2149
   710.5000      8.1885      2.1722      0.3560     28.9553     68.5292     20.1908
   710.6000      8.1885      2.2709      0.4263     22.9772     75.9480     21.0322
   710.7000      8.1885      2.3480      0.3912     18.3029     88.2254     21.9970
   710.8000      8.1737      2.3992      0.3465     15.1978     96.7446     22.9059
   710.9000      8.1737      2.4259      0.2390     13.5811     98.5099     23.3577
   711.0000      8.1129      2.4334      0.1417     13.1293     95.8274     23.4413
   711.1000      8.1129      2.4392      0.0992     12.7760     94.8913     23.5875
   711.2000      8.1129      2.4527      0.1212     11.9571     98.5072     23.8742
   711.3000      8.0454      2.4649      0.1065     11.2172     99.5101     23.8564
   711.4000      8.0454      2.4608      0.1337     11.4675     93.2498     23.3193
   711.5000      8.0038      2.4381      0.0942     12.8416     86.2922     22.8899
   711.6000      8.0038      2.4206      0.0587     13.9057     86.9492     22.9968
   711.7000      8.0038      2.4251      0.1127     13.6302     95.0074     23.2840
   711.8000      7.9752      2.4417      0.1165     12.6268    102.6210     23.2714
   711.9000      7.9752      2.4610      0.1137     11.4548    107.3410     22.9910
   712.0000      7.9615      2.4751      0.1172     10.6004    112.4331     22.8655
   712.1000      7.9615      2.4714      0.1205     10.8252    113.1475     23.0306
   712.2000      7.9615      2.4510      0.0928     12.0630    106.9349     23.1734
   712.3000      7.9648      2.4243      0.1007     13.6789    102.5960     23.2504
   712.4000      7.9648      2.3981      0.0786     15.2671    106.3296     23.4351
   712.5000      7.9763      2.3782      0.0537     16.4744    115.6264     23.4942
   712.6000      7.9763      2.3710      0.0331     16.9083    126.9303     23.3230
   712.7000      7.9763      2.3831      0.0473     16.1771    132.0824     23.2232
   712.8000      7.9896      2.4167      0.0655     14.1396    123.6134     23.4384
   712.9000      7.9896      2.4696      0.0817     10.9306    109.3275     23.7952
   713.0000      7.9939      2.5371      0.1003      6.8394    100.7296     23.9201
   713.1000      7.9939      2.6005      0.1690      3.0020     98.9406     24.0259
   713.2000      7.9939      2.6354      0.1793      0.8843     96.0970     24.5389
   713.3000      7.9794      2.6452      0.1799      0.2920     85.5572     25.1461
   713.4000      7.9794      2.6472      0.1839      0.1670     70.1944     25.2953
   713.5000      7.9583      2.6422      0.1768      0.4700     59.4386     24.7835
   713.6000      7.9583      2.6283      0.1561      1.3161     57.3302     23.9283
   713.7000      7.9583      2.6122      0.1102      2.2887     60.3661     23.3148
   713.8000      7.9565      2.6009      0.0591      2.9739     64.4093     23.1451
   713.9000      7.9565      2.6081     -0.0059      2.5383     66.3482     23.3874
   714.0000      7.9682      2.6400      0.0789      0.6053     64.5490     23.7883
   714.1000      7.9682      2.6737      0.1282     -1.4346     60.4710     23.8824
   714.2000      7.9682      2.6851      0.1413     -2.1269     54.6239     23.6461
   714.3000      7.9540      2.6752      0.1422     -1.5248     46.1845     23.2948
   714.4000      7.9540      2.6591      0.1576     -0.5524     40.6859     22.7079
   714.5000      7.9262      2.6475      0.1362      0.1499     42.1638     21.8631
   714.6000      7.9262      2.6301      0.1137      1.2065     44.9872     21.0876
   714.7000      7.9262      2.5905      0.0552      3.6078     43.8279     20.6496
   714.8000      7.9182      2.5349      0.0272      6.9742     41.0842     20.2733
   714.9000      7.9182      2.4852     -0.0034      9.9887     42.9153     19.8174
   715.0000      7.9210      2.4650      0.0013     11.2136     50.1127     19.8186
   715.1000      7.9210      2.4880      0.0493      9.8179     57.4382     20.3423
   715.2000      7.9210      2.5441      0.0716      6.4168     61.9320     20.7354
   715.3000      7.9051      2.6091      0.2127      2.4774     68.1954     20.7419
   715.4000      7.9051      2.6629      0.2307     -0.7795     76.6301     20.6316
   715.5000      7.8829      2.7000      0.2153     -3.0280     78.5023     20.4700
   715.6000      7.8829      2.7205      0.2845     -4.2738     74.0548     20.1761
   715.7000      7.8829      2.7221      0.2614     -4.3724     73.6214     19.7740
   715.8000      7.8809      2.7059      0.2317     -3.3849     78.7113     19.4236
   715.9000      7.8809      2.6761      0.1405     -1.5826     79.4314     19.4195
   716.0000      7.9005      2.6396      0.1218      0.6311     71.7004     19.6940
   716.1000      7.9005      2.6035      0.0898      2.8201     63.7656     19.8610
   716.2000      7.9005      2.5781      0.0974      4.3552     59.9328     19.9147
   716.3000      7.9171      2.5728      0.0645      4.6777     58.6065     20.1329
   716.4000      7.9171      2.5901      0.0822      3.6318     61.9648     20.4899
   716.5000      7.9141      2.6209      0.1575      1.7661     70.2456     20.7156
   716.6000      7.9141      2.6450      0.1969      0.3001     77.1059     20.7568
   716.7000      7.9141      2.6552      0.1881     -0.3126     74.9489     20.6395
