~Version Information
 VERS.                                  2.0 : CWLS LAS VERSION
 WRAP.                                   NO : WRAPING MODE
 SWARE .                 MController 2.5.0J : SOFTWARE VERSION
~Well Information
 WELL.                          Graff 9-31R : WELL
 COMP.                       Petrogulf Corp : COMPANY
 FLD.                      Purgatorie River : FIELD
 LOC.                 NW/NE Sec 9 T32S R67W : LOCATION
 DATE.                           10/24/2004 : DATE(S) LOGGED
 SRVC.       Blanco Geological Services LLC : SERVICE COMPANY
 STAT.                                   CO : STATE
 CNTY.                           Las Animas : COUNTY
 CTRY.                                  USA : COUNTRY
 API.                       05-071-080370-00 : API NUMBER
 STRT.FT                             712.0 : START DEPTH
 STOP.FT                            1940.00 : STOP DEPTH
 STEP.FT                               1.00 : DEPTH INCREMENT
 NULL.                                -9999 : NULL VALUE
~Curve information
 DEPTH.FT                                   :
 ROP.MIN/FT                                 :
 GAS.UNITS                                  :
~ASCII Log data
# ...
       913.0         0.23          2.8 
       914.0         0.27          4.5 
       915.0         0.20          6.6 
       916.0         0.27         10.3 
       917.0         0.35         11.8 
       918.0         0.33          8.5 
       919.0         0.23          6.6 
       920.0         0.27          5.2 
       921.0         0.40          3.5 
       922.0         0.30          3.2 
       923.0         0.23          3.1 
       924.0         0.30          2.9 
       925.0         0.30          2.6 
       926.0         0.20          5.0 
       927.0         0.20          6.2 
       928.0         0.27          6.7 
       929.0         0.23          9.4 
       930.0         0.23         10.8 
       931.0         0.22          9.1 
       932.0         0.23          7.5 
       933.0         0.23          5.3 
       934.0         0.23          4.2 
       935.0         0.27          3.2 
       936.0         0.33          3.1 
       937.0         0.23          2.6 
       938.0         0.27          2.5 
       939.0         0.27          2.6 
       940.0         0.27          2.6 
       941.0         0.23          2.7 
       942.0         0.23          3.2 
       943.0         0.23          3.5 
       944.0         0.27          4.4 
       945.0         0.22          5.2 
       946.0         0.23          5.8 
       947.0         0.23          6.1 
       948.0         0.27          6.3 
       949.0         0.23          6.9 
       950.0         0.30          6.7 
       951.0         0.37          6.7 
       952.0         0.33          6.3 
       953.0         0.20          5.7 
       954.0         0.23          5.3 
       955.0         0.20          4.8 
       956.0         0.27          5.3 
       957.0         0.27          6.3 
       958.0         0.30          6.8 
       959.0         0.23          7.7 
       960.0         0.30         10.8 
       961.0         0.27         13.3 
       962.0         0.25         13.0 
       963.0         0.23         11.4 
       964.0         0.23          9.2 
       965.0         0.23          7.2 
       966.0         0.20          5.9 
       967.0         0.23          4.7 
       968.0         0.30          4.1 
       969.0         0.23          3.6 
       970.0         0.17          4.4 
       971.0         0.17          3.5 
       972.0         0.17          3.8 
       973.0         0.17          3.2 
       974.0         0.17          3.3 
       975.0         0.17          3.3 
       976.0         0.20          2.9 
       977.0         0.20          2.6 
       978.0         0.22          3.1 
       979.0         0.27          2.7 
       980.0         0.23          2.5 
       981.0         0.27          2.3 
       982.0         0.20          2.6 
       983.0         0.23          2.7 
       984.0         0.20          2.2 
       985.0         0.17          2.3 
       986.0         0.17          5.1 
       987.0         0.20          6.6 
       988.0         0.20          8.1 
       989.0         0.17          8.6 
       990.0         0.17          8.3 
       991.0         0.23          7.1 
       992.0         0.17          6.3 
       993.0         0.23          5.1 
       994.0         0.23          4.5 
       995.0         0.22          4.2 
       996.0         0.27          3.5 
       997.0         0.30          3.4 
       998.0         0.23          2.9 
       999.0         0.23          2.1 
      1000.0         0.23          2.6 
      1001.0         0.27          2.2 
      1002.0         0.17          2.1 
      1003.0         0.20          2.0 
      1004.0         0.17          2.1 
      1005.0         0.13          1.9 
      1006.0         0.13          1.9 
      1007.0         0.17          1.8 
      1008.0         0.17          1.5 
      1009.0         0.13          1.9 
      1010.0         0.13          2.0 
      1011.0         0.17          2.6 
      1012.0         0.17          4.0 
      1013.0         0.18          6.4 
      1014.0         0.17          7.6 
      1015.0         0.17          7.7 
      1016.0         0.30          2.3 
      1017.0         0.27          3.6 
      1018.0         0.32          6.0 
      1019.0         0.27          8.9 
      1020.0         0.30          9.5 
      1021.0         0.33          8.1 
      1022.0         0.27          6.1 
      1023.0         0.27          4.9 
      1024.0         0.30          4.3 
      1025.0         0.30          3.3 
      1026.0         0.27          2.4 
      1027.0         0.33          2.0 
      1028.0         0.27          2.4 
      1029.0         0.27          2.2 
      1030.0         0.32          2.1 
      1031.0         0.33          1.9 
      1032.0         0.20          2.1 
      1033.0         0.20          2.6 
      1034.0         0.17          3.4 
      1035.0         0.17          5.1 
      1036.0         0.20          8.7 
      1037.0         0.23         13.5 
      1038.0         0.17         16.2 
      1039.0         0.17         15.7 
      1040.0         0.20         15.5 
      1041.0         0.20         15.7 
      1042.0         0.20         15.1 
      1043.0         0.20         15.2 
      1044.0         0.20         14.9 
      1045.0         0.20         14.1 
      1046.0         0.22         13.3 
      1047.0         0.10         12.0 
      1048.0         0.13         11.1 
      1049.0         0.17         10.0 
      1050.0         0.13          9.2 
      1051.0         0.10          8.1 
      1052.0         0.13          6.8 
      1053.0         0.13          6.3 
      1054.0         0.20          5.3 
      1055.0         0.17          4.3 
      1056.0         0.33          2.9 
      1057.0         0.23          3.8 
      1058.0         0.30          5.7 
      1059.0         0.23          7.7 
      1060.0         0.23          7.6 
      1061.0         0.27          7.0 
      1062.0         0.27          5.9 
      1063.0         0.22          5.2 
      1064.0         0.17          4.6 
      1065.0         0.10          4.1 
      1066.0         0.20          4.0 
      1067.0         0.20          3.4 
      1068.0         0.17          3.6 
      1069.0         0.17          3.2 
      1070.0         0.20          3.6 
      1071.0         0.20          2.9 
      1072.0         0.20          4.0 
      1073.0         0.33          3.7 
      1074.0         0.27          4.2 
      1075.0         0.27          3.9 
      1076.0         0.27          3.3 
      1077.0         0.27          3.6 
      1078.0         0.23          3.3 
      1079.0         0.35          2.9 
      1080.0         0.30          3.5 
      1081.0         0.40          7.1 
      1082.0         0.27         11.7 
      1083.0         0.27         13.9 
      1084.0         0.20         13.3 
      1085.0         0.10         12.9 
      1086.0         0.20         13.0 
      1087.0         0.23         11.3 
      1088.0         0.20          9.9 
      1089.0         0.17          9.0 
      1090.0         0.20          7.8 
      1091.0         0.20          6.9 
      1092.0         0.20          5.7 
      1093.0         0.22          5.0 
      1094.0         0.17          4.8 
      1095.0         0.20          3.8 
      1096.0         0.23          2.9 
      1097.0         0.17          2.5 
      1098.0         0.23          2.0 
      1099.0         0.23          1.6 
      1100.0         0.20          1.5 
      1101.0         0.17          2.0 
      1102.0         0.13          1.4 
      1103.0         0.10          1.5 
      1104.0         0.13          1.6 
      1105.0         0.10          1.5 
      1106.0         0.17          8.1 
      1107.0         0.33         12.0 
      1108.0         0.30         18.0 
      1109.0         0.30         21.1 
      1110.0         0.23         21.1 
      1111.0         0.25         19.6 
      1112.0         0.23         17.8 
