~Version Information
VERS.                      2.0: CWLS Log ASCII Standard - VERSION 2.0
WRAP.                       NO: One line per depth step
~Well Information Block
STRT.FT               395.0000: 
STOP.FT              1998.0000: 
STEP.FT                 0.1000: 
NULL.                -999.2500: 
COMP.          Pioneer Natural Resources: COMPANY
WELL.          Easton 12-30 Tr: WELL
FLD.           Purgatoire River: FIELD
LOC.           549' FWL & 2416' FNL--: LOCATION
PROV.                 Colorado: PROVINCE
CNTY.               Las Animas: COUNTRY
SRVC.                Patterson: SERVICE COMPANY
DATE.          Thu Jun 02 09:14:44 2005: LOG DATE
UWI.           05 071 08379 00: UNIQUE WELL ID
~Curve Information Block
DEPT.FT            0 000 00 00: Depth
DCAL.in                       : CDL Caliper
RHOB.g/cc                     : CDL Bulk Density
RHOC.g/cc                     : CDL Density Correction
DPOR.pu                       : CDL Density Porosity
NPOR.pu                       : Neutron Porosity
GR.GAPI                       : Gamma Ray
~Parameter Information Block
~A  Depth       DCAL        RHOB        RHOC        DPOR        NPOR         GR     
# ...
   606.2000      8.0949      2.5680      0.0124      4.9683     31.7224     98.2508
   606.3000      8.0964      2.5821      0.0176      4.1147     30.9401    105.8015
   606.4000      8.0964      2.5912      0.0602      3.5626     30.0239    111.3987
   606.5000      8.0951      2.5953      0.0172      3.3154     29.1173    114.3555
   606.6000      8.0951      2.6014      0.0520      2.9475     28.2735    114.0626
   606.7000      8.0951      2.6058      0.0681      2.6792     27.7925    110.2342
   606.8000      8.0916      2.6032      0.0375      2.8351     27.8038    106.1167
   606.9000      8.0916      2.6007      0.0409      2.9869     27.9580    105.3738
   607.0000      8.0907      2.6012      0.0506      2.9574     27.8819    107.9405
   607.1000      8.0907      2.5911      0.0557      3.5674     27.6207    110.4084
   607.2000      8.0907      2.5764     -0.0027      4.4595     27.4253    110.3310
   607.3000      8.0929      2.5779      0.0319      4.3714     27.3710    109.5437
   607.4000      8.0929      2.5840      0.0621      4.0000     27.3009    111.2379
   607.5000      8.0943      2.5792      0.0075      4.2897     27.1488    112.3172
   607.6000      8.0943      2.5727      0.0066      4.6844     26.9273    108.1337
   607.7000      8.0943      2.5692      0.0549      4.8945     26.6646    103.0060
   607.8000      8.0935      2.5632      0.0300      5.2611     26.4844    103.5016
   607.9000      8.0935      2.5570      0.0114      5.6356     26.4741    107.9586
   608.0000      8.0939      2.5559      0.0272      5.7028     26.6503    109.8215
   608.1000      8.0939      2.5596      0.0086      5.4816     26.8983    105.4702
   608.2000      8.0939      2.5646      0.0352      5.1742     27.0273     96.1737
   608.3000      8.0947      2.5655      0.0368      5.1210     27.1882     86.6094
   608.4000      8.0947      2.5602      0.0081      5.4420     27.5816     81.3852
   608.5000      8.0944      2.5514      0.0565      5.9772     28.1235     80.7786
   608.6000      8.0944      2.5468      0.0302      6.2574     28.6192     82.6666
   608.7000      8.0944      2.5570      0.0168      5.6379     28.9542     85.7859
   608.8000      8.0934      2.5815      0.0367      4.1495     29.1972     90.4560
   608.9000      8.0934      2.6027      0.1052      2.8638     29.3343     96.4329
   609.0000      8.0936      2.6048      0.0559      2.7366     28.9447    100.9134
   609.1000      8.0936      2.5888      0.1079      3.7069     28.2184    102.0565
   609.2000      8.0936      2.5625      0.0461      5.3037     27.8521    101.9371
   609.3000      8.0934      2.5392      0.0649      6.7174     27.6332    102.2342
   609.4000      8.0934      2.5343      0.0451      7.0128     27.2695    100.5424
   609.5000      8.0935      2.5550      0.0495      5.7572     27.1272     94.5661
   609.6000      8.0935      2.5821      0.0828      4.1136     27.2202     87.4818
   609.7000      8.0935      2.5892      0.0708      3.6821     27.1833     85.3744
   609.8000      8.0956      2.5800      0.0821      4.2424     27.1837     90.4628
   609.9000      8.0956      2.5742      0.0459      4.5920     27.5839     98.2605
   610.0000      8.0973      2.5803      0.0731      4.2240     28.0207    100.6446
   610.1000      8.0973      2.5951      0.0834      3.3284     28.0753     97.0880
   610.2000      8.0973      2.6119      0.1003      2.3072     27.9336     96.6347
   610.3000      8.0991      2.6239      0.0989      1.5820     27.6479    100.6330
   610.4000      8.0991      2.6339      0.0528      0.9768     26.9734    101.0171
   610.5000      8.1028      2.6460      0.1067      0.2425     25.9683     95.9876
   610.6000      8.1028      2.6450      0.1040      0.3056     25.1838     90.0159
   610.7000      8.1028      2.6212      0.0841      1.7472     25.0425     86.5015
   610.8000      8.1071      2.5885      0.0540      3.7278     25.3104     85.4348
   610.9000      8.1071      2.5658      0.0242      5.1008     25.6085     85.6122
   611.0000      8.1117      2.5656      0.0054      5.1150     25.8555     87.2944
   611.1000      8.1117      2.5856      0.0228      3.9056     26.0366     90.0187
   611.2000      8.1117      2.6043      0.0562      2.7706     26.2095     91.4512
   611.3000      8.1163      2.6066     -0.0089      2.6311     26.6121     88.9565
   611.4000      8.1163      2.6028      0.0131      2.8606     27.1806     83.5400
   611.5000      8.1187      2.6012      0.0597      2.9581     27.5587     80.2324
   611.6000      8.1187      2.5969      0.0106      3.2212     27.8596     79.6700
   611.7000      8.1187      2.5892     -0.0051      3.6834     28.2693     81.1032
   611.8000      8.1174      2.5791      0.0219      4.2989     28.5871     84.4273
   611.9000      8.1174      2.5719     -0.0008      4.7344     28.6438     86.3330
   612.0000      8.1154      2.5762      0.0395      4.4722     28.5776     88.0045
   612.1000      8.1154      2.5875      0.0255      3.7866     28.7489     91.6144
   612.2000      8.1154      2.5997      0.0179      3.0488     28.9352     93.9235
   612.3000      8.1165      2.6078      0.0799      2.5562     28.6839     94.7618
   612.4000      8.1165      2.6027      0.1017      2.8694     28.3513     97.6180
   612.5000      8.1184      2.5891      0.0705      3.6923     28.2014    101.2524
   612.6000      8.1184      2.5793      0.0626      4.2863     27.9073    102.4210
   612.7000      8.1184      2.5659      0.0671      5.0973     27.4358    102.4447
   612.8000      8.1174      2.5426      0.0135      6.5099     27.1115    103.7226
   612.9000      8.1174      2.5258     -0.0091      7.5275     27.0232    105.8909
   613.0000      8.1152      2.5268      0.0038      7.4663     27.2340    110.1823
   613.1000      8.1152      2.5303      0.0844      7.2519     27.7921    113.9069
   613.2000      8.1152      2.5254      0.0304      7.5519     28.3463    109.9902
   613.3000      8.1162      2.5328      0.0380      7.1013     28.5258    101.7981
   613.4000      8.1162      2.5612      0.0951      5.3814     28.4177     98.7209
   613.5000      8.1182      2.5888      0.1052      3.7083     28.4228    100.6867
   613.6000      8.1182      2.6045      0.1025      2.7588     28.9456    103.6015
   613.7000      8.1182      2.6103      0.1328      2.4072     29.6880    105.8126
   613.8000      8.1178      2.6067      0.0770      2.6229     29.9591    105.9722
   613.9000      8.1178      2.6007      0.0921      2.9857     29.8628    105.8992
   614.0000      8.1170      2.5994      0.0869      3.0681     29.9637    106.1518
   614.1000      8.1170      2.6042      0.0845      2.7761     30.2498    104.2671
   614.2000      8.1170      2.6147      0.0580      2.1422     30.4160    102.0772
   614.3000      8.1189      2.6209      0.0972      1.7641     30.5008    103.3740
   614.4000      8.1189      2.6109      0.0537      2.3702     30.5942    107.7517
   614.5000      8.1204      2.5933      0.0369      3.4336     30.4136    114.0939
   614.6000      8.1204      2.5813      0.0378      4.1626     29.9178    118.5428
   614.7000      8.1204      2.5714      0.0342      4.7660     29.4032    117.4772
   614.8000      8.1206      2.5568      0.0356      5.6459     28.8635    116.7411
   614.9000      8.1206      2.5390      0.0365      6.7292     28.4560    120.3986
   615.0000      8.1200      2.5240      0.0063      7.6335     28.4675    124.2940
   615.1000      8.1200      2.5163      0.0132      8.1017     28.7360    125.5857
   615.2000      8.1200      2.5159      0.0411      8.1286     28.8537    124.9451
   615.3000      8.1190      2.5250      0.0188      7.5785     28.6313    122.8595
   615.4000      8.1190      2.5433      0.0555      6.4679     28.2155    121.0426
   615.5000      8.1180      2.5589      0.0586      5.5212     27.5137    122.8465
   615.6000      8.1180      2.5593      0.0948      5.4968     26.5285    128.1826
   615.7000      8.1180      2.5523      0.0611      5.9226     25.6056    132.3108
