~Version Information
VERS.                      2.0: CWLS Log ASCII Standard - VERSION 2.0
WRAP.                       NO: One line per depth step
~Well Information Block
STRT.FT                -8.8000: 
STOP.FT              2006.2000: 
STEP.FT                 0.1000: 
NULL.                -999.2500: 
COMP.          Petrogulf Corporation: COMPANY
WELL.             J & P 12-33V: WELL
FLD.           Purgatorie River: FIELD
LOC.           2005' FSL & 1928' FEL: LOCATION
CNTY.               Las Animas: COUNTY
SRVC.                         : SERVICE COMPANY
DATE.          Fri Jul 29 13:37:28 2005: LOG DATE
UWI.                          : UNIQUE WELL ID
STAT.                 Colorado: STATE
~Curve Information Block
DEPT.FT            0 000 00 00: Depth
GR.GAPI                       : Gamma Ray
CCL.                          : Casing Collar Locator
TT3.usec                      : CBL 3' Travel Time
AMP3.mV                       : CBL 3' Amplitude
~Parameter Information Block
~A  Depth        GR         CCL         TT3         AMP3    
# ...
  1451.8000    169.9274      0.0000    256.7393     74.4003
  1451.9000    169.9274      0.0000    256.7393     74.4003
  1452.0000    162.4773      0.0000    256.7388     74.9037
  1452.1000    162.4773      0.0000    256.7388     74.9037
  1452.2000    162.4773      0.0000    256.7388     74.9037
  1452.3000    154.8067      0.0000    256.7556     75.1850
  1452.4000    154.8067      0.0000    256.7556     75.1850
  1452.5000    148.8272      0.0000    256.7765     75.3332
  1452.6000    148.8272      0.0000    256.7765     75.3332
  1452.7000    148.8272      0.0000    256.7765     75.3332
  1452.8000    145.5675      0.0000    256.7868     75.4530
  1452.9000    145.5675      0.0000    256.7868     75.4530
  1453.0000    144.6444      0.0000    256.7825     75.6001
  1453.1000    144.6444      0.0000    256.7825     75.6001
  1453.2000    144.6444      0.0000    256.7825     75.6001
  1453.3000    144.5474      0.0000    256.7707     75.7820
  1453.4000    144.5474      0.0000    256.7707     75.7820
  1453.5000    143.7619      0.0000    256.7612     75.9818
  1453.6000    143.7619      0.0000    256.7612     75.9818
  1453.7000    143.7619      0.0000    256.7612     75.9818
  1453.8000    141.8668      0.0000    256.7595     76.1624
  1453.9000    141.8668      0.0000    256.7595     76.1624
  1454.0000    139.6635      0.0000    256.7719     76.2822
  1454.1000    139.6635      0.0000    256.7719     76.2822
  1454.2000    139.6635      0.0000    256.7719     76.2822
  1454.3000    138.2467      0.0000    256.8028     76.3389
  1454.4000    138.2467      0.0000    256.8028     76.3389
  1454.5000    137.8732      0.0000    256.8386     76.3726
  1454.6000    137.8732      0.0000    256.8386     76.3726
  1454.7000    137.8732      0.0000    256.8386     76.3726
  1454.8000    137.6362      0.0000    256.8603     76.4048
  1454.9000    137.6362      0.0000    256.8603     76.4048
  1455.0000    136.1954      0.0000    256.8649     76.4146
  1455.1000    136.1954      0.0000    256.8649     76.4146
  1455.2000    136.1954      0.0000    256.8649     76.4146
  1455.3000    132.8934      0.0000    256.8608     76.3884
  1455.4000    132.8934      0.0000    256.8608     76.3884
  1455.5000    128.3075      0.0000    256.8594     76.3616
  1455.6000    128.3075      0.0000    256.8594     76.3616
  1455.7000    128.3075      0.0000    256.8594     76.3616
  1455.8000    123.9087      0.0000    256.8683     76.3822
  1455.9000    123.9087      0.0000    256.8683     76.3822
  1456.0000    121.2694      0.0000    256.8775     76.4500
  1456.1000    121.2694      0.0000    256.8775     76.4500
  1456.2000    121.2694      0.0000    256.8775     76.4500
  1456.3000    121.3671      0.0000    256.8728     76.5425
  1456.4000    121.3671      0.0000    256.8728     76.5425
  1456.5000    124.1995      0.0000    256.8617     76.6558
  1456.6000    124.1995      0.0000    256.8617     76.6558
  1456.7000    124.1995      0.0000    256.8617     76.6558
  1456.8000    128.8789      0.0000    256.8651     76.7433
  1456.9000    128.8789      0.0000    256.8651     76.7433
  1457.0000    134.2397      0.0000    256.8890     76.7086
  1457.1000    134.2397      0.0000    256.8890     76.7086
  1457.2000    134.2397      0.0000    256.8890     76.7086
  1457.3000    139.3684      0.0000    256.9180     76.5597
  1457.4000    139.3684      0.0000    256.9180     76.5597
  1457.5000    143.4656      0.0000    256.9377     76.4525
  1457.6000    143.4656      0.0000    256.9377     76.4525
  1457.7000    143.4656      0.0000    256.9377     76.4525
  1457.8000    145.4857      0.0000    256.9551     76.4940
  1457.9000    145.4857      0.0000    256.9551     76.4940
  1458.0000    144.3428      0.0000    256.9837     76.6300
  1458.1000    144.3428      0.0000    256.9837     76.6300
  1458.2000    144.3428      0.0000    256.9837     76.6300
  1458.3000    139.6861      0.0000    257.0170     76.7414
  1458.4000    139.6861      0.0000    257.0170     76.7414
  1458.5000    132.7379      0.0000    257.0352     76.7599
  1458.6000    132.7379      0.0000    257.0352     76.7599
  1458.7000    132.7379      0.0000    257.0352     76.7599
  1458.8000    126.4003      0.0000    257.0321     76.6978
  1458.9000    126.4003      0.0000    257.0321     76.6978
  1459.0000    123.7899      0.0000    257.0232     76.5720
  1459.1000    123.7899      0.0000    257.0232     76.5720
  1459.2000    123.7899      0.0000    257.0232     76.5720
  1459.3000    125.8099      0.0000    257.0287     76.3724
  1459.4000    125.8099      0.0000    257.0287     76.3724
  1459.5000    130.2666      0.0000    257.0565     76.1477
  1459.6000    130.2666      0.0000    257.0565     76.1477
  1459.7000    130.2666      0.0000    257.0565     76.1477
  1459.8000    133.9989      0.0000    257.0982     76.0054
  1459.9000    133.9989      0.0000    257.0982     76.0054
  1460.0000    135.9753      0.0000    257.1395     75.9959
  1460.1000    135.9753      0.0000    257.1395     75.9959
  1460.2000    135.9753      0.0000    257.1395     75.9959
  1460.3000    137.9021      0.0000    257.1654     76.0733
  1460.4000    137.9021      0.0000    257.1654     76.0733
  1460.5000    141.6887      0.0000    257.1541     76.1110
  1460.6000    141.6887      0.0000    257.1541     76.1110
  1460.7000    141.6887      0.0000    257.1541     76.1110
  1460.8000    146.6988      0.0000    257.1016     75.9571
  1460.9000    146.6988      0.0000    257.1016     75.9571
  1461.0000    149.7537      0.0000    257.0424     75.6250
  1461.1000    149.7537      0.0000    257.0424     75.6250
  1461.2000    149.7537      0.0000    257.0424     75.6250
  1461.3000    147.6511      0.0000    257.0147     75.3661
  1461.4000    147.6511      0.0000    257.0147     75.3661
  1461.5000    139.6631      0.0000    257.0258     75.3763
  1461.6000    139.6631      0.0000    257.0258     75.3763
  1461.7000    139.6631      0.0000    257.0258     75.3763
  1461.8000    128.0539      0.0000    257.0539     75.5135
  1461.9000    128.0539      0.0000    257.0539     75.5135
  1462.0000    116.6053      0.0000    257.0697     75.4987
  1462.1000    116.6053      0.0000    257.0697     75.4987
  1462.2000    116.6053      0.0000    257.0697     75.4987
  1462.3000    108.5746      0.0000    257.0617     75.2947
  1462.4000    108.5746      0.0000    257.0617     75.2947
  1462.5000    105.5247      0.0000    257.0411     75.1008
  1462.6000    105.5247      0.0000    257.0411     75.1008
  1462.7000    105.5247      0.0000    257.0411     75.1008
  1462.8000    107.4195      0.0000    257.0222     75.0521
  1462.9000    107.4195      0.0000    257.0222     75.0521
  1463.0000    113.1836      0.0000    257.0071     75.1018
  1463.1000    113.1836      0.0000    257.0071     75.1018
  1463.2000    113.1836      0.0000    257.0071     75.1018
  1463.3000    120.8443      0.0000    256.9967     75.1636
  1463.4000    120.8443      0.0000    256.9967     75.1636
  1463.5000    127.6277      0.0000    256.9996     75.1304
  1463.6000    127.6277      0.0000    256.9996     75.1304
  1463.7000    127.6277      0.0000    256.9996     75.1304
  1463.8000    130.9193      0.0000    257.0290     74.7943
  1463.9000    130.9193      0.0000    257.0290     74.7943
  1464.0000    129.7330      0.0000    257.0855     74.0805
  1464.1000    129.7330      0.0000    257.0855     74.0805
  1464.2000    129.7330      0.0000    257.0855     74.0805
  1464.3000    125.1930      0.0000    257.1425     73.2433
  1464.4000    125.1930      0.0000    257.1425     73.2433
  1464.5000    119.5865      0.0000    257.1631     72.5504
  1464.6000    119.5865      0.0000    257.1631     72.5504
  1464.7000    119.5865      0.0000    257.1631     72.5504
  1464.8000    115.0363      0.0000    257.1377     72.0391
  1464.9000    115.0363      0.0000    257.1377     72.0391
  1465.0000    112.6124      0.0000    257.0905     71.6495
  1465.1000    112.6124      0.0000    257.0905     71.6495
