~Version Information
VERS.                      2.0: CWLS Log ASCII Standard - VERSION 2.0
WRAP.                       NO: One line per depth step
~Well Information Block
STRT.FT               675.0000: 
STOP.FT              2373.5000: 
STEP.FT                 0.2500: 
NULL.                -999.2500: 
COMP.          Pioneer Natural Resources: COMPANY
WELL.            Harrier 44-33: WELL
FLD.           Purgatoire River: FIELD
LOC.           456' FSL & 930' FEL: LOCATION
PROV.                 Colorado: PROVINCE
CNTY.               Las Animas: COUNTRY
SRVC.                Patterson: SERVICE COMPANY
DATE.          Mon Jun 20 07:40:56 2005: LOG DATE
UWI.           05 071 08398 00: UNIQUE WELL ID
~Curve Information Block
DEPT.FT            0 000 00 00: Depth
SN.Ohm-m                      : IEL Short Normal
SP.mV                         : IEL Spontaneous Potential
DIR.Ohm-m                     : IEL Induction Resistivity
GR.GAPI                       : Gamma Ray
~Parameter Information Block
~A  Depth        SN          SP         DIR          GR     
# ...
  2350.0000     17.5776    253.2579     17.1406    119.0961
  2350.2500     17.6643    253.7894     17.2488    122.9855
  2350.5000     17.8367    254.3097     17.3326    128.3725
  2350.7500     18.0227    254.7963     17.3796    131.1805
  2351.0000     18.0970    255.2190     17.3831    133.4004
  2351.2500     17.9969    255.5503     17.3429    133.6423
  2351.5000     17.7783    255.7822     17.2657    133.5199
  2351.7500     17.5833    255.9336     17.1656    134.0724
  2352.0000     17.5168    256.0403     17.0606    136.5653
  2352.2500     17.5155    256.1341     16.9674    139.1007
  2352.5000     17.4153    256.2220     16.8972    143.3895
  2352.7500     17.1573    256.2758     16.8552    146.1109
  2353.0000     16.8360    256.2465     16.8423    148.7678
  2353.2500     16.5824    256.1085     16.8548    148.1164
  2353.5000     16.4614    255.8925     16.8821    139.5057
  2353.7500     16.4260    255.6646     16.9077    126.4550
  2354.0000     16.3449    255.4726     16.9146     95.7875
  2354.2500     16.1617    255.3221     16.8923     71.2462
  2354.5000     15.9706    255.1975     16.8396     37.3840
  2354.7500     15.8783    255.0890     16.7655     20.9361
  2355.0000     15.9184    254.9974     16.6899      6.8655
  2355.2500     16.0684    254.9243     16.6421      2.7480
  2355.5000     16.2793    254.8683     16.6516      0.5297
  2355.7500     16.5239    254.8303     16.7348      0.1456
  2356.0000     16.7735    254.8176     16.8864      0.0134
  2356.2500     16.9623    254.8410     17.0820      0.0000
  2356.5000     17.0502    254.9103     17.2872   -999.2500
  2356.7500     17.0780    255.0350     17.4689   -999.2500
  2357.0000     17.1235    255.2283     17.6036   -999.2500
  2357.2500     17.2301    255.5017     17.6840   -999.2500
  2357.5000     17.3713    255.8490     17.7201   -999.2500
  2357.7500     17.4760    256.2330     17.7331   -999.2500
  2358.0000     17.5362    256.5930     17.7454   -999.2500
  2358.2500     17.6226    256.8734     17.7701   -999.2500
  2358.5000     17.7515    257.0521     17.8071   -999.2500
  2358.7500     17.8422    257.1444     17.8465   -999.2500
  2359.0000     17.8328    257.1882     17.8751   -999.2500
  2359.2500     17.7629    257.2265     17.8836   -999.2500
  2359.5000     17.7391    257.2979     17.8692   -999.2500
  2359.7500     17.8537    257.4281     17.8364   -999.2500
  2360.0000     18.1051    257.6180     17.7958   -999.2500
  2360.2500     18.4051    257.8351     17.7632   -999.2500
  2360.5000     18.6354    258.0193     17.4626   -999.2500
  2360.7500     18.6558    258.1082     17.4918   -999.2500
  2361.0000     18.3956    258.0704     17.5619   -999.2500
  2361.2500     17.9975    257.9187     17.6671   -999.2500
  2361.5000     17.7145    257.6955     17.7939   -999.2500
  2361.7500     17.6309    257.4434     17.9230   -999.2500
  2362.0000     17.6249    257.1888     18.0325   -999.2500
  2362.2500     17.5829    256.9449     18.1018   -999.2500
  2362.5000     17.4957    256.7222     18.1242   -999.2500
  2362.7500     17.4159    256.5315     18.1228   -999.2500
  2363.0000     17.3940    256.3774     18.1645   -999.2500
  2363.2500     17.4127    256.2521     18.3676   -999.2500
  2363.5000     17.4195    256.1390     18.9038   -999.2500
  2363.7500     17.4116    256.0210     19.9975   -999.2500
  2364.0000     17.4117    255.8847     22.4693   -999.2500
  2364.2500     17.3951    255.7182     25.6651   -999.2500
  2364.5000     17.3269    255.5101     30.2785   -999.2500
  2364.7500     17.2276    255.2522     36.2119   -999.2500
  2365.0000     17.1435    254.9423     42.7222   -999.2500
  2365.2500     17.1047    254.5806     48.5150   -999.2500
  2365.5000     17.1252    254.1656     52.5575   -999.2500
  2365.7500     17.2135    253.6922     54.7757   -999.2500
  2366.0000     17.3449    253.1534     55.7906   -999.2500
  2366.2500     17.4280    252.5441     56.2837   -999.2500
  2366.5000     17.3801    251.8663     56.7117   -999.2500
  2366.7500     17.2204    251.1291     57.3208   -999.2500
  2367.0000     17.0312    250.3387 100000.0000   -999.2500
  2367.2500     16.8726    249.4894 100000.0000   -999.2500
  2367.5000     16.7619    248.5687 100000.0000   -999.2500
  2367.7500     16.6999    247.5663 100000.0000   -999.2500
  2368.0000     16.6834    246.4736 100000.0000   -999.2500
  2368.2500     16.6876    245.2621 100000.0000   -999.2500
  2368.5000     16.6807    243.8453 100000.0000   -999.2500
  2368.7500     16.6584    241.8483 100000.0000   -999.2500
  2369.0000     16.6392    237.9846 100000.0000   -999.2500
  2369.2500     16.6591    229.0734 100000.0000   -999.2500
  2369.5000     16.7179    209.8078 100000.0000   -999.2500
  2369.7500     16.6792    175.2386 100000.0000   -999.2500
  2370.0000     16.1430    125.8442 100000.0000   -999.2500
  2370.2500     14.3030     70.3931 100000.0000   -999.2500
  2370.5000     10.5439     21.7180 100000.0000   -999.2500
  2370.7500      5.7328    -11.6263 100000.0000   -999.2500
  2371.0000      1.8351    -29.4364 100000.0000   -999.2500
  2371.2500     -0.1760    -36.8501 100000.0000   -999.2500
  2371.5000     -0.8393    -39.2546 100000.0000   -999.2500
  2371.7500     -0.9794    -39.8621 100000.0000   -999.2500
  2372.0000     -0.9984    -39.9817 100000.0000   -999.2500
  2372.2500   -999.2500   -999.2500 100000.0000   -999.2500
  2372.5000   -999.2500   -999.2500 100000.0000   -999.2500
  2372.7500   -999.2500   -999.2500 100000.0000   -999.2500
  2373.0000   -999.2500   -999.2500 100000.0000   -999.2500
  2373.2500   -999.2500   -999.2500 100000.0000   -999.2500
  2373.5000   -999.2500   -999.2500 100000.0000   -999.2500
