~Version Information
VERS.                      2.0: CWLS Log ASCII Standard - VERSION 2.0
WRAP.                       NO: One line per depth step
~Well Information Block
STRT.FT               -14.2500: 
STOP.FT              2177.5000: 
STEP.FT                 0.2500: 
NULL.                -999.2500: 
COMP.          Evergreen Operating Corp.: COMPANY
WELL.            Triumph 13-10: WELL
FLD.           Purgatorie River: FIELD
LOC.           1551' FSL & 522' FWL--: LOCATION
PROV.                       CO: PROVINCE
CNTY.               Las Animas: COUNTRY
SRVC.                         : SERVICE COMPANY
DATE.          Sat Aug 21 09:27:32 2004: LOG DATE
UWI.           005 071 08108 : UNIQUE WELL ID
~Curve Information Block
DEPT.FT            0 000 00 00: Depth
CCL.                          : Casing Collar Locator
TT3.usec                      : CBL 3' Travel Time
AMP3.mV                       : CBL 3' Amplitude
GR.GAPI                       : Gamma Ray
~Parameter Information Block
~A  Depth       CCL         TT3         AMP3         GR     
# ...
  1124.7500      0.0000    706.5179      3.4332     61.2196
  1125.0000      0.0000    709.8938      3.1563     60.4775
  1125.2500      0.0000    711.5408      3.0524     61.4834
  1125.5000      0.0000    711.4067      3.1610     63.7189
  1125.7500      0.0000    709.3846      3.3914     66.2047
  1126.0000      0.0000    705.4864      3.5750     68.1242
  1126.2500      0.0000    700.3750      3.5827     69.0658
  1126.5000      0.0000    695.0142      3.4335     68.8438
  1126.7500      0.0000    688.6075      3.2822     67.3624
  1127.0000      0.0000    676.9293      3.2760     64.7892
  1127.2500      0.0000    654.7768      3.4159     61.7412
  1127.5000      0.0000    622.3541      3.5678     59.2049
  1127.7500      0.0000    588.7219      3.6114     58.2756
  1128.0000      0.0000    565.6927      3.5590     59.7810
  1128.2500      0.0000    556.3120      3.5118     63.6891
  1128.5000      0.0000    551.1689      3.5205     68.6529
  1128.7500      0.0000    538.6791      3.5402     72.6105
  1129.0000      0.0000    518.6719      3.5246     74.4250
  1129.2500      0.0000    503.8616      3.5016     74.9910
  1129.5000      0.0000    507.9349      3.5196     76.4833
  1129.7500      0.0000    532.9364      3.5677     80.2697
  1130.0000      0.0000    567.6018      3.6015     85.4219
  1130.2500      0.0000    597.2945      3.6164     89.2372
  1130.5000      0.0000    615.9390      3.6410     89.2007
  1130.7500      0.0000    628.2020      3.6827     84.6670
  1131.0000      0.0000    640.7642      3.7276     77.2307
  1131.2500      0.0000    653.9726      3.7774     69.7304
  1131.5000      0.0000    663.2484      3.8334     64.3601
  1131.7500      0.0000    666.2696      3.8607     61.1805
  1132.0000      0.0000    666.0535      3.8219     58.5741
  1132.2500      0.0000    666.9359      3.7409     55.3226
  1132.5000      0.0000    669.4514      3.6783     52.0364
  1132.7500     -1.8353    670.9078      3.6491     50.5444
  1133.0000      2.0000    670.6115      3.6223     52.2609
  1133.2500      0.0000    671.7484      3.5993     57.2072
  1133.5000      0.0000    676.7956      3.6250     64.0371
  1133.7500      0.0000    682.9952      3.7116     70.6015
  1134.0000      0.0000    684.4897      3.8062     74.8938
  1134.2500      0.0000    678.6931      3.8452     76.0811
  1134.5000      0.0000    669.8739      3.8103     74.8854
  1134.7500      0.0000    666.0151      3.7318     73.1266
  1135.0000      0.0000    671.6127      3.6595     73.0202
  1135.2500      0.0000    683.8375      3.6202     76.4958
  1135.5000      0.0000    696.0095      3.5937     84.1946
  1135.7500      0.0000    703.3758      3.5397     94.6124
  1136.0000      0.0000    704.9401      3.4453    104.8484
  1136.2500      0.0000    701.7489      3.3282    112.8421
  1136.5000      0.0000    695.5267      3.2151    118.5887
  1136.7500      0.0000    688.5108      3.1478    123.1416
  1137.0000      0.0000    683.0102      3.1797    127.3111
  1137.2500      0.0000    680.4629      3.3237    131.4462
  1137.5000      0.0000    681.1674      3.5254    135.3217
  1137.7500      0.0000    684.6353      3.7079    137.9711
  1138.0000      0.0000    689.6877      3.8151    138.6376
  1138.2500      0.0000    694.5080      3.8215    138.1025
  1138.5000      0.0000    697.2453      3.7466    138.1996
  1138.7500      0.0000    696.5383      3.6491    139.8430
  1139.0000      0.0000    691.5640      3.5703    142.0478
  1139.2500      0.0000    682.3524      3.5073    142.9345
  1139.5000      0.0000    670.6441      3.4535    141.2477
  1139.7500      0.0000    660.3264      3.4186    136.9952
  1140.0000      0.0000    656.1341      3.4022    131.4433
  1140.2500      0.0000    660.5789      3.3914    126.8668
  1140.5000      0.0000    671.8197      3.3880    125.4926
  1140.7500      0.0000    685.0923      3.4113    127.7465
  1141.0000      0.0000    696.0068      3.4814    131.5106
  1141.2500      0.0000    702.0455      3.6019    133.6481
  1141.5000      0.0000    701.7943      3.7495    132.4387
  1141.7500      0.0000    694.5917      3.8917    128.4898
  1142.0000      0.0000    682.1850      4.0170    123.5031
  1142.2500      0.0000    670.0426      4.1239    118.6524
  1142.5000      0.0000    664.4248      4.1901    114.4565
  1142.7500      0.0000    666.2179      4.1862    111.7314
  1143.0000      0.0000    669.1877      4.1083    111.5485
  1143.2500      0.0000    666.8120      3.9820    113.8853
  1143.5000      0.0000    660.3571      3.8500    117.0692
  1143.7500      0.0000    657.8796      3.7525    119.0152
  1144.0000      0.0000    664.8857      3.6923    118.7282
  1144.2500      0.0000    678.0173      3.6365    116.6956
  1144.5000      0.0000    688.2691      3.5669    114.4777
  1144.7500      0.0000    688.2915      3.5051    114.0049
  1145.0000      0.0000    676.3605      3.4882    116.4245
  1145.2500      0.0000    656.6099      3.5463    121.1740
  1145.5000      0.0000    637.4561      3.6871    126.4445
  1145.7500      0.0000    628.0084      3.8768    130.7912
  1146.0000      0.0000    632.8422      4.0496    134.1603
  1146.2500      0.0000    648.1348      4.1462    137.2594
  1146.5000      0.0000    663.4993      4.1448    140.1844
  1146.7500      0.0000    670.2916      4.0697    142.0551
  1147.0000      0.0000    669.6458      3.9702    141.8612
  1147.2500      0.0000    670.9036      3.8872    139.2951
  1147.5000      0.0000    681.0683      3.8461    135.0329
  1147.7500      0.0000    697.4383      3.8667    130.6327
  1148.0000      0.0000    711.6162      3.9460    127.8651
  1148.2500      0.0000    718.3633      4.0378    127.6426
  1148.5000      0.0000    718.6430      4.0735    129.4100
  1148.7500      0.0000    716.2346      4.0134    131.5853
  1149.0000      0.0000    713.9140      3.8747    132.5362
  1149.2500      0.0000    712.5435      3.7098    131.2166
  1149.5000      0.0000    711.9250      3.5724    127.3791
  1149.7500      0.0000    711.6552      3.5112    122.1105
  1150.0000      0.0000    711.4807      3.5619    118.0036
  1150.2500      0.0000    711.2333      3.7047    117.4628
  1150.5000      0.0000    710.6592      3.8485    120.3771
  1150.7500      0.0000    709.2028      3.8931    124.2417
  1151.0000      0.0000    705.9131      3.8147    126.7535
  1151.2500      0.0000    699.7597      3.6736    127.5927
  1151.5000      0.0000    690.5121      3.5418    127.8179
  1151.7500      0.0000    679.6209      3.4374    128.5973
  1152.0000      0.0000    670.0521      3.3418    130.9023
  1152.2500      0.0000    664.7451      3.2596    135.7896
  1152.5000      0.0000    664.9075      3.2341    144.1507
  1152.7500      0.0000    669.7307      3.3026    155.7002
  1153.0000      0.0000    677.4172      3.4448    167.9829
  1153.2500      0.0000    685.9119      3.5826    176.8519
  1153.5000      0.0000    692.8461      3.6361    178.8982
  1153.7500      0.0000    695.9419      3.5804    173.9889
  1154.0000      0.0000    694.3043      3.4529    165.2489
  1154.2500      0.0000    689.0644      3.3171    156.5780
  1154.5000      0.0000    682.1165      3.2206    150.4387
  1154.7500      0.0000    673.8178      3.1785    147.5048
  1155.0000      0.0000    661.6121      3.1813    147.1238
  1155.2500      0.0000    640.9534      3.2078    147.6995
  1155.5000      0.0000    608.7034      3.2357    147.7313
  1155.7500      0.0000    567.2181      3.2464    147.1754
  1156.0000      0.0000    525.4496      3.2347    147.2734
  1156.2500      0.0000    495.2833      3.2167    148.8502
  1156.5000      0.0000    485.8741      3.2201    151.3910
  1156.7500      0.0000    499.6498      3.2638    153.6626
  1157.0000      0.0000    530.5367      3.3518    154.3042
  1157.2500      0.0000    565.4691      3.4722    151.9464
  1157.5000      0.0000    591.5416      3.5895    146.0070
  1157.7500      0.0000    604.9836      3.6508    137.8007
  1158.0000      0.0000    611.9928      3.6245    130.0480
