~Version Information
VERS.                      2.0: CWLS Log ASCII Standard - VERSION 2.0
WRAP.                       NO: One line per depth step
~Well Information Block
STRT.FT                -7.2500: 
STOP.FT               868.2500: 
STEP.FT                 0.2500: 
NULL.                -999.2500: 
COMP.          Pioneer Natural Resources: COMPANY
WELL.              Venom 32-22: WELL
FLD.           Purgatorie River: FIELD
LOC.           2307' FNL & 2024' FWL--: LOCATION
PROV.                       CO: PROVINCE
CNTY.               Las Animas: COUNTRY
SRVC.          Patterson Wireline: SERVICE COMPANY
DATE.          Mon May 16 15:26:38 2005: LOG DATE
UWI.           05 071 08361 00: UNIQUE WELL ID
~Curve Information Block
DEPT.FT            0 000 00 00: Depth
CCL.                          : Casing Collar Locator
TT3.usec                      : CBL 3' Travel Time
AMP3.mV                       : CBL 3' Amplitude
GR.GAPI                       : Gamma Ray
~Parameter Information Block
~A  Depth       CCL         TT3         AMP3         GR     
# ...
   394.7500      0.0000    636.6017      6.0206     86.4855
   395.0000      0.0000    642.5079      6.0371     90.5694
   395.2500      0.0000    659.4294      6.0468     92.8535
   395.5000      0.0000    690.5765      6.0091     91.7816
   395.7500      0.0000    732.6256      5.8943     87.1296
   396.0000      0.0000    776.5803      5.7021     80.7261
   396.2500      0.0000    812.7880      5.4819     75.4338
   396.5000      0.0000    835.7231      5.3043     73.0894
   396.7500      0.0000    844.6023      5.1967     73.2036
   397.0000      0.0000    841.1796      5.1198     73.6999
   397.2500      0.0000    828.4876      5.0135     73.0811
   397.5000      0.0000    810.9415      4.8496     71.4911
   397.7500      0.0000    793.6907      4.6450     69.4612
   398.0000      0.0000    780.9485      4.4520     66.6286
   398.2500      0.0000    775.1364      4.3385     62.4599
   398.5000      0.0000    777.4673      4.3481     57.4535
   398.7500      0.0000    788.3289      4.4621     52.8116
   399.0000      0.0000    806.2175      4.6059     49.3396
   399.2500      0.0000    826.7800      4.6985     47.1561
   399.5000      0.0000    844.3677      4.6973     46.1879
   399.7500      0.0000    855.2686      4.6135     46.5632
   400.0000      0.0000    859.1935      4.5005     48.3999
   400.2500      0.0000    857.9645      4.4197     51.2875
   400.5000      0.0000    853.7404      4.3970     54.1977
   400.7500      0.0000    848.5164      4.4118     56.0506
   401.0000      0.0000    844.1384      4.4295     56.3710
   401.2500      0.0000    841.8620      4.4337     55.5333
   401.5000      0.0000    841.7930      4.4205     54.5468
   401.7500      0.0000    842.9212      4.3827     54.5252
   402.0000      0.0000    843.9202      4.3176     56.0761
   402.2500      0.0000    844.2162      4.2451     59.0735
   402.5000      0.0000    844.0923      4.1979     62.9422
   402.7500      0.0000    843.5215      4.1945     66.9218
   403.0000      0.0000    841.5004      4.2298     70.0414
   403.2500      0.0000    837.2817      4.2830     71.3127
   403.5000      0.0000    831.9620      4.3242     70.3509
   403.7500      0.0000    828.1992      4.3247     67.9024
   404.0000      0.0000    828.3718      4.2742     65.7635
   404.2500      0.0000    833.1614      4.1920     66.0845
   404.5000      0.0000    841.3711      4.1150     70.3889
   404.7500      0.0000    850.6039      4.0753     78.9260
   405.0000      0.0000    858.3593      4.0963     90.5775
   405.2500      0.0000    863.0565      4.2005    103.0806
   405.5000      0.0000    864.3804      4.3992    113.6529
   405.7500      0.0000    862.9975      4.6670    120.2162
   406.0000      0.0000    860.1107      4.9423    122.5098
   406.2500      0.0000    856.9960      5.1650    122.0470
   406.5000      0.0000    854.5225      5.3149    121.0455
   406.7500      0.0000    852.9323      5.4135    121.3068
   407.0000      0.0000    852.0239      5.4958    123.5995
   407.2500      0.0000    851.4592      5.5868    127.4712
   407.5000      0.0000    850.8763      5.7004    131.4219
   407.7500      0.0000    849.7756      5.8420    133.5966
   408.0000      0.0000    847.4507      5.9928    132.7695
   408.2500      0.0000    843.3572      6.1076    129.0093
   408.5000      0.0000    837.9524      6.1550    123.6631
   408.7500      0.0000    833.1636      6.1539    118.7997
   409.0000      0.0000    831.4577      6.1489    116.3048
   409.2500      0.0000    833.9364      6.1563    117.0204
   409.5000      0.0000    839.3600      6.1598    120.4536
   409.7500      0.0000    845.1993      6.1539    125.1821
   410.0000      0.0000    849.5389      6.1586    129.6091
   410.2500      0.0000    851.9493      6.1904    132.5965
   410.5000      0.0000    852.9753      6.2433    133.6614
   410.7500      0.0000    853.2911      6.3002    132.7836
   411.0000      0.0000    853.3242      6.3495    130.2792
   411.2500      0.0000    853.2844      6.3824    126.8983
   411.5000      0.0000    853.2640      6.3874    123.7439
   411.7500      0.0000    853.2800      6.3581    121.7100
   412.0000      0.0000    853.3000      6.3059    120.7706
   412.2500      0.0000    853.2788      6.2578    119.8093
   412.5000      0.0000    853.2007      6.2397    117.2801
   412.7500      0.0000    853.1043      6.2688    112.3124
   413.0000      0.0000    853.1109      6.3504    105.3889
   413.2500      0.0000    853.5181      6.4563     98.0089
   413.5000      0.0000    854.9161      6.5080     91.7128
   413.7500      0.0000    858.0431      6.4258     87.3757
   414.0000      0.0000    863.1182      6.2121     85.2269
   414.2500      0.0000    869.0121      5.9519     85.3189
   414.5000      0.0000    873.3391      5.7199     87.7728
   414.7500      0.0000    873.9930      5.5240     92.4101
   415.0000      0.0000    870.9429      5.3487     98.3576
   415.2500      2.0000    866.5214      5.2107    104.4716
   415.5000      0.0000    863.9667      5.1528    110.0466
   415.7500      0.0000    865.2922      5.2089    114.5987
   416.0000      0.0000    869.6624      5.3773    117.2124
   416.2500      0.0000    873.6277      5.5994    117.0178
   416.5000      0.0000    873.7902      5.7733    114.4054
   416.7500      0.0000    869.6890      5.8330    111.0727
   417.0000      0.0000    863.8173      5.8076    108.7107
   417.2500      0.0000    859.0563      5.7681    107.9906
   417.5000      0.0000    856.6913      5.7402    108.6768
   417.7500      0.0000    856.5793      5.7006    110.0152
   418.0000      0.0000    858.1724      5.6291    110.9057
   418.2500      0.0000    860.9062      5.5259    110.3080
   418.5000      0.0000    864.0562      5.3964    107.9246
   418.7500      0.0000    866.8254      5.2505    104.4475
   419.0000      0.0000    868.7390      5.1118    101.1435
   419.2500      0.0000    869.8112      5.0034     99.2835
   419.5000      0.0000    870.3080      4.9241     99.7869
   419.7500      0.0000    870.4431      4.8485    102.9671
   420.0000      0.0000    870.2545      4.7543    108.2587
   420.2500      0.0000    869.6454      4.6468    114.1947
   420.5000      0.0000    868.5563      4.5553    118.9420
   420.7500      0.0000    867.1335      4.5083    121.2993
   421.0000      0.0000    865.6255      4.5116    121.6599
   421.2500      0.0000    864.0592      4.5474    122.0169
   421.5000      0.0000    862.1649      4.5914    124.4095
   421.7500      0.0000    859.7028      4.6331    128.9746
   422.0000      0.0000    856.6949      4.6774    133.8170
   422.2500      0.0000    853.3605      4.7265    136.8088
   422.5000      0.0000    850.2200      4.7742    137.1700
   422.7500      0.0000    848.3995      4.8165    135.4483
   423.0000      0.0000    849.2570      4.8555    132.6178
   423.2500      0.0000    853.1256      4.8923    129.4672
   423.5000      0.0000    858.6268      4.9233    126.5868
   423.7500      0.0000    863.6438      4.9440    124.5541
   424.0000      0.0000    866.8399      4.9508    123.6727
   424.2500      0.0000    868.0699      4.9444    123.3029
   424.5000      0.0000    867.7407      4.9322    121.9983
   424.7500      0.0000    866.2504      4.9185    119.1274
   425.0000      0.0000    864.0125      4.8935    116.3311
   425.2500      0.0000    861.6682      4.8467    116.4801
   425.5000      0.0000    859.9810      4.7910    120.6993
   425.7500      0.0000    859.4246      4.7597    126.9127
   426.0000      0.0000    859.8591      4.7776    131.8451
   426.2500      0.0000    860.6122      4.8419    134.0607
   426.5000      0.0000    860.9136      4.9286    134.3452
   426.7500      0.0000    860.3745      5.0070    133.6635
   427.0000      0.0000    859.1658      5.0548    132.0882
   427.2500      0.0000    857.7963      5.0680    129.8788
   427.5000      0.0000    856.7474      5.0569    128.2639
   427.7500      0.0000    856.3008      5.0342    128.2231
   428.0000      0.0000    856.5799      5.0121    128.9123
