~Version Information
VERS.                      2.0: CWLS Log ASCII Standard - VERSION 2.0
WRAP.                       NO: One line per depth step
~Well Information Block
STRT.FT                -9.5000: 
STOP.FT              2451.0000: 
STEP.FT                 0.2500: 
NULL.                -999.2500: 
COMP.          Petrogulf Corporation: COMPANY
WELL.           Vallejo 19-31V: WELL
FLD.           Purgatorie River: FIELD
LOC.           345' FNL & 2457' FEL: LOCATION
CNTY.               Las Animas: COUNTY
SRVC.                         : SERVICE COMPANY
DATE.          Mon Mar 08 08:24:37 2004: LOG DATE
UWI.           05-071-07919-00: UNIQUE WELL ID
STAT.                 Colorado: STATE
~Curve Information Block
DEPT.FT            0 000 00 00: Depth
MINMK.                        : Surface Line Tension
GR.GAPI                       : Gamma Ray
CCL.                          : Casing Collar Locator
TT3.usec                      : CBL 3' Travel Time
AMP3.mV                       : CBL 3' Amplitude
~Parameter Information Block
~A  Depth      MINMK         GR         CCL         TT3         AMP3    
    -9.5000   -999.2500   -999.2500   -999.2500   -999.2500   -999.2500
    -9.2500   -999.2500   -999.2500   -999.2500   -999.2500   -999.2500
    -9.0000   -999.2500   -999.2500   -999.2500   -999.2500   -999.2500
    -8.7500   -999.2500   -999.2500   -999.2500   -999.2500   -999.2500
    -8.5000   -999.2500   -999.2500   -999.2500   -999.2500   -999.2500
    -8.2500   -999.2500   -999.2500   -999.2500   -999.2500   -999.2500
    -8.0000   -999.2500   -999.2500   -999.2500   -999.2500   -999.2500
    -7.7500   -999.2500   -999.2500   -999.2500   -999.2500   -999.2500
    -7.5000   -999.2500   -999.2500   -999.2500   -999.2500   -999.2500
    -7.2500   -999.2500   -999.2500   -999.2500   1424.3224   -999.2500
    -7.0000   -999.2500   -999.2500   -999.2500   1424.1454      1.5328
    -6.7500   -999.2500   -999.2500   -999.2500   1424.0436      1.5356
    -6.5000   -999.2500   -999.2500   -999.2500   1424.0087      1.5537
    -6.2500   -999.2500   -999.2500   -999.2500   1424.0011      1.5943
    -6.0000   -999.2500   -999.2500   -999.2500   1424.0001      1.6164
    -5.7500   -999.2500   -999.2500   -999.2500   1424.0010      1.6177
    -5.5000   -999.2500   -999.2500   -999.2500   1424.0076      1.6205
    -5.2500   -999.2500   -999.2500   -999.2500   1424.0360      1.6097
    -5.0000   -999.2500   -999.2500   -999.2500   1424.1094      1.5874
    -4.7500   -999.2500   -999.2500   -999.2500   1424.2140      1.5963
    -4.5000   -999.2500   -999.2500   -999.2500   1424.2737      1.6292
    -4.2500   -999.2500   -999.2500   -999.2500   1424.2500      1.6318
    -4.0000   -999.2500   -999.2500   -999.2500   1424.2263      1.6060
    -3.7500   -999.2500   -999.2500   -999.2500   1424.2860      1.5935
    -3.5000   -999.2500   -999.2500   -999.2500   1424.3905      1.5876
    -3.2500   -999.2500   -999.2500   -999.2500   1424.4630      1.5682
    -3.0000   -999.2500   -999.2500   -999.2500   1424.4847      1.5568
    -2.7500   -999.2500   -999.2500   -999.2500   1424.4619      1.5626
    -2.5000   -999.2500   -999.2500   -999.2500   1424.3829      1.5694
    -2.2500   -999.2500   -999.2500   -999.2500   1424.2500      1.5793
    -2.0000   -999.2500   -999.2500   -999.2500   1424.1171      1.5898
    -1.7500   -999.2500   -999.2500   -999.2500   1424.0370      1.5883
    -1.5000   -999.2500   -999.2500      0.0000   1424.0077      1.5825
    -1.2500   -999.2500   -999.2500      0.0000   1424.0010      1.5721
    -1.0000   -999.2500   -999.2500      0.0000   1424.0001      1.5515
    -0.7500   -999.2500   -999.2500      0.0000   1424.0000      1.5387
    -0.5000   -999.2500   -999.2500      0.0000   1424.0000      1.5354
    -0.2500   -999.2500   -999.2500      0.0000   1424.0000      1.5318
     0.0000   -999.2500   -999.2500      0.0000   1424.0000      1.5485
     0.2500   -999.2500   -999.2500      0.0000   1424.0000      1.5887
     0.5000   -999.2500   -999.2500      0.0000   1424.0001      1.6210
     0.7500   -999.2500   -999.2500      0.0000   1424.0010      1.6399
     1.0000   -999.2500   -999.2500      0.0000   1424.0076      1.6491
     1.2500   -999.2500   -999.2500      0.0000   1424.0360      1.6341
     1.5000   -999.2500   -999.2500      0.0000   1424.1094      1.6093
     1.7500   -999.2500   -999.2500      0.0000   1424.2130      1.5990
     2.0000   -999.2500   -999.2500      0.0000   1424.2660      1.5975
     2.2500      0.0000   -999.2500      0.0000   1424.2130      1.5973
     2.5000      0.0000   -999.2500      0.0000   1424.1094      1.5937
     2.7500      0.0000   -999.2500      0.0000   1424.0361      1.5852
     3.0000      0.0000   -999.2500      0.0000   1424.0087      1.5853
     3.2500      0.0000   -999.2500      0.0000   1424.0087      1.5923
     3.5000      0.0000     63.3195      0.0000   1424.0361      1.5931
     3.7500      0.0000     61.9563      0.0000   1424.1094      1.5886
     4.0000      0.0000     60.0435      0.0000   1424.2130      1.5719
     4.2500      0.0000     57.9730      0.0000   1424.2660      1.5458
     4.5000      0.0000     55.9416      0.0000   1424.2130      1.5399
     4.7500      0.0000     54.0151      0.0000   1424.1094      1.5565
     5.0000      0.0000     52.3529      0.0000   1424.0361      1.5721
     5.2500      0.0000     51.2918      0.0000   1424.0087      1.5786
     5.5000      0.0000     51.2344      0.0000   1424.0087      1.5730
     5.7500      0.0000     52.3199      0.0000   1424.0361      1.5619
     6.0000      0.0000     54.0143      0.0000   1424.0673      1.5594
     6.2500      0.0000     55.1584      0.0000   1423.6864      1.5673
     6.5000      0.0000     54.8067      0.0000   1420.1377      1.5862
     6.7500      0.0000     53.1016      0.0000   1402.8956      1.6113
     7.0000      0.0000     51.2022      0.0000   1349.6888      1.6319
     7.2500      0.0000     50.4180      0.0000   1242.4706      1.6393
     7.5000      0.0000     51.4350      0.0000   1099.3484      1.6335
     7.7500      0.0000     54.0181      0.0000    971.7924      1.6374
     8.0000      0.0000     57.1959      0.0000    896.9731      1.6787
     8.2500      0.0000     59.9327      0.0000    863.7569      1.8620
     8.5000      0.0000     61.7431      0.0000    825.5740      2.7527
     8.7500      0.0000     62.5670      0.0000    740.6413      6.1573
     9.0000      0.0000     62.2815      0.0000    604.0679     15.2774
     9.2500      0.0000     60.7270      0.0000    455.0603     31.7221
     9.5000      0.0000     58.1399      0.0000    345.3990     51.3201
     9.7500      0.0000     55.1690      0.0000    291.9306     66.6459
    10.0000      0.0000     52.4259      0.0000    274.9107     74.5248
    10.2500      0.0000     50.2729      0.0000    271.3686     77.2228
    10.5000      0.0000     48.9576      0.0000    270.8186     77.8349
    10.7500      0.0000     48.5270      0.0000    270.7243     77.8778
    11.0000      0.0000     48.5973      0.0000    270.7422     77.8028
    11.2500      0.0000     48.6212      0.0000    270.7367     77.7330
    11.5000      0.0000     48.4545      0.0000    270.5981     77.6690
    11.7500      0.0000     48.3823      0.0000    270.3681     77.4498
    12.0000      0.0000     48.6485      0.0000    270.1976     76.7883
    12.2500      0.0000     49.2479      0.0000    270.1975     75.5621
    12.5000      0.0000     50.1590      0.0000    270.3670     74.1535
    12.7500      0.0000     51.5262      0.0000    270.5895     73.2203
    13.0000      0.0000     53.5396      0.0000    270.6931     72.9965
    13.2500      0.0000     56.2888      0.0000    270.5970     73.1543
    13.5000      0.0000     59.7922      0.0000    270.4030     73.3262
    13.7500      0.0000     63.9592      0.0000    270.3070     73.4216
    14.0000      0.0000     68.2567      0.0000    270.4117     73.4883
    14.2500      0.0000     71.5091      0.0000    270.6417     73.5294
    14.5000      0.0000     72.3986      0.0000    270.8470     73.4723
    14.7500      0.0000     70.3737      0.0000    270.9543     73.1540
    15.0000      0.0000     66.0475      0.0000    270.9826     72.3789
    15.2500      0.0000     60.7907      0.0000    270.9542     71.1630
    15.5000      0.0000     55.9895      0.0000    270.8459     69.8854
    15.7500      0.0000     52.4993      0.0000    270.6341     69.0126
    16.0000      0.0000     50.6175      0.0000    270.3757     68.6955
    16.2500      0.0000     50.4591      0.0000    270.1988     68.7416
    16.5000      0.0000     52.1025      0.0000    270.1988     68.8665
    16.7500      0.0000     55.1929      0.0000    270.3757     68.9107
    17.0000      0.0000     58.5743      0.0000    270.6341     68.8764
    17.2500      0.0000     60.6665      0.0000    270.8459     68.8118
    17.5000      0.0000     60.4574      0.0000    270.9543     68.7308
    17.7500      0.0000     58.1357      0.0000    270.9837     68.6374
    18.0000      0.0000     54.7484      0.0000    270.9628     68.5383
    18.2500      0.0000     51.4079      0.0000    270.8895     68.4231
