~Version Information
VERS.                      2.0: CWLS Log ASCII Standard - VERSION 2.0
WRAP.                       NO: One line per depth step
~Well Information Block
STRT.FT               450.0000: 
STOP.FT              1739.2500: 
STEP.FT                 0.2500: 
NULL.                -999.2500: 
COMP.          Pioneer Natural Resources: COMPANY
WELL.            Harlee L 34-9: WELL
FLD.           Purgatoire River: FIELD
LOC.           600' FSL & 2125' FEL: LOCATION
PROV.                 Colorado: PROVINCE
CNTY.               Las Animas: COUNTRY
SRVC.                Patterson: SERVICE COMPANY
DATE.          Wed Jan 26 02:00:08 2005: LOG DATE
UWI.           05 071 08009 00: UNIQUE WELL ID
~Curve Information Block
DEPT.FT            0 000 00 00: Depth
SN.Ohm-m                      : IEL Short Normal
SP.mV                         : IEL Spontaneous Potential
DIR.Ohm-m                     : IEL Induction Resistivity
GR.GAPI                       : Gamma Ray
~Parameter Information Block
~A  Depth        SN          SP         DIR          GR     
# ...
   785.0000   2000.0000   2000.0000     14.1325     62.1294
   785.2500   2000.0000   2000.0000     14.4744     59.0889
   785.5000   2000.0000   2000.0000     14.6784     59.5784
   785.7500   2000.0000   2000.0000     14.7031     62.7644
   786.0000   2000.0000   2000.0000     14.5095     70.6473
   786.2500   2000.0000   2000.0000     14.0816     77.1877
   786.5000   2000.0000   2000.0000     13.4479     87.5910
   786.7500   2000.0000   2000.0000     12.6806     94.2427
   787.0000   2000.0000   2000.0000     11.8704    103.1487
   787.2500   2000.0000   2000.0000     11.0972    108.4238
   787.5000   2000.0000   2000.0000     10.4138    115.6901
   787.7500   2000.0000   2000.0000      9.8453    119.9782
   788.0000   2000.0000   2000.0000      9.3970    124.6460
   788.2500   2000.0000   2000.0000      9.0632    126.0828
   788.5000   2000.0000   2000.0000      8.8343    125.8370
   788.7500   2000.0000   2000.0000      8.7000    124.6978
   789.0000   2000.0000   2000.0000      8.6499    122.8170
   789.2500   2000.0000   2000.0000      8.6745    121.9997
   789.5000   2000.0000   2000.0000      8.7661    121.8686
   789.7500   2000.0000   2000.0000      8.9215    122.4233
   790.0000   2000.0000   2000.0000      9.1416    123.4081
   790.2500   2000.0000   2000.0000      9.4278    123.4633
   790.5000   2000.0000   2000.0000      9.7787    121.6134
   790.7500   2000.0000   2000.0000     10.1864    118.8557
   791.0000   2000.0000   2000.0000     10.6361    112.9667
   791.2500   2000.0000   2000.0000     11.1021    108.6931
   791.5000   2000.0000   2000.0000     11.5426    103.2141
   791.7500   2000.0000   2000.0000     11.8989    100.4425
   792.0000   2000.0000   2000.0000     12.1062     96.8681
   792.2500   2000.0000   2000.0000     12.1151     94.3700
   792.5000   2000.0000   2000.0000     11.9105     90.8291
   792.7500   2000.0000   2000.0000     11.5167     89.6430
   793.0000   2000.0000   2000.0000     10.9872     91.5322
   793.2500   2000.0000   2000.0000     10.3853     95.5573
   793.5000   2000.0000   2000.0000      9.7659    104.4284
   793.7500   2000.0000   2000.0000      9.1659    110.8177
   794.0000   2000.0000   2000.0000      8.6048    118.7846
   794.2500   2000.0000   2000.0000      8.0909    122.2281
   794.5000   2000.0000   2000.0000      7.6277    124.7057
   794.7500   2000.0000   2000.0000      7.2177    125.3392
   795.0000   2000.0000   2000.0000      6.8637    126.1735
   795.2500   2000.0000   2000.0000      6.5684    126.9485
   795.5000   2000.0000   2000.0000      6.3320    128.0426
   795.7500   2000.0000   2000.0000      6.1515    128.4209
   796.0000   2000.0000   2000.0000      6.0198    128.4072
   796.2500   2000.0000   2000.0000      5.9280    128.1729
   796.5000   2000.0000   2000.0000      5.8663    127.7121
   796.7500   2000.0000   2000.0000      5.8260    127.4832
   797.0000   2000.0000   2000.0000      5.7994    127.7473
   797.2500   2000.0000   2000.0000      5.7801    128.5349
   797.5000   2000.0000   2000.0000      5.7624    130.2621
   797.7500   2000.0000   2000.0000      5.7428    131.2529
   798.0000   2000.0000   2000.0000      5.7214    131.9260
   798.2500   2000.0000   2000.0000      5.7030    131.8844
   798.5000   2000.0000   2000.0000      5.6976    131.4461
   798.7500   2000.0000   2000.0000      5.7184    131.0217
   799.0000   2000.0000   2000.0000      5.7795    130.1925
   799.2500   2000.0000   2000.0000      5.8922    129.4923
   799.5000   2000.0000   2000.0000      6.0626    128.1173
   799.7500   2000.0000   2000.0000      6.2901    126.7619
   800.0000   2000.0000   2000.0000      6.5674    123.4040
   800.2500   2000.0000   2000.0000      6.8841    119.9955
   800.5000   2000.0000   2000.0000      7.2308    113.4522
   800.7500   2000.0000   2000.0000      7.6029    108.9807
   801.0000   2000.0000   2000.0000      8.0015    104.4120
   801.2500   2000.0000   2000.0000      8.4303    104.1006
   801.5000   2000.0000   2000.0000      8.8916    108.5409
   801.7500   2000.0000   2000.0000      9.3816    113.9462
   802.0000   2000.0000   2000.0000      9.8865    122.5980
   802.2500   2000.0000   2000.0000     10.3794    126.8237
   802.5000   2000.0000   2000.0000     10.8238    129.1147
   802.7500   2000.0000   2000.0000     11.1847    128.0672
   803.0000   2000.0000   2000.0000     11.4449    123.8979
   803.2500   2000.0000   2000.0000     11.6132    120.1741
   803.5000   2000.0000   2000.0000     11.7180    114.4123
   803.7500   2000.0000   2000.0000     11.7925    111.2247
   804.0000   2000.0000   2000.0000     11.8618    108.5751
   804.2500   2000.0000   2000.0000     11.9390    108.4795
   804.5000   2000.0000   2000.0000     12.0270    110.3144
   804.7500   2000.0000   2000.0000     12.1198    112.1519
   805.0000   2000.0000   2000.0000     12.2019    114.5762
   805.2500   2000.0000   2000.0000     12.2473    115.5791
   805.5000   2000.0000   2000.0000     12.2262    116.3079
   805.7500   2000.0000   2000.0000     12.1196    116.5857
   806.0000   2000.0000   2000.0000     11.9338    116.8283
   806.2500   2000.0000   2000.0000     11.7008    116.5720
   806.5000   2000.0000   2000.0000     11.4641    114.9316
   806.7500   2000.0000   2000.0000     11.2581    113.0371
   807.0000   2000.0000   2000.0000     11.0954    109.9888
   807.2500   2000.0000   2000.0000     10.9663    108.5540
   807.5000   2000.0000   2000.0000     10.8481    107.8758
   807.7500   2000.0000   2000.0000     10.7190    108.2247
   808.0000   2000.0000   2000.0000     10.5685    109.2746
   808.2500   2000.0000   2000.0000     10.4007    110.0253
   808.5000   2000.0000   2000.0000     10.2291    111.0995
   808.7500   2000.0000   2000.0000     10.0696    111.9173
   809.0000   2000.0000   2000.0000      9.9348    113.7110
   809.2500   2000.0000   2000.0000      9.8313    115.4552
   809.5000   2000.0000   2000.0000      9.7585    118.7513
   809.7500   2000.0000   2000.0000      9.7083    120.9691
   810.0000   2000.0000   2000.0000      9.6670    123.1796
   810.2500   2000.0000   2000.0000      9.6192    123.3992
   810.5000   2000.0000   2000.0000      9.5550    121.9945
   810.7500   2000.0000   2000.0000      9.4771    120.5138
   811.0000   2000.0000   2000.0000      9.4029    118.5306
   811.2500   2000.0000   2000.0000      9.3591    117.5908
   811.5000   2000.0000   2000.0000      9.3705    116.4559
   811.7500   2000.0000   2000.0000      9.4517    115.6083
   812.0000   2000.0000   2000.0000      9.6061    114.1916
   812.2500   2000.0000   2000.0000      9.8304    113.4614
   812.5000   2000.0000   2000.0000     10.1186    113.0338
   812.7500   2000.0000   2000.0000     10.4616    112.8755
   813.0000   2000.0000   2000.0000     10.8439    111.7451
   813.2500   2000.0000   2000.0000     11.2423    110.1528
   813.5000   2000.0000   2000.0000     11.6294    107.4296
   813.7500   2000.0000   2000.0000     11.9796    106.2625
   814.0000   2000.0000   2000.0000     12.2726    106.2566
   814.2500   2000.0000   2000.0000     12.4942    107.2731
   814.5000   2000.0000   2000.0000     12.6362    109.7034
   814.7500   2000.0000   2000.0000     12.6955    111.6544
   815.0000   2000.0000   2000.0000     12.6728    114.6602
   815.2500   2000.0000   2000.0000     12.5696    116.2576
   815.5000   2000.0000   2000.0000     12.3869    116.9154
   815.7500   2000.0000   2000.0000     12.1274    115.7616
   816.0000   2000.0000   2000.0000     11.8023    112.0833
   816.2500   2000.0000   2000.0000     11.4375    109.2758
   816.5000   2000.0000   2000.0000     11.0707    106.6768
   816.7500   2000.0000   2000.0000     10.7392    107.0738
   817.0000   2000.0000   2000.0000     10.4669    111.2704
   817.2500   2000.0000   2000.0000     10.2569    115.5628
   817.5000   2000.0000   2000.0000     10.0935    121.4725
   817.7500   2000.0000   2000.0000      9.9515    123.7195
   818.0000   2000.0000   2000.0000      9.8071    124.0828
   818.2500   2000.0000   2000.0000      9.6461    123.0205
