~Version Information
VERS.                      2.0: CWLS Log ASCII Standard - VERSION 2.0
WRAP.                       NO: One line per depth step
~Well Information Block
STRT.FT                12.0000: 
STOP.FT              1671.7500: 
STEP.FT                 0.2500: 
NULL.                -999.2500: 
COMP.          Pioneer Natural Resources: COMPANY
WELL.          Scott Canyon 11-18 Tr: WELL
FLD.           Purgatoire River: FIELD
LOC.           411' FNL & 580' FWL: LOCATION
PROV.                 Colorado: PROVINCE
CNTY.               Las Animas: COUNTRY
SRVC.                Patterson: SERVICE COMPANY
DATE.          Tue Feb 22 09:52:18 2005: LOG DATE
UWI.           05 071 08286 00: UNIQUE WELL ID
~Curve Information Block
DEPT.FT            0 000 00 00: Depth
GR.GAPI                       : Gamma Ray
CCL.                          : Casing Collar Locator
TT3.usec                      : CBL 3' Travel Time
AMP3.mV                       : CBL 3' Amplitude
~Parameter Information Block
~A  Depth        GR         CCL         TT3         AMP3    
# ...
  1653.5000     94.9468      0.0000    826.3262      6.6222
  1653.7500     96.0360      0.0000    826.4957      6.6485
  1654.0000     97.6180      0.0000    826.4171      6.6528
  1654.2500     99.5587      0.0000    826.1661      6.6460
  1654.5000    101.1628      0.0000    825.6300      6.6496
  1654.7500    101.3571      0.0000    824.3632      6.6781
  1655.0000     99.1958      0.0000    821.5605      6.7292
  1655.2500     94.3918      0.0000    816.4688      6.7874
  1655.5000     87.5724      0.0000    809.1713      6.8306
  1655.7500     80.1520      0.0000    800.9881      6.8347
  1656.0000     73.9047      0.0000    793.2299      6.7746
  1656.2500     70.2528      0.0000    784.0530      6.6132
  1656.5000     69.4280      0.0000    764.4999      6.2794
  1656.7500     70.0835      0.0000    717.4536      5.6590
  1657.0000     69.9764      0.0000    625.4354      4.6504
  1657.2500     67.5057      0.0000    487.0211      3.2858
  1657.5000     62.8547      0.0000    326.9429      1.7989
  1657.7500     57.5942      0.0000    183.9436      0.5158
  1658.0000     53.1406      0.0000     84.9457     -0.3539
  1658.2500     49.7738      0.0000     31.7244     -0.8151
  1658.5000     47.0804      0.0000      9.4802     -1.0061
  1658.7500     44.7789      0.0000      2.2470     -1.0679
  1659.0000     42.8447      0.0000      0.4164     -1.0834
  1659.2500     41.2771      0.0000      0.0554     -1.0865
  1659.5000     40.0443      0.0000   -999.2500   -999.2500
  1659.7500     39.1069      0.0000   -999.2500   -999.2500
  1660.0000     38.5488      0.0000   -999.2500   -999.2500
  1660.2500     38.8476      0.0000   -999.2500   -999.2500
  1660.5000     40.9245      0.0000   -999.2500   -999.2500
  1660.7500     45.8082      0.0000   -999.2500   -999.2500
  1661.0000     54.1407      0.0000   -999.2500   -999.2500
  1661.2500     65.6541      0.0000   -999.2500   -999.2500
  1661.5000     78.5985      0.0000   -999.2500   -999.2500
  1661.7500     89.6392      0.0000   -999.2500   -999.2500
  1662.0000     95.2340      0.0000   -999.2500   -999.2500
  1662.2500     94.1204      0.0000   -999.2500   -999.2500
  1662.5000     88.3452      0.0000   -999.2500   -999.2500
  1662.7500     81.2781      0.0000   -999.2500   -999.2500
  1663.0000     74.8778      0.0000   -999.2500   -999.2500
  1663.2500     69.2269      0.0000   -999.2500   -999.2500
  1663.5000     64.0074      0.0000   -999.2500   -999.2500
  1663.7500     59.4495      0.0000   -999.2500   -999.2500
  1664.0000     55.8460      0.0000   -999.2500   -999.2500
  1664.2500     52.8152      0.0000   -999.2500   -999.2500
  1664.5000     49.4767      0.0000   -999.2500   -999.2500
  1664.7500     45.3477      0.0000   -999.2500   -999.2500
  1665.0000     40.9377   -999.2500   -999.2500   -999.2500
  1665.2500     37.4625   -999.2500   -999.2500   -999.2500
  1665.5000     35.9165   -999.2500   -999.2500   -999.2500
  1665.7500     36.3233   -999.2500   -999.2500   -999.2500
  1666.0000     37.8719   -999.2500   -999.2500   -999.2500
  1666.2500     39.7310   -999.2500   -999.2500   -999.2500
  1666.5000     41.4913   -999.2500   -999.2500   -999.2500
  1666.7500     42.7991   -999.2500   -999.2500   -999.2500
  1667.0000     43.0328   -999.2500   -999.2500   -999.2500
  1667.2500     41.6046   -999.2500   -999.2500   -999.2500
  1667.5000     38.2620   -999.2500   -999.2500   -999.2500
  1667.7500     32.9247   -999.2500   -999.2500   -999.2500
  1668.0000     25.7369   -999.2500   -999.2500   -999.2500
  1668.2500     17.5985   -999.2500   -999.2500   -999.2500
  1668.5000     10.1607   -999.2500   -999.2500   -999.2500
  1668.7500      4.8222   -999.2500   -999.2500   -999.2500
  1669.0000      1.8467   -999.2500   -999.2500   -999.2500
  1669.2500      0.5640   -999.2500   -999.2500   -999.2500
  1669.5000      0.1361   -999.2500   -999.2500   -999.2500
  1669.7500      0.0257   -999.2500   -999.2500   -999.2500
  1670.0000      0.0036   -999.2500   -999.2500   -999.2500
  1670.2500      0.0000   -999.2500   -999.2500   -999.2500
  1670.5000   -999.2500   -999.2500   -999.2500   -999.2500
  1670.7500   -999.2500   -999.2500   -999.2500   -999.2500
  1671.0000   -999.2500   -999.2500   -999.2500   -999.2500
  1671.2500   -999.2500   -999.2500   -999.2500   -999.2500
  1671.5000   -999.2500   -999.2500   -999.2500   -999.2500
  1671.7500   -999.2500   -999.2500   -999.2500   -999.2500
