~Version Information
VERS.                      2.0: CWLS Log ASCII Standard - VERSION 2.0
WRAP.                       NO: One line per depth step
~Well Information Block
STRT.FT               430.0000: 
STOP.FT              2417.0000: 
STEP.FT                 0.1000: 
NULL.                -999.2500: 
COMP.          Evergreen Operating Corporation: COMPANY
WELL.          McCullough 34-32: WELL
FLD.           Purgatorie River: FIELD
LOC.           261' FSL & 2098' FEL: LOCATION
PROV.                 Colorado: PROVINCE
CNTY.               Las Animas: COUNTRY
SRVC.                Patterson: SERVICE COMPANY
DATE.          Mon May 17 11:25:23 2004: LOG DATE
UWI.           05 071 07953 00: UNIQUE WELL ID
~Curve Information Block
DEPT.FT            0 000 00 00: Depth
DCAL.in                       : CDL Caliper
RHOB.g/cc                     : CDL Bulk Density
RHOC.g/cc                     : CDL Density Correction
DPOR.pu                       : CDL Density Porosity
NPOR.pu                       : Neutron Porosity
GR.GAPI                       : Gamma Ray
~Parameter Information Block
~A  Depth       DCAL        RHOB        RHOC        DPOR        NPOR         GR     
# ...
  2129.2000      8.3226      2.4815      0.2458     10.2151     27.1105     96.2438
  2129.3000      8.0539      2.4631      0.1809     11.3298     27.6067     94.0147
  2129.4000      8.0539      2.4137      0.0870     14.3213     28.6180     90.2734
  2129.5000      8.0702      2.3413      0.0118     18.7102     29.7298     84.4006
  2129.6000      8.0702      2.2423     -0.0083     24.7062     30.7034     77.6021
  2129.7000      8.0702      2.1091     -0.0537     32.7810     31.7526     75.8162
  2129.8000      7.9551      1.9580     -0.1416     41.9414     32.8777     81.4731
  2129.9000      7.9551      1.8253     -0.1719     49.9839     33.6552     88.0026
  2130.0000      7.9421      1.7373     -0.1666     55.3163     33.9555     92.2451
  2130.1000      7.9421      1.7009     -0.1454     57.5205     34.3294     98.3304
  2130.2000      7.9421      1.7131     -0.0437     56.7799     35.2260    106.3633
  2130.3000      7.9686      1.7619      0.0888     53.8225     36.0493    108.0486
  2130.4000      7.9686      1.8298      0.2672     49.7118     36.0889     98.1527
  2130.5000      8.0604      1.9073      0.3150     45.0119     35.6428     86.9933
  2130.6000      8.0604      1.9937      0.3454     39.7755     35.3504     87.0739
  2130.7000      8.0604      2.0772      0.3627     34.7176     35.4850     97.0643
  2130.8000      8.1964      2.1300      0.3618     31.5142     35.8572    105.3597
  2130.9000      8.1964      2.1219      0.3442     32.0053     36.3449    102.7872
  2131.0000      8.3481      2.0314      0.3010     37.4884     36.9554     94.7150
  2131.1000      8.3481      1.8656      0.2273     47.5380     37.2089     91.0532
  2131.2000      8.3481      1.6721      0.1161     59.2681     36.8014     92.8487
  2131.3000      8.6276      1.5149      0.0253     68.7965     36.0259     97.6615
  2131.4000      8.6276      1.4409     -0.0219     73.2807     35.1654    101.2921
  2131.5000      9.1114      1.4692      0.0087     71.5618     34.4824    100.5099
  2131.6000      9.1114      1.5921      0.1027     64.1130     33.9627     99.3669
  2131.7000      9.1114      1.7675      0.2929     53.4856     33.1880    102.2702
  2131.8000     10.1059      1.9348      0.3776     43.3451     32.0577    106.2005
  2131.9000     10.1059      2.0665      0.3873     35.3632     30.7994    105.6625
  2132.0000     11.5945      2.1759      0.4186     28.7362     29.4847    101.8632
  2132.1000     11.5945      2.2736      0.4004     22.8098     28.5186    101.1783
  2132.2000     11.5945      2.3502      0.3549     18.1667     28.4849    103.5643
  2132.3000     12.8990      2.3939      0.3033     15.5185     28.7815    106.1073
  2132.4000     12.8990      2.4099      0.2435     14.5517     28.6227    111.5877
  2132.5000     14.1726      2.4112      0.1743     14.4738     28.6240    120.7102
  2132.6000     14.1726      2.3947      0.1373     15.4713     29.5338    126.1033
  2132.7000     14.1726      2.3503      0.1092     18.1655     30.9204    124.5161
  2132.8000     13.8465      2.2932      0.0512     21.6245     31.8489    122.1857
  2132.9000     13.8465      2.2556      0.0065     23.9048     31.9979    120.6937
  2133.0000     11.0336      2.2469      0.0061     24.4288     31.6380    119.4103
  2133.1000     11.0336      2.2574     -0.0101     23.7944     31.2265    118.0111
  2133.2000     11.0336      2.2715      0.0758     22.9366     31.2182    116.2762
  2133.3000      9.3463      2.2604      0.1971     23.6150     31.4871    119.0092
  2133.4000      9.3463      2.2146      0.1525     26.3894     31.4937    125.3449
  2133.5000      8.3260      2.1736      0.1596     28.8717     31.1950    126.4663
  2133.6000      8.3260      2.1712      0.2654     29.0202     30.7649    119.7895
  2133.7000      8.3260      2.2024      0.2814     27.1251     30.1039    113.8372
  2133.8000      8.1656      2.2589      0.2516     23.7039     29.4168    110.1943
  2133.9000      8.1656      2.3313      0.3265     19.3175     29.1600    106.6431
  2134.0000      8.1407      2.3969      0.3622     15.3399     29.3934    107.6203
  2134.1000      8.1407      2.4372      0.3904     12.8944     29.8947    114.5292
  2134.2000      8.1407      2.4485      0.3809     12.2146     30.3785    120.9412
  2134.3000      8.0313      2.4375      0.3647     12.8788     30.3972    123.0297
  2134.4000      8.0313      2.4219      0.2488     13.8266     29.9033    125.3297
  2134.5000      7.9978      2.4242      0.1665     13.6857     29.5159    131.2598
  2134.6000      7.9978      2.4451      0.1469     12.4164     29.4215    137.6505
  2134.7000      7.9978      2.4664      0.1382     11.1267     29.2377    139.5564
  2134.8000      8.0477      2.4810      0.1287     10.2410     28.8050    137.1462
  2134.9000      8.0477      2.4935      0.1460      9.4847     28.3204    132.3566
  2135.0000      8.1022      2.5045      0.1252      8.8176     28.1570    126.6514
  2135.1000      8.1022      2.5092      0.1291      8.5342     28.4074    122.9492
  2135.2000      8.1022      2.5039      0.1295      8.8526     28.5992    123.8892
  2135.3000      8.1113      2.4901      0.1277      9.6921     28.3064    127.6894
  2135.4000      8.1113      2.4679      0.1491     11.0379     27.8487    129.8113
  2135.5000      8.0670      2.4310      0.1460     13.2741     27.6714    131.9332
  2135.6000      8.0670      2.3785      0.0991     16.4531     28.0310    137.6020
  2135.7000      8.0670      2.3239      0.0333     19.7612     29.0436    141.3045
  2135.8000      7.9979      2.2823      0.0384     22.2846     30.3155    137.5813
  2135.9000      7.9979      2.2641     -0.0057     23.3906     31.0516    129.4868
  2136.0000      8.0043      2.2799      0.0439     22.4315     30.8571    123.1596
  2136.1000      8.0043      2.3303      0.1129     19.3744     30.1861    119.5732
  2136.2000      8.0043      2.3951      0.1927     15.4487     29.6931    117.4454
  2136.3000      8.2307      2.4415      0.2740     12.6370     29.3205    117.3521
  2136.4000      8.2307      2.4538      0.2461     11.8885     28.7585    123.4370
  2136.5000      8.7618      2.4417      0.2762     12.6237     28.2779    136.2272
  2136.6000      8.7618      2.4197      0.1988     13.9602     28.1046    144.5090
  2136.7000      8.7618      2.4054      0.1347     14.8231     27.9837    139.6062
  2136.8000      8.5722      2.4160      0.1172     14.1792     27.7702    129.3789
  2136.9000      8.5722      2.4462      0.1710     12.3513     27.6915    126.3490
  2137.0000      8.2266      2.4695      0.1564     10.9398     27.6423    131.1478
  2137.1000      8.2266      2.4727      0.1197     10.7426     27.0976    132.8963
  2137.2000      8.2266      2.4697      0.0962     10.9262     26.4368    127.0108
  2137.3000      8.0548      2.4749      0.1072     10.6145     26.5952    119.3190
  2137.4000      8.0548      2.4860      0.1511      9.9410     27.1605    114.5649
  2137.5000      8.1184      2.4994      0.1672      9.1289     27.2246    111.7997
  2137.6000      8.1184      2.5149      0.2001      8.1865     26.9784    109.9813
  2137.7000      8.1184      2.5275      0.1607      7.4238     26.9275    109.2414
  2137.8000      8.1611      2.5283      0.1783      7.3741     26.9232    108.6506
  2137.9000      8.1611      2.5126      0.1318      8.3257     26.9660    110.3537
  2138.0000      8.1364      2.4932      0.0657      9.5040     27.2472    112.5473
  2138.1000      8.1364      2.4861      0.1078      9.9314     27.6835    108.4430
  2138.2000      8.1364      2.4903      0.0792      9.6785     28.1861    101.2755
  2138.3000      8.1644      2.4928      0.1058      9.5250     28.5727     97.6698
  2138.4000      8.1644      2.4884      0.0457      9.7940     28.6913     96.1085
  2138.5000      8.1631      2.4874      0.0036      9.8519     28.3785     94.1684
  2138.6000      8.1631      2.4938      0.0381      9.4666     27.7338     93.3738
  2138.7000      8.1631      2.4996      0.0908      9.1175     27.1849     93.1682
