~Version Information
VERS.                      2.0: CWLS Log ASCII Standard - VERSION 2.0
WRAP.                       NO: One line per depth step
~Well Information Block
STRT.FT                -6.5000: 
STOP.FT              1719.0000: 
STEP.FT                 0.5000: 
NULL.                -999.2500: 
COMP.          Pioneer Natural Resources: COMPANY
WELL.             Tami J 23-18: WELL
FLD.           Purgatorie River: FIELD
LOC.           2250' FSL & 2400' FWL: LOCATION
PROV.                 Colorado: PROVINCE
CNTY.               Las Animas: COUNTRY
SRVC.          Patterson Wireline: SERVICE COMPANY
DATE.          Fri Dec 17 13:50:12 2004: LOG DATE
UWI.           05-071-08073-00: UNIQUE WELL ID
~Curve Information Block
DEPT.FT            0 000 00 00: Depth
CCL.                          : Casing Collar Locator
TT3.usec                      : CBL 3' Travel Time
AMP3.mV                       : CBL 3' Amplitude
GR.GAPI                       : Gamma Ray
~Parameter Information Block
~A  Depth       CCL         TT3         AMP3         GR     
# ...
  1333.5000      0.0000    659.9858      5.3692     41.5012
  1334.0000      0.0000    656.1899      5.6319     46.3050
  1334.5000      0.0000    671.2331      5.8556     67.6853
  1335.0000      0.0000    717.5994      5.9430     98.7638
  1335.5000      0.0000    740.9033      5.9448    118.6603
  1336.0000      0.0000    707.5668      5.8487    126.9758
  1336.5000      0.0000    673.6428      5.7109    128.7011
  1337.0000      0.0000    665.4691      5.6209    120.7723
  1337.5000      0.0000    669.4022      5.8287    115.2381
  1338.0000      0.0000    672.0702      6.0477    119.9055
  1338.5000      0.0000    661.0422      6.0876    128.9442
  1339.0000      0.0000    655.9061      6.0131    135.8517
  1339.5000      0.0000    661.7989      5.8444    129.5759
  1340.0000      0.0000    673.5140      5.4966    115.6899
  1340.5000      0.0000    690.5067      5.0653    108.6399
  1341.0000      0.0000    721.1321      4.9175    105.9764
  1341.5000      0.0000    770.3801      5.2577    106.9219
  1342.0000      0.0000    793.1298      5.7266    113.0170
  1342.5000      0.0000    767.7926      5.7745    118.2136
  1343.0000      0.0000    731.0464      5.4571    119.6123
  1343.5000      0.0000    706.7271      5.1568    116.4096
  1344.0000      0.0000    689.1780      5.2468    113.1583
  1344.5000      0.0000    659.0463      5.6657    117.4389
  1345.0000      0.0000    607.5320      5.9186    123.8338
  1345.5000      0.0000    569.8458      5.8859    124.7298
  1346.0000      0.0000    561.0703      5.8616    119.1613
  1346.5000      0.0000    563.1255      5.8792    110.6807
  1347.0000      0.0000    563.3614      5.7516    111.5147
  1347.5000      0.0000    561.9624      5.4801    117.0300
  1348.0000      0.0000    561.0944      5.2638    110.6437
  1348.5000      0.0000    561.6891      5.3441    100.5243
  1349.0000      0.0000    562.8164      5.6714    100.2598
  1349.5000      0.0000    563.7877      5.9445    114.6443
  1350.0000      0.0000    565.3321      5.8861    127.4740
  1350.5000      0.0000    567.0355      5.7204    127.5471
  1351.0000      0.0000    567.0298      5.8126    121.3236
  1351.5000      0.0000    565.4628      6.1000    114.1692
  1352.0000      0.0000    564.2024      6.2181    109.8366
  1352.5000      0.0000    563.6377      6.1249    105.7306
  1353.0000      0.0000    562.9622      6.0111    104.8339
  1353.5000      0.0000    563.9521      5.9633    109.0725
  1354.0000      0.0000    579.3698      5.8978    114.3238
  1354.5000      0.0000    632.9710      5.6819    117.3844
  1355.0000      0.0000    705.2998      5.3677    117.3023
  1355.5000      0.0000    714.3998      5.3332    120.6651
  1356.0000      0.0000    655.5740      5.5616    126.0799
  1356.5000      0.0000    604.1664      5.6855    129.2449
  1357.0000      0.0000    588.0179      5.7971    126.7903
  1357.5000      0.0000    587.0057      5.7507    114.7342
  1358.0000      0.0000    586.6753      5.6881    103.1386
  1358.5000      0.0000    583.6008      5.8932     99.2873
  1359.0000      0.0000    577.8192      5.9368     96.0347
  1359.5000      0.0000    575.2475      5.8899    100.0948
  1360.0000      0.0000    588.5504      5.6722    113.7609
  1360.5000      0.0000    616.1978      5.3687    119.0491
  1361.0000      0.0000    642.5046      5.0200    110.2740
  1361.5000      0.0000    640.2984      4.7330     93.5780
  1362.0000      0.0000    624.2004      4.7305     81.6277
  1362.5000      0.0000    625.5996      4.4403     89.6427
  1363.0000      0.0000    648.6177      3.8970    110.9349
  1363.5000      0.0000    652.0369      3.8219    128.4191
  1364.0000      0.0000    612.4751      4.1629    129.1594
  1364.5000      0.0000    574.7516      4.7495    120.8536
  1365.0000      0.0000    565.9056      5.3106    116.7132
  1365.5000      0.0000    567.7234      5.4665    114.7372
  1366.0000      0.0000    569.6033      5.4260    108.6299
  1366.5000      0.0000    572.2367      5.3844    104.2465
  1367.0000      0.0000    572.1070      5.2168    109.2882
  1367.5000      0.0000    562.0721      4.9919    118.4839
  1368.0000      0.0000    547.8746      5.0717    120.5789
  1368.5000      0.0000    546.4996      5.3902    115.7917
  1369.0000      0.0000    558.1080      5.5014    114.7653
  1369.5000      0.0000    565.8881      5.4322    117.8246
  1370.0000      0.0000    564.2374      5.0767    115.2415
  1370.5000      0.0000    560.3661      4.8554    108.0385
  1371.0000      0.0000    557.6511      4.6236    108.2983
  1371.5000      0.0000    555.5881      4.7582    114.3838
  1372.0000      0.0000    555.4164      5.2307    118.6691
  1372.5000      0.0000    568.6752      5.0859    118.4957
  1373.0000      0.0000    610.2015      4.7986    112.6853
  1373.5000      0.0000    657.6002      4.8787    100.2608
  1374.0000      0.0000    678.0162      4.9964     87.5642
  1374.5000      0.0000    671.1596      4.9817     87.6149
  1375.0000      0.0000    634.1729      4.9700    102.4821
  1375.5000      0.0000    583.0202      4.7025    114.1252
  1376.0000      0.0000    556.3575      4.6211    119.7741
  1376.5000      0.0000    560.9358      5.0398    122.1769
  1377.0000      0.0000    593.4213      5.2758    117.4269
  1377.5000      0.0000    637.8043      4.9822    105.6276
  1378.0000      0.0000    654.7203      4.6831     96.5268
  1378.5000      5.0000    638.8157      4.6586     97.6754
  1379.0000      0.0000    657.5948      4.6397    107.7405
  1379.5000      0.0000    723.2537      4.3977    119.9720
  1380.0000      0.0000    742.7794      4.1037    119.1572
  1380.5000      0.0000    712.4948      4.0201    104.7019
  1381.0000      0.0000    709.6344      3.9460     91.9395
  1381.5000      0.0000    735.0226      4.2483     87.2188
  1382.0000      0.0000    754.1372      4.7673     92.1710
  1382.5000      0.0000    756.5134      4.8872    102.8285
  1383.0000      0.0000    729.2339      4.9369    102.9711
  1383.5000      0.0000    699.0740      5.3125     90.2158
  1384.0000      0.0000    688.6765      5.9778     78.1936
  1384.5000      0.0000    684.7559      6.2498     73.1201
  1385.0000      0.0000    691.1791      5.8860     79.0669
  1385.5000      0.0000    713.1473      5.6028     94.7388
  1386.0000      0.0000    708.6161      5.8613    109.9717
  1386.5000      0.0000    649.1025      6.0650    117.9921
  1387.0000      0.0000    578.0458      6.1009    114.6446
  1387.5000      0.0000    564.6086      6.2324    103.6294
  1388.0000      0.0000    626.1595      6.1590     89.3796
  1388.5000      0.0000    711.2639      5.7347     74.5552
  1389.0000      0.0000    750.9512      5.2772     60.8145
  1389.5000      0.0000    742.1389      5.1779     51.4503
  1390.0000      0.0000    740.3933      5.2758     50.6770
  1390.5000      0.0000    738.2028      4.9464     56.0494
  1391.0000      0.0000    713.9904      4.3004     54.9738
  1391.5000      0.0000    700.6596      3.8858     45.2127
  1392.0000      0.0000    729.7023      4.0283     42.7746
  1392.5000      0.0000    762.9719      4.3251     51.1002
  1393.0000      0.0000    755.9935      4.4928     64.3079
  1393.5000      0.0000    729.7859      4.7362     74.8345
  1394.0000      0.0000    705.3801      5.3581     76.8098
  1394.5000      0.0000    684.5680      5.9388     75.2550
  1395.0000      0.0000    645.4279      6.0294     76.0157
  1395.5000      0.0000    594.8284      5.7216     76.8099
  1396.0000      0.0000    586.1886      5.7581     78.3174
  1396.5000      0.0000    618.4604      5.9367     77.6128
  1397.0000      0.0000    636.8073      5.7765     75.6911
  1397.5000      0.0000    641.5915      5.4857     74.9194
  1398.0000      0.0000    651.0683      5.4588     75.7941
  1398.5000      0.0000    666.1205      5.4361     80.4109
  1399.0000      0.0000    687.6836      5.4214     88.5551
  1399.5000      0.0000    689.7109      5.6134     97.2616
  1400.0000      0.0000    656.2112      5.7884    107.3651
