~Version Information
VERS.                      2.0: CWLS Log ASCII Standard - VERSION 2.0
WRAP.                       NO: One line per depth step
~Well Information Block
STRT.FT               340.0000: 
STOP.FT              1542.5000: 
STEP.FT                 0.1000: 
NULL.                -999.2500: 
COMP.          Petrogulf Corporation: COMPANY
WELL.            Montoya 7-21R: WELL
FLD.           Purgatorie River: FIELD
LOC.           445' FNL & 1942' FWL: LOCATION
PROV.                 Colorado: PROVINCE
CNTY.               Las Animas: COUNTRY
SRVC.                Patterson: SERVICE COMPANY
DATE.          Thu Sep 15 10:33:27 2005: LOG DATE
UWI.                          : UNIQUE WELL ID
~Curve Information Block
DEPT.FT            0 000 00 00: Depth
DCAL.in                       : CDL Caliper
RHOB.g/cc                     : CDL Bulk Density
RHOC.g/cc                     : CDL Density Correction
DPOR.pu                       : CDL Density Porosity
GR.GAPI                       : Gamma Ray
NPOR.pu                       : Neutron Porosity
~Parameter Information Block
~A  Depth       DCAL        RHOB        RHOC        DPOR         GR         NPOR    
# ...
   416.8000      8.3323      2.6354      0.0641      0.8868    143.0141     31.4926
   416.9000      8.3323      2.6025      0.0138      2.8773    141.3595     31.1004
   417.0000      8.3297      2.5692     -0.0699      4.8984    141.3171     30.9630
   417.1000      8.3297      2.5437     -0.0143      6.4449    141.9990     30.7880
   417.2000      8.3297      2.5188     -0.0211      7.9514    142.3725     30.3193
   417.3000      8.3391      2.5035     -0.0847      8.8792    141.5905     29.7980
   417.4000      8.3391      2.5123      0.0003      8.3451    139.4475     29.4982
   417.5000      8.3754      2.5321      0.0733      7.1443    136.6871     29.3361
   417.6000      8.3754      2.5409      0.0636      6.6122    136.1112     29.0478
   417.7000      8.3754      2.5351      0.0608      6.9624    139.3122     28.5260
   417.8000      8.3855      2.5275     -0.0094      7.4232    143.5719     28.0667
   417.9000      8.3855      2.5316     -0.0069      7.1778    145.7906     27.9013
   418.0000      8.3997      2.5454      0.0267      6.3388    145.3190     27.8814
   418.1000      8.3997      2.5548      0.0537      5.7707    143.8220     27.7166
   418.2000      8.3997      2.5509      0.0629      6.0057    143.3350     27.3490
   418.3000      8.3827      2.5393      0.0068      6.7092    145.7332     27.1040
   418.4000      8.3827      2.5240      0.0548      7.6349    150.9147     27.1274
   418.5000      8.3919      2.5036      0.0078      8.8745    153.9418     27.2041
   418.6000      8.3919      2.4911     -0.0165      9.6316    151.5370     27.2627
   418.7000      8.3919      2.5061     -0.0240      8.7226    146.5954     27.3765
   418.8000      8.3977      2.5491      0.0467      6.1139    143.1129     27.5611
   418.9000      8.3977      2.5972      0.0814      3.2028    141.8242     27.7255
   419.0000      8.3983      2.6283      0.0957      1.3141    141.0181     27.8496
   419.1000      8.3983      2.6467      0.0330      0.1988    140.2183     28.0339
   419.2000      8.3983      2.6642      0.1060     -0.8636    140.6478     28.2054
   419.3000      8.3968      2.6805      0.0785     -1.8475    144.9071     28.2163
   419.4000      8.3968      2.6987      0.0713     -2.9532    152.1765     28.1479
   419.5000      8.4277      2.7188      0.1131     -4.1712    156.5241     28.1511
   419.6000      8.4277      2.7249      0.0955     -4.5419    156.3479     28.2290
   419.7000      8.4277      2.7084      0.0673     -3.5384    154.8294     28.2955
   419.8000      8.3631      2.6806      0.0365     -1.8566    153.1761     28.3460
   419.9000      8.3631      2.6511      0.0389     -0.0659    151.6421     28.4663
   420.0000      8.3545      2.6218      0.0535      1.7091    152.0385     28.6709
   420.1000      8.3545      2.6041      0.0285      2.7827    156.2464     28.8479
   420.2000      8.3545      2.6063      0.0663      2.6462    161.1784     28.8481
   420.3000      8.3551      2.6200      0.0460      1.8203    162.1514     28.6992
   420.4000      8.3551      2.6361      0.0380      0.8410    162.0664     28.6506
   420.5000      8.3683      2.6499      0.0888      0.0032    165.2386     28.8491
   420.6000      8.3683      2.6526      0.0974     -0.1593    169.8064     29.1332
   420.7000      8.3683      2.6469      0.0633      0.1868    170.6965     29.3445
   420.8000      8.3826      2.6444      0.1067      0.3382    166.5388     29.4579
   420.9000      8.3826      2.6412      0.0774      0.5356    162.8864     29.4505
   421.0000      8.3714      2.6232      0.0699      1.6231    164.5005     29.2906
   421.1000      8.3714      2.5863      0.0602      3.8631    169.8290     29.0727
   421.2000      8.3714      2.5439      0.0185      6.4314    176.3826     28.9042
   421.3000      8.3660      2.5183     -0.0085      7.9822    182.2152     28.6347
   421.4000      8.3660      2.5192      0.0241      7.9265    184.8527     28.2005
   421.5000      8.3797      2.5331      0.0370      7.0825    183.5615     27.7422
   421.6000      8.3797      2.5313      0.0930      7.1965    180.2985     27.2800
   421.7000      8.3797      2.5032      0.0331      8.8989    176.7417     26.8010
   421.8000      8.3519      2.4665      0.0389     11.1200    173.5120     26.4134
   421.9000      8.3519      2.4327      0.0540     13.1716    171.6496     26.1088
   422.0000      8.3524      2.4096     -0.0115     14.5677    171.4945     25.7889
   422.1000      8.3524      2.4093      0.0335     14.5886    171.1665     25.4851
   422.2000      8.3524      2.4157      0.0546     14.1974    169.9783     25.3209
   422.3000      8.4085      2.3983      0.0624     15.2560    169.5677     25.4653
   422.4000      8.4085      2.3572      0.0486     17.7444    168.7259     26.0224
   422.5000      8.4549      2.3240      0.0257     19.7563    166.4810     26.8762
   422.6000      8.4549      2.3223      0.0585     19.8581    167.0093     27.6258
   422.7000      8.4549      2.3524      0.0139     18.0343    169.9737     28.0029
   422.8000      8.3311      2.4038      0.0322     14.9197    169.8397     28.0470
   422.9000      8.3311      2.4603      0.0504     11.4993    168.3121     27.8679
   423.0000      8.3505      2.5080      0.1411      8.6030    169.1643     27.5897
   423.1000      8.3505      2.5474      0.1567      6.2208    170.0090     27.2542
   423.2000      8.3505      2.5877      0.2143      3.7788    170.6011     26.9152
   423.3000      8.4752      2.6217      0.3117      1.7170    173.6246     26.7032
   423.4000      8.4752      2.6247      0.3280      1.5318    177.5022     26.4664
   423.5000      8.4948      2.5961      0.1673      3.2697    177.7221     26.0150
   423.6000      8.4948      2.5650      0.1272      5.1519    173.3676     25.6716
   423.7000      8.4948      2.5529      0.0548      5.8843    169.1679     25.8272
   423.8000      8.6895      2.5622      0.0379      5.3241    166.5952     26.3762
   423.9000      8.6895      2.5889      0.0642      3.7007    162.2810     26.9259
   424.0000      8.6307      2.6224      0.1621      1.6736    156.9976     27.3088
   424.1000      8.6307      2.6467      0.0811      0.1970    153.7195     27.7054
   424.2000      8.6307      2.6593      0.1012     -0.5632    152.1558     28.2250
   424.3000      8.3007      2.6620      0.1173     -0.7272    151.2617     28.6259
   424.4000      8.3007      2.6561      0.0759     -0.3692    152.7894     28.8830
   424.5000      8.2591      2.6545      0.0151     -0.2722    157.6194     29.2100
   424.6000      8.2591      2.6630      0.0604     -0.7851    161.4056     29.6298
   424.7000      8.2591      2.6722      0.0089     -1.3449    158.8617     30.1137
   424.8000      8.2457      2.6777      0.0285     -1.6800    151.1891     30.5602
   424.9000      8.2457      2.6774     -0.0088     -1.6593    143.6734     30.6632
   425.0000      8.2396      2.6716      0.0056     -1.3068    141.2727     30.3974
   425.1000      8.2396      2.6626      0.0089     -0.7657    146.4139     30.0799
   425.2000      8.2396      2.6499      0.0330      0.0059    153.1774     29.8229
   425.3000      8.2305      2.6373     -0.0057      0.7724    154.7248     29.5835
   425.4000      8.2305      2.6328      0.0167      1.0427    152.1587     29.4302
   425.5000      8.2264      2.6343      0.0101      0.9537    148.5424     29.3461
   425.6000      8.2264      2.6262      0.0743      1.4435    146.4957     29.3039
   425.7000      8.2264      2.5970      0.0504      3.2115    149.2847     29.3196
   425.8000      8.2255      2.5565      0.0193      5.6690    155.6148     29.1826
   425.9000      8.2255      2.5276      0.0003      7.4178    159.4837     28.8788
   426.0000      8.2144      2.5236     -0.0252      7.6625    158.8481     28.7592
   426.1000      8.2144      2.5352     -0.0012      6.9586    158.2543     28.8392
   426.2000      8.2144      2.5486     -0.0152      6.1444    159.7561     28.8988
   426.3000      8.2136      2.5623      0.0357      5.3129    161.2836     29.0863
