~Version Information
VERS.                      2.0: CWLS Log ASCII Standard - VERSION 2.0
WRAP.                       NO: One line per depth step
~Well Information Block
STRT.FT                15.0000: 
STOP.FT              2620.5000: 
STEP.FT                 0.2500: 
NULL.                -999.2500: 
COMP.          Pioneer Natural Resources: COMPANY
WELL.               Zink 44-10: WELL
FLD.           Purgatoire River: FIELD
LOC.           548' FSL & 473' FEL: LOCATION
PROV.                 Colorado: PROVINCE
CNTY.               Las Animas: COUNTRY
SRVC.                Patterson: SERVICE COMPANY
DATE.          Tue Jun 21 13:36:23 2005: LOG DATE
UWI.           05 071 08380 00: UNIQUE WELL ID
~Curve Information Block
DEPT.FT            0 000 00 00: Depth
GR.GAPI                       : Gamma Ray
CCL.                          : Casing Collar Locator
TT3.usec                      : CBL 3' Travel Time
AMP3.mV                       : CBL 3' Amplitude
~Parameter Information Block
~A  Depth        GR         CCL         TT3         AMP3    
# ...
   886.0000    126.9514      0.0000    309.1010     20.7083
   886.2500    127.1400      0.0000    309.2868     20.5199
   886.5000    129.4646      0.0000    309.5619     20.2980
   886.7500    132.7495      0.0000    309.8585     20.0833
   887.0000    136.2124      0.0000    310.1150     19.9117
   887.2500    139.3979      0.0000    310.3077     19.7929
   887.5000    142.0497      0.0000    310.4453     19.7110
   887.7500    143.9809      0.0000    310.5438     19.6441
   888.0000    145.1140      0.0000    310.6127     19.5843
   888.2500    145.7379      0.0000    310.6617     19.5412
   888.5000    146.4382      0.0000    310.7065     19.5275
   888.7500    147.4359      0.0000    310.7639     19.5451
   889.0000    148.2192      0.0000    310.8394     19.5871
   889.2500    148.2078      0.0000    310.9191     19.6504
   889.5000    147.6822      0.0000    310.9720     19.7404
   889.7500    147.5715      0.0000    310.9594     19.8656
   890.0000    148.2152      0.0000    310.8460     20.0306
   890.2500    148.6551      0.0000    310.6197     20.2307
   890.5000    147.3374      0.0000    310.3174     20.4475
   890.7500    143.5053      0.0000    310.0178     20.6559
   891.0000    138.0377      0.0000    309.7863     20.8370
   891.2500    132.9505      0.0000    309.6331     20.9790
   891.5000    130.1220      0.0000    309.5717     21.0582
   891.7500    130.5964      0.0000    309.7471     21.0301
   892.0000    134.5374      0.0000    310.5343     20.8523
   892.2500    140.8345      0.0000    312.4885     20.5174
   892.5000    146.7346      0.0000    316.0903     20.0618
   892.7500    148.9796      0.0000    321.6507     19.5428
   893.0000    146.0600      0.0000    329.8318     19.0082
   893.2500    139.2372      0.0000    342.5280     18.4810
   893.5000    131.4120      0.0000    362.5920     17.9643
   893.7500    125.3865      0.0000    390.9788     17.4615
   894.0000    122.8488      0.0000    423.4079     16.9948
   894.2500    124.0281      0.0000    451.2085     16.6041
   894.5000    127.8579      0.0000    466.6376     16.3314
   894.7500    132.7332      0.0000    466.3893     16.2084
   895.0000    137.3186      0.0000    450.6456     16.2568
   895.2500    140.7645      0.0000    422.5400     16.4892
   895.5000    142.6486      0.0000    389.0193     16.9040
   895.7500    143.0860      0.0000    358.5001     17.4693
   896.0000    142.6300      0.0000    336.3510     18.0969
   896.2500    141.8065      0.0000    323.8361     18.6191
   896.5000    140.9790      0.0000    320.9799     18.8035
   896.7500    140.6364      0.0000    329.3240     18.4514
   897.0000    141.1476      0.0000    351.2970     17.5546
   897.2500    141.9746      0.0000    386.0677     16.3598
   897.5000    141.7908      0.0000    426.4451     15.2233
   897.7500    139.7459      0.0000    462.9947     14.3885
   898.0000    136.1107      0.0000    492.6097     13.9048
   898.2500    131.5678      0.0000    519.7119     13.6808
   898.5000    126.6060      0.0000    548.0439     13.5531
   898.7500    121.9218      0.0000    575.2545     13.3546
   899.0000    118.7109      0.0000    595.9278     12.9988
   899.2500    118.0283      0.0000    604.7762     12.5193
   899.5000    119.9995     -2.5000    596.2239     12.0504
   899.7500    123.6531      0.0000    566.2152     11.7989
   900.0000    127.0508      0.0000    517.7603     11.9820
   900.2500    127.7980      0.0000    463.4956     12.6696
   900.5000    124.5262      0.0000    419.9186     13.6566
   900.7500    118.2713      0.0000    396.9099     14.5783
   901.0000    111.7454      0.0000    392.3579     15.1874
   901.2500    107.0332      0.0000    396.8794     15.4702
   901.5000    104.3771      0.0000    402.5133     15.5353
   901.7500    103.0393      0.0000    406.6733     15.4857
   902.0000    102.6238      0.0000    410.2744     15.3908
   902.2500    103.3089      0.0000    414.4382     15.2959
   902.5000    105.2733      0.0000    418.7023     15.2193
   902.7500    108.4364      0.0000    421.1330     15.1523
   903.0000    112.7473      0.0000    420.0446     15.0733
   903.2500    118.2798      0.0000    415.8094     14.9599
   903.5000    124.8250      0.0000    410.8396     14.8025
   903.7500    131.6320      0.0000    407.7876     14.6146
   904.0000    137.6259      0.0000    407.9200     14.4289
   904.2500    141.7641      0.0000    410.6918     14.2753
   904.5000    143.3676      0.0000    414.1771     14.1622
   904.7500    142.4958      0.0000    416.1594     14.0776
   905.0000    140.0275      0.0000    415.5978     14.0020
   905.2500    137.1402      0.0000    413.2008     13.9214
   905.5000    134.4970      0.0000    410.4002     13.8346
   905.7500    131.7991      0.0000    408.0251     13.7521
   906.0000    128.1183      0.0000    406.1227     13.6810
   906.2500    122.9639      0.0000    404.5827     13.6122
   906.5000    117.1942      0.0000    403.5113     13.5280
   906.7500    112.4734      0.0000    403.1811     13.4269
   907.0000    109.4784      0.0000    404.0434     13.3320
   907.2500    107.0110      0.0000    406.8410     13.2719
   907.5000    103.2549      0.0000    412.4265     13.2556
   907.7500     97.6555      0.0000    421.2592     13.2673
   908.0000     91.3915      0.0000    433.4715     13.2831
   908.2500     86.4841      0.0000    449.7469     13.2903
   908.5000     84.6249      0.0000    470.9641     13.2956
   908.7500     86.1869      0.0000    495.1680     13.3161
   909.0000     89.8489      0.0000    515.7324     13.3632
   909.2500     93.4802      0.0000    526.2800     13.4318
   909.5000     95.9018      0.0000    528.8504     13.5029
   909.7500     97.8230      0.0000    533.3344     13.5561
   910.0000    100.7770      0.0000    545.2423     13.5791
   910.2500    105.2108      0.0000    557.1422     13.5682
   910.5000    110.0669      0.0000    557.8135     13.5232
   910.7500    114.0702      0.0000    548.6710     13.4448
   911.0000    116.6029      0.0000    544.9596     13.3371
   911.2500    117.3090      0.0000    560.0966     13.2104
   911.5000    116.0615      0.0000    593.2906     13.0797
   911.7500    113.9267      0.0000    632.5256     12.9621
   912.0000    113.0336      0.0000    665.4949     12.8716
   912.2500    114.5472      0.0000    686.7238     12.8128
   912.5000    117.4114      0.0000    697.4118     12.7799
   912.7500    119.5720      0.0000    701.2205     12.7648
   913.0000    119.6627      0.0000    700.2281     12.7673
   913.2500    117.3875      0.0000    692.8723     12.7963
   913.5000    113.4428      0.0000    674.4028     12.8576
   913.7500    109.4394      0.0000    640.8678     12.9419
   914.0000    106.9675      0.0000    596.0981     13.0227
   914.2500    106.2495      0.0000    555.2209     13.0707
   914.5000    106.0473      0.0000    536.9879     13.0737
   914.7500    104.8595      0.0000    548.0212     13.0458
   915.0000    101.9604      0.0000    574.1733     13.0176
   915.2500     97.6482      0.0000    589.7980     13.0162
   915.5000     93.0435      0.0000    577.3624     13.0519
   915.7500     89.5788      0.0000    538.9734     13.1190
   916.0000     88.1468      0.0000    490.5627     13.2063
   916.2500     88.4481      0.0000    447.3699     13.3086
   916.5000     89.2517      0.0000    415.3888     13.4290
   916.7500     89.5485      0.0000    393.3184     13.5691
   917.0000     89.4435      0.0000    378.5222     13.7203
   917.2500     89.7961      0.0000    370.1548     13.8679
   917.5000     91.0409      0.0000    368.7744     14.0004
   917.7500     92.6232      0.0000    374.8318     14.1111
   918.0000     93.7264      0.0000    387.3824     14.1960
   918.2500     94.4701      0.0000    403.1786     14.2523
   918.5000     96.1104      0.0000    417.0494     14.2814
   918.7500     99.8580      0.0000    424.0868     14.2903
   919.0000    105.6669      0.0000    422.1771     14.2887
   919.2500    112.3254      0.0000    412.7107     14.2829
