~Version Information
VERS.                      2.0: CWLS Log ASCII Standard - VERSION 2.0
WRAP.                       NO: One line per depth step
~Well Information Block
STRT.FT               555.6000: 
STOP.FT              2132.0000: 
STEP.FT                 0.1000: 
NULL.                -999.2500: 
COMP.          Petrogulf Corporation: COMPANY
WELL.           Montoya 12-41R: WELL
FLD.           Purgatorie River: FIELD
LOC.           1086' FNL & 610' FEL: LOCATION
CNTY.               Las Animas: COUNTY
SRVC.                         : SERVICE COMPANY
DATE.          Thu Nov 18 08:45:51 2004: LOG DATE
UWI.           05 071 08241 00: UNIQUE WELL ID
STAT.                 Colorado: STATE
~Curve Information Block
DEPT.FT            0 000 00 00: Depth
DCAL.in                       : CDL Caliper
RHOB.g/cc                     : CDL Bulk Density
RHOC.g/cc                     : CDL Density Correction
DPOR.pu                       : CDL Density Porosity
GR.GAPI                       : Gamma Ray
NPOR.pu                       : Neutron Porosity
~Parameter Information Block
~A  Depth       DCAL        RHOB        RHOC        DPOR         GR         NPOR    
# ...
  1400.4000      8.3933      1.3027      0.0718     81.6568     31.3178     34.4597
  1400.5000      8.4249      1.3074      0.0629     81.3680     28.2937     35.2407
  1400.6000      8.4249      1.3040      0.0712     81.5766     27.5705     35.9631
  1400.7000      8.4249      1.2881      0.0622     82.5377     27.7268     36.1051
  1400.8000      8.3795      1.2664     -0.0134     83.8543     25.3645     35.4160
  1400.9000      8.3795      1.2542     -0.0164     84.5942     21.5280     34.6739
  1401.0000      8.3571      1.2565      0.0092     84.4550     22.1815     34.8886
  1401.1000      8.3571      1.2679      0.0208     83.7609     27.4704     35.5218
  1401.2000      8.3571      1.2922      0.0153     82.2882     31.9011     35.6203
  1401.3000      8.4133      1.3390      0.0635     79.4529     35.5112     35.2636
  1401.4000      8.4133      1.4048      0.1110     75.4681     41.4143     34.8113
  1401.5000      8.4344      1.4845      0.1339     70.6369     49.0112     34.6255
  1401.6000      8.4344      1.5910      0.1299     64.1801     56.0690     34.7270
  1401.7000      8.4344      1.7274      0.1734     55.9135     62.0520     34.6457
  1401.8000      8.3568      1.8593      0.2321     47.9234     68.4888     34.1505
  1401.9000      8.3568      1.9574      0.2066     41.9780     74.6750     33.7574
  1402.0000      8.2824      2.0356      0.2086     37.2356     79.3677     33.3144
  1402.1000      8.2824      2.1114      0.2082     32.6436     84.4462     32.2631
  1402.2000      8.2824      2.1671      0.2067     29.2649     89.2169     31.5744
  1402.3000      8.2542      2.1804      0.1210     28.4627     92.1513     32.2621
  1402.4000      8.2542      2.1646      0.0392     29.4195     94.4016     33.5499
  1402.5000      8.2428      2.1471      0.0182     30.4803     96.2300     34.3649
  1402.6000      8.2428      2.1385     -0.0074     30.9975    100.2347     34.7721
  1402.7000      8.2428      2.1404      0.0278     30.8844    110.0480     35.0362
  1402.8000      8.2511      2.1530      0.0187     30.1187    119.6759     34.4063
  1402.9000      8.2511      2.1724      0.0443     28.9475    122.6436     32.9839
  1403.0000      8.2647      2.1923      0.0607     27.7422    121.8457     32.1290
  1403.1000      8.2647      2.2135      0.0927     26.4543    120.9624     31.9469
  1403.2000      8.2647      2.2398      0.0809     24.8577    120.4008     31.4744
  1403.3000      8.2542      2.2701      0.0748     23.0243    120.0430     30.7132
  1403.4000      8.2542      2.3020      0.0676     21.0904    120.2986     30.3722
  1403.5000      8.2351      2.3358      0.1202     19.0440    122.1961     30.1900
  1403.6000      8.2351      2.3692      0.1182     17.0211    124.1374     29.9668
  1403.7000      8.2351      2.4040      0.0997     14.9116    124.9506     30.1190
  1403.8000      8.2237      2.4462      0.1117     12.3518    125.3983     30.6792
  1403.9000      8.2237      2.4900      0.1326      9.6967    124.5036     31.1148
  1404.0000      8.2191      2.5219      0.1277      7.7663    123.4208     30.6449
  1404.1000      8.2191      2.5393      0.0818      6.7072    124.7060     29.2401
  1404.2000      8.2191      2.5482      0.1053      6.1684    127.4787     28.2875
  1404.3000      8.2147      2.5474      0.0848      6.2196    130.8249     28.3813
  1404.4000      8.2147      2.5345      0.1025      7.0026    136.1950     28.1057
  1404.5000      8.2111      2.5156      0.0690      8.1433    140.6633     26.7096
  1404.6000      8.2111      2.5049      0.0321      8.7922    139.0094     25.2985
  1404.7000      8.2111      2.5099      0.0280      8.4886    133.6882     24.5699
  1404.8000      8.2099      2.5167      0.0584      8.0758    130.8413     24.2443
  1404.9000      8.2099      2.5110      0.0405      8.4220    130.8763     24.3698
  1405.0000      8.2089      2.5003      0.0419      9.0742    130.9714     24.6395
  1405.1000      8.2089      2.4932      0.0249      9.5000    130.4703     24.4113
  1405.2000      8.2089      2.4916      0.0231      9.5996    130.7954     23.7429
  1405.3000      8.2110      2.5004      0.0296      9.0642    133.1200     23.2287
  1405.4000      8.2110      2.5181      0.0480      7.9956    137.6419     23.6679
  1405.5000      8.2163      2.5320      0.0645      7.1524    144.2796     25.0644
  1405.6000      8.2163      2.5383      0.0603      6.7674    150.0343     26.3847
  1405.7000      8.2163      2.5438      0.0619      6.4390    151.9169     26.8968
  1405.8000      8.2199      2.5472      0.0589      6.2295    149.3368     26.9099
  1405.9000      8.2199      2.5404      0.0452      6.6402    142.6849     26.9721
  1406.0000      8.2192      2.5229      0.0389      7.7036    134.9356     27.1547
  1406.1000      8.2192      2.5038      0.0226      8.8578    131.1005     27.3747
  1406.2000      8.2192      2.4948      0.0396      9.4058    131.2857     27.6322
  1406.3000      8.2227      2.5004      0.0589      9.0667    131.2723     27.8163
  1406.4000      8.2227      2.5111      0.0542      8.4166    131.5077     27.6033
  1406.5000      8.2334      2.5049      0.0646      8.7955    132.4617     26.6361
  1406.6000      8.2334      2.4597      0.0421     11.5313    132.3884     25.5453
  1406.7000      8.2334      2.3778      0.0186     16.4977    133.4512     25.6973
  1406.8000      8.2361      2.2854     -0.0259     22.0970    135.7891     27.2100
  1406.9000      8.2361      2.2031     -0.0287     27.0847    134.3686     28.9841
  1407.0000      8.2284      2.1253     -0.0358     31.8000    129.1356     30.1393
  1407.1000      8.2284      2.0418     -0.0355     36.8626    124.6288     30.6846
  1407.2000      8.2284      1.9666     -0.0367     41.4200    120.4955     30.8918
  1407.3000      8.2263      1.9224     -0.0412     44.0999    115.0406     30.8746
  1407.4000      8.2263      1.9054      0.0076     45.1285    110.6345     30.8547
  1407.5000      8.2301      1.8977      0.0143     45.5917    107.6340     31.2118
  1407.6000      8.2301      1.9030      0.0234     45.2721    102.9812     31.8947
  1407.7000      8.2301      1.9303      0.1369     43.6210     99.0616     32.0342
  1407.8000      8.2468      1.9637      0.1915     41.5950    100.4642     31.3418
  1407.9000      8.2468      1.9785      0.1995     40.6995    106.8398     30.9031
  1408.0000      8.2903      1.9618      0.1917     41.7100    111.3394     31.0000
  1408.1000      8.2903      1.9158      0.1338     44.4997    107.8733     30.8185
  1408.2000      8.2903      1.8609     -0.0108     47.8263    102.8810     30.6012
  1408.3000      8.3339      1.8208     -0.0258     50.2565    104.8636     30.8769
  1408.4000      8.3339      1.7967      0.0017     51.7130    109.9842     31.2256
  1408.5000      8.3562      1.7923     -0.0206     51.9820    110.8820     31.3638
  1408.6000      8.3562      1.8358      0.0267     49.3468    109.3904     31.3966
  1408.7000      8.3562      1.9275      0.2753     43.7887    111.1428     31.7199
  1408.8000      8.3876      2.0222      0.3266     38.0492    115.5634     32.5209
  1408.9000      8.3876      2.0950      0.3145     33.6367    118.9143     32.9588
  1409.0000      8.4055      2.1578      0.3217     29.8278    119.1055     32.4244
  1409.1000      8.4055      2.2219      0.3161     25.9480    118.7521     31.3256
  1409.2000      8.4055      2.2870      0.3573     21.9990    121.2464     30.6013
  1409.3000      8.3557      2.3557      0.3778     17.8378    124.2804     31.1104
  1409.4000      8.3557      2.4338      0.4020     13.1040    124.5970     32.4662
  1409.5000      8.2795      2.5106      0.4273      8.4468    125.0918     33.2356
  1409.6000      8.2795      2.5583      0.3812      5.5597    129.6176     32.8889
  1409.7000      8.2795      2.5632      0.2798      5.2607    135.4307     32.2312
  1409.8000      8.2443      2.5376      0.2822      6.8136    139.0782     31.7690
  1409.9000      8.2443      2.5047      0.2260      8.8081    140.4285     31.1436
