~Version Information
VERS.                      2.0: CWLS Log ASCII Standard - VERSION 2.0
WRAP.                       NO: One line per depth step
~Well Information Block
STRT.FT               953.8000: 
STOP.FT              2226.0000: 
STEP.FT                 0.1000: 
NULL.                -999.2500: 
COMP.          Petrogulf Corporation: COMPANY
WELL.             Burson 8-13R: WELL
FLD.           Purgatorie River: FIELD
LOC.           1045' FNL & 2189' FEL: LOCATION
CNTY.               Las Animas: COUNTY
SRVC.                         : SERVICE COMPANY
DATE.          Fri Apr 30 07:30:36 2004: LOG DATE
UWI.           05 071 08039 00: UNIQUE WELL ID
STAT.                 Colorado: STATE
~Curve Information Block
DEPT.FT            0 000 00 00: Depth
DCAL.in                       : CDL Caliper
RHOB.g/cc                     : CDL Bulk Density
RHOC.g/cc                     : CDL Density Correction
DPOR.pu                       : CDL Density Porosity
NPOR.pu                       : Neutron Porosity
GR.GAPI                       : Gamma Ray
~Parameter Information Block
~A  Depth       DCAL        RHOB        RHOC        DPOR        NPOR         GR     
# ...
  1942.6000      7.8326      2.6620      0.0969     -0.7265     24.2051    108.3776
  1942.7000      7.8326      2.6596      0.0957     -0.5804     24.7318    101.6003
  1942.8000      7.8339      2.6465      0.0722      0.2111     24.3783    103.3993
  1942.9000      7.8339      2.6306      0.0624      1.1736     23.2964    112.0737
  1943.0000      7.8321      2.6124      0.0261      2.2792     22.8542    116.6280
  1943.1000      7.8321      2.5993     -0.0046      3.0753     23.3331    120.5497
  1943.2000      7.8321      2.6061      0.0211      2.6580     23.8087    132.6133
  1943.3000      7.8332      2.6270      0.0724      1.3966     23.7898    144.7022
  1943.4000      7.8332      2.6321      0.0923      1.0842     23.6938    145.7740
  1943.5000      7.8181      2.6129      0.0251      2.2464     24.0195    140.3573
  1943.6000      7.8181      2.5936      0.0232      3.4193     24.6065    137.2933
  1943.7000      7.8181      2.5860      0.0184      3.8781     24.8568    138.5730
  1943.8000      7.8328      2.5854      0.0153      3.9153     24.6183    142.7415
  1943.9000      7.8328      2.5901      0.0243      3.6285     24.2437    148.6488
  1944.0000      7.8340      2.5928      0.0818      3.4664     23.7608    152.8497
  1944.1000      7.8340      2.5920      0.0011      3.5172     23.2737    150.1945
  1944.2000      7.8340      2.6041      0.0478      2.7840     23.2854    141.5952
  1944.3000      7.8346      2.6201      0.1049      1.8132     23.5201    132.9475
  1944.4000      7.8346      2.6115      0.0852      2.3360     23.3577    128.7064
  1944.5000      7.8342      2.5823     -0.0021      4.1006     22.9040    128.1319
  1944.6000      7.8342      2.5575      0.0275      5.6048     22.2287    128.8056
  1944.7000      7.8342      2.5496      0.0075      6.0846     21.6124    131.1585
  1944.8000      7.8245      2.5592      0.0079      5.5054     21.4976    133.9700
  1944.9000      7.8245      2.5800      0.0238      4.2440     21.6000    133.3771
  1945.0000      7.8474      2.6017      0.0313      2.9286     21.4817    129.8235
  1945.1000      7.8474      2.6124      0.0742      2.2763     21.5869    127.8464
  1945.2000      7.8474      2.6086      0.0350      2.5065     22.3859    128.3801
  1945.3000      7.8345      2.6033      0.0073      2.8327     23.1642    127.9343
  1945.4000      7.8345      2.6076      0.0465      2.5710     23.3493    126.9449
  1945.5000      7.8340      2.6162      0.0353      2.0489     23.1634    127.9435
  1945.6000      7.8340      2.6265      0.0153      1.4229     22.5027    131.8080
  1945.7000      7.8340      2.6397      0.0712      0.6226     21.8177    136.4957
  1945.8000      7.8360      2.6471      0.0440      0.1735     22.1392    137.2649
  1945.9000      7.8360      2.6455      0.0750      0.2717     23.0073    133.8406
  1946.0000      7.8262      2.6378      0.0635      0.7383     23.1126    128.3816
  1946.1000      7.8262      2.6202      0.0884      1.8074     22.5771    125.0658
  1946.2000      7.8262      2.5928      0.0258      3.4671     22.4745    128.4526
  1946.3000      7.8264      2.5712      0.0298      4.7754     22.9818    133.8728
  1946.4000      7.8264      2.5657      0.0292      5.1080     23.4352    134.2166
  1946.5000      7.8333      2.5755      0.0274      4.5153     23.5603    131.6708
  1946.6000      7.8333      2.5912      0.0692      3.5666     23.2897    129.8965
  1946.7000      7.8333      2.6004      0.0758      3.0074     22.7954    126.5841
  1946.8000      7.8240      2.6042      0.0838      2.7777     22.6404    120.0841
  1946.9000      7.8240      2.6093      0.1264      2.4694     22.6136    113.5583
  1947.0000      7.7617      2.6133      0.1296      2.2232     22.1725    107.8753
  1947.1000      7.7617      2.6138      0.1094      2.1949     21.8011    100.6466
  1947.2000      7.7617      2.6124      0.1051      2.2771     21.7823     94.5371
  1947.3000      7.7504      2.6069      0.1131      2.6119     21.6098     93.8613
  1947.4000      7.7504      2.5976      0.0565      3.1759     21.4978     95.8433
  1947.5000      7.7564      2.5886      0.0714      3.7209     21.6784     94.0784
  1947.6000      7.7564      2.5778      0.0659      4.3765     21.8393     88.8182
  1947.7000      7.7564      2.5742      0.0143      4.5943     22.2767     84.7161
  1947.8000      7.7581      2.5886      0.0820      3.7234     23.1402     84.4247
  1947.9000      7.7581      2.6051      0.0790      2.7209     23.5750     88.6959
  1948.0000      7.7542      2.6066      0.0886      2.6323     23.1123     94.0493
  1948.1000      7.7542      2.5987      0.0599      3.1078     22.5270     97.1559
  1948.2000      7.7542      2.5940      0.0462      3.3949     22.4117    100.1046
  1948.3000      7.7542      2.5878      0.0883      3.7691     22.3790    104.4908
  1948.4000      7.7542      2.5701      0.0548      4.8442     22.2430    108.0095
  1948.5000      7.7674      2.5455      0.0823      6.3362     22.6144    108.1087
  1948.6000      7.7674      2.5288     -0.0128      7.3437     23.5208    105.2909
  1948.7000      7.7674      2.5345      0.0556      7.0010     23.9611    102.8388
  1948.8000      7.7720      2.5554      0.0911      5.7332     23.6523    102.3301
  1948.9000      7.7720      2.5743      0.1070      4.5904     23.1276    101.3624
  1949.0000      7.7686      2.5879      0.0994      3.7658     22.6628     99.3263
  1949.1000      7.7686      2.5997      0.0999      3.0461     22.2600     98.0626
  1949.2000      7.7686      2.6113      0.0525      2.3455     21.8063     97.0296
  1949.3000      7.8268      2.6183      0.0936      1.9205     21.2450     94.5512
  1949.4000      7.8268      2.6111      0.0546      2.3568     20.6707     94.2235
  1949.5000      7.8329      2.5895      0.0727      3.6687     19.9289    100.0456
  1949.6000      7.8329      2.5684     -0.0064      4.9452     19.2963    106.7631
  1949.7000      7.8329      2.5627      0.0558      5.2900     19.5384    108.1184
  1949.8000      7.8350      2.5665      0.0451      5.0588     20.4202    107.0487
  1949.9000      7.8350      2.5720      0.0412      4.7260     21.1926    107.7724
  1950.0000      7.8301      2.5808      0.0455      4.1960     21.6156    108.1362
  1950.1000      7.8301      2.5867      0.0666      3.8342     21.6053    105.1800
  1950.2000      7.8301      2.5820      0.0531      4.1223     21.3123    100.7305
  1950.3000      7.8322      2.5703      0.0687      4.8290     21.2403     97.5418
  1950.4000      7.8322      2.5614      0.0588      5.3684     21.3024     96.8688
  1950.5000      7.8311      2.5604      0.0725      5.4305     20.9656     95.3167
  1950.6000      7.8311      2.5631      0.0809      5.2658     20.3304     89.7961
  1950.7000      7.8311      2.5628      0.0475      5.2868     19.7744     87.8051
  1950.8000      7.8322      2.5528      0.0750      5.8909     19.4347     94.7613
  1950.9000      7.8322      2.5315      0.0481      7.1793     19.2972    101.6140
  1951.0000      7.8248      2.5111      0.0283      8.4154     19.3601     98.8622
  1951.1000      7.8248      2.5040      0.0223      8.8496     19.8455     88.7101
  1951.2000      7.8248      2.5115      0.0149      8.3965     20.4256     77.1336
  1951.3000      7.8325      2.5262      0.0661      7.5003     20.3352     68.1381
  1951.4000      7.8325      2.5413      0.0499      6.5877     19.6926     66.8618
  1951.5000      7.8287      2.5502      0.0988      6.0489     19.0266     73.2551
  1951.6000      7.8287      2.5441      0.0577      6.4203     18.6473     78.6125
  1951.7000      7.8287      2.5304      0.0146      7.2477     18.8023     76.4494
  1951.8000      7.8326      2.5191      0.0679      7.9312     19.2636     70.9375
  1951.9000      7.8326      2.5053      0.0576      8.7717     19.6119     68.5693
  1952.0000      7.8303      2.4951      0.0190      9.3884     20.0551     68.5536
  1952.1000      7.8303      2.5049      0.0024      8.7926     20.6372     66.3016
