~Version Information
 VERS.                                  2.0 : CWLS LAS VERSION
 WRAP.                                   NO : WRAPING MODE
 SWARE .                 MController 2.5.0J : SOFTWARE VERSION
~Well Information
 WELL.                         State 16-24R : WELL
 COMP.                Petrogulf Corporation : COMPANY
 FLD.                      Purgatoire River : FIELD
 LOC.                SE/SW Sec 16 T33S R67W : LOCATION
 DATE.                            8/9-11/05 : DATE(S) LOGGED
 SRVC.       BLANCO Geological Services LLC : SERVICE COMPANY
 STAT.                                   CO : STATE
 CNTY.                           Las Animas : COUNTY
 CTRY.                                  USA : COUNTRY
 API.                       05-071-08312-00 : API NUMBER
 STRT.FT                              27.00 : START DEPTH
 STOP.FT                            1870.00 : STOP DEPTH
 STEP.FT                               1.00 : DEPTH INCREMENT
 NULL.                                -9999 : NULL VALUE
~Curve information
 DEPTH.FT                                   :
 ROP.MIN/FT                                 :
 GAS.UNITS                                  :
~ASCII Log data
# ...
      1227.0         0.47         23.8 
      1228.0         3.15       1162.4 
      1229.0         0.37        840.9 
      1230.0         0.27        673.6 
      1231.0         0.23        706.6 
      1232.0         0.43        726.3 
      1233.0         0.47        708.9 
      1234.0         0.52        449.6 
      1235.0         0.37         37.0 
      1236.0         0.33         25.4 
      1237.0         0.40         26.6 
      1238.0         0.40         27.1 
      1239.0         0.33         26.9 
      1240.0         0.37         27.6 
      1241.0         0.43         27.8 
      1242.0         0.30         26.9 
      1243.0         0.42         27.1 
      1244.0         0.53         27.0 
      1245.0         0.63         26.9 
      1246.0         0.63         26.4 
      1247.0         0.57         27.1 
      1248.0         0.67         31.7 
      1249.0         0.62         38.3 
      1250.0         0.53         34.1 
      1251.0         0.43         30.6 
      1252.0         0.43         28.6 
      1253.0         0.43         26.7 
      1254.0         0.47         25.7 
      1255.0         0.40         25.5 
      1256.0         0.45         21.6 
      1257.0         0.33         17.9 
      1258.0         4.08       1515.3 
      1259.0         0.47        886.9 
      1260.0         0.50        854.2 
      1261.0         0.53        765.0 
      1262.0         0.45        634.9 
      1263.0         0.27        491.8 
      1264.0         0.30        440.0 
      1265.0         0.37         65.1 
      1266.0         0.27         43.5 
      1267.0         0.53         35.2 
      1268.0         0.43         29.6 
      1269.0         0.40         29.1 
      1270.0         0.43         28.8 
      1271.0         0.35         29.7 
      1272.0         0.30         29.6 
      1273.0         0.53         29.0 
      1274.0         0.40         28.3 
      1275.0         0.43         28.3 
      1276.0         0.43         29.0 
      1277.0         0.40         31.6 
      1278.0         0.48         31.9 
      1279.0         0.40         29.6 
      1280.0         0.43         30.2 
      1281.0         0.43         30.4 
      1282.0         0.40         28.9 
      1283.0         0.43         27.7 
      1284.0         0.57         31.4 
      1285.0         0.68         36.6 
      1286.0         0.40         28.9 
      1287.0         0.37         23.1 
      1288.0         5.48       1131.0 
      1289.0         0.95        588.6 
      1290.0         0.73        462.9 
      1291.0         0.70         86.4 
      1292.0         0.57         46.0 
      1293.0         0.43         34.2 
      1294.0         0.92         33.7 
      1295.0         0.80         69.0 
      1296.0         0.57         90.3 
      1297.0         0.57         95.8 
      1298.0         0.47         93.5 
      1299.0         0.45         91.4 
      1300.0         0.37         79.2 
      1301.0         0.67         55.6 
      1302.0         0.37         33.4 
      1303.0         0.33         32.9 
      1304.0         0.23         32.4 
      1305.0         0.23         31.3 
      1306.0         0.38         31.5 
      1307.0         0.43         31.4 
      1308.0         0.50         32.5 
      1309.0         0.47         38.7 
      1310.0         0.37         37.7 
      1311.0         0.40         33.4 
      1312.0         0.30         34.4 
      1313.0         0.35         34.2 
      1314.0         0.57         31.4 
      1315.0         0.70         37.1 
      1316.0         0.57         37.2 
      1317.0         0.47         26.1 
      1318.0         4.30       1077.0 
      1319.0         0.70        669.8 
      1320.0         0.70        625.4 
      1321.0         0.77        563.8 
      1322.0         0.75        461.9 
      1323.0         0.57         70.4 
      1324.0         0.47         43.2 
      1325.0         0.70         34.9 
      1326.0         0.70         31.3 
      1327.0         0.52         31.0 
      1328.0         0.67         30.3 
      1329.0         0.60         30.5 
      1330.0         0.67         30.1 
      1331.0         0.67         30.3 
      1332.0         0.50         30.1 
      1333.0         0.45         30.1 
      1334.0         0.43         29.7 
      1335.0         0.50         29.2 
      1336.0         0.53         28.8 
      1337.0         0.57         29.3 
      1338.0         0.53         30.4 
      1339.0         0.42         31.0 
      1340.0         0.33         31.5 
      1341.0         0.37         33.5 
      1342.0         0.37         34.1 
      1343.0         0.20         33.5 
      1344.0         0.33         32.6 
      1345.0         0.43         31.8 
      1346.0         0.60         30.1 
      1347.0         0.72         26.9 
      1348.0         0.53         21.8 
      1349.0         0.77         96.1 
      1350.0         3.45       1407.4 
      1351.0         0.80        646.0 
      1352.0         0.57        622.5 
      1353.0         0.62        590.8 
      1354.0         0.43        535.3 
      1355.0         0.60        474.3 
      1356.0         0.67         64.4 
      1357.0         0.47         39.3 
      1358.0         0.73         35.1 
      1359.0         0.82         34.9 
      1360.0         0.63         39.5 
      1361.0         0.83         43.2 
      1362.0         0.67         42.0 
      1363.0         0.68         37.2 
      1364.0         0.60         47.7 
      1365.0         0.60         48.0 
      1366.0         0.60         43.3 
      1367.0         0.63         45.4 
      1368.0         0.33         59.9 
      1369.0         0.35         72.1 
      1370.0         0.27         72.9 
      1371.0         0.53         68.9 
      1372.0         0.43         45.3 
      1373.0         0.33         36.9 
      1374.0         0.40         34.3 
      1375.0         0.40         32.0 
      1376.0         0.63         32.0 
      1377.0         0.58         32.2 
      1378.0         0.63         32.0 
      1379.0         0.53         31.7 
      1380.0         5.50        205.6 
      1381.0         0.67        112.3 
      1382.0         0.47         46.7 
      1383.0         0.43         30.3 
      1384.0         0.27         25.4 
      1385.0         0.27         23.3 
      1386.0         0.28         21.8 
      1387.0         0.27         21.0 
      1388.0         0.43         21.4 
      1389.0         0.33         21.6 
      1390.0         0.27         22.2 
      1391.0         0.27         22.9 
      1392.0         0.37         23.3 
      1393.0         0.23         24.0 
      1394.0         0.20         24.5 
      1395.0         0.20         24.7 
      1396.0         0.27         25.7 
      1397.0         0.28         26.0 
      1398.0         0.27         25.9 
      1399.0         0.30         26.5 
      1400.0         0.27         26.8 
      1401.0         0.23         26.9 
      1402.0         0.27         26.9 
      1403.0         0.30         27.1 
      1404.0         0.23         26.5 
      1405.0         0.23         22.3 
      1406.0         0.23         19.0 
      1407.0         0.27         17.8 
      1408.0         0.30         18.4 
      1409.0         0.17         21.8 
      1410.0         5.13        276.2 
      1411.0         0.57        189.9 
      1412.0         0.63        169.6 
      1413.0         0.65        147.6 
      1414.0         0.63        133.6 
      1415.0         0.47        125.0 
      1416.0         0.40        116.5 
      1417.0         0.50        106.2 
      1418.0         0.53         96.1 
      1419.0         0.55         87.0 
      1420.0         0.57         82.4 
      1421.0         0.57         81.1 
      1422.0         0.57         77.6 
      1423.0         0.63         74.0 
      1424.0         0.63         70.3 
      1425.0         0.68         67.0 
      1426.0         0.63         54.9 
