~Version Information
VERS.                      2.0: CWLS Log ASCII Standard - VERSION 2.0
WRAP.                       NO: One line per depth step
~Well Information Block
STRT.FT                -8.0000: 
STOP.FT              1540.2500: 
STEP.FT                 0.2500: 
NULL.                -999.2500: 
COMP.          Pioneer Natural Resources: COMPANY
WELL.           Telna 24-22 Tr: WELL
FLD.           Purgatorie River: FIELD
LOC.           748' FSL & 1931' FWL--: LOCATION
PROV.                       CO: PROVINCE
CNTY.               Las Animas: COUNTRY
SRVC.          Patterson Wireline: SERVICE COMPANY
DATE.          Fri May 06 12:29:21 2005: LOG DATE
UWI.           05 071 08304 00: UNIQUE WELL ID
~Curve Information Block
DEPT.FT            0 000 00 00: Depth
CCL.                          : Casing Collar Locator
TT3.usec                      : CBL 3' Travel Time
AMP3.mV                       : CBL 3' Amplitude
GR.GAPI                       : Gamma Ray
~Parameter Information Block
~A  Depth       CCL         TT3         AMP3         GR     
# ...
   796.0000      0.0000    857.2179      6.2110    119.3074
   796.2500      0.0000    858.2285      6.1827    121.9015
   796.5000      0.0000    858.6012      6.1252    126.6453
   796.7500      0.0000    858.7391      6.0590    132.4448
   797.0000      0.0000    858.8190      5.9677    138.8652
   797.2500      0.0000    858.8878      5.8278    145.8078
   797.5000      0.0000    858.8789      5.6532    152.5685
   797.7500      0.0000    858.6646      5.5010    157.4580
   798.0000      0.0000    858.1862      5.4168    158.6469
   798.2500      0.0000    857.5215      5.3826    155.6429
   798.5000      0.0000    856.8358      5.3371    149.8924
   798.7500      0.0000    856.2993      5.2414    143.7624
   799.0000      0.0000    856.0312      5.1108    138.7559
   799.2500      0.0000    856.0489      5.0006    134.4425
   799.5000      0.0000    856.2427      4.9661    129.2008
   799.7500      0.0000    856.4348      5.0207    122.4741
   800.0000      0.0000    856.5148      5.1313    116.3405
   800.2500      0.0000    856.5228      5.2652    114.2402
   800.5000      0.0000    856.5778      5.4227    117.9254
   800.7500      0.0000    856.7260      5.6011    125.9095
   801.0000      0.0000    856.8927      5.7496    134.7911
   801.2500      0.0000    856.9563      5.7947    141.7515
   801.5000      0.0000    856.8057      5.7039    145.6039
   801.7500      0.0000    856.2484      5.5092    145.9437
   802.0000      0.0000    854.7484      5.2797    142.3827
   802.2500      0.0000    851.0963      5.0878    135.1408
   802.5000      0.0000    843.4648      4.9821    125.7868
   802.7500      0.0000    830.7519      4.9639    116.9111
   803.0000      0.0000    814.9255      4.9801    111.1166
   803.2500      0.0000    801.6784      4.9471    109.7726
   803.5000      0.0000    796.8464      4.7973    111.9034
   803.7500      0.0000    801.3369      4.5337    114.6243
   804.0000      0.0000    810.7145      4.2506    115.5541
   804.2500      0.0000    820.4306      4.0753    114.7832
   804.5000      0.0000    830.0756      4.0636    114.1572
   804.7500      0.0000    841.6644      4.1686    114.9326
   805.0000      2.0000    855.4745      4.3126    116.6211
   805.2500      2.0000    869.1034      4.4628    118.1442
   805.5000      0.0000    879.2911      4.6292    119.6258
   805.7500      0.0000    883.2635      4.8142    122.4709
   806.0000      0.0000    879.7408      4.9772    127.5418
   806.2500      0.0000    870.1727      5.0460    133.5995
   806.5000      0.0000    858.2409      4.9726    137.7869
   806.7500      0.0000    847.0244      4.8009    137.6806
   807.0000      0.0000    836.9385      4.6657    133.0790
   807.2500      0.0000    827.2150      4.6866    126.1643
   807.5000      0.0000    819.0708      4.8580    119.9939
   807.7500      0.0000    815.9675      5.0585    116.5885
   808.0000      0.0000    819.8517      5.1650    115.9610
   808.2500      0.0000    828.3456      5.1472    116.3474
   808.5000      0.0000    836.7787      5.0569    115.3976
   808.7500      0.0000    842.1652      4.9544    111.8725
   809.0000      0.0000    844.4340      4.8657    106.5340
   809.2500      0.0000    844.9088      4.7934    101.2725
   809.5000      0.0000    844.7545      4.7339     97.4043
   809.7500      0.0000    844.5516      4.6720     94.9191
   810.0000      0.0000    844.4806      4.5781     93.1585
   810.2500      0.0000    844.5342      4.4336     91.8022
   810.5000      0.0000    844.6505      4.2554     91.1099
   810.7500      0.0000    844.7596      4.0891     91.5399
   811.0000      0.0000    844.8215      3.9826     93.4138
   811.2500      0.0000    844.8464      3.9691     96.8179
   811.5000      0.0000    844.8843      4.0518    101.4628
   811.7500      0.0000    844.9775      4.1901    106.4503
   812.0000      0.0000    845.1247      4.3185    110.3760
   812.2500      0.0000    845.2940      4.4081    111.9651
   812.5000      0.0000    845.4566      4.5019    110.7327
   812.7500      0.0000    845.6003      4.6662    107.2527
   813.0000      0.0000    845.7344      4.9038    103.0947
   813.2500      0.0000    845.7064      5.1305    100.3445
   813.5000      0.0000    844.7223      5.2434    100.5486
   813.7500      0.0000    840.5659      5.2109    103.7021
   814.0000      0.0000    829.4590      5.0985    108.3585
   814.2500      0.0000    807.7397      5.0132    112.9292
   814.5000      0.0000    774.7177      5.0293    116.7560
   814.7500      0.0000    734.0035      5.1517    119.7975
   815.0000      0.0000    692.1573      5.3215    121.7287
   815.2500      0.0000    657.0510      5.4432    122.2134
   815.5000      0.0000    636.7608      5.4399    121.9831
   815.7500      0.0000    636.8359      5.3173    122.5916
   816.0000      0.0000    656.4847      5.1717    124.7423
   816.2500      0.0000    687.9468      5.1071    127.5118
   816.5000      0.0000    719.6704      5.1401    129.3241
   816.7500      0.0000    739.3614      5.1977    129.2576
   817.0000      0.0000    736.6413      5.2071    127.4551
   817.2500      0.0000    708.4795      5.1691    124.7617
   817.5000      0.0000    663.6891      5.1397    122.0685
   817.7500      0.0000    618.4698      5.1543    119.8055
   818.0000      0.0000    585.4382      5.1859    118.0562
   818.2500      0.0000    567.3358      5.1885    117.1832
   818.5000      0.0000    559.8707      5.1638    117.9568
   818.7500      0.0000    557.7158      5.1501    120.6135
   819.0000      0.0000    557.6423      5.1475    123.9938
   819.2500      0.0000    558.7552      5.0980    126.3590
   819.5000      0.0000    562.1413      4.9609    127.1748
   819.7500      0.0000    571.2068      4.7842    127.4102
   820.0000      0.0000    591.6182      4.6736    127.9500
   820.2500      0.0000    628.5309      4.6961    128.6627
   820.5000      0.0000    681.0002      4.8180    129.2430
   820.7500      0.0000    738.7256      4.9326    129.9741
   821.0000      0.0000    786.8704      4.9468    131.1565
   821.2500      0.0000    816.2473      4.8496    132.3708
   821.5000      0.0000    828.9417      4.7090    132.5672
   821.7500      0.0000    834.1434      4.6093    130.5170
   822.0000      0.0000    839.4705      4.5866    125.2453
   822.2500      0.0000    846.4921      4.6118    116.6897
   822.5000      0.0000    852.9598      4.6269    106.2019
   822.7500      0.0000    857.0395      4.5919     96.0103
   823.0000      0.0000    858.8367      4.4990     87.7419
   823.2500      0.0000    859.3780      4.3646     81.4451
   823.5000      0.0000    859.4548      4.2281     76.2519
   823.7500      0.0000    859.3965      4.1458     71.9786
   824.0000      0.0000    859.3062      4.1584     69.7914
   824.2500      0.0000    859.2577      4.2572     71.2080
   824.5000      0.0000    859.3529      4.3888     76.6793
   824.7500      0.0000    859.6627      4.4962     85.4230
   825.0000      0.0000    860.1652      4.5489     96.3981
   825.2500      0.0000    860.7446      4.5391    108.8372
   825.5000      0.0000    861.2715      4.4669    121.6723
   825.7500      0.0000    861.6892      4.3432    133.0910
   826.0000      0.0000    862.0247      4.2092    141.2890
   826.2500      0.0000    862.3187      4.1408    145.5151
   826.5000      0.0000    862.5814      4.2076    145.9849
   826.7500      0.0000    862.8687      4.4119    143.1936
   827.0000      0.0000    863.4393      4.6712    138.1295
   827.2500      0.0000    864.7150      4.8738    132.7715
   827.5000      0.0000    866.8064      4.9503    129.0016
   827.7500      0.0000    868.9758      4.9053    126.7287
   828.0000      0.0000    869.8942      4.8042    123.8898
   828.2500      0.0000    868.8016      4.7353    118.6266
   828.5000      0.0000    866.3164      4.7633    111.0346
   828.7500      0.0000    863.8738      4.8961    102.7454
   829.0000      0.0000    862.4963      5.0770     95.4283
   829.2500      0.0000    862.1810      5.2110     90.0854
