~Version Information
VERS.                      2.0: CWLS Log ASCII Standard - VERSION 2.0
WRAP.                       NO: One line per depth step
~Well Information Block
STRT.FT               235.0000: 
STOP.FT              1633.0000: 
STEP.FT                 0.1000: 
NULL.                -999.2500: 
COMP.          Petrogulf Corporation: COMPANY
WELL.             State 16-41R: WELL
FLD.           Purgatorie River: FIELD
LOC.           280' FNL & 907' FEL: LOCATION
PROV.                 Colorado: PROVINCE
CNTY.               Las Animas: COUNTRY
SRVC.                Patterson: SERVICE COMPANY
DATE.          Wed Oct 19 07:05:20 2005: LOG DATE
API.           05-071-08345    : API
~Curve Information Block
DEPT.FT            0 000 00 00: Depth
DCAL.in                       : CDL Caliper
RHOB.g/cc                     : CDL Bulk Density
RHOC.g/cc                     : CDL Density Correction
DPOR.pu                       : CDL Density Porosity
GR.GAPI                       : Gamma Ray
NPOR.pu                       : Neutron Porosity
~Parameter Information Block
~A  Depth       DCAL        RHOB        RHOC        DPOR         GR         NPOR    
# ...
  1252.6000      7.8702      2.6393      0.0702      0.6512     95.1497     21.7262
  1252.7000      7.8702      2.6428      0.1049      0.4357     94.5329     21.4335
  1252.8000      7.8876      2.6394      0.0793      0.6423     94.3016     21.3593
  1252.9000      7.8876      2.6283      0.0721      1.3170     97.4079     21.6060
  1253.0000      7.8535      2.6180      0.0549      1.9424    101.1377     21.9719
  1253.1000      7.8535      2.6150      0.0623      2.1193    102.1113     22.3667
  1253.2000      7.8535      2.6125      0.0840      2.2727    100.9135     22.4401
  1253.3000      7.8581      2.6017      0.0177      2.9280     99.3371     21.8525
  1253.4000      7.8581      2.5908      0.0244      3.5857     99.0417     21.0740
  1253.5000      7.8606      2.5856      0.0396      3.9007    100.0551     20.8386
  1253.6000      7.8606      2.5772      0.0455      4.4148    101.6579     21.1757
  1253.7000      7.8606      2.5611      0.0156      5.3869    104.3887     21.5646
  1253.8000      7.8508      2.5479      0.0397      6.1887    107.0392     21.8558
  1253.9000      7.8508      2.5508      0.0132      6.0091    107.9875     22.1772
  1254.0000      7.8724      2.5748      0.0334      4.5578    107.5895     22.4852
  1254.1000      7.8724      2.6039      0.0702      2.7915    107.5963     22.4932
  1254.2000      7.8724      2.6221      0.0628      1.6929    108.9879     22.0421
  1254.3000      7.8653      2.6352      0.0599      0.8987    109.6814     21.5929
  1254.4000      7.8653      2.6451      0.0785      0.2976    107.2270     21.5289
  1254.5000      7.8120      2.6431      0.0569      0.4163    104.1207     21.5934
  1254.6000      7.8120      2.6366      0.0692      0.8147    105.4363     21.5343
  1254.7000      7.8120      2.6420      0.0747      0.4834    109.5929     21.4444
  1254.8000      7.8044      2.6614      0.1034     -0.6935    111.2952     21.6096
  1254.9000      7.8044      2.6738      0.1382     -1.4412    110.6774     22.1640
  1255.0000      7.8078      2.6595      0.1284     -0.5787    109.8952     22.5931
  1255.1000      7.8078      2.6363      0.0282      0.8311    109.4704     22.5631
  1255.2000      7.8078      2.6328      0.0697      1.0407    108.7448     22.3881
  1255.3000      7.8070      2.6420      0.1136      0.4873    105.8272     22.2350
  1255.4000      7.8070      2.6435      0.0698      0.3968    101.2619     22.0337
  1255.5000      7.8227      2.6365      0.0825      0.8203     99.3841     21.7678
  1255.6000      7.8227      2.6231      0.1123      1.6279    101.1071     21.5117
  1255.7000      7.8227      2.6053      0.0443      2.7077    104.5846     21.4018
  1255.8000      7.7956      2.5938      0.0474      3.4055    111.2931     21.5584
  1255.9000      7.7956      2.5975      0.0644      3.1803    119.9568     22.0546
  1256.0000      7.8250      2.6140      0.0855      2.1832    124.9525     22.8910
  1256.1000      7.8250      2.6291      0.1026      1.2676    126.9006     23.7648
  1256.2000      7.8250      2.6260      0.1102      1.4542    129.2153     24.2350
  1256.3000      7.8980      2.6092      0.0532      2.4751    130.3820     24.2300
  1256.4000      7.8980      2.5975      0.1221      3.1815    129.5318     24.0590
  1256.5000      7.8716      2.5916      0.0901      3.5398    129.8450     24.0064
  1256.6000      7.8716      2.5834      0.1041      4.0340    133.4669     24.2763
  1256.7000      7.8716      2.5728      0.0708      4.6775    138.9383     24.8820
  1256.8000      7.8656      2.5614      0.0721      5.3706    143.9757     25.4487
  1256.9000      7.8656      2.5541      0.0397      5.8105    148.8374     25.6247
  1257.0000      7.9234      2.5538      0.0594      5.8298    153.9962     25.5036
  1257.1000      7.9234      2.5466      0.0786      6.2638    158.2550     25.4369
  1257.2000      7.9234      2.5225      0.0599      7.7295    160.3250     25.5762
  1257.3000      7.9311      2.4960      0.0173      9.3321    161.8577     25.9728
  1257.4000      7.9311      2.4869      0.0111      9.8878    163.9595     26.5813
  1257.5000      7.9209      2.4941      0.0344      9.4497    163.7309     26.9807
  1257.6000      7.9209      2.5055      0.0398      8.7595    161.9086     27.0173
  1257.7000      7.9209      2.5205     -0.0072      7.8456    160.1858     27.0329
  1257.8000      7.9126      2.5432      0.0772      6.4750    157.1182     27.1737
  1257.9000      7.9126      2.5674      0.0807      5.0060    153.5558     27.2707
  1258.0000      7.9194      2.5893      0.1143      3.6798    149.9339     27.2419
  1258.1000      7.9194      2.6074      0.0922      2.5825    146.1144     27.1652
  1258.2000      7.9194      2.6182      0.1216      1.9257    141.9286     27.1111
  1258.3000      7.9100      2.6196      0.1139      1.8406    135.3285     27.0519
  1258.4000      7.9100      2.6166      0.0720      2.0227    126.1447     26.6913
  1258.5000      7.9057      2.6209      0.0910      1.7632    120.3487     25.8650
  1258.6000      7.9057      2.6367      0.0782      0.8041    119.1272     24.9826
  1258.7000      7.9057      2.6488      0.1089      0.0723    115.9696     24.4551
  1258.8000      7.8891      2.6366      0.1214      0.8111    112.1441     24.0934
  1258.9000      7.8891      2.6073      0.0393      2.5850    112.6873     23.8169
  1259.0000      7.8144      2.5881      0.0769      3.7534    117.4609     23.7520
  1259.1000      7.8144      2.5889      0.0657      3.7008    124.6390     23.7750
  1259.2000      7.8144      2.6077      0.0466      2.5658    129.5427     23.7788
  1259.3000      7.8086      2.6359      0.1194      0.8558    129.9871     23.8431
  1259.4000      7.8086      2.6523      0.1491     -0.1417    130.9218     23.9161
  1259.5000      7.8150      2.6490      0.1171      0.0636    134.3221     23.9457
  1259.6000      7.8150      2.6375      0.1167      0.7582    137.0368     24.1027
  1259.7000      7.8150      2.6221      0.0945      1.6888    138.0803     24.5242
  1259.8000      7.8543      2.5949      0.1050      3.3377    139.6590     24.9854
  1259.9000      7.8543      2.5551      0.0606      5.7508    145.0849     25.1382
  1260.0000      7.8875      2.5190      0.0167      7.9380    153.0949     25.1618
  1260.1000      7.8875      2.5066     -0.0050      8.6884    158.5379     25.3967
  1260.2000      7.8875      2.5255     -0.0176      7.5457    159.6213     25.7017
  1260.3000      7.9387      2.5592      0.0660      5.5018    158.3909     25.9084
  1260.4000      7.9387      2.5756      0.0712      4.5078    159.9383     26.1240
  1260.5000      7.9427      2.5629      0.0494      5.2761    168.9865     26.3286
  1260.6000      7.9427      2.5371      0.0306      6.8442    179.0667     26.3906
  1260.7000      7.9427      2.5148      0.0083      8.1938    180.5018     26.3876
  1260.8000      7.9459      2.5031     -0.0009      8.9050    175.6884     26.5674
  1260.9000      7.9459      2.5025     -0.0025      8.9374    171.8286     26.8935
  1261.0000      7.9433      2.5082      0.0329      8.5938    170.7361     27.0473
  1261.1000      7.9433      2.5165     -0.0122      8.0936    172.2141     26.8593
  1261.2000      7.9433      2.5311     -0.0117      7.2064    174.7785     26.5743
  1261.3000      7.9492      2.5495      0.0551      6.0928    173.1408     26.6817
  1261.4000      7.9492      2.5585      0.0746      5.5465    168.4464     27.2351
  1261.5000      7.9441      2.5534      0.0572      5.8540    168.0732     27.7649
  1261.6000      7.9441      2.5374      0.0406      6.8267    172.5199     27.9265
  1261.7000      7.9441      2.5177      0.0120      8.0173    175.6061     27.7114
  1261.8000      7.9447      2.5146     -0.0478      8.2056    176.0896     27.2175
  1261.9000      7.9447      2.5375      0.0339      6.8171    176.9745     26.6909
  1262.0000      7.9479      2.5622      0.0403      5.3192    176.2615     26.5806
  1262.1000      7.9479      2.5650      0.0649      5.1522    171.8909     26.9302
