~Version Information
 VERS.                                  2.0 : CWLS LAS VERSION
 WRAP.                                   NO : WRAPING MODE
 SWARE .                 MController 2.5.0J : SOFTWARE VERSION
~Well Information
 WELL.                        McLeod 09-42R : WELL
 COMP.                Petrogulf Corporation : COMPANY
 FLD.                      Purgatoire River : FIELD
 LOC.                SE/NE Sec 09 T33S R67W : LOCATION
 DATE.                          08/13-14/05 : DATE(S) LOGGED
 SRVC.       BLANCO Geological Services LLC : SERVICE COMPANY
 STAT.                                   CO : STATE
 CNTY.                           Las Animas : COUNTY
 CTRY.                                  USA : COUNTRY
 API.                       05 071 08092 00 : API NUMBER
 STRT.FT                               6.00 : START DEPTH
 STOP.FT                            1775.00 : STOP DEPTH
 STEP.FT                               1.00 : DEPTH INCREMENT
 NULL.                                -9999 : NULL VALUE
~Curve information
 DEPTH.FT                                   :
 ROP.MIN/FT                                 :
 GAS.UNITS                                  :
~ASCII Log data
# ...
      1206.0         0.33         14.9 
      1207.0         0.33         14.6 
      1208.0         0.30         14.4 
      1209.0         0.30         14.6 
      1210.0         0.30         13.7 
      1211.0         0.32         14.3 
      1212.0         0.33         14.0 
      1213.0         0.20         14.3 
      1214.0         0.17         14.5 
      1215.0         0.23         16.6 
      1216.0         0.27         20.1 
      1217.0         0.27         20.4 
      1218.0         0.23         17.8 
      1219.0         0.13         17.4 
      1220.0         0.13         17.0 
      1221.0         0.13         16.4 
      1222.0         0.23         16.3 
      1223.0         0.27         15.5 
      1224.0         0.25         13.5 
      1225.0         0.20         11.9 
      1226.0         0.23         15.7 
      1227.0         0.20         20.4 
      1228.0         1.83        113.9 
      1229.0         0.42         56.5 
      1230.0         0.27         31.5 
      1231.0         0.33         24.0 
      1232.0         0.30         19.7 
      1233.0         0.23         17.9 
      1234.0         0.30         16.9 
      1235.0         0.37         15.2 
      1236.0         0.50         15.0 
      1237.0         0.43         14.4 
      1238.0         0.42         14.4 
      1239.0         0.27         14.6 
      1240.0         0.17         15.0 
      1241.0         0.23         15.0 
      1242.0         0.23         15.1 
      1243.0         0.37         13.7 
      1244.0         0.40         13.8 
      1245.0         0.30         13.1 
      1246.0         0.27         13.3 
      1247.0         0.27         13.1 
      1248.0         0.23         14.0 
      1249.0         0.23         13.7 
      1250.0         0.25         14.7 
      1251.0         0.30         14.6 
      1252.0         0.20         14.0 
      1253.0         0.30         13.9 
      1254.0         0.20         13.9 
      1255.0         0.30         13.4 
      1256.0         0.37         11.2 
      1257.0         0.27         14.7 
      1258.0         2.83        104.2 
      1259.0         0.27         20.7 
      1260.0         0.17         17.1 
      1261.0         0.27         16.2 
      1262.0         0.27         14.6 
      1263.0         0.30         14.1 
      1264.0         0.48         13.7 
      1265.0         0.27         13.1 
      1266.0         0.20         13.1 
      1267.0         0.33         13.0 
      1268.0         0.47         13.1 
      1269.0         0.27         12.2 
      1270.0         0.17         12.6 
      1271.0         0.23         12.5 
      1272.0         0.20         10.7 
      1273.0         0.33          9.2 
      1274.0         0.50         14.3 
      1275.0         0.35         15.2 
      1276.0         0.10         15.5 
      1277.0         0.20         15.4 
      1278.0         0.43         14.9 
      1279.0         0.40         14.3 
      1280.0         0.30         13.2 
      1281.0         0.27         13.0 
      1282.0         0.20         12.4 
      1283.0         0.23         12.6 
      1284.0         0.27         12.8 
      1285.0         0.20         11.6 
      1286.0         0.28         10.2 
      1287.0         0.37          9.0 
      1288.0         2.82        155.1 
      1289.0         0.50         64.1 
      1290.0         0.40         31.1 
      1291.0         0.33         20.9 
      1292.0         0.40         16.7 
      1293.0         0.27         14.4 
      1294.0         0.27         14.0 
      1295.0         0.22         13.2 
      1296.0         0.23         12.6 
      1297.0         0.23         13.1 
      1298.0         0.20         12.7 
      1299.0         0.43         13.5 
      1300.0         0.43         12.6 
      1301.0         0.17         12.5 
      1302.0         0.20         17.4 
      1303.0         0.20         17.9 
      1304.0         0.20         17.0 
      1305.0         0.22         14.5 
      1306.0         0.17         14.3 
      1307.0         0.13         13.1 
      1308.0         0.13         13.3 
      1309.0         0.23         13.4 
      1310.0         0.23         13.5 
      1311.0         0.37         12.8 
      1312.0         0.32         12.5 
      1313.0         0.23         11.9 
      1314.0         0.20         10.9 
      1315.0         0.17          9.1 
      1316.0         0.23         11.8 
      1317.0         0.27         20.8 
      1318.0         2.83        130.2 
      1319.0         0.27         25.8 
      1320.0         0.23         21.2 
      1321.0         0.37         18.2 
      1322.0         0.30         15.0 
      1323.0         0.38         14.6 
      1324.0         0.30         13.5 
      1325.0         0.20         12.9 
      1326.0         0.57         13.2 
      1327.0         0.45         12.6 
      1328.0         0.27         12.2 
      1329.0         0.27         11.4 
      1330.0         0.20         11.2 
      1331.0         0.23         12.1 
      1332.0         0.23         12.0 
      1333.0         0.32         12.4 
      1334.0         0.40         12.6 
      1335.0         0.47         12.4 
      1336.0         0.37         12.2 
      1337.0         0.22         11.4 
      1338.0         0.23         11.8 
      1339.0         0.20         12.3 
      1340.0         0.23         12.4 
      1341.0         0.40         12.4 
      1342.0         0.27         12.0 
      1343.0         0.27         11.6 
      1344.0         0.35         10.4 
      1345.0         0.23          8.4 
      1346.0         0.27         10.1 
      1347.0         0.23         15.3 
      1348.0         1.92        107.1 
      1349.0         0.45         54.7 
      1350.0         0.30         31.4 
      1351.0         0.27         23.9 
      1352.0         0.20         19.8 
      1353.0         0.20         18.9 
      1354.0         0.13         20.3 
      1355.0         0.17         19.2 
      1356.0         0.22         17.4 
      1357.0         0.13         15.8 
      1358.0         0.13         15.6 
      1359.0         0.17         14.5 
      1360.0         0.13         13.2 
      1361.0         0.17         13.6 
      1362.0         0.20         13.0 
      1363.0         0.23         13.2 
      1364.0         0.17         12.8 
      1365.0         0.23         12.7 
      1366.0         0.17         12.4 
      1367.0         0.20         12.3 
      1368.0         0.17         12.2 
      1369.0         0.20         12.0 
      1370.0         0.32         11.0 
      1371.0         0.23         11.5 
      1372.0         0.23         10.9 
      1373.0         0.17         10.7 
      1374.0         0.27          9.6 
      1375.0         0.20          7.7 
      1376.0         0.23          9.5 
      1377.0         0.23         15.7 
      1378.0         2.08        128.6 
      1379.0         0.43         69.1 
      1380.0         0.37         32.1 
      1381.0         0.27         20.5 
      1382.0         0.27         16.2 
      1383.0         0.28         14.3 
      1384.0         0.30         13.8 
      1385.0         0.53         13.0 
      1386.0         0.43         12.0 
      1387.0         0.23         11.7 
      1388.0         0.30         12.0 
      1389.0         0.63         11.9 
      1390.0         0.40         11.6 
      1391.0         0.32         11.6 
      1392.0         0.40         11.5 
      1393.0         0.33         11.4 
      1394.0         0.33         11.5 
      1395.0         0.33         11.1 
      1396.0         0.27         10.9 
      1397.0         0.27         11.4 
      1398.0         0.23         10.7 
      1399.0         0.23         11.3 
      1400.0         0.37         10.9 
      1401.0         0.20         10.4 
      1402.0         0.22         10.2 
      1403.0         0.23          9.6 
      1404.0         0.27          9.2 
      1405.0         0.20          7.6 
