~Version Information
VERS.                      2.0: CWLS Log ASCII Standard - VERSION 2.0
WRAP.                       NO: One line per depth step
~Well Information Block
STRT.FT               550.0000: 
STOP.FT              2359.0000: 
STEP.FT                 0.1000: 
NULL.                -999.2500: 
COMP.          Pioneer Natural Resources: COMPANY
WELL.              Whinny 42-2: WELL
FLD.           Purgatoire River: FIELD
LOC.           1836' FNL & 466' FEL: LOCATION
PROV.                 Colorado: PROVINCE
CNTY.               Las Animas: COUNTRY
SRVC.                Patterson: SERVICE COMPANY
DATE.          Mon Aug 22 07:28:42 2005: LOG DATE
UWI.           05 071 08406 00: UNIQUE WELL ID
~Curve Information Block
DEPT.FT            0 000 00 00: Depth
DCAL.in                       : CDL Caliper
RHOB.g/cc                     : CDL Bulk Density
RHOC.g/cc                     : CDL Density Correction
DPOR.pu                       : CDL Density Porosity
GR.GAPI                       : Gamma Ray
NPOR.pu                       : Neutron Porosity
~Parameter Information Block
~A  Depth       DCAL        RHOB        RHOC        DPOR         GR         NPOR    
# ...
  1750.0000      8.1064      2.5163      0.0840      8.1036    105.4318     23.5254
  1750.1000      8.1064      2.5109      0.0710      8.4305    103.8746     24.3148
  1750.2000      8.1064      2.4971      0.0615      9.2668    102.6041     24.9154
  1750.3000      8.0557      2.4947      0.0282      9.4109    106.8801     24.8605
  1750.4000      8.0557      2.5035      0.0608      8.8806    113.0907     24.0480
  1750.5000      8.0277      2.5134      0.0264      8.2806    115.2495     23.1145
  1750.6000      8.0277      2.5278      0.0515      7.4077    111.6905     23.0838
  1750.7000      8.0277      2.5448      0.0704      6.3756    105.3087     24.2652
  1750.8000      8.0242      2.5556      0.0515      5.7224    100.7835     25.8967
  1750.9000      8.0242      2.5535      0.0779      5.8455    104.9532     26.7006
  1751.0000      8.0196      2.5367      0.0567      6.8650    117.9158     26.4049
  1751.1000      8.0196      2.5152      0.0480      8.1677    125.7161     25.9220
  1751.2000      8.0196      2.5011      0.0348      9.0258    119.2306     25.6735
  1751.3000      8.0175      2.4921      0.0379      9.5682    108.4543     25.4404
  1751.4000      8.0175      2.4865     -0.0097      9.9109    106.3836     25.3357
  1751.5000      8.0318      2.4855      0.0584      9.9709    112.1667     25.2802
  1751.6000      8.0318      2.4793      0.0278     10.3447    117.4887     25.0797
  1751.7000      8.0318      2.4673      0.0012     11.0747    118.6358     24.9382
  1751.8000      8.0483      2.4649     -0.0058     11.2165    118.2631     24.7935
  1751.9000      8.0483      2.4789      0.0305     10.3675    119.9076     24.5282
  1752.0000      8.0741      2.4993      0.0716      9.1322    124.3217     24.6593
  1752.1000      8.0741      2.5131      0.0760      8.2966    129.2770     25.9616
  1752.2000      8.0741      2.5164      0.0597      8.0982    129.5663     27.8423
  1752.3000      8.0948      2.5078      0.0925      8.6153    123.2866     28.6071
  1752.4000      8.0948      2.4856     -0.0073      9.9623    117.0777     28.2235
  1752.5000      8.1055      2.4646      0.0033     11.2350    115.1784     27.7781
  1752.6000      8.1055      2.4583      0.0790     11.6205    113.8300     27.3751
  1752.7000      8.1055      2.4483      0.0778     12.2252    112.9184     26.7826
  1752.8000      8.1041      2.4182      0.0045     14.0458    115.3243     26.3008
  1752.9000      8.1041      2.3878     -0.0209     15.8916    119.9630     26.3386
  1753.0000      8.1094      2.3745      0.0270     16.6945    125.5120     26.7486
  1753.1000      8.1094      2.3695      0.0313     17.0012    132.4966     27.2423
  1753.2000      8.1094      2.3673      0.0117     17.1318    139.2019     28.0377
  1753.3000      8.1115      2.3801      0.0008     16.3591    137.7622     28.9543
  1753.4000      8.1115      2.4165      0.0726     14.1517    125.9041     29.0646
  1753.5000      8.1170      2.4694      0.0991     10.9457    117.6823     28.3345
  1753.6000      8.1170      2.5305      0.1909      7.2440    122.0713     27.8816
  1753.7000      8.1170      2.5880      0.3719      3.7590    132.8066     28.2282
  1753.8000      8.1130      2.6193      0.3558      1.8630    141.3324     28.5600
  1753.9000      8.1130      2.6149      0.3190      2.1282    141.5389     28.5178
  1754.0000      8.1129      2.5885      0.2331      3.7299    133.8597     28.9158
  1754.1000      8.1129      2.5620      0.1735      5.3331    124.7280     29.9024
  1754.2000      8.1129      2.5457      0.1317      6.3201    116.1753     30.4217
  1754.3000      8.1482      2.5431      0.0904      6.4813    109.8005     29.7314
  1754.4000      8.1482      2.5706      0.0680      4.8127    108.6501     28.3782
  1754.5000      8.1064      2.6377      0.1206      0.7440    110.1487     27.6124
  1754.6000      8.1064      2.7240      0.1596     -4.4826    110.9873     27.7559
  1754.7000      8.1064      2.7972      0.1776     -8.9218    108.1156     27.6833
  1754.8000      8.0937      2.8363      0.1735    -11.2885    101.0216     26.9809
  1754.9000      8.0937      2.8358      0.1920    -11.2628     95.8421     26.6205
  1755.0000      8.1004      2.8012      0.1466     -9.1629     97.6153     26.3671
  1755.1000      8.1004      2.7461      0.1170     -5.8265    102.6755     25.5797
  1755.2000      8.1004      2.6854      0.0310     -2.1437    103.8065     25.1307
  1755.3000      8.1024      2.6302     -0.0608      1.1990    104.1568     25.5806
  1755.4000      8.1024      2.5883     -0.0867      3.7410    112.1668     26.0707
  1755.5000      8.1224      2.5584     -0.0929      5.5511    121.8055     25.7784
  1755.6000      8.1224      2.5461     -0.0988      6.2979    121.9275     25.2300
  1755.7000      8.1224      2.5545      0.0299      5.7873    114.1702     24.9924
  1755.8000      8.1234      2.5674     -0.0004      5.0070    106.9571     24.9578
  1755.9000      8.1234      2.5692      0.0756      4.8952    104.4495     25.2095
  1756.0000      8.1293      2.5518      0.0466      5.9486    106.8568     25.3985
  1756.1000      8.1293      2.5242      0.0231      7.6229    111.8247     25.2699
  1756.2000      8.1293      2.5114     -0.0023      8.4025    113.8569     25.2796
  1756.3000      8.1183      2.5259      0.0428      7.5189    112.7566     25.3725
  1756.4000      8.1183      2.5507      0.0992      6.0212    115.9250     25.3366
  1756.5000      8.0921      2.5551      0.1137      5.7537    121.9672     25.1204
  1756.6000      8.0921      2.5333      0.0962      7.0740    121.2937     24.7292
  1756.7000      8.0921      2.5103      0.0074      8.4650    112.8023     25.0266
  1756.8000      8.0796      2.5084      0.0306      8.5838    105.6431     26.6504
  1756.9000      8.0796      2.5209      0.0227      7.8235    105.8806     28.2344
  1757.0000      8.0880      2.5274      0.0927      7.4322    113.7157     28.4399
  1757.1000      8.0880      2.5200      0.0770      7.8792    126.9620     27.5012
  1757.2000      8.0880      2.5095      0.0600      8.5169    137.5733     26.5505
  1757.3000      8.0896      2.5057      0.0781      8.7471    139.5528     26.7056
  1757.4000      8.0896      2.5097      0.0918      8.5054    137.4930     27.7131
  1757.5000      8.1115      2.5192      0.0821      7.9249    136.5361     28.3265
  1757.6000      8.1115      2.5230      0.1323      7.6999    134.1279     28.2933
  1757.7000      8.1115      2.5114      0.0706      8.3991    129.5249     27.9837
  1757.8000      8.1172      2.4982      0.0495      9.2017    125.6495     27.7810
  1757.9000      8.1172      2.4930      0.0744      9.5153    122.4280     27.9596
  1758.0000      8.1233      2.4835      0.0972     10.0923    122.2219     28.2251
  1758.1000      8.1233      2.4680      0.0370     11.0320    130.3722     28.4285
  1758.2000      8.1233      2.4651      0.0207     11.2074    141.6654     28.6758
  1758.3000      8.1283      2.4752      0.0955     10.5910    142.9029     28.7076
  1758.4000      8.1283      2.4810      0.0756     10.2410    134.0716     28.2111
  1758.5000      8.1477      2.4872      0.0625      9.8667    123.6806     27.3184
  1758.6000      8.1477      2.5107      0.0829      8.4428    114.3120     26.6721
  1758.7000      8.1477      2.5462      0.0928      6.2904    108.5086     26.5945
  1758.8000      8.1354      2.5655      0.1419      5.1234    109.2534     26.7545
  1758.9000      8.1354      2.5506      0.1127      6.0235    112.1880     26.7365
  1759.0000      8.1209      2.5204      0.0299      7.8515    113.8001     26.4577
  1759.1000      8.1209      2.5034      0.1052      8.8860    116.3574     26.2244
  1759.2000      8.1209      2.5041      0.0567      8.8401    119.0468     25.8446
  1759.3000      8.1122      2.5173      0.0872      8.0450    115.3116     25.4960
  1759.4000      8.1122      2.5360      0.0638      6.9113    105.9573     26.0720
  1759.5000      8.1073      2.5486      0.0910      6.1474    102.9999     27.2358
