~Version Information
VERS.                      2.0: CWLS Log ASCII Standard - VERSION 2.0
WRAP.                       NO: One line per depth step
~Well Information Block
STRT.FT               948.2500: 
STOP.FT              2134.5000: 
STEP.FT                 0.2500: 
NULL.                -999.2500: 
COMP.          Petrogulf Corporation: COMPANY
WELL.             Valejo 8-12R: WELL
FLD.           Purgatorie River: FIELD
LOC.           1351'' FNL & 1562' FWL: LOCATION
CNTY.               Las Animas: COUNTY
SRVC.                         : SERVICE COMPANY
DATE.          Wed Apr 28 02:30:32 2004: LOG DATE
UWI.           05 071 08038 00: UNIQUE WELL ID
STAT.                 Colorado: STATE
~Curve Information Block
DEPT.FT            0 000 00 00: Depth
SP.mV                         : DIL Spontaneous Potential
RILD.Ohm-m                    : DIL Deep Resistivity
RILM.Ohm-m                    : DIL Medium Resistivity
RLL3.Ohm-m                    : DIL Shallow Resistivity
GR.GAPI                       : Gamma Ray
~Parameter Information Block
~A  Depth        SP         RILD        RILM        RLL3         GR     
# ...
  1788.2500    125.6863     13.3087     18.4192     56.4565     76.2816
  1788.5000    125.3555     14.2986     20.2960     57.1882     71.7749
  1788.7500    124.9122     15.3297     22.1986     56.4904     69.3230
  1789.0000    124.6071     16.3488     24.0750     54.7321     67.9772
  1789.2500    124.6508     17.2940     25.8780     52.6772     68.8949
  1789.5000    125.0340     18.1092     27.5766     51.5690     71.7111
  1789.7500    125.5152     18.7553     29.1570     53.0050     73.2016
  1790.0000    125.7921     19.2166     30.6119     58.5227     73.0370
  1790.2500    125.6902     19.4993     31.9240     68.8836     71.1130
  1790.5000    125.2387     19.6216     33.0573     83.3899     66.4289
  1790.7500    124.6242     19.6005     33.9581     99.7138     62.8969
  1791.0000    124.0782     19.4448     34.5563    114.4865     58.0708
  1791.2500    123.7687     19.1584     34.7632    124.5340     55.6074
  1791.5000    123.7627     18.7484     34.4740    128.1638     53.6381
  1791.7500    124.0403     18.2303     33.5921    125.6102     53.7488
  1792.0000    124.5143     17.6242     32.0779    118.2884     56.3635
  1792.2500    125.0784     16.9476     29.9965    107.5551     59.8351
  1792.5000    125.7135     16.2120     27.5270     94.0780     67.5485
  1792.7500    126.5683     15.4273     24.9116     78.3210     74.0161
  1793.0000    127.8665     14.6089     22.3722     61.5342     84.3885
  1793.2500    129.6518     13.7800     20.0476     46.0020     90.6931
  1793.5000    131.6350     12.9680     17.9846     34.0081     97.8487
  1793.7500    133.3534     12.1971     16.1711     26.4325    101.1189
  1794.0000    134.4885     11.4831     14.5793     22.3403    105.4514
  1794.2500    135.0235     10.8331     13.1931     19.8924    109.2090
  1794.5000    135.1550     10.2484     12.0091     17.6679    117.1493
  1794.7500    135.1139      9.7267     11.0244     15.2931    123.6011
  1795.0000    135.0562      9.2636     10.2246     13.1023    133.4041
  1795.2500    135.0496      8.8533      9.5841     11.4563    138.9615
  1795.5000    135.1036      8.4889      9.0711     10.4103    144.3618
  1795.7500    135.1942      8.1637      8.6551      9.8058    145.7411
  1796.0000    135.2824      7.8726      8.3102      9.4535    145.4379
  1796.2500    135.3382      7.6124      8.0168      9.2073    144.6384
  1796.5000    135.3615      7.3805      7.7611      8.9702    143.6784
  1796.7500    135.3781      7.1740      7.5362      8.6994    143.2363
  1797.0000    135.4149      6.9891      7.3412      8.4076    142.3449
  1797.2500    135.4719      6.8214      7.1782      8.1466    141.4487
  1797.5000    135.5157      6.6674      7.0482      7.9873    140.2070
  1797.7500    135.5015      6.5253      6.9465      7.9952    140.0885
  1798.0000    135.4091      6.3951      6.8616      8.1836    141.8825
  1798.2500    135.2568      6.2779      6.7782      8.4694    144.5674
  1798.5000    135.0860      6.1760      6.6841      8.6934    150.3439
  1798.7500    134.9358      6.0929      6.5747      8.7096    154.5540
  1799.0000    134.8286      6.0329      6.4552      8.4676    159.3520
  1799.2500    134.7699      5.9996      6.3382      8.0230    160.4903
  1799.5000    134.7548      5.9943      6.2392      7.4839    158.8050
  1799.7500    134.7723      6.0131      6.1730      6.9514    156.2481
  1800.0000    134.8102      6.0462      6.1512      6.5115    152.1966
  1800.2500    134.8609      6.0798      6.1790      6.2699    149.9074
  1800.5000    134.9245      6.1011      6.2543      6.3524    146.6758
  1800.7500    135.0032      6.1043      6.3661      6.8451    144.1071
  1801.0000    135.0973      6.0936      6.4958      7.7251    139.1478
  1801.2500    135.2030      6.0808      6.6207      8.8316    135.2011
  1801.5000    135.3113      6.0805      6.7201      9.8879    129.0659
  1801.7500    135.4077      6.1049      6.7821     10.5810    125.5849
  1802.0000    135.4692      6.1632      6.8093     10.6927    122.7413
  1802.2500    135.4585      6.2611      6.8186     10.2195    122.9076
  1802.5000    135.3175      6.4014      6.8370      9.3900    125.6738
  1802.7500    134.9823      6.5836      6.8934      8.5557    128.0559
  1803.0000    134.4226      6.8042      7.0131      8.0355    130.0288
  1803.2500    133.6837      7.0559      7.2137      8.0239    129.3369
  1803.5000    132.8967      7.3302      7.5051      8.5906    125.2140
  1803.7500    132.2451      7.6185      7.8907      9.7299    121.0195
  1804.0000    131.9019      7.9149      8.3694     11.4214    113.7385
  1804.2500    131.9482      8.2178      8.9385     13.6788    108.7546
  1804.5000    132.2884      8.5313      9.5954     16.5117    101.8805
  1804.7500    132.6325      8.8648     10.3397     19.7809     98.1515
  1805.0000    132.6220      9.2316     11.1745     23.1159     94.2604
  1805.2500    132.0424      9.6442     12.1078     26.0865     92.6381
  1805.5000    130.9637     10.1104     13.1520     28.5312     90.8022
  1805.7500    129.7272     10.6287     14.3214     30.7405     89.4619
  1806.0000    128.8178     11.1834     15.6252     33.3878     86.8193
  1806.2500    128.6704     11.7408     17.0535     37.3509     84.6745
  1806.5000    129.4400     12.2480     18.5544     43.4953     81.4195
  1806.7500    130.8769     12.6418     20.0056     52.3485     79.6589
  1807.0000    132.4774     12.8676     21.1981     63.6615     78.0639
  1807.2500    133.8131     12.8993     21.8680     75.9986     77.7460
  1807.5000    134.7312     12.7493     21.8003     86.5663     78.7964
  1807.7500    135.3055     12.4601     20.9585     91.6872     81.1487
  1808.0000    135.6866     12.0870     19.5261     88.3188     88.2214
  1808.2500    135.9938     11.6797     17.8089     76.1291     95.3111
  1808.5000    136.2732     11.2724     16.0897     58.3994    108.0981
  1808.7500    136.5082     10.8829     14.5477     40.4059    116.6973
  1809.0000    136.6664     10.5172     13.2580     26.3623    127.4397
  1809.2500    136.7388     10.1750     12.2266     17.5828    132.3301
  1809.5000    136.7391      9.8545     11.4247     13.0293    136.0600
  1809.7500    136.6800      9.5539     10.8118     10.9774    136.6842
  1810.0000    136.5597      9.2725     10.3481     10.1404    136.3072
  1810.2500    136.3731      9.0101     10.0011      9.8451    135.8993
  1810.5000    136.1353      8.7671      9.7471      9.7849    135.4811
  1810.7500    135.8981      8.5439      9.5693      9.8355    135.3182
  1811.0000    135.7417      8.3411      9.4533     10.0188    135.4574
  1811.2500    135.7339      8.1598      9.3833     10.4611    135.9684
  1811.5000    135.8784      8.0016      9.3397     11.2332    136.8394
  1811.7500    136.1065      7.8667      9.3005     12.1738    136.7969
  1812.0000    136.3279      7.7537      9.2448     12.8987    135.5674
  1812.2500    136.4885      7.6589      9.1569     13.0465    134.9135
  1812.5000    136.5793      7.5779      9.0301     12.5433    136.2133
  1812.7500    136.6109      7.5061      8.8675     11.6236    138.8327
  1813.0000    136.6047      7.4395      8.6801     10.6143    143.7936
  1813.2500    136.5981      7.3735      8.4818      9.7258    146.5510
  1813.5000    136.6292      7.3029      8.2847      9.0193    148.7515
  1813.7500    136.6974      7.2223      8.0962      8.4879    148.9412
  1814.0000    136.7573      7.1280      7.9200      8.1151    147.6107
  1814.2500    136.7619      7.0189      7.7568      7.8791    145.7342
  1814.5000    136.7057      6.8977      7.6064      7.7510    141.9845
  1814.7500    136.6230      6.7697      7.4682      7.7039    139.7028
  1815.0000    136.5587      6.6405      7.3418      7.7103    138.3433
  1815.2500    136.5361      6.5144      7.2268      7.7291    139.2837
  1815.5000    136.5348      6.3937      7.1239      7.7134    142.6980
  1815.7500    136.4918      6.2798      7.0338      7.6459    145.2980
  1816.0000    136.3404      6.1749      6.9563      7.5644    148.2589
