~Version Information
VERS.                      2.0: CWLS Log ASCII Standard - VERSION 2.0
WRAP.                       NO: One line per depth step
~Well Information Block
STRT.FT               390.0000: 
STOP.FT              2768.7000: 
STEP.FT                 0.1000: 
NULL.                -999.2500: 
COMP.          Pioneer Natural Resources: COMPANY
WELL.              Lynch 43-30: WELL
FLD.           Purgatoire River: FIELD
LOC.           1438' FSL & 429' FEL: LOCATION
PROV.                 Colorado: PROVINCE
CNTY.               Las Animas: COUNTRY
SRVC.                Patterson: SERVICE COMPANY
DATE.          Wed Oct 27 08:22:00 2004: LOG DATE
UWI.           05 071 08170 00: UNIQUE WELL ID
~Curve Information Block
DEPT.FT            0 000 00 00: Depth
DCAL.in                       : CDL Caliper
DPOR.pu                       : CDL Density Porosity
NPOR.pu                       : Neutron Porosity
RHOB.g/cc                     : CDL Bulk Density
RHOC.g/cc                     : CDL Density Correction
GR.GAPI                       : Gamma Ray
~Parameter Information Block
~A  Depth       DCAL        DPOR        NPOR        RHOB        RHOC         GR     
# ...
   860.4000      8.1689     15.7027     12.2721      2.3909      0.2700    108.6691
   860.5000      8.1815     11.5639     13.4451      2.4592      0.2251    112.8051
   860.6000      8.1815      8.9065     14.7754      2.5030      0.1666    119.0359
   860.7000      8.1815      7.4643     16.3876      2.5268      0.0906    123.3475
   860.8000      8.1746      6.5092     18.5230      2.5426      0.0944    122.6699
   860.9000      8.1746      5.6794     20.9116      2.5563      0.0820    119.2321
   861.0000      8.1579      5.3652     22.8968      2.5615      0.0444    119.9229
   861.1000      8.1579      5.8761     24.2410      2.5530      0.0357    124.8952
   861.2000      8.1579      6.6636     25.2461      2.5401     -0.0194    126.9169
   861.3000      8.1654      6.6626     26.0980      2.5401      0.0203    128.8060
   861.4000      8.1654      5.9899     26.7896      2.5512     -0.0079    135.4048
   861.5000      8.1617      6.0001     27.2856      2.5510      0.0457    141.2240
   861.6000      8.1617      7.0125     27.2673      2.5343     -0.0309    143.0145
   861.7000      8.1617      7.9048     26.9340      2.5196      0.0091    142.6401
   861.8000      8.1579      8.2178     27.1198      2.5144     -0.0213    137.5426
   861.9000      8.1579      8.0111     27.8260      2.5178     -0.0352    127.3207
   862.0000      8.1564      6.8924     28.1364      2.5363      0.0150    119.3563
   862.1000      8.1564      5.1504     27.8357      2.5650      0.0319    118.4337
   862.2000      8.1564      4.2939     27.6749      2.5792      0.0882    122.9389
   862.3000      8.1626      4.8920     28.0845      2.5693      0.0501    125.6620
   862.4000      8.1626      5.6550     28.6604      2.5567      0.0437    120.6431
   862.5000      8.1684      5.7856     28.9895      2.5545      0.0591    114.3432
   862.6000      8.1684      5.2893     29.0705      2.5627      0.0110    114.0170
   862.7000      8.1684      4.1329     28.9852      2.5818      0.0453    117.9961
   862.8000      8.1636      2.9900     28.9502      2.6007      0.0275    124.7975
   862.9000      8.1636      2.7307     29.1888      2.6049      0.0207    132.4480
   863.0000      8.1637      3.3909     29.2937      2.5940      0.0145    134.5519
   863.1000      8.1637      4.5259     28.7944      2.5753      0.0112    129.3240
   863.2000      8.1637      5.5710     28.1777      2.5581      0.0218    123.7898
   863.3000      8.1639      5.8159     27.8935      2.5540     -0.0181    123.4054
   863.4000      8.1639      5.3337     27.5762      2.5620      0.0457    128.5196
   863.5000      8.1635      5.1428     27.1608      2.5651      0.0410    136.8195
   863.6000      8.1635      5.3029     26.9821      2.5625      0.0172    139.4867
   863.7000      8.1635      5.1616     26.8783      2.5648      0.0295    130.9620
   863.8000      8.1606      4.9751     26.6189      2.5679      0.0318    121.2383
   863.9000      8.1606      5.0255     26.3905      2.5671      0.0028    121.0525
   864.0000      8.1605      4.5878     26.3814      2.5743     -0.0119    124.9026
   864.1000      8.1605      3.2304     26.7578      2.5967      0.0476    123.9800
   864.2000      8.1605      1.6701     27.1719      2.6224      0.0324    120.1625
   864.3000      8.1616      0.6994     26.9750      2.6385      0.0358    119.8045
   864.4000      8.1616      0.4174     26.3070      2.6431      0.0254    122.9464
   864.5000      8.1572      0.2655     25.6416      2.6456      0.0306    123.0157
   864.6000      8.1572     -0.1562     25.0012      2.6526      0.0469    119.2087
   864.7000      8.1572     -0.7220     24.3934      2.6619      0.0481    113.7895
   864.8000      8.1637     -1.8274     24.1461      2.6802      0.0370    107.2130
   864.9000      8.1637     -3.2536     24.6676      2.7037      0.0916    101.9805
   865.0000      8.1616     -3.5582     26.0153      2.7087      0.0835     98.7890
   865.1000      8.1616     -3.0722     27.7423      2.7007     -0.0362     96.5495
   865.2000      8.1616     -3.4330     29.3283      2.7066      0.0128     94.2723
   865.3000      8.1647     -4.3150     30.4829      2.7212     -0.0188     92.9339
   865.4000      8.1647     -4.2966     31.1265      2.7209     -0.0330     94.1901
   865.5000      8.1999     -3.1227     31.5794      2.7015     -0.0590     96.8801
   865.6000      8.1999     -2.1182     32.2716      2.6850     -0.0832    101.3513
   865.7000      8.1999     -2.5358     33.1709      2.6918     -0.0521    108.5243
   865.8000      8.1691     -3.5729     33.8682      2.7090      0.0722    115.6903
   865.9000      8.1691     -3.1820     34.1775      2.7025      0.0390    118.7936
   866.0000      8.1584     -0.7702     34.2283      2.6627      0.0382    116.1381
   866.1000      8.1584      2.2769     33.8505      2.6124     -0.0372    112.5011
   866.2000      8.1584      4.2091     32.9322      2.5805     -0.0133    113.2066
   866.3000      8.1503      5.2955     31.8526      2.5626      0.0073    116.8574
   866.4000      8.1503      6.8292     30.8742      2.5373      0.0061    121.2721
   866.5000      8.1127      8.0458     29.9154      2.5172     -0.0676    126.5701
   866.6000      8.1127      7.0939     29.0690      2.5330     -0.0260    130.5672
   866.7000      8.1127      4.0004     28.8296      2.5840      0.0037    130.6535
   866.8000      8.1742      0.7459     29.3092      2.6377      0.0443    127.2029
   866.9000      8.1742     -0.9333     29.9308      2.6654      0.0641    122.8214
   867.0000      8.1686     -1.0670     30.4955      2.6676      0.0680    119.8142
   867.1000      8.1686     -0.5049     31.2122      2.6583      0.0386    118.8671
   867.2000      8.1686      0.7041     31.9348      2.6384      0.0519    118.9713
   867.3000      8.1685      2.3991     32.5133      2.6104     -0.0228    118.4001
   867.4000      8.1685      3.6570     32.8742      2.5897     -0.0826    117.7433
   867.5000      8.1687      4.1929     32.8206      2.5808     -0.0732    118.2557
   867.6000      8.1687      4.5420     32.4172      2.5751     -0.0780    119.9078
   867.7000      8.1687      5.1409     31.9033      2.5652     -0.0643    121.6246
   867.8000      8.1711      6.1411     31.2977      2.5487     -0.1156    122.9411
   867.9000      8.1711      7.2802     30.6026      2.5299     -0.0875    121.8472
   868.0000      8.1896      8.0012     30.0582      2.5180     -0.0636    116.4002
   868.1000      8.1896      7.7536     29.8103      2.5221     -0.0537    112.4693
   868.2000      8.1896      6.4921     29.7651      2.5429      0.0237    113.2171
   868.3000      8.2048      4.9712     29.5707      2.5680      0.0097    114.2540
   868.4000      8.2048      3.9171     28.9906      2.5854      0.0593    115.6257
   868.5000      8.2260      3.9854     28.4935      2.5842      0.0389    119.5584
   868.6000      8.2260      5.4980     28.6378      2.5593     -0.0053    123.5584
   868.7000      8.2260      7.4237     29.2085      2.5275     -0.0627    125.0851
   868.8000      8.1989      8.4044     29.7578      2.5113     -0.0735    125.1467
   868.9000      8.1989      8.1333     30.1518      2.5158     -0.0317    125.8871
   869.0000      8.1901      6.8897     30.2935      2.5363     -0.0388    129.6458
   869.1000      8.1901      5.3875     30.1785      2.5611     -0.0075    135.4173
   869.2000      8.1901      4.5055     30.0002      2.5757      0.0058    139.1705
   869.3000      8.1902      3.9632     30.2030      2.5846     -0.0128    139.6041
   869.4000      8.1902      3.1552     30.6672      2.5979      0.0355    138.2757
   869.5000      8.1992      2.4289     30.7099      2.6099      0.0217    137.5573
   869.6000      8.1992      2.4287     30.4089      2.6099      0.0289    138.3526
   869.7000      8.1992      4.0231     30.1407      2.5836      0.0431    140.6225
   869.8000      8.2204      7.6561     29.7967      2.5237     -0.0148    141.9419
   869.9000      8.2204     12.7209     29.2136      2.4401     -0.0036    139.9855
