~Version Information
VERS.                      2.0: CWLS Log ASCII Standard - VERSION 2.0
WRAP.                       NO: One line per depth step
~Well Information Block
STRT.FT               752.0000: 
STOP.FT              2474.2000: 
STEP.FT                 0.1000: 
NULL.                -999.2500: 
COMP.          Petrogulf Corporation: COMPANY
WELL.            Montoya 7-14V: WELL
FLD.           Purgatorie River: FIELD
LOC.           535' FSL & 491' FWL: LOCATION
CNTY.               Las Animas: COUNTY
SRVC.                         : SERVICE COMPANY
DATE.          Mon Aug 23 10:41:01 2004: LOG DATE
UWI.           05 071 08019 00: UNIQUE WELL ID
STAT.                 Colorado: STATE
~Curve Information Block
DEPT.FT            0 000 00 00: Depth
DCAL.in                       : CDL Caliper
RHOB.g/cc                     : CDL Bulk Density
RHOC.g/cc                     : CDL Density Correction
DPOR.pu                       : CDL Density Porosity
GR.GAPI                       : Gamma Ray
NPOR.pu                       : Neutron Porosity
~Parameter Information Block
~A  Depth       DCAL        RHOB        RHOC        DPOR         GR         NPOR    
# ...
   876.8000      8.2444      2.5686     -0.0500      4.9311     90.5678     27.4382
   876.9000      8.2444      2.5651     -0.0070      5.1451     95.0342     26.9547
   877.0000      8.2448      2.5534     -0.0049      5.8544    100.1254     26.4396
   877.1000      8.2448      2.5356     -0.0182      6.9306    102.0042     26.4610
   877.2000      8.2448      2.5184     -0.0489      7.9755     98.7564     26.8410
   877.3000      8.2446      2.5078     -0.0258      8.6166     94.1999     27.0135
   877.4000      8.2446      2.5104     -0.0434      8.4603     92.3890     26.7230
   877.5000      8.2449      2.5285      0.0052      7.3635     92.2583     26.2494
   877.6000      8.2449      2.5510      0.0019      6.0003     91.1794     25.8746
   877.7000      8.2449      2.5617      0.0373      5.3525     89.7430     25.7664
   877.8000      8.2446      2.5577      0.0324      5.5950     89.0782     25.8561
   877.9000      8.2446      2.5507      0.0414      6.0198     88.0626     26.0328
   878.0000      8.2425      2.5501      0.0401      6.0544     86.2228     26.1364
   878.1000      8.2425      2.5601      0.0035      5.4477     84.8078     25.7497
   878.2000      8.2425      2.5818      0.0604      4.1325     88.0889     24.9541
   878.3000      8.2422      2.6062      0.0865      2.6521     95.9755     24.3831
   878.4000      8.2422      2.6149      0.0794      2.1276    100.4146     24.2835
   878.5000      8.2398      2.6017      0.0614      2.9294     98.3776     24.5100
   878.6000      8.2398      2.5846      0.0602      3.9646     95.0547     24.5562
   878.7000      8.2398      2.5831      0.0158      4.0531     94.5946     24.3970
   878.8000      8.2412      2.5953      0.0665      3.3143     98.1841     25.1542
   878.9000      8.2412      2.6034      0.0610      2.8213    102.5929     27.1067
   879.0000      8.2506      2.5931      0.0395      3.4483    103.9242     28.8158
   879.1000      8.2506      2.5703     -0.0052      4.8276    103.4476     28.7992
   879.2000      8.2506      2.5565      0.0032      5.6678    104.8312     27.4498
   879.3000      8.2605      2.5523      0.0165      5.9235    108.0579     26.3532
   879.4000      8.2605      2.5441      0.0344      6.4162    110.9034     25.8756
   879.5000      8.2650      2.5369      0.0316      6.8558    110.6400     25.3702
   879.6000      8.2650      2.5452      0.0201      6.3527    105.8120     24.9028
   879.7000      8.2650      2.5705     -0.0022      4.8197     99.6232     25.0432
   879.8000      8.2523      2.5927      0.0560      3.4726     94.5667     25.7090
   879.9000      8.2523      2.5870      0.0747      3.8199     91.4245     26.2151
   880.0000      8.2466      2.5578      0.0073      5.5895     90.6625     26.1459
   880.1000      8.2466      2.5327     -0.0297      7.1110     91.0171     25.6610
   880.2000      8.2466      2.5277      0.0002      7.4150     92.8065     24.8959
   880.3000      8.2432      2.5422     -0.0068      6.5335     96.8652     23.8652
   880.4000      8.2432      2.5656      0.0323      5.1161    101.0889     22.6017
   880.5000      8.2354      2.5813      0.0008      4.1656    100.7736     21.0704
   880.6000      8.2354      2.5846      0.0190      3.9633     94.9803     19.6476
   880.7000      8.2354      2.5828      0.0166      4.0736     89.4313     19.1698
   880.8000      8.2370      2.5804      0.0404      4.2187     86.4794     19.6541
   880.9000      8.2370      2.5792      0.0243      4.2937     84.1178     20.3318
   881.0000      8.2457      2.5826      0.0277      4.0874     83.8249     20.6094
   881.1000      8.2457      2.5892      0.0520      3.6846     87.7363     20.4546
   881.2000      8.2457      2.5950      0.0232      3.3337     92.2812     20.3509
   881.3000      8.2437      2.5961      0.0648      3.2664     91.8107     20.7097
   881.4000      8.2437      2.5885      0.0200      3.7299     86.4888     21.5262
   881.5000      8.2414      2.5781      0.0295      4.3605     81.7586     22.3280
   881.6000      8.2414      2.5775      0.0123      4.3930     81.6446     22.6092
   881.7000      8.2414      2.5919      0.0187      3.5212     85.8202     22.6423
   881.8000      8.2387      2.6125      0.0417      2.2726     89.0146     22.7207
   881.9000      8.2387      2.6213      0.0661      1.7413     88.6180     22.4319
   882.0000      8.2436      2.6088      0.0397      2.4975     86.5607     21.8711
   882.1000      8.2436      2.5853     -0.0015      3.9227     83.9394     21.7007
   882.2000      8.2436      2.5651      0.0031      5.1434     81.7607     22.0809
   882.3000      8.2398      2.5602     -0.0318      5.4421     80.3143     22.2056
   882.4000      8.2398      2.5815      0.0055      4.1503     79.4344     21.5900
   882.5000      8.2344      2.6154      0.0553      2.0988     80.1323     21.0592
   882.6000      8.2344      2.6328      0.0659      1.0431     82.1222     20.8878
   882.7000      8.2344      2.6256      0.0920      1.4771     82.8244     20.2711
   882.8000      8.2256      2.6066      0.0327      2.6306     79.5152     19.3432
   882.9000      8.2256      2.5936      0.0407      3.4210     73.7408     19.1714
   883.0000      8.2082      2.5937      0.0427      3.4130     71.8761     19.6973
   883.1000      8.2082      2.5936      0.0944      3.4177     74.9627     20.2978
   883.2000      8.2082      2.5723      0.0270      4.7071     77.6857     20.7053
   883.3000      8.2058      2.5333      0.0006      7.0737     78.2443     20.8517
   883.4000      8.2058      2.5064     -0.0105      8.7011     77.6872     21.1058
   883.5000      8.2045      2.5152      0.0166      8.1680     74.9865     21.7619
   883.6000      8.2045      2.5541      0.0700      5.8139     72.0846     22.2514
   883.7000      8.2045      2.5956      0.1207      3.2999     74.6324     21.4481
   883.8000      8.2053      2.6144      0.1460      2.1568     81.1900     19.5751
   883.9000      8.2053      2.6114      0.1668      2.3387     83.5870     18.2547
   884.0000      8.2035      2.6054      0.1347      2.7030     80.6822     17.8893
   884.1000      8.2035      2.6059      0.1625      2.6704     77.3886     17.7240
   884.2000      8.2035      2.6129      0.1679      2.2470     75.6916     17.8011
   884.3000      8.1968      2.6358      0.1098      0.8626     75.4638     18.8033
   884.4000      8.1968      2.6791      0.1820     -1.7640     74.9393     20.5076
   884.5000      8.2112      2.7173      0.2120     -4.0776     74.1382     21.9661
   884.6000      8.2112      2.7264      0.1824     -4.6318     76.7384     22.6694
   884.7000      8.2112      2.7119      0.1776     -3.7501     83.3160     22.6215
   884.8000      8.2228      2.6805      0.1558     -1.8514     89.8746     21.9218
   884.9000      8.2228      2.6375      0.0876      0.7568     92.9057     20.9709
   885.0000      8.2195      2.6048      0.0564      2.7417     94.2195     20.4381
   885.1000      8.2195      2.5988      0.0423      3.1007     96.6724     20.5585
   885.2000      8.2195      2.6098      0.0588      2.4390     97.5080     21.1569
   885.3000      8.2376      2.6162      0.0673      2.0497     96.7602     21.9335
   885.4000      8.2376      2.6078      0.0624      2.5570     97.3813     22.7164
   885.5000      8.2370      2.5865      0.0696      3.8485     97.8552     23.4651
   885.6000      8.2370      2.5541      0.0253      5.8117     96.1306     23.6962
   885.7000      8.2370      2.5149     -0.0151      8.1878     92.0579     23.4652
   885.8000      8.2367      2.4764     -0.0182     10.5217     86.9361     24.0937
   885.9000      8.2367      2.4364      0.0117     12.9478     85.6419     25.5124
   886.0000      8.2390      2.3971     -0.0489     15.3259     91.1833     26.1045
   886.1000      8.2390      2.3776     -0.0154     16.5067     98.6598     25.9491
   886.2000      8.2390      2.3831      0.0473     16.1747    103.6731     26.2531
   886.3000      8.2789      2.4055      0.0671     14.8189    106.6683     27.3905
