~Version Information
VERS.                      2.0: CWLS Log ASCII Standard - VERSION 2.0
WRAP.                       NO: One line per depth step
~Well Information Block
STRT.FT               250.0000: 
STOP.FT              2600.7000: 
STEP.FT                 0.1000: 
NULL.                -999.2500: 
COMP.          Pioneer Natural Resources: COMPANY
WELL.              Quack 22-24: WELL
FLD.           Purgatoire River: FIELD
LOC.           2492' FNL & 2459' FWL--: LOCATION
PROV.                 Colorado: PROVINCE
CNTY.               Las Animas: COUNTRY
SRVC.                Patterson: SERVICE COMPANY
DATE.          Mon Jun 13 08:03:15 2005: LOG DATE
UWI.            05 071 0840200: UNIQUE WELL ID
~Curve Information Block
DEPT.FT            0 000 00 00: Depth
DCAL.in                       : CDL Caliper
RHOB.g/cc                     : CDL Bulk Density
RHOC.g/cc                     : CDL Density Correction
DPOR.pu                       : CDL Density Porosity
NPOR.pu                       : Neutron Porosity
GR.GAPI                       : Gamma Ray
~Parameter Information Block
~A  Depth       DCAL        RHOB        RHOC        DPOR        NPOR         GR     
# ...
  1642.0000      7.9521      2.4624     -0.0204     11.3719     27.4869    101.5711
  1642.1000      7.9521      2.4878      0.0071      9.8306     27.6329    110.6833
  1642.2000      7.9521      2.5132      0.0814      8.2889     27.2607    122.2738
  1642.3000      7.9258      2.5279      0.0701      7.4016     27.1325    132.9622
  1642.4000      7.9258      2.5383      0.0956      6.7722     27.1556    138.5415
  1642.5000      7.9045      2.5498      0.1480      6.0740     27.1700    134.0397
  1642.6000      7.9045      2.5621      0.2110      5.3270     27.2268    123.5367
  1642.7000      7.9045      2.5775      0.1972      4.3914     27.1858    119.4194
  1642.8000      7.9118      2.6006      0.1738      2.9920     26.9044    127.3826
  1642.9000      7.9118      2.6274      0.1535      1.3675     26.5980    139.7351
  1643.0000      7.9440      2.6415      0.1581      0.5147     26.2942    143.6929
  1643.1000      7.9440      2.6296      0.1048      1.2384     25.9171    135.5418
  1643.2000      7.9440      2.5990      0.0485      3.0892     25.7594    126.6392
  1643.3000      7.9686      2.5736      0.0120      4.6282     25.7587    127.7739
  1643.4000      7.9686      2.5657      0.0415      5.1098     25.5737    134.7534
  1643.5000      7.9802      2.5645      0.0777      5.1822     25.2829    136.5179
  1643.6000      7.9802      2.5599      0.0636      5.4632     24.9418    131.5241
  1643.7000      7.9802      2.5579      0.0488      5.5814     24.5334    128.4260
  1643.8000      7.9918      2.5618      0.0741      5.3457     24.3311    130.9942
  1643.9000      7.9918      2.5705      0.0536      4.8166     24.5379    133.7060
  1644.0000      8.0031      2.5896      0.0801      3.6593     25.2117    134.1910
  1644.1000      8.0031      2.6071      0.1126      2.6018     26.1989    137.0607
  1644.2000      8.0031      2.6053      0.0844      2.7112     26.9958    141.5147
  1644.3000      8.0133      2.5962      0.0713      3.2620     27.1024    141.9288
  1644.4000      8.0133      2.6014      0.0621      2.9433     26.6363    139.1764
  1644.5000      8.0250      2.6208      0.0883      1.7681     26.3609    137.4990
  1644.6000      8.0250      2.6383      0.1094      0.7109     26.3826    138.7386
  1644.7000      8.0250      2.6425      0.1067      0.4546     26.0170    141.4141
  1644.8000      8.0389      2.6397      0.0687      0.6272     25.2828    143.2268
  1644.9000      8.0389      2.6426      0.0650      0.4475     24.9078    143.5910
  1645.0000      8.0545      2.6461      0.0797      0.2372     25.1305    139.3783
  1645.1000      8.0545      2.6348      0.0993      0.9204     25.5250    129.2005
  1645.2000      8.0545      2.6163      0.0205      2.0447     25.6202    121.0787
  1645.3000      8.0648      2.6095      0.0845      2.4555     25.4402    119.7666
  1645.4000      8.0648      2.6086      0.0966      2.5112     25.3181    119.4390
  1645.5000      8.0584      2.6031      0.0886      2.8424     25.3139    117.5959
  1645.6000      8.0584      2.5939      0.0813      3.3984     25.2913    115.7909
  1645.7000      8.0584      2.5755      0.0774      4.5142     25.2121    114.9182
  1645.8000      8.0342      2.5483      0.0019      6.1628     25.1499    115.6042
  1645.9000      8.0342      2.5244      0.0483      7.6146     25.3487    116.5922
  1646.0000      8.0152      2.5064      0.0515      8.7053     25.7895    120.7349
  1646.1000      8.0152      2.4981      0.0504      9.2082     26.0483    129.8785
  1646.2000      8.0152      2.5089      0.0595      8.5514     26.1473    135.1883
  1646.3000      8.0114      2.5393      0.0566      6.7105     26.4077    133.9713
  1646.4000      8.0114      2.5762      0.1108      4.4720     26.9796    137.2414
  1646.5000      8.0173      2.6050      0.1506      2.7292     27.9914    144.9580
  1646.6000      8.0173      2.6212      0.1626      1.7481     29.2901    146.9163
  1646.7000      8.0173      2.6242      0.1502      1.5625     30.0455    145.3600
  1646.8000      8.0394      2.6079      0.1433      2.5519     29.7241    145.8535
  1646.9000      8.0394      2.5719      0.1054      4.7349     29.0743    146.1548
  1647.0000      8.0736      2.5353      0.0917      6.9496     29.0915    144.9792
  1647.1000      8.0736      2.5182      0.0519      7.9883     29.8170    146.8963
  1647.2000      8.0736      2.5127      0.1211      8.3231     30.5385    151.9563
  1647.3000      8.1060      2.4978      0.1088      9.2214     30.7515    154.5203
  1647.4000      8.1060      2.4785      0.0475     10.3936     30.5974    151.7579
  1647.5000      8.1358      2.4658      0.0851     11.1619     30.3681    147.0294
  1647.6000      8.1358      2.4458      0.0978     12.3753     30.4549    144.8076
  1647.7000      8.1358      2.4091      0.0380     14.6002     30.9230    140.3678
  1647.8000      8.1685      2.3706      0.0369     16.9330     31.0979    134.7242
  1647.9000      8.1685      2.3486      0.0409     18.2669     30.9459    136.8993
  1648.0000      8.1972      2.3484      0.0922     18.2798     30.7989    141.8891
  1648.1000      8.1972      2.3554      0.1229     17.8533     30.1720    141.4669
  1648.2000      8.1972      2.3545      0.0840     17.9064     28.7892    140.6698
  1648.3000      8.2135      2.3465      0.1119     18.3947     27.2516    142.3482
  1648.4000      8.2135      2.3355      0.1352     19.0583     26.3869    140.7357
  1648.5000      8.2156      2.3296      0.0908     19.4191     26.4730    134.9166
  1648.6000      8.2156      2.3384      0.1009     18.8841     27.0704    128.3077
  1648.7000      8.2156      2.3596      0.1020     17.5989     27.1630    120.5753
  1648.8000      8.1834      2.3862      0.1319     15.9870     26.3844    114.4728
  1648.9000      8.1834      2.4157      0.1334     14.2023     25.3730    114.1672
  1649.0000      8.1106      2.4483      0.0996     12.2243     24.6502    117.0502
  1649.1000      8.1106      2.4849      0.1029     10.0047     24.1085    116.3554
  1649.2000      8.1106      2.5201      0.1350      7.8736     23.4873    108.7497
  1649.3000      8.0414      2.5531      0.1126      5.8748     23.2675     99.4463
  1649.4000      8.0414      2.5947      0.1337      3.3505     23.5133     96.7841
  1649.5000      8.0001      2.6358      0.1855      0.8592     23.1706     99.7229
  1649.6000      8.0001      2.6495      0.1803      0.0287     22.1885     99.0993
  1649.7000      8.0001      2.6394      0.1001      0.6451     21.6025     91.7699
  1649.8000      7.9821      2.6373      0.0934      0.7675     21.5941     84.9019
  1649.9000      7.9821      2.6505      0.1330     -0.0279     21.7315     84.5708
  1650.0000      7.9882      2.6537      0.1307     -0.2232     21.6500     86.6304
  1650.1000      7.9882      2.6364      0.0789      0.8243     21.1719     87.6488
  1650.2000      7.9882      2.6155      0.0427      2.0926     20.5725     88.5825
  1650.3000      8.0072      2.6003      0.0431      3.0128     20.2648     88.2863
  1650.4000      8.0072      2.5799      0.0375      4.2474     20.3422     87.8812
  1650.5000      8.0148      2.5463      0.0211      6.2851     20.8316     89.6617
  1650.6000      8.0148      2.5050      0.0264      8.7898     21.5270     92.9896
  1650.7000      8.0148      2.4727     -0.0231     10.7474     22.1586     97.5835
  1650.8000      8.0095      2.4691     -0.0269     10.9661     22.8360    101.3836
  1650.9000      8.0095      2.4908      0.0479      9.6494     23.6370    102.9780
  1651.0000      7.9925      2.5165      0.0881      8.0922     24.2723    105.4770
  1651.1000      7.9925      2.5340      0.0968      7.0319     24.2478    109.5591
  1651.2000      7.9925      2.5418      0.0823      6.5573     23.8672    113.0414
  1651.3000      7.9647      2.5474      0.0895      6.2170     23.9144    119.2240
  1651.4000      7.9647      2.5581      0.1109      5.5726     24.2721    128.7631
  1651.5000      7.9554      2.5659      0.1455      5.0946     24.5658    131.7239
