~Version Information
VERS.                      2.0: CWLS Log ASCII Standard - VERSION 2.0
WRAP.                       NO: One line per depth step
~Well Information Block
STRT.FT               650.0000: 
STOP.FT              2087.0000: 
STEP.FT                 0.2500: 
NULL.                -999.2500: 
COMP.          Pioneer Natural Resources: COMPANY
WELL.           Galloway 32-13: WELL
FLD.           Purgatoire River: FIELD
LOC.           1809' FNL & 2004' FEL: LOCATION
PROV.                 Colorado: PROVINCE
CNTY.               Las Animas: COUNTRY
SRVC.                Patterson: SERVICE COMPANY
DATE.          Fri Jul 08 15:50:04 2005: LOG DATE
UWI.           05 071 08423 00: UNIQUE WELL ID
~Curve Information Block
DEPT.FT            0 000 00 00: Depth
SN.Ohm-m                      : IEL Short Normal
SP.mV                         : IEL Spontaneous Potential
DIR.Ohm-m                     : IEL Induction Resistivity
GR.GAPI                       : Gamma Ray
~Parameter Information Block
~A  Depth        SN          SP         DIR          GR     
# ...
  1588.0000     13.3925    -72.0364     12.6700    113.0841
  1588.2500     13.3080    -71.8645     12.8081    112.9350
  1588.5000     13.2924    -72.0557     13.0025    112.9047
  1588.7500     13.3610    -72.4156     13.2488    113.1459
  1589.0000     13.4956    -72.8265     13.5372    114.6854
  1589.2500     13.7174    -73.2256     13.8525    116.7813
  1589.5000     14.0873    -73.5828     14.1827    120.8512
  1589.7500     14.6447    -73.8869     14.5324    123.1810
  1590.0000     15.3587    -74.1354     14.9258    124.4284
  1590.2500     16.1354    -74.3282     15.3923    123.3058
  1590.5000     16.9134    -74.4629     15.9435    118.8310
  1590.7500     17.7099    -74.5295     16.5592    114.4080
  1591.0000     18.5082    -74.5120     17.1944    106.9908
  1591.2500     19.2150    -74.4055     17.8062    102.7341
  1591.5000     19.8001    -74.2348     18.3810     99.1887
  1591.7500     20.3777    -74.0493     18.9382     98.8495
  1592.0000     21.0517    -73.8932     19.5098     99.9287
  1592.2500     21.7877    -73.7876     20.1117    100.6479
  1592.5000     22.5149    -73.7424     20.7269    100.7286
  1592.7500     23.2398    -73.7696     21.3076    100.0146
  1593.0000     24.0399    -73.8732     21.7999     97.9846
  1593.2500     24.9638    -74.0364     22.1766     96.2280
  1593.5000     25.8533    -74.2336     22.4526     93.6335
  1593.7500     26.3891    -74.4485     22.6671     92.4827
  1594.0000     26.4459    -74.6776     22.8488     92.7160
  1594.2500     26.2337    -74.9215     22.9965     94.5793
  1594.5000     26.0211    -75.1876     23.0859     99.6105
  1594.7500     25.8768    -75.4967     23.0906    103.7079
  1595.0000     25.6909    -75.8776     22.9976    109.3432
  1595.2500     25.3172    -76.3503     22.8119    111.9639
  1595.5000     24.7320    -76.9130     22.5547    113.5960
  1595.7500     24.0916    -77.5429     22.2568    113.3748
  1596.0000     23.5833    -78.2087     21.9476    112.1366
  1596.2500     23.2767    -78.8854     21.6453    111.4098
  1596.5000     23.1037    -79.5642     21.3567    111.4983
  1596.7500     22.9124    -80.2545     21.0834    112.7573
  1597.0000     22.5567    -80.9777     20.8225    116.4781
  1597.2500     21.9816    -81.7575     20.5625    119.6300
  1597.5000     21.3316    -82.6112     20.2846    123.7130
  1597.7500     20.8949    -83.5452     19.9738    125.0868
  1598.0000     20.7819    -84.5544     19.6301    124.4380
  1598.2500     20.7814    -85.6250     19.2653    122.4766
  1598.5000     20.5820    -86.7482     18.8909    118.6437
  1598.7500     20.0558    -87.9429     18.5109    116.5374
  1599.0000     19.3471    -89.2668     18.1237    115.4451
  1599.2500     18.6738    -90.7897     17.7270    116.2840
  1599.5000     18.0941    -92.5458     17.3194    118.9105
  1599.7500     17.5296    -94.5039     16.8992    120.5291
  1600.0000     16.9244    -96.5699     16.4628    121.2873
  1600.2500     16.3065    -98.5940     16.0060    120.6426
  1600.5000     15.7385   -100.3502     15.5289    119.5843
  1600.7500     15.2708   -101.5054     15.0416    120.0466
  1601.0000     14.9288   -101.6508     14.5641    123.0981
  1601.2500     14.6625   -100.4524     14.1202    125.9757
  1601.5000     14.3618    -97.8916     13.7268    130.0351
  1601.7500     14.0041    -94.4381     13.3889    132.2106
  1602.0000     13.6856    -90.9672     13.1009    134.6135
  1602.2500     13.4866    -88.3932     12.8526    135.5637
  1602.5000     13.4190    -87.2439     12.6362    135.9074
  1602.7500     13.4580    -87.4983     12.4493    135.4656
  1603.0000     13.5261    -88.7738     12.2953    133.7855
  1603.2500     13.5067    -90.6463     12.1795    131.9500
  1603.5000     13.3568    -92.8467     12.1053    128.7991
  1603.7500     13.1796    -95.2734     12.0717    127.4345
  1604.0000     13.1338    -97.9077     12.0751    128.0191
  1604.2500     13.2485   -100.7169     12.1146    130.0398
  1604.5000     13.3743   -103.5743     12.1968    133.4572
  1604.7500     13.4183   -106.1897     12.3348    134.6248
  1605.0000     13.5022   -108.0444     12.5395    133.8679
  1605.2500     13.7574   -108.3677     12.8113    132.2063
  1605.5000     14.1123   -106.2561     13.1404    129.3253
  1605.7500     14.4151   -101.0258     13.5159    127.4642
  1606.0000     14.7178    -92.7235     13.9383    124.1988
  1606.2500     15.2486    -82.4545     14.4189    121.0871
  1606.5000     16.0669    -72.1285     14.9689    114.4593
  1606.7500     16.9553    -63.6120     15.5871    109.1166
  1607.0000     17.7305    -57.8595     16.2616    101.5589
  1607.2500     18.5161    -54.6878     16.9846     98.0096
  1607.5000     19.5853    -53.2480     17.7685     95.6645
  1607.7500     21.0186    -52.6686     18.6478     95.5009
  1608.0000     22.6434    -52.4010     19.6655     95.6709
  1608.2500     24.2701    -52.2294     20.8523     95.4192
  1608.5000     25.8875    -52.1334     22.2109     94.0265
  1608.7500     27.5233    -52.1478     23.7059     92.0942
  1609.0000     29.0986    -52.2790     25.2634     87.0803
  1609.2500     30.5781    -52.4891     26.7834     82.4468
  1609.5000     31.9821    -52.7219     28.1693     74.7904
  1609.7500     33.2394    -52.9311     29.3653     70.0073
  1610.0000     34.2944    -53.0950     30.3785     63.9549
  1610.2500     35.2546    -53.2175     31.2726     60.7090
  1610.5000     36.2515    -53.3155     32.1367     56.9939
  1610.7500     37.2782    -53.3978     33.0439     55.2194
  1611.0000     38.2545    -53.4491     34.0010     53.1663
  1611.2500     39.0874    -53.4337     34.8991     51.8068
  1611.5000     39.6429    -53.3182     35.5075     49.3975
  1611.7500     39.8113    -53.0976     35.5688     47.7548
  1612.0000     39.5324    -52.8093     34.9656     46.2904
  1612.2500     38.7517    -52.5207     33.8004     46.7017
  1612.5000     37.5092    -52.2993     32.3022     50.2154
  1612.7500     35.9330    -52.1852     30.6762     54.5572
  1613.0000     34.0885    -52.1853     29.0466     63.4516
  1613.2500     32.0231    -52.2836     27.4839     70.2998
  1613.5000     29.8796    -52.4543     26.0365     80.8195
  1613.7500     27.8268    -52.6738     24.7277     87.6422
  1614.0000     25.9627    -52.9315     23.5421     97.3548
  1614.2500     24.3091    -53.2365     22.4309    103.1272
  1614.5000     22.8357    -53.6104     21.3405    109.4984
  1614.7500     21.5233    -54.0679     20.2468    111.6731
  1615.0000     20.3864    -54.6036     19.1686    112.2418
  1615.2500     19.4067    -55.1958     18.1501    111.6894
  1615.5000     18.5381    -55.8143     17.2335    110.8858
  1615.7500     17.7514    -56.4189     16.4402    110.9060
  1616.0000     17.0071    -56.9471     15.7720    112.4794
  1616.2500     16.2559    -57.3118     15.2213    114.8721
  1616.5000     15.5433    -57.4251     14.7790    120.3918
  1616.7500     15.0195    -57.2483     14.4341    124.7796
  1617.0000     14.7489    -56.8380     14.1672    130.8521
  1617.2500     14.5964    -56.3411     13.9473    133.8020
  1617.5000     14.4004    -55.9233     13.7405    136.4804
  1617.7500     14.1689    -55.6785     13.5263    137.7771
  1618.0000     13.9977    -55.5932     13.3092    140.2980
  1618.2500     13.9186    -55.5883     13.1111    142.6759
  1618.5000     13.9221    -55.5853     12.9543    147.2991
  1618.7500     14.0058    -55.5434     12.8484    151.1268
  1619.0000     14.1223    -55.4600     12.7881    157.6940
  1619.2500     14.1437    -55.3584     12.7576    161.8029
  1619.5000     13.9444    -55.2714     12.7391    165.4839
  1619.7500     13.4915    -55.2234     12.7191    165.4127
  1620.0000     12.8523    -55.2192     12.6930    161.2554
  1620.2500     12.1853    -55.2503     12.6637    156.1263
  1620.5000     11.7484    -55.3114     12.6373    145.9538
  1620.7500     11.8247    -55.4086     12.6173    138.4644
  1621.0000     12.4683    -55.5547     12.6037    128.3679
  1621.2500     13.3389    -55.7620     12.5949    123.6782
