~Version Information
VERS.                      2.0: CWLS Log ASCII Standard - VERSION 2.0
WRAP.                       NO: One line per depth step
~Well Information Block
STRT.FT                -2.0000: 
STOP.FT              1016.0000: 
STEP.FT                 0.2500: 
NULL.                -999.2500: 
COMP.          Evergreen Operating Corp.: COMPANY
WELL.              Sunset 24-3: WELL
FLD.           Purgatorie River: FIELD
LOC.           467' FSL & 2262' FWL--: LOCATION
PROV.                       CO: PROVINCE
CNTY.               Las Animas: COUNTRY
SRVC.                         : SERVICE COMPANY
DATE.          Mon Sep 27 13:40:22 2004: LOG DATE
UWI.           005 071 08158  : UNIQUE WELL ID
~Curve Information Block
DEPT.FT            0 000 00 00: Depth
GR.GAPI                       : Gamma Ray
CCL.                          : Casing Collar Locator
TT3.usec                      : CBL 3' Travel Time
AMP3.mV                       : CBL 3' Amplitude
~Parameter Information Block
~A  Depth        GR         CCL         TT3         AMP3    
# ...
   701.5000    109.4580      0.0000    754.5299      6.1136
   701.7500    106.3988      0.0000    754.5416      5.8609
   702.0000    103.7880      0.0000    754.4642      5.6561
   702.2500    101.9668      0.0000    754.5555      5.4864
   702.5000    100.5503      0.0000    755.4380      5.3377
   702.7500     98.7148      0.0000    758.0122      5.1902
   703.0000     95.8180      0.0000    762.9011      5.0341
   703.2500     92.0178      0.0000    769.5323      4.8876
   703.5000     88.2619      0.0000    775.7349      4.7888
   703.7500     85.4363      0.0000    778.8692      4.7616
   704.0000     83.6002      0.0000    777.9908      4.7930
   704.2500     82.2897      0.0000    775.0217      4.8446
   704.5000     81.4437      0.0000    773.4191      4.8824
   704.7500     81.6003      0.0000    775.1555      4.8981
   705.0000     83.1135      0.0000    778.7272      4.9042
   705.2500     85.5532      0.0000    780.5197      4.9126
   705.5000     87.9615      0.0000    778.6293      4.9219
   705.7500     89.3141      0.0000    775.0181      4.9281
   706.0000     88.7231      0.0000    773.4988      4.9367
   706.2500     85.8167      0.0000    776.0775      4.9578
   706.5000     81.1557      0.0000    781.6345      4.9901
   706.7500     75.9570      0.0000    787.5988      5.0163
   707.0000     71.2335      0.0000    792.2903      5.0137
   707.2500     67.3665      0.0000    795.9124      4.9730
   707.5000     64.3969      0.0000    799.8964      4.9125
   707.7500     62.4132      0.0000    805.4267      4.8705
   708.0000     61.5520      0.0000    812.1237      4.8767
   708.2500     61.8978      0.0000    817.8954      4.9297
   708.5000     63.4041      0.0000    820.2500      5.0054
   708.7500     65.5044      0.0000    818.0912      5.0818
   709.0000     66.7907      0.0000    812.4959      5.1500
   709.2500     65.7748      0.0000    805.8281      5.2046
   709.5000     62.4810      0.0000    799.9660      5.2388
   709.7500     58.9701      0.0000    795.2796      5.2506
   710.0000     57.7939      0.0000    791.3561      5.2471
   710.2500     59.9027      0.0000    788.4801      5.2377
   710.5000     64.0968      0.0000    787.9210      5.2235
   710.7500     68.2233      0.0000    790.7920      5.1989
   711.0000     70.7375      0.0000    797.4675      5.1648
   711.2500     71.5387      0.0000    808.0437      5.1292
   711.5000     71.6808      0.0000    821.7880      5.0797
   711.7500     72.2521      0.0000    836.1873      4.9666
   712.0000     73.4608      0.0000    848.7224      4.7517
   712.2500     74.6987      0.0000    859.5099      4.4763
   712.5000     75.1493      0.0000    869.7939      4.2423
   712.7500     74.2967      0.0000    878.3932      4.1194
   713.0000     72.2363      0.0000    881.9644      4.0932
   713.2500     69.7120     -2.0000    878.6019      4.1021
   713.5000     67.6797      0.0000    870.1248      4.0991
   713.7500     66.5919      0.0000    861.1953      4.0832
   714.0000     66.1216      0.0000    855.9240      4.0988
   714.2500     65.7009      0.0000    854.2180      4.2047
   714.5000     65.3029      0.0000    851.6620      4.4210
   714.7500     65.5557      0.0000    843.8502      4.7011
   715.0000     67.1009      0.0000    830.6619      4.9640
   715.2500     69.9672      0.0000    815.8468      5.1534
   715.5000     73.7137      0.0000    803.1240      5.2581
   715.7500     78.1439      0.0000    793.6363      5.2953
   716.0000     83.5324      0.0000    786.8586      5.2900
   716.2500     89.9122      0.0000    782.4070      5.2654
   716.5000     96.3235      0.0000    780.0022      5.2365
   716.7500    100.8948      0.0000    778.5170      5.2053
   717.0000    101.7530      0.0000    776.4719      5.1654
   717.2500     98.2613      0.0000    773.6306      5.1147
   717.5000     91.6225      0.0000    771.0840      5.0604
   717.7500     84.0471      0.0000    769.5605      5.0110
   718.0000     77.2582      0.0000    768.4429      4.9681
   718.2500     72.0428      0.0000    766.7775      4.9308
   718.5000     68.9628      0.0000    764.5500      4.9015
   718.7500     68.6407      0.0000    762.5499      4.8821
   719.0000     71.0508      0.0000    761.4589      4.8703
   719.2500     75.0424      0.0000    761.5090      4.8651
   719.5000     78.9869      0.0000    762.6855      4.8695
   719.7500     81.7815      0.0000    764.6918      4.8825
   720.0000     83.0509      0.0000    766.6770      4.8946
   720.2500     82.6270      0.0000    767.4932      4.8974
   720.5000     80.3949      0.0000    766.6131      4.8911
   720.7500     76.8246      0.0000    764.6645      4.8819
   721.0000     73.1565      0.0000    762.8878      4.8797
   721.2500     70.6476      0.0000    762.2430      4.8923
   721.5000     69.8474      0.0000    763.0407      4.9184
   721.7500     70.6627      0.0000    764.9131      4.9475
   722.0000     72.4784      0.0000    766.8116      4.9694
   722.2500     73.8869      0.0000    767.4634      4.9789
   722.5000     72.9910      0.0000    766.4373      4.9737
   722.7500     68.7801      0.0000    764.7990      4.9574
   723.0000     62.3019      0.0000    764.4576      4.9432
   723.2500     56.1795      0.0000    766.7314      4.9473
   723.5000     52.9098      0.0000    771.3727      4.9741
   723.7500     53.6106      0.0000    776.8270      5.0117
   724.0000     57.8814      0.0000    781.4953      5.0417
   724.2500     64.2173      0.0000    784.6436      5.0514
   724.5000     70.6382      0.0000    785.9355      5.0363
   724.7500     75.6245      0.0000    784.6754      4.9956
   725.0000     78.8811      0.0000    780.3516      4.9350
   725.2500     81.1295      0.0000    773.7827      4.8747
   725.5000     83.1131      0.0000    766.9628      4.8453
   725.7500     85.0896      0.0000    761.6360      4.8601
   726.0000     87.2953      0.0000    758.3213      4.8918
   726.2500     90.3232      0.0000    756.5948      4.8907
   726.5000     94.5486      0.0000    755.8799      4.8288
   726.7500     99.3733      0.0000    755.9268      4.7199
   727.0000    103.5203      0.0000    756.9226      4.6008
   727.2500    106.2107      0.0000    759.3473      4.5014
   727.5000    107.7976      0.0000    763.4402      4.4352
   727.7500    109.0800      0.0000    768.4268      4.4066
   728.0000    110.2215      0.0000    772.4879      4.4186
   728.2500    110.5516      0.0000    774.1891      4.4690
   728.5000    109.2795      0.0000    774.1215      4.5415
   728.7500    106.2032      0.0000    774.5519      4.6095
   729.0000    101.8217      0.0000    777.0989      4.6557
   729.2500     97.1165      0.0000    781.1215      4.6855
   729.5000     93.2988      0.0000    784.6948      4.7170
   729.7500     91.4399      0.0000    786.8063      4.7622
   730.0000     91.9317      0.0000    788.0655      4.8227
   730.2500     93.9945      0.0000    789.3553      4.8980
   730.5000     95.6655      0.0000    790.3971      4.9874
   730.7500     94.7502      0.0000    789.8586      5.0803
   731.0000     90.4828      0.0000    786.5684      5.1534
   731.2500     84.5012      0.0000    780.5644      5.1840
   731.5000     79.8106      0.0000    773.2414      5.1704
   731.7500     78.4597      0.0000    766.5163      5.1371
   732.0000     80.2379      0.0000    761.6454      5.1183
   732.2500     83.6209      0.0000    758.7314      5.1381
   732.5000     87.5348      0.0000    757.1695      5.1981
   732.7500     91.8132      0.0000    756.3326      5.2729
   733.0000     96.2066      0.0000    755.8676      5.3219
   733.2500     99.7455      0.0000    755.6370      5.3161
   733.5000    101.6031      0.0000    755.5719      5.2583
   733.7500    102.2814      0.0000    755.5979      5.1756
   734.0000    103.2397      0.0000    755.6558      5.0997
   734.2500    105.2628      0.0000    755.7475      5.0542
   734.5000    107.7204      0.0000    755.9076      5.0513
   734.7500    109.4984      0.0000    756.1284      5.0892
