~Version Information
VERS.                      2.0: CWLS Log ASCII Standard - VERSION 2.0
WRAP.                       NO: One line per depth step
~Well Information Block
STRT.FT                -7.5000: 
STOP.FT              2304.7500: 
STEP.FT                 0.2500: 
NULL.                -999.2500: 
COMP.          Pioneer Natural Resources: COMPANY
WELL.          Foothills 12-36: WELL
FLD.           Purgatorie River: FIELD
LOC.           2450' FNL & 201' FWL--: LOCATION
PROV.                       CO: PROVINCE
CNTY.               Las Animas: COUNTRY
SRVC.          Patterson Wireline: SERVICE COMPANY
DATE.          Tue Apr 26 11:10:08 2005: LOG DATE
UWI.           05 071 08339 00: UNIQUE WELL ID
~Curve Information Block
DEPT.FT            0 000 00 00: Depth
CCL.                          : Casing Collar Locator
TT3.usec                      : CBL 3' Travel Time
AMP3.mV                       : CBL 3' Amplitude
GR.GAPI                       : Gamma Ray
~Parameter Information Block
~A  Depth       CCL         TT3         AMP3         GR     
# ...
   897.0000      0.0000    823.5274      6.0244     83.6672
   897.2500      0.0000    823.0308      6.2955     98.4920
   897.5000      0.0000    822.4600      6.6179    111.8639
   897.7500      0.0000    822.0634      6.8865    121.8519
   898.0000      0.0000    822.1475      7.0517    128.5314
   898.2500      0.0000    823.1786      7.1493    132.7716
   898.5000      0.0000    825.8824      7.2581    135.1749
   898.7500      0.0000    830.9238      7.4233    136.4957
   899.0000      0.0000    838.0801      7.6064    137.7067
   899.2500      0.0000    845.6903      7.7071    138.7820
   899.5000      0.0000    851.2284      7.6392    138.3341
   899.7500      0.0000    852.7030      7.3971    135.2779
   900.0000      0.0000    849.8922      7.0642    130.3698
   900.2500      0.0000    844.8241      6.7714    125.6189
   900.5000      0.0000    841.0529      6.6315    122.5848
   900.7500      0.0000    841.4529      6.6761    121.5658
   901.0000      0.0000    845.9514      6.8347    121.9747
   901.2500      0.0000    851.5840      6.9789    122.8263
   901.5000      0.0000    855.0214      7.0051    122.9650
   901.7500      0.0000    855.0981      6.8925    121.6421
   902.0000      0.0000    853.3081      6.7074    119.3974
   902.2500      0.0000    852.2680      6.5612    117.9913
   902.5000      0.0000    853.5250      6.5453    118.8066
   902.7500      0.0000    856.5513      6.6745    121.1970
   903.0000      0.0000    859.6568      6.8781    122.7560
   903.2500      0.0000    861.5519      7.0468    121.4133
   903.5000      0.0000    861.9429      7.0946    117.3055
   903.7500      0.0000    861.0383      6.9904    112.7436
   904.0000      0.0000    858.8029      6.7601    110.5009
   904.2500      0.0000    854.6339      6.4792    112.0201
   904.5000      0.0000    847.8118      6.2571    116.7648
   904.7500      0.0000    838.4826      6.1945    122.7905
   905.0000      0.0000    828.1099      6.3267    127.9678
   905.2500      0.0000    818.5551      6.5972    131.0014
   905.5000      0.0000    810.6382      6.8886    131.6761
   905.7500      0.0000    803.9243      7.0861    130.7140
   906.0000      0.0000    797.9412      7.1243    129.7648
   906.2500      0.0000    793.0946      6.9941    130.8889
   906.5000      0.0000    790.1315      6.7278    134.9721
   906.7500      0.0000    789.2686      6.3887    140.4274
   907.0000      0.0000    790.2574      6.0669    144.0927
   907.2500      0.0000    792.7281      5.8555    143.7711
   907.5000      0.0000    796.0162      5.8109    139.7975
   907.7500      0.0000    799.2109      5.9315    134.4812
   908.0000      0.0000    801.6035      6.1707    130.6450
   908.2500      0.0000    802.5735      6.4625    130.0788
   908.5000      0.0000    801.3276      6.7405    132.0430
   908.7500      0.0000    797.6205      6.9487    133.3391
   909.0000      0.0000    792.4817      7.0478    130.9195
   909.2500      0.0000    787.3738      7.0181    124.5863
   909.5000      0.0000    782.8502      6.8599    116.8527
   909.7500      0.0000    778.6859      6.5938    110.7311
   910.0000      0.0000    774.9184      6.2572    108.1508
   910.2500      0.0000    771.9880      5.9010    109.6363
   910.5000      0.0000    769.9594      5.5894    114.3766
   910.7500      0.0000    768.0180      5.3924    120.5409
   911.0000      0.0000    764.6414      5.3602    126.1037
   911.2500      0.0000    758.3948      5.4928    129.6979
   911.5000      0.0000    749.3738      5.7370    130.9900
   911.7500      0.0000    740.5646      6.0144    130.6590
   912.0000      0.0000    737.1076      6.2561    130.0175
   912.2500      0.0000    742.5781      6.4232    130.1704
   912.5000      0.0000    755.2085      6.5116    131.1578
   912.7500      0.0000    768.5931      6.5393    132.0393
   913.0000      0.0000    776.9628      6.5240    131.9090
   913.2500      0.0000    779.4142      6.4706    130.6305
   913.5000      0.0000    778.9908      6.3774    128.6650
   913.7500      0.0000    778.9374      6.2537    126.5420
   914.0000      0.0000    780.3762      6.1262    124.4811
   914.2500      0.0000    782.3987      6.0223    122.3826
   914.5000      0.0000    783.4413      5.9465    120.2578
   914.7500      0.0000    782.9464      5.8772    118.5242
   915.0000      0.0000    782.0425      5.7874    117.5398
   915.2500      0.0000    782.4078      5.6672    116.8580
   915.5000      0.0000    784.4307      5.5273    115.4240
   915.7500      0.0000    786.7233      5.3880    112.7932
   916.0000      0.0000    787.3446      5.2693    109.9699
   916.2500      0.0000    785.3145      5.1826    108.7996
   916.5000      0.0000    781.0794      5.1260    110.4584
   916.7500      0.0000    775.7581      5.0875    114.5919
   917.0000      0.0000    769.9858      5.0552    119.7378
   917.2500      0.0000    763.5681      5.0247    124.3127
   917.5000      0.0000    756.3885      4.9977    127.2745
   917.7500      0.0000    749.4986      4.9787    128.3015
   918.0000      0.0000    744.9873      4.9730    127.7353
   918.2500      0.0000    744.5925      4.9888    126.4051
   918.5000      0.0000    748.3333      5.0395    125.1411
   918.7500      0.0000    754.4006      5.1398    124.2297
   919.0000      0.0000    760.3746      5.2907    123.4534
   919.2500      0.0000    764.6899      5.4697    122.5706
   919.5000      0.0000    767.1166      5.6375    121.4163
   919.7500      0.0000    768.2049      5.7574    119.6989
   920.0000      0.0000    768.5499      5.8127    117.2575
   920.2500      0.0000    768.4353      5.8083    114.5516
   920.5000      0.0000    767.7758      5.7583    112.5203
   920.7500      0.0000    766.2735      5.6778    111.9293
   921.0000      0.0000    763.8615      5.5880    112.8649
   921.2500      0.0000    761.1172      5.5197    114.5201
   921.5000      0.0000    759.0915      5.5004    115.4352
   921.7500      0.0000    758.7407      5.5393    114.5906
   922.0000      0.0000    760.8684      5.6285    112.5415
   922.2500      0.0000    766.4586      5.7595    111.0153
   922.5000      0.0000    775.8987      5.9350    111.1915
   922.7500      0.0000    787.1751      6.1607    112.6626
   923.0000      0.0000    795.7856      6.4211    113.9926
   923.2500      0.0000    798.0924      6.6564    113.9806
   923.5000      0.0000    795.1996      6.7729    112.5753
   923.7500      0.0000    792.5664      6.7035    110.8671
   924.0000      0.0000    795.1125      6.4689    110.0747
   924.2500      0.0000    802.9207      6.1698    110.3769
   924.5000      0.0000    811.5551      5.9130    110.5515
   924.7500      0.0000    815.9420      5.7535    108.6364
   925.0000      0.0000    814.3843      5.6955    103.4527
   925.2500      0.0000    810.2527      5.7233     96.1207
   925.5000      0.0000    809.9483      5.8190     89.8045
   925.7500      0.0000    817.9911      5.9619     87.1024
   926.0000      0.0000    833.0041      6.1239     87.5719
   926.2500      0.0000    848.0257      6.2745     88.2290
   926.5000      0.0000    854.9828      6.3973     86.4177
   926.7500      0.0000    850.3931      6.5049     81.8676
   927.0000      0.0000    837.9936      6.6328     76.2421
   927.2500      0.0000    825.8705      6.8107     71.5249
   927.5000      0.0000    820.0249      7.0333     69.2871
   927.7500      0.0000    819.7420      7.2594     70.7615
   928.0000      0.0000    819.2695      7.4380     76.4178
   928.2500      0.0000    814.1236      7.5289     85.1431
   928.5000      0.0000    805.0020      7.4962     94.3714
   928.7500      0.0000    795.7862      7.3032    101.4802
   929.0000      0.0000    790.1105      6.9486    105.2261
   929.2500      0.0000    791.1031      6.5124    105.9859
   929.5000      0.0000    801.8465      6.1332    104.9224
   929.7500      0.0000    822.3597      5.9147    103.0681
   930.0000      0.0000    846.3113      5.8618    100.9532
   930.2500      0.0000    863.6985      5.9084     98.7332
