~Version Information
VERS.                      2.0: CWLS Log ASCII Standard - VERSION 2.0
WRAP.                       NO: One line per depth step
~Well Information Block
STRT.FT                -9.2500: 
STOP.FT              2353.7500: 
STEP.FT                 0.2500: 
NULL.                -999.2500: 
COMP.          Petrogulf Corporation: COMPANY
WELL.             Kraft 17-23V: WELL
FLD.           Purgatorie River: FIELD
LOC.           1500' FSL & 1773' FWL--: LOCATION
PROV.                       CO: PROVINCE
CNTY.               Las Animas: COUNTRY
SRVC.          Patterson Wireline: SERVICE COMPANY
DATE.          Wed Dec 10 19:09:59 2003: LOG DATE
UWI.                          : UNIQUE WELL ID
~Curve Information Block
DEPT.FT            0 000 00 00: Depth
CCL.                          : Casing Collar Locator
TT3.usec                      : CBL 3' Travel Time
AMP3.mV                       : CBL 3' Amplitude
GR.GAPI                       : Gamma Ray
~Parameter Information Block
~A  Depth       CCL         TT3         AMP3         GR     
# ...
   292.2500      0.0000    718.2328      4.1600     67.9795
   292.5000      0.0000    745.4929      4.1510     66.1530
   292.7500      0.0000    780.6467      4.1933     64.6471
   293.0000      0.0000    813.0161      4.2378     64.3876
   293.2500      0.0000    832.5674      4.2184     66.6259
   293.5000      0.0000    833.7924      4.1311     72.3187
   293.7500      0.0000    818.1918      4.0580     81.2706
   294.0000      0.0000    794.8098      4.0842     91.5772
   294.2500      0.0000    775.8212      4.2012    100.0559
   294.5000      0.0000    768.5858      4.3184    103.6762
   294.7500      0.0000    771.7639      4.3675    101.0783
   295.0000      0.0000    779.2962      4.3685     93.2129
   295.2500      0.0000    786.4511      4.3821     82.8642
   295.5000      0.0000    791.4874      4.4201     73.4559
   295.7500      0.0000    794.0074      4.4357     67.6409
   296.0000      0.0000    793.4459      4.3962     66.3326
   296.2500      0.0000    788.7952      4.3299     68.8507
   296.5000      0.0000    779.8853      4.2868     73.9941
   296.7500      0.0000    768.9363      4.2794     80.9851
   297.0000      0.0000    759.4211      4.2829     89.4539
   297.2500      0.0000    752.9677      4.2743     98.6444
   297.5000      0.0000    748.6318      4.2439    106.7907
   297.7500      0.0000    745.7311      4.1794    111.5812
   298.0000      0.0000    746.3069      4.0780    111.6739
   298.2500      0.0000    753.9712      3.9786    107.8223
   298.5000      0.0000    769.9821      3.9441    102.4325
   298.7500      0.0000    789.8103      4.0024     98.0877
   299.0000      0.0000    803.9175      4.1259     96.2405
   299.2500      0.0000    804.1824      4.2672     96.7110
   299.5000      0.0000    790.8454      4.3889     98.1801
   299.7500      0.0000    772.2255      4.4598     99.3058
   300.0000      0.0000    757.4055      4.4521     99.4687
   300.2500      0.0000    750.0140      4.3588     98.6765
   300.5000      0.0000    748.0880      4.2058     97.2433
   300.7500      0.0000    747.7130      4.0382     95.7327
   301.0000      0.0000    746.3146      3.8948     94.8786
   301.2500      0.0000    743.6326      3.7924     95.2683
   301.5000      0.0000    740.6492      3.7260     96.9947
   301.7500      0.0000    738.2621      3.6810     99.5251
   302.0000      0.0000    737.0653      3.6454    101.8271
   302.2500      0.0000    737.9938      3.6107    102.6631
   302.5000      0.0000    742.4368      3.5651    101.0260
   302.7500      0.0000    751.1096      3.5012     96.6488
   303.0000      0.0000    762.5117      3.4256     90.3238
   303.2500      0.0000    772.9858      3.3559     83.5959
   303.5000      0.0000    778.9927      3.3091     77.8618
   303.7500      0.0000    779.8388      3.2964     73.6645
   304.0000      0.0000    778.4378      3.3237     70.8409
   304.2500      0.0000    779.0445      3.3908     69.2286
   304.5000      0.0000    783.6020      3.4815     69.1033
   304.7500      0.0000    790.8344      3.5560     70.9404
   305.0000      0.0000    798.9421      3.5695     74.8559
   305.2500      0.0000    806.9059      3.5139     80.3410
   305.5000      0.0000    812.7023      3.4352     86.5247
   305.7500      0.0000    813.8506      3.3938     92.5331
   306.0000      0.0000    811.1138      3.3982     97.5955
   306.2500      0.0000    808.4033      3.3858    101.1995
   306.5000      0.0000    807.8713      3.2869    103.3235
   306.7500      0.0000    808.2310      3.1093    104.2261
   307.0000      0.0000    808.4372      2.9463    103.9748
   307.2500      0.0000    809.4828      2.8990    102.6601
   307.5000      0.0000    810.9594      2.9915    101.1668
   307.7500      0.0000    808.3646      3.1522    100.9114
   308.0000      0.0000    796.4624      3.2664    102.3152
   308.2500      0.0000    775.4598      3.2580    104.1667
   308.5000      0.0000    753.0803      3.1432    105.0777
   308.7500      0.0000    740.7181      3.0128    105.0540
   309.0000      0.0000    747.1537      2.9474    105.0767
   309.2500      0.0000    773.6297      2.9488    105.6098
   309.5000      0.0000    812.9609      2.9597    106.1435
   309.7500      0.0000    853.4236      2.9437    105.8323
   310.0000      2.0000    883.8463      2.9298    104.0434
   310.2500      0.0000    895.9869      2.9838    100.6764
   310.5000      0.0000    886.3458      3.1539     96.5200
   310.7500      0.0000    859.6642      3.4355     93.1807
   311.0000      0.0000    828.6951      3.7576     92.3190
   311.2500      0.0000    805.8231      3.9999     94.6827
   311.5000      0.0000    794.1197      4.0599     99.6280
   311.7500      0.0000    787.7670      3.9277    105.6628
   312.0000      0.0000    779.8970      3.6972    111.6820
   312.2500      0.0000    768.5297      3.5039    117.3484
   312.5000      0.0000    756.3252      3.4372    122.1301
   312.7500      0.0000    746.7786      3.4996    124.9472
   313.0000      0.0000    741.2593      3.6486    125.4283
   313.2500      0.0000    739.0573      3.8597    124.6452
   313.5000      0.0000    739.2482      4.1201    123.7974
   313.7500      0.0000    742.2639      4.3826    122.8533
   314.0000      0.0000    749.7916      4.5776    121.2156
   314.2500      0.0000    762.9897      4.6742    119.0697
   314.5000      0.0000    780.4052      4.6962    117.2513
   314.7500      0.0000    797.9977      4.6750    116.1309
   315.0000      0.0000    811.8160      4.6175    115.1678
   315.2500      0.0000    820.1578      4.5304    113.4176
   315.5000      0.0000    822.7291      4.4407    110.4787
   315.7500      0.0000    819.0845      4.3742    107.2355
   316.0000      0.0000    809.5021      4.3357    105.4267
   316.2500      0.0000    796.6404      4.3242    106.0387
   316.5000      0.0000    784.2682      4.3434    108.2606
   316.7500      0.0000    774.6707      4.3839    110.2910
   317.0000      0.0000    768.8309      4.4104    110.9447
   317.2500      0.0000    768.0798      4.3826    110.3182
   317.5000      0.0000    772.9937      4.2931    109.1692
   317.7500      0.0000    780.7858      4.1861    108.0976
   318.0000      0.0000    785.6131      4.1291    107.4352
   318.2500      0.0000    782.5479      4.1544    107.4937
   318.5000      0.0000    771.4737      4.2178    108.3380
   318.7500      0.0000    757.1259      4.2329    109.3711
   319.0000      0.0000    745.1154      4.1613    109.7723
   319.2500      0.0000    738.0040      4.0562    109.5648
   319.5000      0.0000    734.9325      3.9994    109.7977
   319.7500      0.0000    733.8670      4.0054    111.3946
   320.0000      0.0000    733.4594      4.0031    114.0283
   320.2500      0.0000    733.4396      3.9066    116.3153
   320.5000      0.0000    734.3756      3.6928    117.0608
   320.7500      0.0000    737.6679      3.4138    116.1801
   321.0000      0.0000    745.3793      3.1547    114.3792
   321.2500      0.0000    758.7095      2.9907    112.2168
   321.5000      0.0000    775.1772      2.9571    109.8464
   321.7500      0.0000    787.8183      3.0167    107.4892
   322.0000      0.0000    789.5407      3.0620    105.6360
   322.2500      0.0000    779.4471      2.9913    104.7646
   322.5000      0.0000    763.7397      2.8032    105.0748
   322.7500      0.0000    749.9998      2.6032    106.3378
   323.0000      0.0000    741.7324      2.4978    107.8424
   323.2500      0.0000    738.1523      2.4852    108.6690
   323.5000      0.0000    737.0616      2.4715    108.0901
   323.7500      0.0000    736.8701      2.3962    105.6893
   324.0000      0.0000    736.8491      2.3156    101.3701
   324.2500      0.0000    736.7438      2.3484     95.5510
   324.5000      0.0000    736.5256      2.5565     89.2318
   324.7500      0.0000    736.2803      2.8905     83.6677
   325.0000      0.0000    736.1201      3.2301     79.9398
   325.2500      0.0000    736.1441      3.4631     78.6427
   325.5000      0.0000    736.5919      3.5570     79.7579
