~Version Information
VERS.                      2.0: CWLS Log ASCII Standard - VERSION 2.0
WRAP.                       NO: One line per depth step
~Well Information Block
STRT.FT               650.0000: 
STOP.FT              2087.0000: 
STEP.FT                 0.2500: 
NULL.                -999.2500: 
COMP.          Pioneer Natural Resources: COMPANY
WELL.           Galloway 32-13: WELL
FLD.           Purgatoire River: FIELD
LOC.           1809' FNL & 2004' FEL: LOCATION
PROV.                 Colorado: PROVINCE
CNTY.               Las Animas: COUNTRY
SRVC.                Patterson: SERVICE COMPANY
DATE.          Fri Jul 08 15:50:04 2005: LOG DATE
UWI.           05 071 08423 00: UNIQUE WELL ID
~Curve Information Block
DEPT.FT            0 000 00 00: Depth
SN.Ohm-m                      : IEL Short Normal
SP.mV                         : IEL Spontaneous Potential
DIR.Ohm-m                     : IEL Induction Resistivity
GR.GAPI                       : Gamma Ray
~Parameter Information Block
~A  Depth        SN          SP         DIR          GR     
# ...
  1856.0000     18.0451     83.9348     13.8045     84.4631
  1856.2500     18.4311     85.2469     14.2567     83.7560
  1856.5000     18.9640     86.6234     14.7934     84.4233
  1856.7500     19.6224     87.6132     15.4260     85.6221
  1857.0000     20.3941     87.8620     16.1472     87.1839
  1857.2500     21.3462     87.2638     16.9330     87.4487
  1857.5000     22.5078     85.9607     17.7497     86.6154
  1857.7500     23.7337     84.2082     18.5603     85.6580
  1858.0000     24.8090     82.2324     19.3266     84.5371
  1858.2500     25.6331     80.1631     20.0098     84.3964
  1858.5000     26.2198     78.0330     20.5750     85.1446
  1858.7500     26.6153     75.8120     21.0025     85.9228
  1859.0000     26.8804     73.4485     21.2985     86.8220
  1859.2500     27.0788     70.9028     21.4949     87.1993
  1859.5000     27.2149     68.1726     21.6347     88.0271
  1859.7500     27.2400     65.3282     21.7526     89.1643
  1860.0000     27.1835     62.5559     21.8622     91.9294
  1860.2500     27.1551     60.1752     21.9495     94.1816
  1860.5000     27.1852     58.5950     21.9730     97.1204
  1860.7500     27.1899     58.2225     21.8791     97.9987
  1861.0000     27.0669     59.3495     21.6380     96.3992
  1861.2500     26.7214     62.0435     21.2811     92.9878
  1861.5000     26.0462     66.0782     20.9014     84.8438
  1861.7500     25.0058     70.9452     20.6077     78.4087
  1862.0000     23.7487     75.9540     20.4723     69.6639
  1862.2500     22.6223     80.3853     20.5118     65.7408
  1862.5000     22.0101     83.6769     20.7043     63.8368
  1862.7500     22.0615     85.5918     21.0168     64.9864
  1863.0000     22.6712     86.2544     21.4179     68.8009
  1863.2500     23.6983     86.0019     21.8710     71.7066
  1863.5000     25.0073     85.1714     22.3265     75.4580
  1863.7500     26.3538     83.9847     22.7282     77.2809
  1864.0000     27.4692     82.5569     23.0346     78.7972
  1864.2500     28.2803     80.9522     23.2405     78.9114
  1864.5000     28.9112     79.2326     23.3840     77.7252
  1864.7500     29.5434     77.4908     23.5369     76.0570
  1865.0000     30.3379     75.8576     23.7800     72.3515
  1865.2500     31.3483     74.4614     24.1740     69.4030
  1865.5000     32.4780     73.3607     24.7398     65.3778
  1865.7500     33.6187     72.5277     25.4546     63.4699
  1866.0000     34.7669     71.9114     26.2683     61.4776
  1866.2500     35.9492     71.4907     27.1287     60.0920
  1866.5000     37.1158     71.2379     27.9959     57.3849
  1866.7500     38.1240     71.0713     28.8246     55.4787
  1867.0000     38.8594     70.9309     29.5268     53.2635
  1867.2500     39.3349     70.9455     29.9571     52.2953
  1867.5000     39.5705     71.4999     29.9615     51.1747
  1867.7500     39.4804     73.0729     29.4651     50.5260
  1868.0000     38.9611     75.9067     28.5195     50.1887
  1868.2500     37.9881     79.7341     27.2656     50.9203
  1868.5000     36.5940     83.8170     25.8591     54.2400
  1868.7500     34.8547     87.3391     24.4210     58.2050
  1869.0000     32.9053     89.8536     23.0274     66.9286
  1869.2500     30.8981     91.4141     21.7198     74.3670
  1869.5000     28.9410     92.3459     20.5165     86.5711
  1869.7500     27.0886     92.9404     19.4228     94.0479
  1870.0000     25.3648     93.3263     18.4370    102.1331
  1870.2500     23.7940     93.5217     17.5535    105.0613
  1870.5000     22.3998     93.5264     16.7653    106.8214
  1870.7500     21.1160     93.3541     16.0676    107.1531
  1871.0000     19.7747     93.0203     15.4621    107.1894
  1871.2500     18.2770     92.5308     14.9557    106.9904
  1871.5000     16.7236     91.8908     14.5523    106.7539
  1871.7500     15.3961     91.1128     14.2450    107.0693
  1872.0000     14.6084     90.2091     14.0167    108.3447
  1872.2500     14.4654     89.1768     13.8508    109.1168
  1872.5000     14.7725     87.9930     13.7419    109.0228
  1872.7500     15.2257     86.6226     13.6963    108.1809
  1873.0000     15.6238     85.0291     13.7221    106.9878
  1873.2500     15.9211     83.1775     13.8197    106.9607
  1873.5000     16.1712     81.0352     13.9777    108.5190
  1873.7500     16.4695     78.5757     14.1769    110.3881
  1874.0000     16.9003     75.7902     14.3978    113.3832
  1874.2500     17.4234     72.7106     14.6278    114.8322
  1874.5000     17.8670     69.4442     14.8641    115.7271
  1874.7500     18.0944     66.2266     15.1104    115.6821
  1875.0000     18.1183     63.4987     15.3709    115.2584
  1875.2500     18.0768     61.9712     15.6457    115.0425
  1875.5000     18.1118     62.5407     15.9326    115.3884
  1875.7500     18.2429     65.9006     16.2283    116.4321
  1876.0000     18.4060     71.9461     16.5278    119.3746
  1876.2500     18.5429     79.4735     16.8211    121.6834
  1876.5000     18.5792     86.6500     17.0949    123.4590
  1876.7500     18.4717     92.0037     17.3373    122.1982
  1877.0000     18.3114     95.0849     17.5418    116.1564
  1877.2500     18.2743     96.3271     17.7060    110.3276
  1877.5000     18.4542     96.4706     17.8285    101.1174
  1877.7500     18.7482     96.1276     17.9109     95.4980
  1878.0000     18.9633     95.6619     17.9622     88.5363
  1878.2500     19.0287     95.2394     18.0011     85.2004
  1878.5000     19.0276     94.9137     18.0484     82.5816
  1878.7500     19.0309     94.6923     18.1162     82.4323
  1879.0000     18.9727     94.5695     18.2003     84.3296
  1879.2500     18.7390     94.5336     18.2860     86.8237
  1879.5000     18.3292     94.5636     18.3582     91.7979
  1879.7500     17.8120     94.6282     18.4085     95.2362
  1880.0000     17.2133     94.6921     18.4335     99.4104
  1880.2500     16.6322     94.7288     18.4305    101.4301
  1880.5000     16.3293     94.7347     18.3988    103.9042
  1880.7500     16.4824     94.7316     18.3448    105.2182
  1881.0000     16.9935     94.7535     18.2877    105.6151
  1881.2500     17.6872     94.8233     18.2594    104.1203
  1881.5000     18.4760     94.9354     18.2941     99.2719
  1881.7500     19.2547     95.0609     18.4110     95.1921
  1882.0000     19.8859     95.1677     18.6024     89.9396
  1882.2500     20.2910     95.2361     18.8375     87.9568
  1882.5000     20.4676     95.2550     19.0838     87.5719
  1882.7500     20.5041     95.2082     19.3286     88.5380
  1883.0000     20.5161     95.0691     19.5824     90.6886
  1883.2500     20.5312     94.8116     19.8619     92.1866
  1883.5000     20.5337     94.4295     20.1681     94.2168
  1883.7500     20.5628     93.9458     20.4786     95.1970
  1884.0000     20.6996     93.4008     20.7616     95.5571
  1884.2500     20.9986     92.8238     20.9966     94.8518
  1884.5000     21.4213     92.2166     21.1786     92.5027
  1884.7500     21.8524     91.5639     21.3055     90.4035
  1885.0000     22.2173     90.8586     21.3736     87.2427
  1885.2500     22.5180     90.1117     21.3938     85.5790
  1885.5000     22.7502     89.3407     21.4084     84.1884
  1885.7500     22.8905     88.5535     21.4771     83.8584
  1886.0000     22.9431     87.7488     21.6375     83.2275
  1886.2500     22.9241     86.9278     21.8723     81.9890
  1886.5000     22.8463     86.1044     22.1118     78.5399
  1886.7500     22.7495     85.3049     22.2724     75.7350
  1887.0000     22.7088     84.5609     22.3068     72.3008
  1887.2500     22.7768     83.9001     22.2273     71.2053
  1887.5000     22.8791     83.3411     22.0876     71.7719
  1887.7500     22.8383     82.8926     21.9415     73.5210
  1888.0000     22.5822     82.5558     21.8142     77.4861
  1888.2500     22.2203     82.3234     21.6999     80.2768
  1888.5000     21.8353     82.1786     21.5800     83.3243
  1888.7500     21.3903     82.0954     21.4452     84.2507
  1889.0000     20.9232     82.0489     21.3025     84.5210
  1889.2500     20.6059     82.0251     21.1653     84.5331
