~Version Information
VERS.                      2.0: CWLS Log ASCII Standard - VERSION 2.0
WRAP.                       NO: One line per depth step
~Well Information Block
STRT.FT                 5.5000: 
STOP.FT              1635.7500: 
STEP.FT                 0.2500: 
NULL.                -999.2500: 
COMP.          Pioneer Natural Resources: COMPANY
WELL.                Mead 11-9: WELL
FLD.           Purgatoire River: FIELD
LOC.           1127' FNL & 668' FWL: LOCATION
PROV.                 Colorado: PROVINCE
CNTY.               Las Animas: COUNTRY
SRVC.                Patterson: SERVICE COMPANY
DATE.          Wed Mar 02 13:48:38 2005: LOG DATE
UWI.           05 071 08160 00: UNIQUE WELL ID
~Curve Information Block
DEPT.FT            0 000 00 00: Depth
CCL.                          : Casing Collar Locator
TT3.usec                      : CBL 3' Travel Time
AMP3.mV                       : CBL 3' Amplitude
GR.GAPI                       : Gamma Ray
~Parameter Information Block
~A  Depth       CCL         TT3         AMP3         GR     
# ...
   876.5000      0.0000    800.6776      4.3390    115.4810
   876.7500      0.0000    792.9326      4.3758    117.1125
   877.0000      0.0000    786.6804      4.3748    117.9969
   877.2500      0.0000    778.8832      4.3593    117.7263
   877.5000      0.0000    768.1031      4.3503    115.7031
   877.7500      0.0000    757.7880      4.3579    112.1215
   878.0000      0.0000    754.3355      4.3841    108.1890
   878.2500      0.0000    761.0778      4.4282    105.2024
   878.5000      0.0000    775.1981      4.4881    103.7371
   878.7500      0.0000    791.0778      4.5566    103.7201
   879.0000      0.0000    804.7714      4.6218    104.7868
   879.2500      0.0000    814.8428      4.6732    106.3241
   879.5000      0.0000    822.6452      4.7118    107.3689
   879.7500      0.0000    833.4023      4.7534    106.7715
   880.0000      0.0000    851.5256      4.8181    103.8093
   880.2500      0.0000    871.3286      4.9121     98.9190
   880.5000      0.0000    877.5649      5.0216     93.6892
   880.7500      0.0000    861.0103      5.1211     89.8854
   881.0000      0.0000    831.9952      5.1861     88.4944
   881.2500      0.0000    814.0506      5.1979     89.6486
   881.5000      0.0000    823.2432      5.1448     93.0111
   881.7500      0.0000    855.2808      5.0271     97.9623
   882.0000      0.0000    892.0573      4.8622    103.7343
   882.2500      0.0000    917.3204      4.6848    109.8309
   882.5000      0.0000    925.6425      4.5336    116.3921
   882.7500      0.0000    921.9251      4.4336    123.9608
   883.0000      0.0000    917.4101      4.3852    132.6165
   883.2500      0.0000    923.8325      4.3689    141.3221
   883.5000      0.0000    944.8709      4.3593    148.4946
   883.7500      0.0000    970.4966      4.3376    153.3525
   884.0000      0.0000    982.6361      4.2943    156.2657
   884.2500      0.0000    970.1908      4.2276    157.6979
   884.5000      0.0000    938.5831      4.1428    157.5292
   884.7500      0.0000    904.1178      4.0515    155.8218
   885.0000      0.0000    881.5591      3.9687    153.6656
   885.2500      0.0000    877.9067      3.9060    152.6873
   885.5000      0.0000    892.9649      3.8654    153.6167
   885.7500      0.0000    920.9962      3.8395    155.3420
   886.0000      0.0000    953.7720      3.8187    155.3164
   886.2500      0.0000    987.3499      3.7968    151.0060
   886.5000      0.0000   1026.1962      3.7733    141.1538
   886.7500      0.0000   1076.7419      3.7509    126.1911
   887.0000      0.0000   1135.8071      3.7350    108.1782
   887.2500      0.0000   1188.2615      3.7298     90.4316
   887.5000      0.0000   1217.7161      3.7314     76.3902
   887.7500      0.0000   1218.8821      3.7248     68.2115
   888.0000      0.0000   1201.1410      3.6925     66.3938
   888.2500      0.0000   1182.3993      3.6289     70.4289
   888.5000      0.0000   1178.2782      3.5465     79.1972
   888.7500      0.0000   1194.3162      3.4695     90.7555
   889.0000      0.0000   1226.7494      3.4189    102.4556
   889.2500      0.0000   1267.7338      3.4020    111.7732
   889.5000      0.0000   1306.5912      3.4132    117.2331
   889.7500      0.0000   1328.3367      3.4434    118.8865
   890.0000      0.0000   1317.8643      3.4871    118.0765
   890.2500      0.0000   1270.2284      3.5408    116.6644
   890.5000      0.0000   1196.7175      3.5990    116.2850
   890.7500      0.0000   1119.9366      3.6523    117.8808
   891.0000      0.0000   1061.8241      3.6912    121.3351
   891.2500      0.0000   1033.6287      3.7096    125.4938
   891.5000      0.0000   1032.0266      3.7080    128.8521
   891.7500      0.0000   1041.8606      3.6958    130.3315
   892.0000      0.0000   1046.1555      3.6909    129.5492
   892.2500      0.0000   1036.8031      3.7131    126.8285
   892.5000      0.0000   1015.5816      3.7716    123.2772
   892.7500      0.0000    987.4918      3.8591    120.5586
   893.0000      0.0000    958.0425      3.9565    120.0607
   893.2500      0.0000    935.6482      4.0416    121.9426
   893.5000      0.0000    929.9424      4.0943    124.8433
   893.7500      0.0000    943.6093      4.1005    126.7681
   894.0000      0.0000    966.8454      4.0594    126.7816
   894.2500      0.0000    982.9160      3.9885    125.9125
   894.5000      0.0000    980.8400      3.9159    125.9560
   894.7500      0.0000    962.6407      3.8647    127.3346
   895.0000      0.0000    937.8591      3.8399    128.6637
   895.2500      0.0000    913.3574      3.8307    128.5972
   895.5000      0.0000    890.7197      3.8249    127.4042
   895.7500      0.0000    870.6904      3.8179    126.1962
   896.0000      0.0000    855.1757      3.8112    125.2025
   896.2500      0.0000    844.6570      3.8066    123.7526
   896.5000      0.0000    836.2244      3.8069    121.8397
   896.7500      0.0000    824.9763      3.8191    120.8605
   897.0000      0.0000    808.0425      3.8507    122.4801
   897.2500      0.0000    789.6761      3.9008    126.9074
   897.5000      0.0000    783.3033      3.9591    132.2471
   897.7500      0.0000    804.5761      4.0145    135.5682
   898.0000      0.0000    857.4291      4.0639    134.9782
   898.2500      0.0000    926.2203      4.1079    130.9626
   898.5000      0.0000    985.2427      4.1387    125.6693
   898.7500      0.0000   1019.5980      4.1379    120.8874
   899.0000      0.0000   1038.1960      4.0884    117.0527
   899.2500      0.0000   1065.3538      3.9877    114.2326
   899.5000      0.0000   1117.5100      3.8503    113.2528
   899.7500      0.0000   1186.5857      3.6984    115.0315
   900.0000      0.0000   1246.1219      3.5496    118.9180
   900.2500      0.0000   1273.9919      3.4135    122.4366
   900.5000      0.0000   1269.5676      3.2964    123.0841
   900.7500      0.0000   1249.4182      3.2052    120.2571
   901.0000      0.0000   1228.3129      3.1437    115.4578
   901.2500      0.0000   1208.4784      3.1094    110.9746
   901.5000      0.0000   1186.3762      3.0958    108.3852
   901.7500      0.0000   1162.2236      3.0957    107.8731
   902.0000      0.0000   1138.3920      3.1036    108.6254
   902.2500      0.0000   1111.8657      3.1199    109.8786
   902.5000      0.0000   1073.8202      3.1537    111.4652
   902.7500      0.0000   1020.4605      3.2169    113.1643
   903.0000      0.0000    964.0483      3.3136    113.9642
   903.2500      0.0000    927.6118      3.4348    112.7866
   903.5000      0.0000    926.2170      3.5613    109.9446
   903.7500      0.0000    956.8807      3.6726    107.0696
   904.0000      0.0000   1005.5645      3.7591    105.3999
   904.2500      0.0000   1056.5592      3.8283    104.9552
   904.5000      0.0000   1095.8336      3.8955    105.5766
   904.7500      0.0000   1114.7552      3.9670    107.7654
   905.0000      0.0000   1116.2926      4.0376    111.7991
   905.2500      0.0000   1115.5902      4.1035    116.6130
   905.5000      0.0000   1129.8472      4.1683    120.3749
   905.7500      0.0000   1164.2097      4.2351    122.0903
   906.0000      0.0000   1207.1036      4.3038    122.2688
   906.2500      0.0000   1240.0610      4.3726    122.3036
   906.5000      0.0000   1250.9381      4.4348    123.5253
   906.7500      0.0000   1237.5262      4.4760    126.4597
   907.0000      0.0000   1203.8167      4.4840    130.6045
   907.2500      0.0000   1158.2574      4.4626    135.0446
   907.5000      0.0000   1113.1910      4.4325    139.1214
   907.7500      0.0000   1079.4897      4.4182    142.1909
   908.0000      0.0000   1060.7129      4.4304    143.2268
   908.2500      0.0000   1055.2294      4.4571    141.5571
   908.5000      0.0000   1063.0807      4.4709    137.8678
   908.7500      0.0000   1086.6519      4.4512    133.8772
   909.0000      0.0000   1125.0708      4.4012    131.0824
   909.2500      0.0000   1170.4615      4.3432    130.0442
   909.5000      0.0000   1208.7153      4.2980    130.4179
   909.7500      0.0000   1225.9287      4.2699    131.2297
