~Version Information
VERS.                      2.0: CWLS Log ASCII Standard - VERSION 2.0
WRAP.                       NO: One line per depth step
~Well Information Block
STRT.FT                -6.7500: 
STOP.FT              1181.0000: 
STEP.FT                 0.2500: 
NULL.                -999.2500: 
COMP.          Pioneer Natural Resources: COMPANY
WELL.          Pacheco 33-27 Tr: WELL
FLD.           Purgatorie River: FIELD
LOC.           2251' FSL & 2342' FEL--: LOCATION
PROV.                       CO: PROVINCE
CNTY.               Las Animas: COUNTRY
SRVC.          Patterson Wireline: SERVICE COMPANY
DATE.          Wed Jun 15 10:58:02 2005: LOG DATE
UWI.           05 071 08384 00: UNIQUE WELL ID
~Curve Information Block
DEPT.FT            0 000 00 00: Depth
CCL.                          : Casing Collar Locator
TT3.usec                      : CBL 3' Travel Time
AMP3.mV                       : CBL 3' Amplitude
GR.GAPI                       : Gamma Ray
~Parameter Information Block
~A  Depth       CCL         TT3         AMP3         GR     
# ...
   596.2500      0.0000    780.7920      9.0454     73.8655
   596.5000      0.0000    804.9460      9.1125     73.6090
   596.7500      0.0000    827.8427      9.0629     75.2941
   597.0000      0.0000    843.9196      8.9042     78.0331
   597.2500      0.0000    850.7562      8.6643     80.6963
   597.5000      0.0000    849.7274      8.3918     82.4740
   597.7500      0.0000    844.4575      8.1583     82.8706
   598.0000      0.0000    838.6640      8.0359     81.5056
   598.2500      0.0000    834.6620      8.0559     78.5599
   598.5000      0.0000    833.0953      8.1873     75.3827
   598.7500      0.0000    833.5580      8.3545     74.1380
   599.0000      0.0000    835.1144      8.4778     76.6261
   599.2500      0.0000    836.3318      8.5042     83.3462
   599.5000      0.0000    835.5291      8.4159     93.2140
   599.7500      0.0000    831.8926      8.2223    103.8147
   600.0000      0.0000    826.7294      7.9475    112.4382
   600.2500      0.0000    823.2087      7.6267    117.6244
   600.5000      0.0000    823.9584      7.3104    119.6881
   600.7500      0.0000    828.4177      7.0594    119.5757
   601.0000      0.0000    833.1372      6.9193    117.8771
   601.2500      0.0000    835.1952      6.8955    115.4780
   601.5000      0.0000    834.8745      6.9599    114.4277
   601.7500      0.0000    834.8828      7.0799    117.1229
   602.0000      0.0000    837.6908      7.2239    124.5373
   602.2500      0.0000    843.7203      7.3423    135.3345
   602.5000      0.0000    851.3544      7.3730    146.3384
   602.7500      0.0000    858.2849      7.2891    153.8846
   603.0000      0.0000    863.0482      7.1394    155.6997
   603.2500      0.0000    865.5904      7.0283    152.3562
   603.5000      0.0000    866.6808      7.0484    146.9494
   603.7500      0.0000    867.0797      7.2246    143.0805
   604.0000      0.0000    867.1461      7.5080    142.7560
   604.2500      0.0000    866.8379      7.8121    145.4715
   604.5000      0.0000    865.7578      8.0585    148.8416
   604.7500      0.0000    863.1993      8.2047    150.4849
   605.0000      0.0000    858.4709      8.2442    149.9245
   605.2500      0.0000    851.5020      8.1931    148.7773
   605.5000      0.0000    843.0729      8.0792    148.8838
   605.7500      0.0000    834.0392      7.9442    150.2499
   606.0000      0.0000    824.2051      7.8496    151.1656
   606.2500      0.0000    812.4888      7.8659    150.2744
   606.5000      0.0000    798.4886      8.0373    147.8135
   606.7500      0.0000    783.2200      8.3440    144.6357
   607.0000      0.0000    767.8440      8.6961    141.0646
   607.2500      0.0000    752.8459      8.9736    137.4165
   607.5000      0.0000    739.8480      9.0773    134.7439
   607.7500      0.0000    733.2950      8.9507    133.9530
   608.0000      0.0000    738.1786      8.5742    134.4441
   608.2500      0.0000    755.4179      7.9779    134.4027
   608.5000      0.0000    780.0572      7.2712    132.4924
   608.7500      0.0000    804.3262      6.6219    129.0225
   609.0000      0.0000    822.4087      6.1728    125.4895
   609.2500      0.0000    832.8205      5.9770    123.0703
   609.5000     -2.0000    837.6547      6.0006    121.6208
   609.7500      0.0000    840.4126      6.1582    120.1587
   610.0000      0.0000    844.0529      6.3609    118.0501
   610.2500      0.0000    849.8081      6.5709    115.4626
   610.5000      0.0000    856.2444      6.8180    112.9554
   610.7500      0.0000    858.6758      7.1355    111.0194
   611.0000      0.0000    851.3111      7.4865    109.7220
   611.2500      0.0000    832.6785      7.7785    108.6399
   611.5000      0.0000    808.5540      7.9364    107.5841
   611.7500      0.0000    787.3810      7.9375    107.2275
   612.0000      0.0000    773.1905      7.8080    108.2180
   612.2500      0.0000    764.4532      7.6243    109.8655
   612.5000      0.0000    758.6099      7.4991    110.5975
   612.7500      0.0000    755.4776      7.5314    109.6341
   613.0000      0.0000    756.3547      7.7476    107.6204
   613.2500      0.0000    761.5201      8.0863    105.7622
   613.5000      0.0000    769.3983      8.4356    104.9194
   613.7500      0.0000    777.8472      8.6904    105.3619
   614.0000      0.0000    785.8735      8.7927    106.6582
   614.2500      0.0000    793.8905      8.7369    107.9046
   614.5000      0.0000    802.4309      8.5507    108.7612
   614.7500      0.0000    811.0007      8.2692    110.2674
   615.0000      0.0000    818.4628      7.9258    113.9979
   615.2500      0.0000    824.3718      7.5661    120.2616
   615.5000      0.0000    829.5866      7.2566    127.2393
   615.7500      0.0000    835.4868      7.0671    131.8544
   616.0000      0.0000    842.6307      7.0340    131.8284
   616.2500      0.0000    850.1568      7.1387    127.7662
   616.5000      0.0000    856.4712      7.3215    123.1715
   616.7500      0.0000    860.4940      7.5169    121.5116
   617.0000      0.0000    862.2514      7.6798    123.0994
   617.2500      0.0000    862.5071      7.7871    125.2663
   617.5000      0.0000    862.1030      7.8259    125.3279
   617.7500      0.0000    861.5938      7.7869    122.9275
   618.0000      0.0000    861.1862      7.6661    119.8113
   618.2500      0.0000    860.8076      7.4682    117.9069
   618.5000      0.0000    860.1899      7.2062    117.6950
   618.7500      0.0000    858.8990      6.9019    118.4415
   619.0000      0.0000    856.3994      6.5923    119.7363
   619.2500      0.0000    852.4670      6.3344    122.0594
   619.5000      0.0000    847.9066      6.1937    125.4924
   619.7500      0.0000    844.6717      6.2127    128.6125
   620.0000      0.0000    844.6241      6.3824    129.4425
   620.2500      0.0000    847.9312      6.6440    127.4664
   620.5000      0.0000    852.9739      6.9198    124.2353
   620.7500      0.0000    857.7169      7.1469    121.9257
   621.0000      0.0000    860.7285      7.2918    121.5307
   621.2500      0.0000    860.9929      7.3456    122.4749
   621.5000      0.0000    857.7072      7.3120    123.6215
   621.7500      0.0000    851.2493      7.1967    124.1611
   622.0000      0.0000    844.2974      7.0061    123.4142
   622.2500      0.0000    840.6493      6.7538    120.4905
   622.5000      0.0000    841.7587      6.4730    115.0839
   622.7500      0.0000    844.9439      6.2239    108.6804
   623.0000      0.0000    846.0201      6.0819    104.2854
   623.2500      0.0000    843.3771      6.1013    104.3873
   623.5000      0.0000    838.8113      6.2804    108.7800
   623.7500      0.0000    834.8661      6.5595    114.2683
   624.0000      0.0000    832.3467      6.8543    116.9797
   624.2500      0.0000    830.5011      7.0931    115.5485
   624.5000      0.0000    828.6296      7.2334    111.9349
   624.7500      0.0000    826.7665      7.2640    108.9319
   625.0000      0.0000    825.2363      7.2000    107.1568
   625.2500      0.0000    824.1818      7.0730    104.7090
   625.5000      0.0000    823.4554      6.9150     99.5181
   625.7500      0.0000    822.5155      6.7426     91.7925
   626.0000      0.0000    820.4320      6.5534     84.1880
   626.2500      0.0000    816.3582      6.3413     79.6446
   626.5000      0.0000    810.2323      6.1208     78.9861
   626.7500      0.0000    802.9985      5.9370     80.5308
   627.0000      0.0000    796.1401      5.8471     81.9376
   627.2500      0.0000    791.0857      5.8903     82.1670
   627.5000      0.0000    789.0367      6.0696     81.5645
   627.7500      0.0000    791.1013      6.3526     80.6519
   628.0000      0.0000    797.9922      6.6802     79.4874
   628.2500      0.0000    808.7725      6.9800     77.9774
   628.5000      0.0000    820.0089      7.1890     76.1688
   628.7500      0.0000    827.5887      7.2754     74.2189
   629.0000      0.0000    830.1630      7.2390     72.4909
   629.2500      0.0000    830.0486      7.0927     71.7679
   629.5000      0.0000    830.1450      6.8505     73.0549
