~Version Information
VERS.                      2.0: CWLS Log ASCII Standard - VERSION 2.0
WRAP.                       NO: One line per depth step
~Well Information Block
STRT.FT               236.5000: 
STOP.FT              2818.2500: 
STEP.FT                 0.2500: 
NULL.                -999.2500: 
COMP.          Pioneer Natural Resources: COMPANY
WELL.            Sebring 42-29: WELL
FLD.           Purgatorie River: FIELD
LOC.           1751' FNL & 584' FEL--: LOCATION
PROV.                       CO: PROVINCE
CNTY.               Las Animas: COUNTRY
SRVC.          Patterson Wireline: SERVICE COMPANY
DATE.          Fri Aug 26 09:14:13 2005: LOG DATE
UWI.           05 071 08293 00: UNIQUE WELL ID
~Curve Information Block
DEPT.FT            0 000 00 00: Depth
CCL.                          : Casing Collar Locator
TT3.usec                      : CBL 3' Travel Time
AMP3.mV                       : CBL 3' Amplitude
GR.GAPI                       : Gamma Ray
~Parameter Information Block
~A  Depth       CCL         TT3         AMP3         GR     
# ...
   571.5000      0.0000    770.6288      8.0059     97.0021
   571.7500      0.0000    770.1412      8.0082     95.1866
   572.0000      0.0000    769.8997      8.0142     93.3982
   572.2500      0.0000    772.5555      8.0235     92.1772
   572.5000      0.0000    779.9791      8.0269     91.4573
   572.7500      0.0000    792.9696      8.0140     90.7765
   573.0000      0.0000    812.0795      7.9834     90.2106
   573.2500      0.0000    836.9406      7.9443     90.5755
   573.5000      0.0000    863.4332      7.9083     92.4415
   573.7500      0.0000    883.3143      7.8823     95.2250
   574.0000      0.0000    889.4818      7.8668     97.4788
   574.2500      0.0000    881.6005      7.8564     98.0543
   574.5000      0.0000    865.1887      7.8403     97.0007
   574.7500      0.0000    846.1389      7.8085     95.4339
   575.0000      0.0000    827.9904      7.7572     94.5884
   575.2500      0.0000    813.2999      7.6898     94.9260
   575.5000      0.0000    804.5169      7.6141     95.9992
   575.7500      0.0000    802.4745      7.5381     97.0002
   576.0000      0.0000    805.5702      7.4708     97.4500
   576.2500      0.0000    811.5707      7.4235     97.4421
   576.5000      0.0000    819.5532      7.4071     97.3440
   576.7500      0.0000    829.1682      7.4251     97.3005
   577.0000      0.0000    838.2756      7.4691     96.8761
   577.2500      0.0000    842.6000      7.5237     95.2188
   577.5000      0.0000    838.8171      7.5741     91.9539
   577.7500      0.0000    827.9817      7.6120     87.8928
   578.0000      0.0000    815.2781      7.6366     84.4507
   578.2500      0.0000    806.0825      7.6521     82.3739
   578.5000      0.0000    802.1161      7.6652     81.3820
   578.7500      0.0000    800.9307      7.6831     81.0216
   579.0000      0.0000    798.6855      7.7132     81.4229
   579.2500      0.0000    793.7063      7.7639     83.0617
   579.5000      0.0000    788.1240      7.8400     86.1247
   579.7500      0.0000    786.1757      7.9352     90.4000
   580.0000      0.0000    790.4630      8.0322     95.5335
   580.2500      0.0000    799.3262      8.1101    100.8796
   580.5000      0.0000    807.5234      8.1557    105.2270
   580.7500      0.0000    809.8502      8.1681    107.3310
   581.0000      0.0000    804.9022      8.1541    106.8975
   581.2500      0.0000    795.6734      8.1176    104.6731
   581.5000      0.0000    786.5889      8.0558    101.5797
   581.7500      0.0000    780.1801      7.9662     98.1055
   582.0000      0.0000    776.2459      7.8562     94.4714
   582.2500      0.0000    773.3776      7.7416     90.9298
   582.5000      0.0000    770.9948      7.6369     87.7490
   582.7500      0.0000    770.5031      7.5492     85.1051
   583.0000      0.0000    774.6004      7.4788     83.0820
   583.2500      0.0000    784.8778      7.4234     81.7107
   583.5000      0.0000    799.9516      7.3831     81.0460
   583.7500      0.0000    816.5852      7.3614     81.2292
   584.0000      0.0000    832.6927      7.3577     82.2582
   584.2500      0.0000    848.3165      7.3611     83.6176
   584.5000      0.0000    863.5197      7.3564     84.3532
   584.7500      0.0000    876.4791      7.3381     83.6880
   585.0000      0.0000    884.2925      7.3157     81.4524
   585.2500      0.0000    885.2809      7.3042     77.9274
   585.5000      0.0000    880.4666      7.3103     73.5448
   585.7500      0.0000    873.3505      7.3258     68.8279
   586.0000      0.0000    868.2280      7.3323     64.3467
   586.2500      0.0000    867.9070      7.3153     60.6079
   586.5000      0.0000    872.0289      7.2792     58.0801
   586.7500      0.0000    877.1412      7.2472     57.1410
   587.0000      0.0000    878.7541      7.2418     57.6800
   587.2500      0.0000    874.2739      7.2677     58.8721
   587.5000      0.0000    864.7034      7.3097     59.6335
   587.7500      0.0000    853.8557      7.3443     59.2672
   588.0000      0.0000    845.8160      7.3529     57.5406
   588.2500      0.0000    842.5361      7.3294     54.3925
   588.5000      0.0000    843.1685      7.2787     49.9624
   588.7500      0.0000    845.5626      7.2101     44.9914
   589.0000      0.0000    848.3930      7.1335     40.8904
   589.2500      0.0000    851.6294      7.0603     39.0922
   589.5000      0.0000    855.1701      7.0048     40.2627
   589.7500      0.0000    858.0552      6.9789     44.2476
   590.0000      0.0000    859.7921      6.9858     50.6973
   590.2500      0.0000    862.2919      7.0179     59.3886
   590.5000      0.0000    869.7769      7.0592     69.6574
   590.7500      0.0000    885.5972      7.0901     79.8027
   591.0000      0.0000    908.0719      7.0924     87.7968
   591.2500      0.0000    929.7916      7.0567     92.9960
   591.5000      0.0000    942.0988      6.9875     96.6727
   591.7500      0.0000    940.3478      6.9063    100.3435
   592.0000      0.0000    924.7310      6.8487    103.9170
   592.2500      0.0000    897.1915      6.8552    105.9424
   592.5000      0.0000    859.5941      6.9478    105.3355
   592.7500      0.0000    815.9180      7.0925    102.4625
   593.0000      0.0000    775.3353      7.1811     98.8094
   593.2500      0.0000    750.1001      7.0879     95.8261
   593.5000      0.0000    747.0994      6.7840     93.8873
   593.7500      0.0000    760.6616      6.3874     92.1492
   594.0000      0.0000    775.8619      6.0685     89.3959
   594.2500      2.0000    781.2670      5.9112     85.1437
   594.5000      0.0000    778.5637      5.8806     80.2331
   594.7500     -2.0000    778.9611      5.8982     76.4904
   595.0000      0.0000    790.4084      5.9175     75.5320
   595.2500      0.0000    808.5394      5.9433     77.5572
   595.5000      0.0000    819.9285      6.0103     81.1341
   595.7500      0.0000    814.8259      6.1464     84.1836
   596.0000      0.0000    796.7993      6.3429     85.3650
   596.2500      0.0000    778.3219      6.5628     84.8395
   596.5000      0.0000    767.5632      6.7806     83.9137
   596.7500      0.0000    762.8824      7.0017     83.7631
   597.0000      0.0000    760.2733      7.2342     84.3009
   597.2500      0.0000    760.6481      7.4559     84.4823
   597.5000      0.0000    766.2556      7.6224     83.7263
   597.7500      0.0000    773.2521      7.7049     82.5033
   598.0000      0.0000    773.0358      7.7078     81.4733
   598.2500      0.0000    761.1422      7.6536     80.8734
   598.5000      0.0000    741.8672      7.5637     80.8942
   598.7500      0.0000    723.4992      7.4564     81.6357
   599.0000      0.0000    710.9248      7.3529     82.3717
   599.2500      0.0000    703.6687      7.2706     81.8276
   599.5000      0.0000    699.2156      7.2067     79.6241
   599.7500      0.0000    696.0314      7.1310     76.9322
   600.0000      0.0000    693.8475      7.0064     75.5905
   600.2500      0.0000    693.1671      6.8251     76.9186
   600.5000      0.0000    695.1625      6.6197     81.1187
   600.7500      0.0000    701.0468      6.4317     87.2154
   601.0000      0.0000    711.3184      6.2742     93.5529
   601.2500      0.0000    726.0400      6.1282     98.6088
   601.5000      0.0000    745.0128      5.9684    101.5834
   601.7500      0.0000    766.0969      5.7850    102.6943
   602.0000      0.0000    783.8083      5.5869    103.0655
   602.2500      0.0000    791.9842      5.3902    103.7385
   602.5000      0.0000    789.0153      5.2077    104.4836
   602.7500      0.0000    778.7469      5.0454    104.0854
   603.0000      0.0000    764.8865      4.9047    102.0344
   603.2500      0.0000    746.3691      4.7869     99.4430
   603.5000      0.0000    720.5892      4.6962     97.9396
   603.7500      0.0000    689.7818      4.6386     98.0645
   604.0000      0.0000    661.9462      4.6170     99.0958
   604.2500      0.0000    647.0640      4.6262     99.9907
   604.5000      0.0000    653.7592      4.6518    100.0275
   604.7500      0.0000    685.2418      4.6775     98.7236
