~Version Information
VERS.                      2.0: CWLS Log ASCII Standard - VERSION 2.0
WRAP.                       NO: One line per depth step
~Well Information Block
STRT.FT               519.6000: 
STOP.FT              2727.5000: 
STEP.FT                 0.1000: 
NULL.                -999.2500: 
COMP.          Petrogulf Corporation: COMPANY
WELL.              Silva 6-22V: WELL
FLD.           Purgatorie River: FIELD
LOC.           1936' FNL & 1798' FWL: LOCATION
CNTY.               Las Animas: COUNTY
SRVC.                         : SERVICE COMPANY
DATE.          Tue Nov 09 12:21:27 2004: LOG DATE
UWI.           05 071 08143 00: UNIQUE WELL ID
STAT.                 Colorado: STATE
~Curve Information Block
DEPT.FT            0 000 00 00: Depth
DCAL.in                       : CDL Caliper
RHOB.g/cc                     : CDL Bulk Density
RHOC.g/cc                     : CDL Density Correction
DPOR.pu                       : CDL Density Porosity
GR.GAPI                       : Gamma Ray
NPOR.pu                       : Neutron Porosity
~Parameter Information Block
~A  Depth       DCAL        RHOB        RHOC        DPOR         GR         NPOR    
# ...
  2718.0000      7.6400      2.5155      0.0702      8.1487   -999.2500   -999.2500
  2718.1000      7.6400      2.5124      0.0623      8.3400   -999.2500   -999.2500
  2718.2000      7.6400      2.5134      0.0538      8.2761   -999.2500   -999.2500
  2718.3000      7.6403      2.5216      0.0841      7.7837   -999.2500   -999.2500
  2718.4000      7.6403      2.5276      0.1088      7.4193   -999.2500   -999.2500
  2718.5000      7.6404      2.5243      0.0815      7.6157   -999.2500   -999.2500
  2718.6000      7.6404      2.5195      0.0575      7.9111   -999.2500   -999.2500
  2718.7000      7.6404      2.5190      0.0930      7.9393   -999.2500   -999.2500
  2718.8000      7.6409      2.5169      0.0839      8.0645   -999.2500   -999.2500
  2718.9000      7.6409      2.5122      0.0686      8.3544   -999.2500   -999.2500
  2719.0000      7.6433      2.5089      0.0823      8.5540   -999.2500   -999.2500
  2719.1000      7.6433      2.5045      0.0909      8.8184   -999.2500   -999.2500
  2719.2000      7.6433      2.4991      0.0547      9.1444   -999.2500   -999.2500
  2719.3000      7.6529      2.4953      0.0590      9.3761   -999.2500   -999.2500
  2719.4000      7.6529      2.4908      0.0383      9.6472   -999.2500   -999.2500
  2719.5000      7.6681      2.4870      0.0782      9.8796   -999.2500   -999.2500
  2719.6000      7.6681      2.4859      0.0425      9.9483   -999.2500   -999.2500
  2719.7000      7.6681      2.4893      0.0339      9.7398   -999.2500   -999.2500
  2719.8000      7.6726      2.4973      0.0516      9.2556   -999.2500   -999.2500
  2719.9000      7.6726      2.5036      0.0586      8.8701   -999.2500   -999.2500
  2720.0000      7.6635      2.5020      0.0793      8.9678   -999.2500   -999.2500
  2720.1000      7.6635      2.4904      0.0905      9.6708   -999.2500   -999.2500
  2720.2000      7.6635      2.4749      0.0517     10.6096   -999.2500   -999.2500
  2720.3000      7.6530      2.4611      0.0810     11.4482   -999.2500   -999.2500
  2720.4000      7.6530      2.4454      0.0333     12.3992   -999.2500   -999.2500
  2720.5000      7.6456      2.4303      0.0465     13.3176   -999.2500   -999.2500
  2720.6000      7.6456      2.4279      0.0216     13.4636   -999.2500   -999.2500
  2720.7000      7.6456      2.4418      0.0714     12.6157   -999.2500   -999.2500
  2720.8000      7.6445      2.4596      0.0808     11.5396   -999.2500   -999.2500
  2720.9000      7.6445      2.4679      0.0830     11.0345   -999.2500   -999.2500
  2721.0000      7.6553      2.4645      0.0884     11.2402   -999.2500   -999.2500
  2721.1000      7.6553      2.4546      0.0944     11.8410   -999.2500   -999.2500
  2721.2000      7.6553      2.4442      0.0774     12.4709   -999.2500   -999.2500
  2721.3000      7.6820      2.4359      0.0917     12.9767   -999.2500   -999.2500
  2721.4000      7.6820      2.4292      0.0623     13.3828   -999.2500   -999.2500
  2721.5000      7.7102      2.4263      0.0768     13.5598   -999.2500   -999.2500
  2721.6000      7.7102      2.4339      0.0845     13.0945   -999.2500   -999.2500
  2721.7000      7.7102      2.4572      0.0726     11.6872   -999.2500   -999.2500
  2721.8000      7.7223      2.4861      0.1527      9.9330   -999.2500   -999.2500
  2721.9000      7.7223      2.5010      0.1445      9.0286   -999.2500   -999.2500
  2722.0000      7.7191      2.4866      0.1747      9.9019   -999.2500   -999.2500
  2722.1000      7.7191      2.4295      0.1979     13.3659   -999.2500   -999.2500
  2722.2000      7.7191      2.3304      0.1416     19.3680   -999.2500   -999.2500
  2722.3000      7.7067      2.2128      0.1508     26.4981   -999.2500   -999.2500
  2722.4000      7.7067      2.0989      0.0698     33.4026   -999.2500   -999.2500
  2722.5000      7.7124      2.0019      0.0058     39.2785   -999.2500   -999.2500
  2722.6000      7.7124      1.9387     -0.0580     43.1120   -999.2500   -999.2500
  2722.7000      7.7124      1.9369     -0.0636     43.2170   -999.2500   -999.2500
  2722.8000      7.7721      2.0071      0.0538     38.9632   -999.2500   -999.2500
  2722.9000      7.7721      2.1008      0.2760     33.2877   -999.2500   -999.2500
  2723.0000      7.8381      2.1447      0.3750     30.6258   -999.2500   -999.2500
  2723.1000      7.8381      2.1358      0.3027     31.1636   -999.2500   -999.2500
  2723.2000      7.8381      2.1437      0.2618     30.6839   -999.2500   -999.2500
  2723.3000      7.8226      2.1998      0.2913     27.2830   -999.2500   -999.2500
  2723.4000      7.8226      2.2656      0.2992     23.2990   -999.2500   -999.2500
  2723.5000      7.7971      2.3140      0.2984     20.3622   -999.2500   -999.2500
  2723.6000      7.7971      2.3546      0.3229     17.9023   -999.2500   -999.2500
  2723.7000      7.7971      2.3827      0.3334     16.2006   -999.2500   -999.2500
  2723.8000      7.9338      2.3764      0.2964     16.5843   -999.2500   -999.2500
  2723.9000      7.9338      2.3507      0.1123     18.1393   -999.2500   -999.2500
  2724.0000      8.1177      2.3526      0.1507     18.0267   -999.2500   -999.2500
  2724.1000      8.1177      2.3906      0.1622     15.7183   -999.2500   -999.2500
  2724.2000      8.1177      2.4360      0.1630     12.9690   -999.2500   -999.2500
  2724.3000      8.0247      2.4696      0.1565     10.9317   -999.2500   -999.2500
  2724.4000      8.0247      2.4865      0.1557      9.9085   -999.2500   -999.2500
  2724.5000      7.6449      2.5189      0.1389      7.9426   -999.2500   -999.2500
  2724.6000      7.6449      2.7342      0.1080     -5.1034   -999.2500   -999.2500
  2724.7000      7.6449      3.4061      0.1012    -45.8239   -999.2500   -999.2500
  2724.8000      7.0488      4.2839      0.5556    -99.0235   -999.2500   -999.2500
  2724.9000      7.0488      4.1355      1.8461    -90.0324   -999.2500   -999.2500
  2725.0000      5.4143      2.5223      0.0000      7.7376   -999.2500   -999.2500
  2725.1000      5.4143      0.8843   -999.2500    107.0121   -999.2500   -999.2500
  2725.2000      5.4143      0.1706   -999.2500    150.2665   -999.2500   -999.2500
  2725.3000      2.8347      0.0177   -999.2500    159.5315   -999.2500   -999.2500
  2725.4000      2.8347      0.0010   -999.2500    160.5473   -999.2500   -999.2500
  2725.5000      1.2797      0.0000   -999.2500    160.6061   -999.2500   -999.2500
  2725.6000      1.2797   -999.2500   -999.2500   -999.2500   -999.2500   -999.2500
  2725.7000      1.2797   -999.2500   -999.2500   -999.2500   -999.2500   -999.2500
  2725.8000      0.9333   -999.2500   -999.2500   -999.2500   -999.2500   -999.2500
  2725.9000      0.9333   -999.2500   -999.2500   -999.2500   -999.2500   -999.2500
  2726.0000      0.9049   -999.2500   -999.2500   -999.2500   -999.2500   -999.2500
  2726.1000      0.9049   -999.2500   -999.2500   -999.2500   -999.2500   -999.2500
  2726.2000      0.9049   -999.2500   -999.2500   -999.2500   -999.2500   -999.2500
  2726.3000   -999.2500   -999.2500   -999.2500   -999.2500   -999.2500   -999.2500
  2726.4000   -999.2500   -999.2500   -999.2500   -999.2500   -999.2500   -999.2500
  2726.5000   -999.2500   -999.2500   -999.2500   -999.2500   -999.2500   -999.2500
  2726.6000   -999.2500   -999.2500   -999.2500   -999.2500   -999.2500   -999.2500
  2726.7000   -999.2500   -999.2500   -999.2500   -999.2500   -999.2500   -999.2500
  2726.8000   -999.2500   -999.2500   -999.2500   -999.2500   -999.2500   -999.2500
  2726.9000   -999.2500   -999.2500   -999.2500   -999.2500   -999.2500   -999.2500
  2727.0000   -999.2500   -999.2500   -999.2500   -999.2500   -999.2500   -999.2500
  2727.1000   -999.2500   -999.2500   -999.2500   -999.2500   -999.2500   -999.2500
  2727.2000   -999.2500   -999.2500   -999.2500   -999.2500   -999.2500   -999.2500
  2727.3000   -999.2500   -999.2500   -999.2500   -999.2500   -999.2500   -999.2500
  2727.4000   -999.2500   -999.2500   -999.2500   -999.2500   -999.2500   -999.2500
  2727.5000   -999.2500   -999.2500   -999.2500   -999.2500   -999.2500   -999.2500
