~Version Information
VERS.                      2.0: CWLS Log ASCII Standard - VERSION 2.0
WRAP.                       NO: One line per depth step
~Well Information Block
STRT.FT               899.1000: 
STOP.FT              2501.5000: 
STEP.FT                 0.1000: 
NULL.                -999.2500: 
COMP.          Petrogulf Corporation: COMPANY
WELL.           Deremer 17-21V: WELL
FLD.           Purgatorie River: FIELD
LOC.           851' FNL & 963' FWL: LOCATION
CNTY.               Las Animas: COUNTY
SRVC.                         : SERVICE COMPANY
DATE.          Tue Nov 18 09:12:06 2003: LOG DATE
UWI.                          : UNIQUE WELL ID
STAT.                 Colorado: STATE
~Curve Information Block
DEPT.FT            0 000 00 00: Depth
DPOR.pu                       : CDL Density Porosity
NEU.NAPI                      : Neutron
NPOR.pu                       : Neutron Porosity
RHOB.g/cc                     : CDL Bulk Density
RHOC.g/cc                     : CDL Density Correction
GR.GAPI                       : Gamma Ray
DCAL.in                       : CDL Caliper
~Parameter Information Block
~A  Depth       DPOR        NEU         NPOR        RHOB        RHOC         GR         DCAL    
# ...
  1352.7000     17.5241   1259.6019     19.4845      2.3609      0.1779    108.2679      8.3501
  1352.8000     17.1209   1265.3015     19.2271      2.3675      0.1918    113.2591      8.3333
  1352.9000     15.8666   1264.2122     19.2764      2.3882      0.4494    120.0827      8.3333
  1353.0000     18.7601   1249.1533     19.9550      2.3405      0.4735    120.8088      8.3976
  1353.1000     26.6605   1231.6094     20.7409      2.2101      0.3763    115.0864      8.3976
  1353.2000     34.9780   1225.1287     21.0300      2.0729      0.2761    111.2533      8.3976
  1353.3000     40.3783   1221.1921     21.2053      1.9838      0.2691    112.2380      8.5576
  1353.4000     42.5866   1202.5797     22.0308      1.9473      0.3210    112.7363      8.5576
  1353.5000     40.4864   1167.8253     23.5593      1.9820      0.3121    109.3229      8.7395
  1353.6000     32.8557   1135.9720     24.9464      2.1079      0.5287    106.6899      8.7395
  1353.7000     22.9513   1120.7531     25.6049      2.2713      0.7966    109.0986      8.7395
  1353.8000     14.6552   1113.0208     25.9385      2.4082      0.7691    114.5271      8.8676
  1353.9000      7.0788   1100.5203     26.4765      2.5332      0.7764    120.9367      8.8676
  1354.0000     -1.0471   1087.3975     27.0396      2.6673      0.8232    131.6511      8.9013
  1354.1000     -7.4634   1084.8164     27.1502      2.7731      0.8876    146.9173      8.9013
  1354.2000    -10.0712   1091.2781     26.8733      2.8162      0.8993    155.3436      8.9013
  1354.3000    -10.2735   1099.7914     26.5078      2.8195      0.7990    148.1300      8.7485
  1354.4000     -9.7459   1112.7527     25.9501      2.8108      0.7995    131.5745      8.7485
  1354.5000     -6.6881   1134.4063     25.0142      2.7604      0.7328    121.0566      8.4383
  1354.6000      0.0800   1159.1881     23.9366      2.6487      0.4854    126.4420      8.4383
  1354.7000      6.4908   1169.3220     23.4938      2.5429      0.2039    140.8161      8.4383
  1354.8000      7.9651   1162.3231     23.7998      2.5186      0.2143    150.5360      8.2198
  1354.9000      5.5859   1152.0989     24.2456      2.5578      0.2606    148.9266      8.2198
  1355.0000      3.4096   1143.3412     24.6266      2.5937      0.3105    141.8651      8.1252
  1355.1000      3.5738   1138.2954     24.8456      2.5910      0.3105    139.4901      8.1252
  1355.2000      6.1274   1131.8903     25.1232      2.5489      0.3024    144.2001      8.1252
  1355.3000     10.5513   1115.4091     25.8355      2.4759      0.2295    150.6899      8.0429
  1355.4000     15.9231   1094.9901     26.7140      2.3873      0.1095    153.9669      8.0429
  1355.5000     20.5513   1075.4858     27.5494      2.3109      0.0517    153.8536      7.9555
  1355.6000     23.1756   1053.8260     28.4732      2.2676      0.1610    151.0727      7.9555
  1355.7000     23.4724   1031.5913     29.4176      2.2627      0.0779    146.6820      7.9555
  1355.8000     21.2982   1016.8801     30.0406      2.2986      0.1712    144.5267      7.9148
  1355.9000     17.7727   1011.7432     30.2578      2.3567      0.2151    147.4924      7.9148
  1356.0000     14.3159   1016.3635     30.0624      2.4138      0.2529    153.0196      7.9207
  1356.1000     10.5214   1035.8446     29.2372      2.4764      0.2573    157.5923      7.9207
  1356.2000      5.8286   1059.6055     28.2270      2.5538      0.3583    161.2945      7.9207
  1356.3000      1.5450   1071.5801     27.7163      2.6245      0.3648    163.6523      7.9393
  1356.4000     -0.3234   1074.8074     27.5784      2.6553      0.4276    163.5743      7.9393
  1356.5000      0.4131   1080.9563     27.3154      2.6432      0.2369    163.0000      7.9593
  1356.6000      1.8479   1087.7759     27.0234      2.6195      0.2422    163.8500      7.9593
  1356.7000      3.2678   1083.3707     27.2121      2.5961      0.2722    161.4080      7.9593
  1356.8000      5.7038   1069.6949     27.7968      2.5559      0.2127    154.1413      7.9784
  1356.9000      9.3817   1056.3108     28.3674      2.4952      0.1056    150.7008      7.9784
  1357.0000     12.8985   1041.8480     28.9824      2.4372     -0.0011    152.4687      7.9720
  1357.1000     14.8706   1021.0558     29.8639      2.4046     -0.0327    153.2105      7.9720
  1357.2000     15.5261    997.3486     30.8656      2.3938      0.0319    153.9411      7.9720
  1357.3000     15.2700    978.7481     31.6494      2.3980     -0.0155    154.8779      7.9443
  1357.4000     13.9872    967.8350     32.1085      2.4192      0.0468    150.8310      7.9443
  1357.5000     12.1917    962.0668     32.3509      2.4488      0.1099    144.0193      7.9295
  1357.6000     10.2578    959.3278     32.4660      2.4807      0.0921    140.8898      7.9295
  1357.7000      7.6821    962.3336     32.3397      2.5232      0.0969    139.8674      7.9295
  1357.8000      4.4667    969.6465     32.0323      2.5763      0.1839    138.3797      7.9334
  1357.9000      1.6170    978.0513     31.6787      2.6233      0.2000    137.8522      7.9334
  1358.0000     -0.5378    990.7355     31.1445      2.6589      0.1883    135.2164      7.9633
  1358.1000     -2.7584   1007.8602     30.4218      2.6955      0.1609    130.0245      7.9633
  1358.2000     -5.0081   1026.0337     29.6531      2.7326      0.1519    126.3396      7.9633
  1358.3000     -6.1794   1046.0219     28.8051      2.7520      0.0876    121.7671      7.9957
  1358.4000     -5.8358   1066.3359     27.9401      2.7463      0.0681    113.5100      7.9957
  1358.5000     -4.1711   1087.8704     27.0194      2.7188      0.0986    104.5500      7.9708
  1358.6000     -2.1813   1113.6327     25.9121      2.6860      0.0448     97.0890      7.9708
  1358.7000     -1.0096   1134.7017     25.0014      2.6667      0.0163     90.7715      7.9708
  1358.8000      0.2277   1143.4862     24.6203      2.6462      0.0110     85.5265      7.9189
  1358.9000      2.3640   1142.4081     24.6671      2.6110     -0.1036     81.6334      7.9189
  1359.0000      3.7917   1134.4889     25.0107      2.5874     -0.0656     80.6962      7.8968
  1359.1000      3.7128   1120.7693     25.6042      2.5887     -0.0827     85.0053      7.8968
  1359.2000      3.6445   1110.1370     26.0628      2.5899      0.0044     90.7735      7.8968
  1359.3000      4.6628   1108.1538     26.1482      2.5731      0.0499     91.1347      7.8980
  1359.4000      5.8998   1103.3440     26.3551      2.5527     -0.0470     85.9018      7.8980
  1359.5000      6.5910   1087.7803     27.0232      2.5412      0.0062     80.1200      7.8991
  1359.6000      7.2196   1067.8522     27.8754      2.5309      0.0141     78.0210      7.8991
  1359.7000      7.5943   1053.8036     28.4741      2.5247      0.0243     79.6064      7.8991
  1359.8000      6.9119   1048.8296     28.6857      2.5360      0.0289     83.3579      7.8956
  1359.9000      5.3742   1049.8296     28.6432      2.5613      0.0123     90.3947      7.8956
  1360.0000      3.9304   1055.2811     28.4112      2.5851      0.0596     98.6976      7.8911
  1360.1000      3.3786   1066.2770     27.9426      2.5943      0.0424    102.6324      7.8911
  1360.2000      3.7259   1079.2865     27.3869      2.5885     -0.0181     99.2869      7.8911
  1360.3000      4.2284   1085.0256     27.1412      2.5802      0.0026     91.8842      7.8915
  1360.4000      4.6869   1086.7896     27.0657      2.5727      0.0279     88.4983      7.8915
  1360.5000      5.4413   1099.0579     26.5394      2.5602      0.0370     92.7558      7.9020
  1360.6000      6.0136   1125.8966     25.3826      2.5508     -0.0466     98.1443      7.9020
  1360.7000      5.5614   1150.6533     24.3086      2.5582      0.0098     99.8547      7.9020
  1360.8000      5.0017   1161.4989     23.8358      2.5675      0.0488    100.0958      7.9167
  1360.9000      6.1168   1165.6382     23.6549      2.5491     -0.0236     97.9946      7.9167
  1361.0000      8.4696   1167.8195     23.5595      2.5103     -0.0945     92.2421      7.9189
