~Version Information
VERS.                      2.0: CWLS Log ASCII Standard - VERSION 2.0
WRAP.                       NO: One line per depth step
~Well Information Block
STRT.FT               830.0000: 
STOP.FT              3122.7000: 
STEP.FT                 0.1000: 
NULL.                -999.2500: 
COMP.          Pioneer Natural Resources: COMPANY
WELL.              Stones 24-8: WELL
FLD.           Purgatoire River: FIELD
LOC.           648' FSL & 2264' FWL: LOCATION
PROV.                 Colorado: PROVINCE
CNTY.               Las Animas: COUNTRY
SRVC.                Patterson: SERVICE COMPANY
DATE.          Wed Jan 19 15:33:00 2005: LOG DATE
UWI.           05 071 07945 00: UNIQUE WELL ID
~Curve Information Block
DEPT.FT            0 000 00 00: Depth
DCAL.in                       : CDL Caliper
RHOB.g/cc                     : CDL Bulk Density
RHOC.g/cc                     : CDL Density Correction
DPOR.pu                       : CDL Density Porosity
NPOR.pu                       : Neutron Porosity
GR.GAPI                       : Gamma Ray
~Parameter Information Block
~A  Depth       DCAL        RHOB        RHOC        DPOR        NPOR         GR     
# ...
  1434.8000      8.2034      1.2621     -0.0642     84.1164      8.8678     73.1916
  1434.9000      8.2034      1.2734      0.0196     83.4326      8.0847     71.9056
  1435.0000      8.2221      1.3120      0.0803     81.0896      7.3045     68.2742
  1435.1000      8.2221      1.3487      0.1319     78.8652      6.4832     63.9325
  1435.2000      8.2221      1.3712      0.1063     77.5058      5.9202     62.1831
  1435.3000      8.2363      1.3988      0.0816     75.8283      5.6661     65.5397
  1435.4000      8.2363      1.4627      0.1105     71.9553      5.7853     73.5736
  1435.5000      8.2437      1.5665      0.1753     65.6679      6.4260     81.0511
  1435.6000      8.2437      1.6821      0.2392     58.6597      7.2578     83.8802
  1435.7000      8.2437      1.7841      0.2631     52.4815      7.9219     84.3771
  1435.8000      8.3056      1.8712      0.2683     47.1998      8.7471     85.9876
  1435.9000      8.3056      1.9434      0.3307     42.8242     10.0844     90.0703
  1436.0000      8.4056      1.9867      0.3220     40.1998     11.7330     97.3612
  1436.1000      8.4056      2.0018      0.2638     39.2866     13.4836    105.9110
  1436.2000      8.4056      2.0095      0.1913     38.8183     15.3470    111.6672
  1436.3000      8.3915      2.0164      0.2316     38.4000     16.9479    111.8023
  1436.4000      8.3915      1.9945      0.2331     39.7278     17.8342    106.6304
  1436.5000      8.2661      1.9224      0.1198     44.0946     18.1696     99.5634
  1436.6000      8.2661      1.8265      0.0524     49.9085     18.3506     95.8541
  1436.7000      8.2661      1.7439      0.0387     54.9169     18.5395     96.7936
  1436.8000      8.1820      1.6725      0.0552     59.2444     18.7870     96.3928
  1436.9000      8.1820      1.5905      0.0227     64.2124     18.6038     92.0226
  1437.0000      8.1629      1.4997     -0.0207     69.7163     17.2456     88.0255
  1437.1000      8.1629      1.4148     -0.0453     74.8622     14.9839     86.5417
  1437.2000      8.1629      1.3273     -0.0038     80.1641     12.6747     87.9220
  1437.3000      8.1540      1.2200      0.0027     86.6688     10.4313     89.1361
  1437.4000      8.1540      1.1125     -0.0372     93.1815      8.0970     83.8326
  1437.5000      8.1431      1.0380      0.0066     97.6959      5.7804     71.6675
  1437.6000      8.1431      0.9876      0.0261    100.7503      3.6971     59.1527
  1437.7000      8.1431      0.9281      0.0106    104.3567      2.0071     53.0591
  1437.8000      8.1434      0.8485     -0.0315    109.1831      0.6795     53.8006
  1437.9000      8.1434      0.7575     -0.0436    114.6942     -0.1637     56.2288
  1438.0000      8.1783      0.6673     -0.0438    120.1624     -0.4090     56.8125
  1438.1000      8.1783      0.6182     -0.1335    123.1388     -0.1623     56.8346
  1438.2000      8.1783      0.6802     -0.1167    119.3812      0.4431     57.2619
  1438.3000      8.3360      0.8787      0.1256    107.3496      1.3799     56.3839
  1438.4000      8.3360      1.1615      0.3052     90.2102      2.5906     55.4998
  1438.5000      8.6681      1.4536      0.4144     72.5075      4.0216     56.7421
  1438.6000      8.6681      1.7078      0.5112     57.1001      5.6367     60.1093
  1438.7000      8.6681      1.9215      0.5597     44.1540      7.3789     64.4997
  1438.8000      8.9795      2.1207      0.5930     32.0810      9.1150     67.9966
  1438.9000      8.9795      2.3119      0.6415     20.4885     10.6673     69.5794
  1439.0000      8.9035      2.4672      0.6157     11.0775     12.1503     69.8464
  1439.1000      8.9035      2.5746      0.4632      4.5691     13.6623     69.5446
  1439.2000      8.9035      2.6534      0.4440     -0.2079     15.3398     68.5373
  1439.3000      8.4413      2.7049      0.3803     -3.3267     17.4783     66.9457
  1439.4000      8.4413      2.7086      0.2773     -3.5518     19.8140     68.1154
  1439.5000      8.1201      2.6687      0.1182     -1.1332     21.7500     73.9377
  1439.6000      8.1201      2.6214      0.0888      1.7313     23.0660     81.2527
  1439.7000      8.1201      2.5978      0.0567      3.1611     23.6448     85.6640
  1439.8000      8.0475      2.6010      0.0710      2.9678     23.7434     85.1230
  1439.9000      8.0475      2.6086      0.0811      2.5083     24.0247     82.4916
  1440.0000      8.0387      2.5978      0.0685      3.1652     24.5326     82.3675
  1440.1000      8.0387      2.5723      0.0174      4.7103     25.0541     85.2660
  1440.2000      8.0387      2.5588      0.0057      5.5300     25.6552     88.1919
  1440.3000      8.0362      2.5722      0.0501      4.7155     26.2902     89.1197
  1440.4000      8.0362      2.5926      0.0924      3.4817     26.7652     88.9012
  1440.5000      8.0357      2.5959      0.0512      3.2770     26.7764     91.6287
  1440.6000      8.0357      2.5883      0.0453      3.7389     26.2682     97.4467
  1440.7000      8.0357      2.5822      0.0334      4.1086     25.7715     99.0114
  1440.8000      8.0341      2.5827      0.0227      4.0799     25.6207     94.2217
  1440.9000      8.0341      2.5900      0.0467      3.6368     25.6960     90.5889
  1441.0000      8.0361      2.5946      0.0655      3.3559     25.9773     92.2582
  1441.1000      8.0361      2.5951      0.0363      3.3243     26.2968     96.5805
  1441.2000      8.0361      2.5965      0.0410      3.2441     26.4352     99.4737
  1441.3000      8.0478      2.5920      0.0841      3.5135     26.5401     98.9417
  1441.4000      8.0478      2.5778      0.0290      4.3737     26.6316     93.1263
  1441.5000      8.0567      2.5654      0.0077      5.1283     26.7049     84.8236
  1441.6000      8.0567      2.5656      0.0163      5.1170     26.8374     83.6221
  1441.7000      8.0567      2.5716      0.0505      4.7536     27.0619     92.8838
  1441.8000      8.0481      2.5704      0.0359      4.8255     27.2487    102.7228
  1441.9000      8.0481      2.5612      0.0364      5.3813     27.2385    105.6698
  1442.0000      8.0407      2.5553     -0.0074      5.7372     27.0684    104.2582
  1442.1000      8.0407      2.5577      0.0638      5.5940     26.8916    100.5720
  1442.2000      8.0407      2.5538      0.0213      5.8287     26.9404     97.0014
  1442.3000      8.0410      2.5370     -0.0108      6.8513     27.2141     97.4405
  1442.4000      8.0410      2.5259     -0.0498      7.5185     27.4169    101.0269
  1442.5000      8.0402      2.5361      0.0076      6.9021     27.4655    103.2066
  1442.6000      8.0402      2.5570      0.0025      5.6365     27.4704    106.0301
  1442.7000      8.0402      2.5759      0.0368      4.4914     27.6413    112.4636
  1442.8000      8.0362      2.5918      0.0245      3.5247     28.0892    114.9737
  1442.9000      8.0362      2.6027      0.0824      2.8670     28.4010    109.1518
  1443.0000      8.0329      2.6039      0.0775      2.7957     28.4229    100.9269
  1443.1000      8.0329      2.5974      0.0504      3.1869     28.7059     94.9307
  1443.2000      8.0329      2.5861      0.0447      3.8720     29.2836     92.9186
  1443.3000      8.0286      2.5822     -0.0145      4.1111     29.6587     93.8360
  1443.4000      8.0286      2.5980      0.0474      3.1511     29.8395     96.3922
  1443.5000      8.0212      2.6157      0.0692      2.0810     29.7446    101.9145
  1443.6000      8.0212      2.6167      0.0352      2.0164     29.0717    108.3412
  1443.7000      8.0212      2.6100      0.0158      2.4214     28.3116    111.2597
  1443.8000      8.0141      2.6001      0.0786      3.0263     28.0282    110.6335
  1443.9000      8.0141      2.5821      0.0534      4.1159     27.8917    109.8413
  1444.0000      8.0120      2.5687      0.0599      4.9291     27.5861    107.5713
  1444.1000      8.0120      2.5727      0.0507      4.6855     27.0057    101.9601
  1444.2000      8.0120      2.5882      0.0703      3.7462     25.9666     96.8298
  1444.3000      8.0178      2.5995      0.0913      3.0618     24.9393     95.5952
