~Version Information
VERS.                      2.0: CWLS Log ASCII Standard - VERSION 2.0
WRAP.                       NO: One line per depth step
~Well Information Block
STRT.FT               652.0000: 
STOP.FT              1880.0000: 
STEP.FT                 0.1000: 
NULL.                -999.2500: 
COMP.          Pioneer Natural Resources: COMPANY
WELL.          Corkscrew 33-12 Tr: WELL
FLD.           Purgatoire River: FIELD
LOC.           1870' FSL & 1706' FEL: LOCATION
PROV.                 Colorado: PROVINCE
CNTY.               Las Animas: COUNTRY
SRVC.                Patterson: SERVICE COMPANY
DATE.          Tue Mar 29 09:18:51 2005: LOG DATE
UWI.           05 071 08295 00: UNIQUE WELL ID
~Curve Information Block
DEPT.FT            0 000 00 00: Depth
DCAL.in                       : CDL Caliper
RHOB.g/cc                     : CDL Bulk Density
RHOC.g/cc                     : CDL Density Correction
DPOR.pu                       : CDL Density Porosity
GR.GAPI                       : Gamma Ray
NPOR.pu                       : Neutron Porosity
~Parameter Information Block
~A  Depth       DCAL        RHOB        RHOC        DPOR         GR         NPOR    
# ...
  1132.0000      7.8352      2.5924      0.0285      3.4902    121.0188     23.5218
  1132.1000      7.8352      2.5852     -0.0453      3.9287    111.7701     22.1693
  1132.2000      7.8352      2.5727     -0.0692      4.6860    105.4263     22.1600
  1132.3000      7.8270      2.5746     -0.0749      4.5700    102.8431     22.9985
  1132.4000      7.8270      2.5918     -0.0507      3.5266    104.0915     23.7978
  1132.5000      7.8339      2.6181     -0.0420      1.9326    108.3014     24.4547
  1132.6000      7.8339      2.6393      0.0109      0.6509    107.5444     24.7157
  1132.7000      7.8339      2.6347      0.0498      0.9247    101.8831     24.0300
  1132.8000      7.8400      2.6058     -0.0392      2.6767     99.9531     22.8524
  1132.9000      7.8400      2.5718     -0.0025      4.7373    104.3408     22.2438
  1133.0000      7.8527      2.5434     -0.0720      6.4586    112.0014     22.6743
  1133.1000      7.8527      2.5304     -0.1022      7.2480    118.7605     23.9131
  1133.2000      7.8527      2.5370     -0.1022      6.8487    124.5507     24.9074
  1133.3000      7.8533      2.5496     -0.0716      6.0833    129.3664     25.0397
  1133.4000      7.8533      2.5571     -0.0937      5.6283    129.0639     25.2178
  1133.5000      7.8631      2.5707     -0.0712      4.8047    123.0673     25.9367
  1133.6000      7.8631      2.6099     -0.0112      2.4292    115.4505     26.3877
  1133.7000      7.8631      2.6745      0.0341     -1.4867    108.8250     26.2485
  1133.8000      7.8945      2.7386      0.0926     -5.3667    102.7041     26.1609
  1133.9000      7.8945      2.7774      0.1048     -7.7206     95.5282     26.1461
  1134.0000      7.9197      2.7929      0.1084     -8.6582     89.1728     25.6954
  1134.1000      7.9197      2.8022      0.0864     -9.2230     88.4105     24.9177
  1134.2000      7.9197      2.8109      0.1112     -9.7495     89.6551     24.1571
  1134.3000      7.9144      2.8019      0.0327     -9.2086     87.1197     23.9241
  1134.4000      7.9144      2.7698     -0.0025     -7.2590     83.8858     24.6069
  1134.5000      7.7564      2.7333      0.0262     -5.0460     85.0564     25.3755
  1134.6000      7.7564      2.7014      0.0381     -3.1163     90.5765     25.0080
  1134.7000      7.7564      2.6757     -0.0275     -1.5564     97.4147     23.5181
  1134.8000      7.7284      2.6675     -0.0181     -1.0600    104.6924     22.1553
  1134.9000      7.7284      2.6785     -0.0246     -1.7254    110.3498     21.8839
  1135.0000      7.7467      2.7033     -0.0178     -3.2322    108.7381     22.6431
  1135.1000      7.7467      2.7403      0.0149     -5.4741     98.9757     23.8490
  1135.2000      7.7467      2.7655      0.0249     -7.0007     91.4149     24.5362
  1135.3000      7.7511      2.7518      0.0836     -6.1682     95.2498     24.0452
  1135.4000      7.7511      2.7202      0.0375     -4.2529    104.3593     23.0343
  1135.5000      7.7759      2.7109      0.0228     -3.6913    109.1356     22.5163
  1135.6000      7.7759      2.7170      0.0166     -4.0613    111.3089     22.2776
  1135.7000      7.7759      2.7043     -0.0564     -3.2912    113.3277     21.9523
  1135.8000      7.7860      2.6747     -0.0101     -1.4977    109.2012     22.0596
  1135.9000      7.7860      2.6499     -0.0141      0.0034     99.4196     22.8558
  1136.0000      7.7635      2.6239     -0.0282      1.5820     93.6710     23.3354
  1136.1000      7.7635      2.5799     -0.0097      4.2466     95.1810     22.5778
  1136.2000      7.7635      2.5312     -0.0433      7.1994     99.3003     21.2126
  1136.3000      7.8123      2.5017      0.0127      8.9892    101.0368     20.2835
  1136.4000      7.8123      2.4928     -0.0163      9.5284     97.6526     19.6312
  1136.5000      7.8128      2.5005     -0.0654      9.0584     92.5134     18.5561
  1136.6000      7.8128      2.5252     -0.0522      7.5632     94.5377     17.1800
  1136.7000      7.8128      2.5577     -0.0374      5.5935    105.1633     16.0738
  1136.8000      7.8086      2.5864     -0.0098      3.8567    110.8783     15.7402
  1136.9000      7.8086      2.5972      0.0562      3.2029    102.8506     16.3886
  1137.0000      7.8075      2.5836     -0.0043      4.0220     92.5335     17.3648
  1137.1000      7.8075      2.5648      0.0448      5.1648     88.5186     18.0788
  1137.2000      7.8075      2.5544      0.0403      5.7924     87.4538     18.7828
  1137.3000      7.7954      2.5519      0.0482      5.9463     89.7342     19.4541
  1137.4000      7.7954      2.5662     -0.0046      5.0779     94.1203     19.4669
  1137.5000      7.7404      2.5986      0.0191      3.1146     93.0650     19.1611
  1137.6000      7.7404      2.6173      0.0363      1.9835     87.2741     19.7872
  1137.7000      7.7404      2.6083      0.0111      2.5294     84.7203     21.1761
  1137.8000      7.7337      2.6031     -0.0045      2.8423     85.7713     22.0091
  1137.9000      7.7337      2.6153      0.0640      2.1008     83.5440     22.0046
  1138.0000      7.7690      2.6192      0.0664      1.8656     80.2679     21.3789
  1138.1000      7.7690      2.6057      0.0240      2.6839     83.1249     19.9617
  1138.2000      7.7690      2.5991     -0.0268      3.0842     89.2167     18.4971
  1138.3000      7.7691      2.6146     -0.0157      2.1462     92.7043     18.1885
  1138.4000      7.7691      2.6392      0.0084      0.6566     94.4979     19.4298
  1138.5000      7.7663      2.6492      0.0370      0.0500     97.3805     21.2845
  1138.6000      7.7663      2.6342      0.0214      0.9575     98.8812     21.8221
  1138.7000      7.7663      2.6104     -0.0490      2.3980     96.1866     20.7554
  1138.8000      7.7816      2.5961     -0.0256      3.2660     91.9850     20.0402
  1138.9000      7.7816      2.5882      0.0229      3.7431     90.6640     20.7388
  1139.0000      7.7847      2.5835     -0.0004      4.0319     93.5475     21.8257
  1139.1000      7.7847      2.5831      0.0820      4.0549     96.8342     22.2338
  1139.2000      7.7847      2.5740      0.0135      4.6066     96.6163     22.3091
  1139.3000      7.7978      2.5519     -0.0129      5.9446     95.5331     22.5238
  1139.4000      7.7978      2.5382     -0.0642      6.7750     97.6208     22.7137
  1139.5000      7.8399      2.5525      0.0064      5.9078    104.0184     22.7162
  1139.6000      7.8399      2.5838      0.0054      4.0094    112.7193     22.3138
  1139.7000      7.8399      2.6012      0.0559      2.9599    118.6093     21.8476
  1139.8000      7.8305      2.5863      0.0064      3.8626    116.7178     22.2473
  1139.9000      7.8305      2.5539     -0.0197      5.8257    108.3723     23.0928
  1140.0000      7.8306      2.5326     -0.0460      7.1165    101.7163     22.8633
  1140.1000      7.8306      2.5307     -0.0195      7.2286    100.8146     21.3891
  1140.2000      7.8306      2.5399     -0.0698      6.6742    103.1946     20.1964
  1140.3000      7.8160      2.5558     -0.0190      5.7064    107.7593     20.3606
  1140.4000      7.8160      2.5798     -0.0760      4.2531    111.9383     21.4100
  1140.5000      7.8089      2.6145      0.0132      2.1494    108.8747     21.9355
  1140.6000      7.8089      2.6535      0.0133     -0.2115    100.0541     21.6994
  1140.7000      7.8089      2.6814      0.0841     -1.9053     96.5854     21.5811
  1140.8000      7.7886      2.6908      0.0713     -2.4747     97.5210     21.6817
  1140.9000      7.7886      2.6876      0.0938     -2.2764     92.0232     21.4232
  1141.0000      7.8140      2.6719      0.0780     -1.3301     82.2563     20.7483
  1141.1000      7.8140      2.6414     -0.0281      0.5236     78.9776     20.3977
  1141.2000      7.8140      2.6075     -0.0275      2.5772     83.7704     20.3504
  1141.3000      7.8112      2.5825     -0.0808      4.0937     89.8929     19.9919
  1141.4000      7.8112      2.5688     -0.0491      4.9186     91.9894     19.8145
  1141.5000      7.8196      2.5637     -0.0739      5.2325     92.6415     20.6566
