~Version Information
VERS.                      2.0: CWLS Log ASCII Standard - VERSION 2.0
WRAP.                       NO: One line per depth step
~Well Information Block
STRT.FT               964.2000: 
STOP.FT              2596.7000: 
STEP.FT                 0.1000: 
NULL.                -999.2500: 
COMP.          Petrogulf Corporation: COMPANY
WELL.             Valejo 8-12V: WELL
FLD.           Purgatorie River: FIELD
LOC.           1510' FNL & 1460' FWL: LOCATION
CNTY.               Las Animas: COUNTY
SRVC.                         : SERVICE COMPANY
DATE.          Sat Nov 15 12:30:37 2003: LOG DATE
UWI.                          : UNIQUE WELL ID
STAT.                 Colorado: STATE
~Curve Information Block
DEPT.FT            0 000 00 00: Depth
DCAL.in                       : CDL Caliper
RHOB.g/cc                     : CDL Bulk Density
RHOC.g/cc                     : CDL Density Correction
DPOR.pu                       : CDL Density Porosity
GR.GAPI                       : Gamma Ray
NPOR.pu                       : Neutron Porosity
~Parameter Information Block
~A  Depth       DCAL        RHOB        RHOC        DPOR         GR         NPOR    
# ...
  2154.6000      7.9754      2.5348      0.1067      6.9812    145.5767     28.3882
  2154.7000      7.9754      2.5239      0.1055      7.6448    132.3734     29.2800
  2154.8000      7.9769      2.4938      0.0843      9.4682    125.7717     30.4422
  2154.9000      7.9769      2.4587      0.0748     11.5968    126.0780     31.2730
  2155.0000      7.9794      2.4332      0.0520     13.1379    128.7847     31.7735
  2155.1000      7.9794      2.4234      0.0251     13.7355    131.5399     32.2718
  2155.2000      7.9794      2.4258      0.0215     13.5855    132.9482     32.9729
  2155.3000      7.9819      2.4365      0.0223     12.9412    133.6487     33.7540
  2155.4000      7.9819      2.4519      0.0435     12.0069    135.2870     34.2202
  2155.5000      7.9835      2.4617      0.0867     11.4111    138.6172     33.9819
  2155.6000      7.9835      2.4529      0.0767     11.9462    145.2718     33.3224
  2155.7000      7.9835      2.4296      0.0601     13.3588    153.4011     32.5720
  2155.8000      7.9828      2.4124      0.0956     14.4024    160.7514     31.5005
  2155.9000      7.9828      2.4127      0.1293     14.3813    163.3149     30.4077
  2156.0000      7.9795      2.4174      0.1725     14.0989    155.5129     30.1826
  2156.1000      7.9795      2.4075      0.1493     14.6974    145.1990     30.9958
  2156.2000      7.9795      2.3860      0.1438     16.0015    141.1496     32.3675
  2156.3000      7.9741      2.3663      0.1241     17.1956    139.2490     33.6727
  2156.4000      7.9741      2.3567      0.0704     17.7782    137.4729     34.2313
  2156.5000      7.9667      2.3541      0.1012     17.9331    139.1124     33.9660
  2156.6000      7.9667      2.3443      0.1044     18.5296    144.2302     33.4381
  2156.7000      7.9667      2.3181      0.0616     20.1149    147.8255     33.2285
  2156.8000      7.9564      2.2698      0.0319     23.0399    150.5956     33.6558
  2156.9000      7.9564      2.1860      0.0402     28.1190    161.4662     34.3808
  2157.0000      7.9414      2.0664     -0.0249     35.3673    175.6794     34.7802
  2157.1000      7.9414      1.9427     -0.0278     42.8662    184.5111     34.8275
  2157.2000      7.9414      1.8492     -0.0264     48.5354    184.8754     34.7809
  2157.3000      7.9217      1.7907     -0.0408     52.0786    174.7393     34.3993
  2157.4000      7.9217      1.7537     -0.0585     54.3199    158.5038     33.5497
  2157.5000      7.9007      1.7333     -0.0325     55.5565    143.0190     32.5164
  2157.6000      7.9007      1.7321      0.0199     55.6299    128.0777     31.3828
  2157.7000      7.9007      1.7511      0.0434     54.4765    113.3052     30.4418
  2157.8000      7.8831      1.7995      0.0497     51.5439    102.7247     30.0092
  2157.9000      7.8831      1.8838      0.1123     46.4337     98.9446     29.7608
  2158.0000      7.8717      1.9821      0.1882     40.4814     99.0320     29.0300
  2158.1000      7.8717      2.0651      0.1552     35.4499    101.9357     27.8796
  2158.2000      7.8717      2.1384      0.1345     31.0060    110.5326     27.2525
  2158.3000      7.8664      2.2270      0.1477     25.6349    115.6995     27.2345
  2158.4000      7.8664      2.3296      0.1534     19.4179    105.6384     26.9613
  2158.5000      7.8653      2.4170      0.1168     14.1217     89.8673     26.3266
  2158.6000      7.8653      2.4718      0.0867     10.8020     82.0975     25.9114
  2158.7000      7.8653      2.5015      0.0650      8.9977     80.1440     25.8147
  2158.8000      7.8663      2.5161      0.0647      8.1149     78.6263     25.6794
  2158.9000      7.8663      2.5207      0.0367      7.8387     78.0880     25.2149
  2159.0000      7.8682      2.5237      0.0374      7.6545     80.5431     24.7400
  2159.1000      7.8682      2.5279      0.0409      7.4007     83.7678     24.8423
  2159.2000      7.8682      2.5306      0.0391      7.2338     82.1298     25.6801
  2159.3000      7.8699      2.5346      0.0503      6.9947     78.5002     26.4725
  2159.4000      7.8699      2.5459      0.0425      6.3076     82.1709     26.3377
  2159.5000      7.8710      2.5625      0.0795      5.3023     95.0257     25.4797
  2159.6000      7.8710      2.5687      0.1023      4.9300    105.6476     24.6500
  2159.7000      7.8710      2.5595      0.0584      5.4863    104.0188     24.5569
  2159.8000      7.8713      2.5492      0.0730      6.1103     97.8118     25.3605
  2159.9000      7.8713      2.5425      0.0954      6.5151     97.0628     26.4650
  2160.0000      7.8710      2.5363      0.0753      6.8897     99.8253     27.4010
  2160.1000      7.8710      2.5351      0.0543      6.9637    101.4000     28.2383
  2160.2000      7.8710      2.5386      0.0585      6.7524     99.7273     28.7332
  2160.3000      7.8705      2.5364      0.0506      6.8861     95.2808     28.2897
  2160.4000      7.8705      2.5282      0.0348      7.3814     94.5987     27.0278
  2160.5000      7.8696      2.5280      0.0017      7.3956    100.4269     25.9817
  2160.6000      7.8696      2.5400      0.0434      6.6647    108.2409     25.7310
  2160.7000      7.8696      2.5544      0.0752      5.7922    112.8607     26.0145
  2160.8000      7.8681      2.5636      0.1023      5.2372    111.0724     26.6215
  2160.9000      7.8681      2.5684      0.0747      4.9470    104.6673     27.2277
  2161.0000      7.8662      2.5720      0.0988      4.7264     99.5676     27.4539
  2161.1000      7.8662      2.5722      0.0817      4.7126    102.2453     27.4866
  2161.2000      7.8662      2.5654      0.0724      5.1279    108.5798     27.6635
  2161.3000      7.8646      2.5517      0.0910      5.9587    112.7043     27.9917
  2161.4000      7.8646      2.5418      0.0384      6.5558    118.4398     28.0363
  2161.5000      7.8640      2.5425      0.0572      6.5144    124.2476     27.4100
  2161.6000      7.8640      2.5469      0.0134      6.2513    124.5566     26.4198
  2161.7000      7.8640      2.5556      0.0526      5.7237    121.2388     25.8647
  2161.8000      7.8644      2.5687      0.0522      4.9245    115.2408     26.2195
  2161.9000      7.8644      2.5779      0.0924      4.3699    107.9053     27.3268
  2162.0000      7.8651      2.5842      0.0418      3.9878    106.1689     28.2765
  2162.1000      7.8651      2.5914      0.0785      3.5539    111.9527     28.1918
  2162.2000      7.8651      2.5864      0.0854      3.8554    118.9391     27.6912
  2162.3000      7.8655      2.5666      0.0125      5.0526    124.6717     27.9893
  2162.4000      7.8655      2.5487      0.0581      6.1365    128.8667     28.5713
  2162.5000      7.8657      2.5428      0.0282      6.4989    126.2455     28.4762
  2162.6000      7.8657      2.5513      0.0340      5.9818    119.8712     28.2793
  2162.7000      7.8657      2.5647      0.0587      5.1689    122.5370     28.4020
  2162.8000      7.8660      2.5673      0.0730      5.0132    134.3078     28.8140
  2162.9000      7.8660      2.5572      0.0772      5.6256    141.4863     29.3894
  2163.0000      7.8669      2.5404      0.0473      6.6407    135.9171     29.3837
  2163.1000      7.8669      2.5241      0.0467      7.6318    125.6311     28.4027
  2163.2000      7.8669      2.5187      0.0337      7.9557    123.1197     27.2432
  2163.3000      7.8684      2.5282      0.0675      7.3799    128.2687     26.7907
  2163.4000      7.8684      2.5412      0.0705      6.5910    132.7914     26.9962
  2163.5000      7.8699      2.5507      0.0440      6.0209    133.1519     27.3420
  2163.6000      7.8699      2.5639      0.0554      5.2181    135.2028     27.3092
  2163.7000      7.8699      2.5772      0.1057      4.4124    138.7609     26.6466
  2163.8000      7.8703      2.5719      0.0759      4.7315    131.5756     25.9118
  2163.9000      7.8703      2.5491      0.0690      6.1124    115.5333     25.8438
  2164.0000      7.8683      2.5319      0.0146      7.1561    108.2827     26.3751
  2164.1000      7.8683      2.5315      0.0783      7.1845    115.6516     27.0331
