~Version Information
VERS.                      2.0: CWLS Log ASCII Standard - VERSION 2.0
WRAP.                       NO: One line per depth step
~Well Information Block
STRT.FT               765.4000: 
STOP.FT              2581.2000: 
STEP.FT                 0.1000: 
NULL.                -999.2500: 
COMP.          Petrogulf Corporation: COMPANY
WELL.            Montoya 7-12V: WELL
FLD.           Purgatorie River: FIELD
LOC.           728' FWL & 1764' FNL: LOCATION
CNTY.               Las Animas: COUNTY
SRVC.                         : SERVICE COMPANY
DATE.          Fri Feb 20 09:23:58 2004: LOG DATE
UWI.           05-071-07887-00: UNIQUE WELL ID
STAT.                 Colorado: STATE
~Curve Information Block
DEPT.FT            0 000 00 00: Depth
DCAL.in                       : CDL Caliper
RHOB.g/cc                     : CDL Bulk Density
RHOC.g/cc                     : CDL Density Correction
DPOR.pu                       : CDL Density Porosity
GR.GAPI                       : Gamma Ray
NPOR.pu                       : Neutron Porosity
~Parameter Information Block
~A  Depth       DCAL        RHOB        RHOC        DPOR         GR         NPOR    
# ...
   775.0000   -999.2500   -999.2500   -999.2500   -999.2500     54.8528     38.2192
   775.1000   -999.2500   -999.2500   -999.2500   -999.2500     49.9668     37.8378
   775.2000   -999.2500   -999.2500   -999.2500   -999.2500     48.2574     37.7486
   775.3000   -999.2500   -999.2500   -999.2500   -999.2500     51.8049     37.9227
   775.4000   -999.2500   -999.2500   -999.2500   -999.2500     51.5662     38.0423
   775.5000   -999.2500   -999.2500   -999.2500   -999.2500     46.0527     38.1793
   775.6000   -999.2500   -999.2500   -999.2500   -999.2500     44.7314     38.1597
   775.7000   -999.2500   -999.2500   -999.2500   -999.2500     49.8465     37.8963
   775.8000   -999.2500   -999.2500   -999.2500   -999.2500     53.4463     37.7312
   775.9000   -999.2500   -999.2500   -999.2500   -999.2500     51.8961     37.5876
   776.0000   -999.2500   -999.2500   -999.2500   -999.2500     49.9885     37.2942
   776.1000   -999.2500   -999.2500   -999.2500   -999.2500     52.4073     37.0378
   776.2000   -999.2500   -999.2500   -999.2500   -999.2500     57.8526     37.0329
   776.3000   -999.2500   -999.2500   -999.2500   -999.2500     63.8921     37.3389
   776.4000   -999.2500   -999.2500     -0.3363   -999.2500     68.9845     37.8736
   776.5000     38.4231   -999.2500     -0.2700   -999.2500     70.1132     38.6152
   776.6000     38.4231   -999.2500     -0.2843   -999.2500     64.9003     39.4271
   776.7000     38.4231   -999.2500     -0.3423   -999.2500     57.0694     39.8664
   776.8000     34.3060   -999.2500     -0.2999   -999.2500     53.7184     39.5922
   776.9000     34.3060      2.0661     -0.3929     35.3907     55.2242     38.7530
   777.0000     30.6913      2.0634     -0.3959     35.5486     58.0781     37.9998
   777.1000     30.6913      2.0856     -0.3424     34.2086     58.9230     37.9397
   777.2000     30.6913      2.1030     -0.3175     33.1539     56.2577     38.4959
   777.3000     29.6465      2.1150     -0.4039     32.4252     54.3658     39.1365
   777.4000     29.6465      2.1325     -0.3389     31.3608     55.4453     39.2930
   777.5000     30.0073      2.1398     -0.2035     30.9208     58.1115     38.8732
   777.6000     30.0073      2.1184     -0.2936     32.2197     58.5103     38.5323
   777.7000     30.0073      2.0789     -0.3287     34.6132     52.8150     38.7395
   777.8000     30.5516      2.0397     -0.4027     36.9854     46.7598     39.2868
   777.9000     30.5516      2.0052     -0.3431     39.0778     47.7500     39.7776
   778.0000     31.1426      1.9880     -0.5304     40.1183     54.2718     39.9257
   778.1000     31.1426      2.0030     -0.3402     39.2146     59.6379     39.6611
   778.2000     31.1426      2.0321     -0.3850     37.4491     62.1012     39.1222
   778.3000     31.8041      2.0692     -0.3548     35.1989     63.6339     38.5832
   778.4000     31.8041      2.1156     -0.2778     32.3877     63.7470     38.3918
   778.5000     32.5283      2.1465     -0.2749     30.5166     62.6479     38.5965
   778.6000     32.5283      2.1463     -0.3406     30.5250     59.8144     38.7802
   778.7000     32.5283      2.1308     -0.2984     31.4685     54.4471     38.6392
   778.8000     33.3462      2.1193     -0.3649     32.1607     50.9631     38.2490
   778.9000     33.3462      2.1019     -0.2706     33.2157     51.2966     37.8550
   779.0000     34.4087      2.0618     -0.4180     35.6498     53.0491     37.6560
   779.1000     34.4087      2.0322     -0.4503     37.4401     58.5644     37.6841
   779.2000     34.4087      2.0464     -0.3816     36.5811     66.1946     37.9204
   779.3000     36.3566      2.0861     -0.3610     34.1773     66.1873     38.3175
   779.4000     36.3566      2.1274     -0.3224     31.6699     58.6162     38.7397
   779.5000     39.8857      2.1639     -0.2721     29.4578     52.4210     39.0061
   779.6000     39.8857      2.1939     -0.3111     27.6400     49.3431     39.0363
   779.7000     39.8857      2.2265     -0.2885     25.6637     48.9744     38.8062
   779.8000     35.0585      2.2838     -0.3108     22.1910     51.8054     38.4096
   779.9000     35.0585      2.3713     -0.2470     16.8932     54.6891     38.3064
   780.0000     34.2384      2.4503     -0.1683     12.1046     54.6015     38.7304
   780.1000     34.2384      2.4867     -0.1728      9.8979     53.1244     39.1711
   780.2000     34.2384      2.4904     -0.1721      9.6705     51.0292     39.1693
   780.3000     34.3647      2.4747     -0.2039     10.6246     47.6621     38.7211
   780.4000     34.3647      2.4312     -0.1506     13.2635     45.9057     38.1202
   780.5000     34.5684      2.3599     -0.2951     17.5812     49.0074     37.7448
   780.6000     34.5684      2.2855     -0.3837     22.0897     55.5202     37.6952
   780.7000     34.5684      2.2245     -0.4027     25.7872     58.4053     37.8132
   780.8000     34.8562      2.1798     -0.4277     28.4940     55.7171     37.9268
   780.9000     34.8562      2.1622     -0.4775     29.5624     56.7468     37.9810
   781.0000     35.1491      2.1762     -0.4301     28.7178     62.9580     38.0986
   781.1000     35.1491      2.2020     -0.4505     27.1534     63.4304     38.0796
   781.2000     35.1491      2.2155     -0.4374     26.3361     57.6848     37.9105
   781.3000     35.4811      2.2134     -0.5090     26.4579     53.8092     38.2046
   781.4000     35.4811      2.2129     -0.4512     26.4939     54.0307     38.9188
   781.5000     36.0734      2.2380     -0.5019     24.9675     57.2071     39.4184
   781.6000     36.0734      2.2915     -0.4043     21.7284     60.6157     39.3952
   781.7000     36.0734      2.3342     -0.3973     19.1402     64.3623     38.9181
   781.8000     37.8015      2.3357     -0.4687     19.0486     70.4392     38.3784
   781.9000     37.8015      2.3084     -0.5182     20.7029     72.9825     38.0537
   782.0000     37.6364      2.2781     -0.4059     22.5366     69.5922     37.9051
   782.1000     37.6364      2.2595     -0.4771     23.6660     67.9963     37.8197
   782.2000     37.6364      2.2537     -0.4229     24.0181     69.1123     37.6408
   782.3000     35.9887      2.2482     -0.3752     24.3495     68.3534     37.2775
   782.4000     35.9887      2.2495     -0.3495     24.2738     65.2084     36.8703
   782.5000     21.5434      2.2731     -0.3958     22.8397     60.9856     36.6162
   782.6000     21.5434      2.2851     -0.3113     22.1156     58.9857     36.7409
   782.7000     21.5434      2.2550     -0.4271     23.9421     63.2101     37.5538
   782.8000     17.1004      2.2290     -0.4427     25.5122     71.5245     38.6880
   782.9000     17.1004      2.2619     -0.4444     23.5208     77.1504     39.2346
   783.0000      5.3345      2.3162     -0.0884     20.2333     78.3272     39.2111
   783.1000      5.3345      2.3091     -0.3838     20.6577     77.0223     39.3635
   783.2000      5.3345      2.2498     -0.4022     24.2560     73.5852     39.7237
   783.3000    -16.3169      2.2100     -0.4150     26.6669     66.8441     39.9128
   783.4000    -16.3169      2.2145     -0.3743     26.3954     59.4851     39.9046
   783.5000      4.1268      2.2238     -0.2563     25.8297     56.4948     39.7800
   783.6000      4.1268      2.2182     -0.5035     26.1706     55.9013     39.7233
   783.7000      4.1268      2.2279     -0.4694     25.5834     55.2803     39.9434
   783.8000      7.3122      2.2570     -0.4066     23.8189     57.2554     40.2246
   783.9000      7.3122      2.2737     -0.3053     22.8037     61.3232     40.2825
   784.0000      7.3197      2.2717     -0.4592     22.9284     66.9634     40.2129
   784.1000      7.3197      2.2722     -0.4036     22.8988     73.5976     39.9175
   784.2000      7.3197      2.2778     -0.4072     22.5593     78.1637     39.3045
   784.3000      7.2860      2.2824     -0.4832     22.2773     79.0030     38.9656
   784.4000      7.2860      2.2874     -0.4456     21.9778     77.9459     39.2845
   784.5000      7.2827      2.2858     -0.4008     22.0703     73.9381     39.8497
