~Version Information
VERS.                      2.0: CWLS Log ASCII Standard - VERSION 2.0
WRAP.                       NO: One line per depth step
~Well Information Block
STRT.FT               550.0000: 
STOP.FT              2359.0000: 
STEP.FT                 0.1000: 
NULL.                -999.2500: 
COMP.          Pioneer Natural Resources: COMPANY
WELL.              Whinny 42-2: WELL
FLD.           Purgatoire River: FIELD
LOC.           1836' FNL & 466' FEL: LOCATION
PROV.                 Colorado: PROVINCE
CNTY.               Las Animas: COUNTRY
SRVC.                Patterson: SERVICE COMPANY
DATE.          Mon Aug 22 07:28:42 2005: LOG DATE
UWI.           05 071 08406 00: UNIQUE WELL ID
~Curve Information Block
DEPT.FT            0 000 00 00: Depth
DCAL.in                       : CDL Caliper
RHOB.g/cc                     : CDL Bulk Density
RHOC.g/cc                     : CDL Density Correction
DPOR.pu                       : CDL Density Porosity
GR.GAPI                       : Gamma Ray
NPOR.pu                       : Neutron Porosity
~Parameter Information Block
~A  Depth       DCAL        RHOB        RHOC        DPOR         GR         NPOR    
# ...
  1625.2000      8.1239      2.4473      0.0413     12.2846    166.3640     28.8604
  1625.3000      8.1199      2.4124      0.0907     14.4005    165.6294     28.0412
  1625.4000      8.1199      2.3511      0.0828     18.1126    163.3757     27.2633
  1625.5000      8.1299      2.2729      0.0111     22.8565    160.7724     27.6300
  1625.6000      8.1299      2.2138     -0.0016     26.4363    155.6698     28.9023
  1625.7000      8.1299      2.1902      0.0874     27.8673    148.5485     30.2541
  1625.8000      8.1675      2.1819      0.0296     28.3727    146.4746     31.7567
  1625.9000      8.1675      2.1691      0.0620     29.1448    151.9495     33.4002
  1626.0000      8.2343      2.1491      0.1009     30.3592    159.0421     34.4147
  1626.1000      8.2343      2.1338      0.1254     31.2851    160.9373     34.4208
  1626.2000      8.2343      2.1400      0.1516     30.9104    156.9635     34.0450
  1626.3000      8.2989      2.1674      0.2125     29.2511    154.3557     33.7657
  1626.4000      8.2989      2.2016      0.1894     27.1758    153.1077     33.3625
  1626.5000      8.3874      2.2356      0.1791     25.1152    147.3388     32.5220
  1626.6000      8.3874      2.2641      0.1838     23.3891    143.0166     31.7241
  1626.7000      8.3874      2.2782      0.1825     22.5319    145.8362     31.8447
  1626.8000      8.5256      2.2808      0.1697     22.3780    149.2230     32.6972
  1626.9000      8.5256      2.2788      0.1736     22.4973    149.5399     33.3067
  1627.0000      8.4888      2.2609      0.1981     23.5790    151.9188     33.1935
  1627.1000      8.4888      2.2196      0.0754     26.0867    153.9769     32.3542
  1627.2000      8.4888      2.1736      0.0768     28.8719    150.7613     31.1662
  1627.3000      8.4905      2.1430      0.0679     30.7246    145.6608     30.1135
  1627.4000      8.4905      2.1382      0.1213     31.0154    139.9213     29.4041
  1627.5000      8.4539      2.1666      0.1113     29.3000    134.5243     29.4984
  1627.6000      8.4539      2.2266      0.2338     25.6622    132.3431     30.2476
  1627.7000      8.4539      2.3047      0.3138     20.9300    135.7913     30.4618
  1627.8000      8.6218      2.3926      0.3717     15.6007    143.9565     30.1953
  1627.9000      8.6218      2.4891      0.3953      9.7529    150.9737     30.4417
  1628.0000      9.0832      2.5722      0.4240      4.7134    154.3837     31.2349
  1628.1000      9.0832      2.6091      0.3894      2.4768    155.7845     31.8105
  1628.2000      9.0832      2.6045      0.2901      2.7557    155.7697     31.7296
  1628.3000      9.1927      2.5886      0.2884      3.7217    153.5715     31.3121
  1628.4000      9.1927      2.5635      0.2767      5.2419    153.8933     31.2185
  1628.5000      8.5918      2.5186      0.2035      7.9657    157.0627     31.6890
  1628.6000      8.5918      2.4671      0.1187     11.0837    155.2874     32.0313
  1628.7000      8.5918      2.4355      0.0225     12.9995    148.6275     31.7517
  1628.8000      8.3303      2.4388      0.0087     12.7991    146.0628     31.2166
  1628.9000      8.3303      2.4682      0.0457     11.0183    149.1163     30.5740
  1629.0000      8.2025      2.5022      0.0766      8.9568    149.8820     29.8252
  1629.1000      8.2025      2.5257      0.0963      7.5319    147.3722     28.9845
  1629.2000      8.2025      2.5324      0.0761      7.1266    147.5470     27.9075
  1629.3000      8.1613      2.5271      0.0533      7.4458    149.3251     27.1393
  1629.4000      8.1613      2.5234      0.0256      7.6706    148.9627     27.4134
  1629.5000      8.1284      2.5203      0.0504      7.8628    150.1588     28.3033
  1629.6000      8.1284      2.5048      0.0179      8.7993    154.9576     28.8308
  1629.7000      8.1284      2.4839     -0.0313     10.0671    156.8607     28.8084
  1629.8000      8.1163      2.4718      0.0055     10.7996    151.0065     28.8331
  1629.9000      8.1163      2.4656     -0.0135     11.1768    140.8846     28.9741
  1630.0000      8.0865      2.4684     -0.0634     11.0041    131.6135     28.7727
  1630.1000      8.0865      2.4864     -0.0274      9.9151    129.4428     28.5067
  1630.2000      8.0865      2.5050      0.0619      8.7897    137.3393     28.5895
  1630.3000      8.0776      2.5109     -0.0051      8.4277    146.1320     28.8629
  1630.4000      8.0776      2.5109      0.0458      8.4319    148.9037     29.3024
  1630.5000      8.0759      2.5169      0.0249      8.0681    149.3684     29.9087
  1630.6000      8.0759      2.5368      0.0390      6.8633    151.3124     30.1449
  1630.7000      8.0759      2.5564      0.1067      5.6727    156.2030     29.9015
  1630.8000      8.0871      2.5467      0.1020      6.2603    162.5841     29.7591
  1630.9000      8.0871      2.5073      0.0452      8.6476    162.7067     29.4463
  1631.0000      8.0821      2.4659      0.0491     11.1549    152.0101     28.6339
  1631.1000      8.0821      2.4380      0.0595     12.8501    139.0912     28.0927
  1631.2000      8.0821      2.4205      0.0382     13.9096    132.8530     28.2582
  1631.3000      8.1173      2.4115      0.0175     14.4539    131.6650     28.3967
  1631.4000      8.1173      2.4190      0.0639     14.0002    131.0025     28.0687
  1631.5000      8.1561      2.4548     -0.0178     11.8280    130.5388     27.8640
  1631.6000      8.1561      2.5128      0.1211      8.3172    132.3041     27.6833
  1631.7000      8.1561      2.5686      0.1676      4.9331    136.1436     27.0020
  1631.8000      8.2258      2.6130      0.1780      2.2418    136.7520     26.2255
  1631.9000      8.2258      2.6429      0.2099      0.4321    130.2839     25.8632
  1632.0000      8.1732      2.6512      0.1720     -0.0700    120.2440     26.1203
  1632.1000      8.1732      2.6369      0.1915      0.7929    113.2592     26.9075
  1632.2000      8.1732      2.6068      0.1457      2.6168    113.5631     27.4332
  1632.3000      8.0998      2.5783      0.0240      4.3438    121.0488     27.1371
  1632.4000      8.0998      2.5621      0.0562      5.3271    124.8691     26.5410
  1632.5000      8.0911      2.5584     -0.0655      5.5524    115.4761     26.0968
  1632.6000      8.0911      2.5700      0.0049      4.8481    101.2742     25.5646
  1632.7000      8.0911      2.5812      0.0492      4.1723     94.5393     24.8750
  1632.8000      8.0156      2.5784      0.0473      4.3394     97.2843     24.0652
  1632.9000      8.0156      2.5744      0.0058      4.5812    103.7069     23.0778
  1633.0000      8.0024      2.5760      0.0501      4.4854    108.6337     22.4731
  1633.1000      8.0024      2.5776      0.0312      4.3895    112.9008     22.8150
  1633.2000      8.0024      2.5786      0.0587      4.3288    119.7937     23.6227
  1633.3000      7.9731      2.5751      0.0602      4.5369    126.4789     24.3509
  1633.4000      7.9731      2.5638      0.0655      5.2249    126.2599     24.9914
  1633.5000      7.9304      2.5537     -0.0124      5.8377    121.3853     25.7433
  1633.6000      7.9304      2.5538      0.0041      5.8314    122.3496     26.7441
  1633.7000      7.9304      2.5573      0.0342      5.6203    129.6645     27.5952
  1633.8000      7.9293      2.5550      0.0510      5.7559    135.8803     27.9889
  1633.9000      7.9293      2.5463      0.0935      6.2871    140.0935     27.7688
  1634.0000      7.9397      2.5330      0.0454      7.0907    142.7369     26.8807
  1634.1000      7.9397      2.5146      0.0633      8.2036    144.2149     26.1543
  1634.2000      7.9397      2.4889      0.0402      9.7654    148.1028     25.7181
  1634.3000      7.9364      2.4677     -0.0253     11.0504    153.5000     25.0995
  1634.4000      7.9364      2.4636      0.0206     11.2969    154.2353     24.9572
  1634.5000      7.9437      2.4683     -0.0129     11.0097    149.9183     25.6365
  1634.6000      7.9437      2.4671      0.0407     11.0826    147.5975     26.3736
  1634.7000      7.9437      2.4536      0.0232     11.9040    148.4981     26.5717
