~Version Information
 VERS.                      2.0: CWLS Log ASCII Standard - VERSION 2.0
 WRAP.                       NO: One line per depth step
 ~Well Information Block
 STRT.FT               762.3000: 
 STOP.FT              2573.7000: 
 STEP.FT                 0.1000: 
 NULL.                -999.2500: 
 COMP.          Petrogulf Corporation: COMPANY
 WELL.               J&P 12-33V: WELL
 FLD.           Purgatorie River: FIELD
 LOC.           2005' FSL & 1928' FEL: LOCATION
 CNTY.               Las Animas: COUNTY
 SRVC.                         : SERVICE COMPANY
 DATE.          Sat Aug 28 11:34:36 2004: LOG DATE
 UWI.           05 071 08092 00: UNIQUE WELL ID
 STAT.                 Colorado: STATE
 PROV.                         :Province
 ~Curve Information Block
 DEPT.FT            0 000 00 00: Depth
 GR.GAPI                       : Gamma Ray
 DCAL.in                       : CDL Caliper
 DPOR.pu                       : CDL Density Porosity
 NPOR.pu                       : Neutron Porosity
 RHOB.g/cc                     : CDL Bulk Density
 RHOC.g/cc                     : CDL Density Correction
 ~Parameter Information Block
 ~A  Depth        GR         DCAL        DPOR        NPOR        RHOB        RHOC    
# ...
  1971.9000    149.3142      7.8511      7.1922     12.0881      2.5313      0.0533
  1972.0000    145.6757      7.8590      7.8927     12.6760      2.5198      0.0456
  1972.1000    143.7311      7.8590      8.3948     13.2180      2.5115      0.0642
  1972.2000    141.7167      7.8590      9.0833     14.3476      2.5001      0.0077
  1972.3000    135.8466      7.8750      9.8850     15.6852      2.4869     -0.0038
  1972.4000    131.3983      7.8750     10.2561     16.8623      2.4808     -0.0065
  1972.5000    133.1084      7.8811      9.8114     18.1384      2.4881     -0.0067
  1972.6000    137.3779      7.8811      8.6398     19.4627      2.5074      0.0065
  1972.7000    137.4062      7.8811      7.2360     20.1939      2.5306      0.0253
  1972.8000    128.3652      7.8909      6.4998     20.5678      2.5428      0.0583
  1972.9000    115.9686      7.8909      6.9382     21.4379      2.5355      0.0253
  1973.0000    112.6051      7.9439      7.7497     22.6863      2.5221      0.0059
  1973.1000    120.6937      7.9439      7.7524     23.6616      2.5221     -0.0003
  1973.2000    131.4936      7.9439      6.8797     23.9520      2.5365      0.0407
  1973.3000    134.2034      7.9488      5.8900     23.3417      2.5528      0.0501
  1973.4000    122.7322      7.9488      4.8655     22.5361      2.5697      0.0252
  1973.5000    104.0934      7.9376      3.6168     22.3560      2.5903      0.0590
  1973.6000     92.8426      7.9376      2.7369     22.3775      2.6048      0.0395
  1973.7000     90.8884      7.9376      2.6921     22.1329      2.6056      0.0335
  1973.8000     88.1512      7.9314      3.3037     22.0748      2.5955      0.0639
  1973.9000     80.3012      7.9314      4.1509     22.3099      2.5815     -0.0138
  1974.0000     73.1898      7.9000      4.7189     22.2180      2.5721      0.0059
  1974.1000     72.0874      7.9000      4.9950     21.8418      2.5676      0.0287
  1974.2000     75.5153      7.9000      5.1415     21.4055      2.5652      0.0161
  1974.3000     78.8910      7.8995      4.8184     20.5763      2.5705      0.0335
  1974.4000     81.4454      7.8995      4.1962     19.2094      2.5808      0.0443
  1974.5000     84.7594      7.9060      4.2204     17.8339      2.5804      0.0678
  1974.6000     85.1799      7.9060      5.0637     17.0775      2.5664      0.0276
  1974.7000     80.1578      7.9060      5.7725     16.7450      2.5548      0.0250
  1974.8000     75.0786      7.9056      5.7318     16.2070      2.5554      0.0488
  1974.9000     74.5906      7.9056      5.5012     15.6737      2.5592      0.0680
  1975.0000     77.5814      7.9067      5.9143     15.7414      2.5524      0.0628
  1975.1000     78.8284      7.9067      6.8226     16.0853      2.5374      0.0227
  1975.2000     77.0824      7.9067      7.5524     16.0122      2.5254      0.0393
  1975.3000     77.4012      7.9061      7.9430     15.6042      2.5189      0.0215
  1975.4000     79.0219      7.9061      8.2143     15.0861      2.5145      0.0323
  1975.5000     77.1035      7.9111      8.5759     14.3847      2.5085      0.0629
  1975.6000     71.8498      7.9111      8.8913     13.8998      2.5033      0.0425
  1975.7000     66.6397      7.9111      9.1072     13.9132      2.4997      0.0547
  1975.8000     65.8352      7.9130      9.4842     13.8823      2.4935      0.0154
  1975.9000     67.1335      7.9130      9.9492     13.4334      2.4858      0.0201
  1976.0000     61.1762      7.9155     10.3232     13.0094      2.4797      0.0103
  1976.1000     50.8934      7.9155     10.6516     12.9780      2.4742      0.0026
  1976.2000     47.5298      7.9155     11.1136     13.0933      2.4666      0.0331
  1976.3000     50.8549      7.9094     11.6925     13.0519      2.4571      0.0163
  1976.4000     52.2873      7.9094     12.1574     12.7700      2.4494      0.0185
  1976.5000     48.4811      7.9123     12.7954     12.4727      2.4389      0.0368
  1976.6000     45.1240      7.9123     13.8334     12.4424      2.4217      0.0319
  1976.7000     46.0761      7.9123     14.7142     12.6232      2.4072      0.0298
  1976.8000     48.1466      7.9156     15.0556     12.8178      2.4016      0.0478
  1976.9000     49.1529      7.9156     14.9991     12.8469      2.4025      0.0284
  1977.0000     48.3726      7.9289     14.6317     12.6290      2.4086      0.0514
  1977.1000     46.2834      7.9289     14.2341     12.2530      2.4151      0.0484
  1977.2000     45.2128      7.9289     14.2369     11.7094      2.4151      0.0531
  1977.3000     45.6529      7.9353     14.5972     10.9298      2.4091      0.0217
  1977.4000     46.6269      7.9353     15.0498     10.1547      2.4017      0.0633
  1977.5000     47.1161      7.9359     15.6000      9.6074      2.3926      0.0527
  1977.6000     46.4031      7.9359     16.0761      9.3822      2.3847      0.0675
  1977.7000     44.5534      7.9359     16.1418      9.7110      2.3837      0.0461
  1977.8000     42.2968      7.9261     15.9058     10.4048      2.3876      0.0558
  1977.9000     41.5563      7.9261     15.9956     10.7698      2.3861      0.0525
  1978.0000     42.4073      7.9312     16.6422     10.3917      2.3754      0.0338
  1978.1000     42.8250      7.9312     17.5318      9.6954      2.3607      0.0432
  1978.2000     44.1343      7.9312     18.0712      9.4807      2.3518     -0.0120
  1978.3000     46.7301      7.9205     17.7269      9.8113      2.3575      0.0366
  1978.4000     46.1632      7.9205     16.8859      9.9458      2.3714      0.0483
  1978.5000     40.2439      7.9168     16.3366      9.6359      2.3804      0.0826
  1978.6000     35.0576      7.9168     16.1192      9.3667      2.3840      0.0372
  1978.7000     34.7212      7.9168     15.9606      9.2051      2.3867      0.0750
  1978.8000     36.1706      7.9169     16.2542      9.0687      2.3818      0.0542
  1978.9000     37.4213      7.9169     17.1853      9.0699      2.3664      0.0669
  1979.0000     38.3327      7.9182     17.9753      9.1817      2.3534      0.0211
  1979.1000     39.6194      7.9182     17.9192      9.2642      2.3543      0.0488
  1979.2000     41.8315      7.9182     17.4071      9.3317      2.3628      0.0717
  1979.3000     43.7533      7.9279     17.2297      9.3116      2.3657      0.0634
  1979.4000     44.9751      7.9279     17.7152      9.0588      2.3577      0.0352
  1979.5000     46.9134      7.9335     18.5561      8.8053      2.3438      0.0476
  1979.6000     49.5584      7.9335     19.0706      8.9113      2.3353      0.0507
  1979.7000     50.0990      7.9335     18.8375      9.2907      2.3392      0.0697
  1979.8000     47.9725      7.9358     18.3092      9.7762      2.3479      0.0686
  1979.9000     46.2080      7.9358     18.3431     10.2375      2.3473      0.0813
  1980.0000     46.3472      7.9354     18.8425     10.5847      2.3391      0.0612
  1980.1000     45.1906      7.9354     18.5126     11.0553      2.3445      0.0417
  1980.2000     41.3517      7.9354     16.9993     11.6160      2.3695      0.0805
  1980.3000     39.2916      7.9355     15.7504     11.8465      2.3901      0.1221
  1980.4000     41.2722      7.9355     15.7403     11.2818      2.3903      0.1213
  1980.5000     42.9423      7.9350     16.2819      9.9616      2.3813      0.0732
  1980.6000     41.0136      7.9350     16.5745      8.8708      2.3765      0.0850
  1980.7000     39.3071      7.9350     16.9700      8.6667      2.3700      0.0848
  1980.8000     41.2982      7.9360     17.7429      8.8648      2.3572      0.0490
  1980.9000     46.3521      7.9360     18.1844      8.7936      2.3500      0.0479
  1981.0000     54.2609      7.9360     17.9428      8.4192      2.3539      0.0656
  1981.1000     61.4777      7.9360     17.5767      7.8799      2.3600      0.0881
  1981.2000     63.7673      7.9360     17.4810      7.3694      2.3616      0.0574
  1981.3000     62.6629      7.9374     17.7070      7.1749      2.3578      0.0795
  1981.4000     61.5653      7.9374     18.2549      7.2858      2.3488      0.0545
