~Version Information
VERS.                      2.0: CWLS Log ASCII Standard - VERSION 2.0
WRAP.                       NO: One line per depth step
~Well Information Block
STRT.FT               750.3000: 
STOP.FT              1254.0000: 
STEP.FT                 0.1000: 
NULL.                -999.2500: 
COMP.          Petrogulf Corporation: COMPANY
WELL.           Montoya 13-41V: WELL
FLD.           Purgatorie River: FIELD
LOC.           449' FNL & 891' FEL: LOCATION
CNTY.               Las Animas: COUNTY
SRVC.                         : SERVICE COMPANY
DATE.          Tue Aug 17 15:47:43 2004: LOG DATE
UWI.           05 071 08021 00: UNIQUE WELL ID
STAT.                 Colorado: STATE
~Curve Information Block
DEPT.FT            0 000 00 00: Depth
DCAL.in                       : CDL Caliper
RHOB.g/cc                     : CDL Bulk Density
RHOC.g/cc                     : CDL Density Correction
DPOR.pu                       : CDL Density Porosity
GR.GAPI                       : Gamma Ray
NPOR.pu                       : Neutron Porosity
~Parameter Information Block
~A  Depth       DCAL        RHOB        RHOC        DPOR         GR         NPOR    
# ...
   894.3000      8.3767      2.1534      0.0916     30.0992    155.9617     30.5351
   894.4000      8.3767      2.1421      0.1117     30.7808    168.9169     31.0155
   894.5000      8.4202      2.1585      0.1367     29.7868    184.6183     31.6021
   894.6000      8.4202      2.1944      0.2264     27.6101    190.3040     31.7407
   894.7000      8.4202      2.2390      0.2050     24.9063    188.3033     31.2567
   894.8000      8.4263      2.2997      0.1908     21.2282    187.3996     30.6815
   894.9000      8.4263      2.3798      0.2850     16.3728    186.7340     30.3522
   895.0000      8.3849      2.4638      0.2120     11.2825    185.0530     30.0997
   895.1000      8.3849      2.5331      0.2018      7.0851    188.6507     29.7084
   895.2000      8.3849      2.5775      0.1553      4.3932    193.9528     29.3094
   895.3000      8.3405      2.6063      0.0987      2.6513    189.8515     29.4025
   895.4000      8.3405      2.6234      0.1508      1.6133    183.5881     29.6725
   895.5000      8.3326      2.6079      0.1795      2.5530    185.6319     29.5617
   895.6000      8.3326      2.5537      0.1072      5.8337    187.6385     29.4080
   895.7000      8.3326      2.4879      0.0132      9.8214    179.1360     29.0664
   895.8000      8.3322      2.4295     -0.0237     13.3623    164.2735     28.4553
   895.9000      8.3322      2.3648      0.0318     17.2849    156.0202     28.4193
   896.0000      8.3327      2.2800     -0.0229     22.4270    161.9062     29.0715
   896.1000      8.3327      2.1903      0.0294     27.8613    176.8510     29.5702
   896.2000      8.3327      2.1173     -0.0027     32.2858    190.2834     29.5933
   896.3000      8.3361      2.0761     -0.0254     34.7845    197.0392     29.4971
   896.4000      8.3361      2.0764      0.0116     34.7625    197.1869     29.1752
   896.5000      8.3361      2.1138      0.0767     32.4964    192.1249     28.4133
   896.6000      8.3361      2.1728      0.1131     28.9228    183.3288     28.0413
   896.7000      8.3361      2.2470      0.1321     24.4229    172.8121     28.5744
   896.8000      8.3233      2.3405      0.2492     18.7580    158.7351     29.3559
   896.9000      8.3233      2.4377      0.2915     12.8665    142.7328     29.4820
   897.0000      8.3127      2.5055      0.2833      8.7554    133.8012     28.8290
   897.1000      8.3127      2.5352      0.1496      6.9561    134.1744     28.0477
   897.2000      8.3127      2.5486      0.0594      6.1469    139.2060     27.5833
   897.3000      8.3067      2.5646      0.0276      5.1755    148.2946     27.2300
   897.4000      8.3067      2.5809      0.0878      4.1908    158.4986     26.6516
   897.5000      8.2941      2.5838      0.0611      4.0147    162.5806     25.9717
   897.6000      8.2941      2.5744      0.0363      4.5814    162.0230     25.2882
   897.7000      8.2941      2.5684      0.0169      4.9456    163.6765     24.4372
   897.8000      8.2893      2.5713      0.0367      4.7685    166.1206     23.6217
   897.9000      8.2893      2.5721      0.0374      4.7186    164.8693     23.2963
   898.0000      8.2853      2.5636      0.0187      5.2339    163.0251     23.2890
   898.1000      8.2853      2.5555      0.0254      5.7292    163.3695     23.0274
   898.2000      8.2853      2.5609      0.0400      5.3976    164.2100     22.5696
   898.3000      8.2910      2.5776      0.0625      4.3891    167.6545     22.4572
   898.4000      8.2910      2.5878      0.0496      3.7708    170.2003     22.5127
   898.5000      8.2913      2.5855      0.0450      3.9112    165.4957     22.0627
   898.6000      8.2913      2.5844      0.0294      3.9738    151.9258     21.3587
   898.7000      8.2913      2.5941      0.0311      3.3905    133.9218     21.3373
   898.8000      8.2905      2.6054      0.0667      2.7052    123.3482     21.8282
   898.9000      8.2905      2.6033      0.0340      2.8313    126.2629     22.0818
   899.0000      8.2901      2.5835      0.0384      4.0310    136.0861     22.4728
   899.1000      8.2901      2.5501      0.0345      6.0524    142.5393     23.7401
   899.2000      8.2901      2.5130      0.0014      8.3041    144.6167     25.4293
   899.3000      8.2918      2.4909     -0.0534      9.6404    149.6253     26.6848
   899.4000      8.2918      2.5017     -0.0375      8.9909    162.4343     27.3706
   899.5000      8.3021      2.5448     -0.0105      6.3767    178.6742     27.2796
   899.6000      8.3021      2.6021      0.0413      2.9007    188.3874     26.5554
   899.7000      8.3021      2.6527      0.0987     -0.1611    187.1586     26.0416
   899.8000      8.3055      2.6911      0.0824     -2.4910    179.6517     25.9212
   899.9000      8.3055      2.7217      0.1099     -4.3452    169.8208     25.8161
   900.0000      8.3044      2.7380      0.1438     -5.3349    155.8437     25.7099
   900.1000      8.3044      2.7357      0.0791     -5.1966    140.7807     25.6032
   900.2000      8.3044      2.7254      0.0585     -4.5694    132.8206     25.3211
   900.3000      8.3080      2.7110      0.0694     -3.6993    132.9771     24.9614
   900.4000      8.3080      2.6865      0.0267     -2.2134    136.5201     24.6520
   900.5000      8.3760      2.6581     -0.0000     -0.4918    140.1766     24.5084
   900.6000      8.3760      2.6375     -0.0069      0.7604    143.0249     24.3551
   900.7000      8.3760      2.6185      0.0218      1.9092    142.2683     23.9799
   900.8000      8.4015      2.5866      0.0370      3.8412    140.0914     23.5152
   900.9000      8.4015      2.5459     -0.0230      6.3063    145.1419     23.1208
   901.0000      8.3379      2.5138     -0.0167      8.2562    155.9061     23.1556
   901.1000      8.3379      2.4947     -0.0272      9.4152    161.9598     23.7108
   901.2000      8.3379      2.4877     -0.0368      9.8378    160.4563     23.8063
   901.3000      8.2957      2.4970     -0.0546      9.2714    152.9510     22.9635
   901.4000      8.2957      2.5214     -0.0083      7.7969    143.4402     22.1486
   901.5000      8.2917      2.5459      0.0227      6.3076    140.3478     21.5705
   901.6000      8.2917      2.5558      0.0368      5.7111    144.6915     20.7962
   901.7000      8.2917      2.5582      0.0124      5.5652    147.9521     20.5033
   901.8000      8.2913      2.5676      0.0516      4.9929    149.6473     21.2748
   901.9000      8.2913      2.5756      0.0611      4.5082    155.5195     22.4110
   902.0000      8.2907      2.5667      0.0858      5.0471    164.8245     23.2083
   902.1000      8.2907      2.5455      0.0261      6.3332    173.1466     24.0366
   902.2000      8.2907      2.5197      0.0799      7.8984    177.1689     24.9871
   902.3000      8.2970      2.4812      0.0673     10.2328    180.4386     25.3555
   902.4000      8.2970      2.4287      0.0210     13.4137    186.2024     25.3930
   902.5000      8.3475      2.3747     -0.0159     16.6826    187.4903     25.9345
   902.6000      8.3475      2.3307     -0.0755     19.3535    179.1871     26.5570
   902.7000      8.3475      2.3061     -0.0463     20.8408    170.1382     26.5678
   902.8000      8.4197      2.3082     -0.0261     20.7157    170.7633     26.4956
   902.9000      8.4197      2.3323      0.0360     19.2565    175.8246     27.2615
   903.0000      8.4670      2.3609      0.0475     17.5205    177.0744     28.5730
   903.1000      8.4670      2.3872      0.0515     15.9251    178.6241     29.4165
   903.2000      8.4670      2.4049      0.2428     14.8533    180.4575     29.7481
   903.3000      8.4532      2.3860      0.3254     15.9978    179.1372     29.9307
   903.4000      8.4532      2.3126      0.3482     20.4484    181.3029     30.0545
   903.5000      8.4753      2.1883      0.2840     27.9804    189.9557     30.2986
   903.6000      8.4753      2.0275      0.1361     37.7280    199.1641     30.7684
   903.7000      8.4753      1.8628     -0.0281     47.7104    201.9850     31.3868
   903.8000      8.4667      1.7350     -0.0720     55.4545    192.7403     31.5975
