~Version Information
VERS.                      2.0: CWLS Log ASCII Standard - VERSION 2.0
WRAP.                       NO: One line per depth step
~Well Information Block
STRT.FT                -6.7500: 
STOP.FT              2058.2500: 
STEP.FT                 0.2500: 
NULL.                -999.2500: 
COMP.          Petrogulf Corporation: COMPANY
WELL.           Schedler 9-23R: WELL
FLD.           Purgatorie River: FIELD
LOC.           2084' FSL & 2331' FWL--: LOCATION
PROV.                       CO: PROVINCE
CNTY.               Las Animas: COUNTRY
SRVC.                         : SERVICE COMPANY
DATE.          Fri Nov 12 13:22:46 2004: LOG DATE
UWI.       005 071 08040 : UNIQUE WELL ID
~Curve Information Block
DEPT.FT            0 000 00 00: Depth
GR.GAPI                       : Gamma Ray
CCL.                          : Casing Collar Locator
TT3.usec                      : CBL 3' Travel Time
AMP3.mV                       : CBL 3' Amplitude
~Parameter Information Block
~A  Depth        GR         CCL         TT3         AMP3    
# ...
   261.2500     74.8495      0.0000    500.3681     20.9328
   261.5000     76.6281      0.0000    548.5168     20.5583
   261.7500     78.3036      0.0000    598.5547     20.0985
   262.0000     79.9576      0.0000    649.7568     19.6154
   262.2500     81.0069      0.0000    702.7888     19.1396
   262.5000     81.1140      0.0000    751.2488     18.6788
   262.7500     80.9132      0.0000    786.6783     18.2636
   263.0000     81.8104      0.0000    806.7590     17.9687
   263.2500     85.0767      0.0000    815.5978     17.8566
   263.5000     90.8307      0.0000    818.7169     17.8974
   263.7500     97.7687      0.0000    819.7847     17.9620
   264.0000    104.0577      0.0000    820.6172     17.9114
   264.2500    108.4710      0.0000    822.3305     17.7034
   264.5000    110.5718      0.0000    826.0691     17.4240
   264.7500    110.1859      0.0000    832.6022     17.2132
   265.0000    107.2455      0.0000    840.9904     17.1481
   265.2500    102.3896      0.0000    847.9894     17.1894
   265.5000     97.4913      0.0000    849.9789     17.2416
   265.7500     94.8111      0.0000    846.2662     17.2538
   266.0000     94.9743      0.0000    839.7441     17.2495
   266.2500     96.2422      0.0000    833.4692     17.2715
   266.5000     96.5497      0.0000    826.8577     17.3234
   266.7500     95.7587      0.0000    815.8926     17.3748
   267.0000     94.9729      0.0000    797.7639     17.4080
   267.2500     94.3232      0.0000    775.9225     17.4431
   267.5000     92.7429      0.0000    759.8846     17.5089
   267.7500     89.7330      0.0000    758.1536     17.5926
   268.0000     86.3434      0.0000    770.7065     17.6353
   268.2500     84.2429      0.0000    789.3491     17.5830
   268.5000     84.1892      0.0000    805.1403     17.4329
   268.7500     85.4078      0.0000    813.9919     17.2261
   269.0000     86.3114      0.0000    815.8550     16.9991
   269.2500     85.9839      0.0000    810.8596     16.7521
   269.5000     85.1311      0.0000    797.5594     16.4730
   269.7500     85.3603      0.0000    774.9295     16.1913
   270.0000     87.3025      0.0000    745.2653     15.9923
   270.2500     89.8224      0.0000    714.5801     15.9322
   270.5000     91.2756      0.0000    691.5968     15.9039
   270.7500     90.9384      0.0000    687.2728     15.6281
   271.0000     88.9182      0.0000    710.1602     14.8957
   271.2500     85.6012      0.0000    756.0368     13.8484
   271.5000     81.8634      0.0000    805.4690     12.9098
   271.7500     79.1256      0.0000    838.3846     12.3975
   272.0000     78.3710      0.0000    850.4939     12.2877
   272.2500     79.4080     -2.0000    852.1420     12.3744
   272.5000     81.4855      0.0000    852.4446     12.5649
   272.7500     84.1203      0.0000    847.0859     13.0000
   273.0000     86.9645      0.0000    821.1458     13.9334
   273.2500     89.3660      0.0000    763.5167     15.4745
   273.5000     90.6138      0.0000    680.4041     17.3739
   273.7500     90.3775      0.0000    594.1193     19.0806
   274.0000     88.6317      0.0000    526.0904     20.1066
   274.2500     85.6301      0.0000    483.3466     20.3487
   274.5000     82.4134      0.0000    464.4804     20.0317
   274.7500     80.7389      0.0000    472.2790     19.4269
   275.0000     81.7097      0.0000    512.0327     18.7085
   275.2500     84.7586      0.0000    579.5502     17.9950
   275.5000     88.3067      0.0000    657.6381     17.3923
   275.7500     90.9389      0.0000    725.6189     16.9634
   276.0000     91.8107      0.0000    771.0571     16.6929
   276.2500     90.7046      0.0000    793.4747     16.5046
   276.5000     88.1662      0.0000    799.7620     16.3178
   276.7500     85.3734      0.0000    797.6335     16.0940
   277.0000     83.5458      0.0000    792.2150     15.8354
   277.2500     83.2159      0.0000    786.2184     15.5623
   277.5000     83.9755      0.0000    781.2662     15.3111
   277.7500     84.9691      0.0000    778.5827     15.1365
   278.0000     85.5992      0.0000    778.8879     15.0804
   278.2500     85.6640      0.0000    781.9615     15.1330
   278.5000     85.1132      0.0000    786.3240     15.2365
   278.7500     84.0917      0.0000    789.6261     15.3312
   279.0000     83.1476      0.0000    790.1807     15.3968
   279.2500     82.9331      0.0000    788.3780     15.4505
   279.5000     83.4851      0.0000    786.0795     15.5114
   279.7500     84.1411      0.0000    784.4653     15.5736
   280.0000     84.5157      0.0000    783.0627     15.6214
   280.2500     85.3620      0.0000    780.9766     15.6630
   280.5000     88.1626      0.0000    778.3002     15.7462
   280.7500     93.8944      0.0000    775.9143     15.9299
   281.0000    102.3053      0.0000    774.4772     16.2281
   281.2500    112.0380      0.0000    774.1005     16.5842
   281.5000    120.7779      0.0000    774.7470     16.9145
   281.7500    125.4275      0.0000    776.4790     17.1807
   282.0000    123.5516      0.0000    778.8142     17.4112
   282.2500    115.7253      0.0000    779.4922     17.6538
   282.5000    105.8170      0.0000    773.4352     17.9256
   282.7500     97.9802      0.0000    753.9573     18.2082
   283.0000     93.6304      0.0000    717.3433     18.4651
   283.2500     91.4520      0.0000    668.2146     18.6534
   283.5000     89.2404      0.0000    619.1833     18.7436
   283.7500     85.3701      0.0000    583.5037     18.7403
   284.0000     79.6996      0.0000    568.8246     18.6716
   284.2500     73.9283      0.0000    577.5577     18.5576
   284.5000     70.6905      0.0000    608.3221     18.4045
   284.7500     71.7202      0.0000    653.8358     18.2249
   285.0000     76.6998      0.0000    700.9835     18.0451
   285.2500     83.5928      0.0000    737.3485     17.8929
   285.5000     89.8678      0.0000    757.1464     17.7926
   285.7500     93.6957      0.0000    758.8020     17.7659
   286.0000     94.7213      0.0000    738.4380     17.8189
   286.2500     94.2091      0.0000    689.9138     17.9224
   286.5000     94.3115      0.0000    613.7235     18.0098
   286.7500     96.7081      0.0000    524.3169     18.0069
   287.0000    101.5359      0.0000    444.2451     17.8802
   287.2500    107.3299      0.0000    389.5388     17.6686
   287.5000    111.8492      0.0000    361.4675     17.4589
   287.7500    113.1811      0.0000    350.9275     17.3219
   288.0000    110.6861      0.0000    347.5577     17.2732
   288.2500    105.3252      0.0000    345.1272     17.2950
   288.5000     99.1288      0.0000    341.7578     17.3780
   288.7500     94.2220      0.0000    337.6552     17.5296
   289.0000     91.9029      0.0000    333.1742     17.7482
   289.2500     92.0099      0.0000    328.3439     18.0039
   289.5000     93.0004      0.0000    323.1931     18.2456
   289.7500     93.0211      0.0000    317.9057     18.4238
   290.0000     91.4073      0.0000    312.8947     18.5110
   290.2500     89.4399      0.0000    308.8961     18.5143
   290.5000     89.4710      0.0000    306.8353     18.4707
   290.7500     92.8048      0.0000    307.4884     18.4191
   291.0000     98.2299      0.0000    311.1639     18.3713
   291.2500    102.9284      0.0000    317.3561     18.3139
   291.5000    104.8690      0.0000    324.5742     18.2342
   291.7500    104.1330      0.0000    330.8275     18.1386
   292.0000    102.2479      0.0000    334.5426     18.0503
   292.2500    100.6769      0.0000    335.0732     18.0003
   292.5000     99.7668      0.0000    332.6585     18.0179
   292.7500     98.7179      0.0000    328.3867     18.1090
   293.0000     96.5499      0.0000    324.0736     18.2402
   293.2500     93.1754      0.0000    321.9311     18.3524
   293.5000     89.6361      0.0000    324.8395     18.4032
   293.7500     87.5550      0.0000    337.8899     18.3978
   294.0000     88.3373      0.0000    368.6191     18.3809
   294.2500     92.4018      0.0000    421.8594     18.3999
   294.5000     98.8486      0.0000    490.1084     18.4764
