~Version Information
VERS.                      2.0: CWLS Log ASCII Standard - VERSION 2.0
WRAP.                       NO: One line per depth step
~Well Information Block
STRT.FT               698.9000: 
STOP.FT              2460.4000: 
STEP.FT                 0.1000: 
NULL.                -999.2500: 
COMP.          Petrogulf Corporation: COMPANY
WELL.             State 16-23V: WELL
FLD.           Purgatorie River: FIELD
LOC.           2414' FSL & 2215' FWL: LOCATION
PROV.                 Colorado: PROVINCE
CNTY.               Las Animas: COUNTRY
SRVC.                         : SERVICE COMPANY
DATE.          Mon Jun 09 14:24:56 2003: LOG DATE
UWI.           05 071 07865 00: UNIQUE WELL ID
~Curve Information Block
DEPT.FT            0 000 00 00: Depth
DCAL.in                       : CDL Caliper
RHOB.g/cc                     : CDL Bulk Density
RHOC.g/cc                     : CDL Density Correction
DPOR.pu                       : CDL Density Porosity
GR.GAPI                       : Gamma Ray
NPOR.pu                       : Neutron Porosity
~Parameter Information Block
~A  Depth       DCAL        RHOB        RHOC        DPOR         GR         NPOR    
# ...
  1879.7000      8.1530      2.5765      0.0862      4.4571    167.1591     25.1328
  1879.8000      8.1610      2.5742      0.0830      4.5915    165.4452     25.0984
  1879.9000      8.1610      2.5721      0.0798      4.7237    163.1976     25.0853
  1880.0000      8.1767      2.5700      0.0768      4.8500    160.6597     25.0912
  1880.1000      8.1767      2.5681      0.0743      4.9661    158.0492     25.1111
  1880.2000      8.1767      2.5664      0.0726      5.0675    155.5459     25.1387
  1880.3000      8.1756      2.5650      0.0718      5.1494    153.2857     25.1668
  1880.4000      8.1756      2.5641      0.0719      5.2076    151.3601     25.1894
  1880.5000      8.1622      2.5636      0.0729      5.2387    149.8214     25.2018
  1880.6000      8.1622      2.5635      0.0748      5.2404    148.6839     25.2016
  1880.7000      8.1622      2.5640      0.0774      5.2121    147.9249     25.1883
  1880.8000      8.1580      2.5649      0.0805      5.1547    147.4843     25.1630
  1880.9000      8.1580      2.5663      0.0840      5.0710    147.2719     25.1276
  1881.0000      8.1617      2.5681      0.0877      4.9651    147.1688     25.0846
  1881.1000      8.1617      2.5701      0.0913      4.8426    147.0454     25.0356
  1881.2000      8.1617      2.5723      0.0948      4.7103    146.7782     24.9819
  1881.3000      8.1640      2.5745      0.0980      4.5753    146.2699     24.9244
  1881.4000      8.1640      2.5767      0.1007      4.4452    145.4691     24.8637
  1881.5000      8.1654      2.5786      0.1031      4.3272    144.3767     24.8006
  1881.6000      8.1654      2.5802      0.1050      4.2277    143.0520     24.7368
  1881.7000      8.1654      2.5815      0.1064      4.1523    141.6002     24.6747
  1881.8000      8.1634      2.5823      0.1072      4.1050    140.1543     24.6174
  1881.9000      8.1634      2.5825      0.1076      4.0884    138.8505     24.5683
  1882.0000      8.1594      2.5823      0.1074      4.1034    137.8080     24.5310
  1882.1000      8.1594      2.5815      0.1068      4.1492    137.1034     24.5085
  1882.2000      8.1594      2.5803      0.1059      4.2233    136.7657     24.5029
  1882.3000      8.1581      2.5787      0.1047      4.3220    136.7691     24.5153
  1882.4000      8.1581      2.5767      0.1033      4.4403    137.0452     24.5457
  1882.5000      8.1625      2.5746      0.1019      4.5721    137.4950     24.5929
  1882.6000      8.1625      2.5723      0.1006      4.7109    138.0102     24.6549
  1882.7000      8.1625      2.5700      0.0996      4.8497    138.4900     24.7292
  1882.8000      8.1795      2.5678      0.0991      4.9816    138.8572     24.8125
  1882.9000      8.1795      2.5658      0.0992      5.1002    139.0627     24.9017
  1883.0000      8.2044      2.5642      0.1000      5.1998    139.0909     24.9936
  1883.1000      8.2044      2.5629      0.1018      5.2758    138.9533     25.0855
  1883.2000      8.2044      2.5621      0.1044      5.3252    138.6770     25.1750
  1883.3000      8.2120      2.5618      0.1080      5.3467    138.2984     25.2601
  1883.4000      8.2120      2.5619      0.1125      5.3408    137.8554     25.3394
  1883.5000      8.1825      2.5624      0.1176      5.3101    137.3790     25.4118
  1883.6000      8.1825      2.5632      0.1232      5.2593    136.8943     25.4765
  1883.7000      8.1825      2.5643      0.1288      5.1943    136.4214     25.5327
  1883.8000      8.1453      2.5655      0.1341      5.1227    135.9778     25.5799
  1883.9000      8.1453      2.5666      0.1386      5.0525    135.5773     25.6180
  1884.0000      8.1233      2.5676      0.1419      4.9919    135.2320     25.6470
  1884.1000      8.1233      2.5683      0.1436      4.9485    134.9526     25.6678
  1884.2000      8.1233      2.5687      0.1435      4.9286    134.7442     25.6814
  1884.3000      8.1325      2.5685      0.1412      4.9364    134.6016     25.6892
  1884.4000      8.1325      2.5679      0.1370      4.9739    134.5098     25.6924
  1884.5000      8.1712      2.5668      0.1307      5.0405    134.4398     25.6921
  1884.6000      8.1712      2.5653      0.1229      5.1325    134.3514     25.6892
  1884.7000      8.1712      2.5635      0.1138      5.2440    134.1956     25.6847
  1884.8000      8.1929      2.5615      0.1040      5.3665    133.9226     25.6797
  1884.9000      8.1929      2.5594      0.0941      5.4898    133.4850     25.6763
  1885.0000      8.1861      2.5576      0.0848      5.6025    132.8475     25.6772
  1885.1000      8.1861      2.5561      0.0764      5.6931    131.9942     25.6858
  1885.2000      8.1861      2.5551      0.0696      5.7500    130.9276     25.7053
  1885.3000      8.1739      2.5549      0.0645      5.7633    129.6710     25.7382
  1885.4000      8.1739      2.5555      0.0614      5.7244    128.2666     25.7852
  1885.5000      8.1639      2.5572      0.0604      5.6272    126.7666     25.8441
  1885.6000      8.1639      2.5598      0.0613      5.4686    125.2308     25.9101
  1885.7000      8.1639      2.5634      0.0639      5.2481    123.7133     25.9759
  1885.8000      8.1565      2.5680      0.0679      4.9685    122.2606     26.0327
  1885.9000      8.1565      2.5735      0.0729      4.6354    120.9042     26.0719
  1886.0000      8.1447      2.5798      0.0785      4.2570    119.6531     26.0863
  1886.1000      8.1447      2.5866      0.0842      3.8440    118.4888     26.0711
  1886.2000      8.1447      2.5938      0.0896      3.4086    117.3684     26.0252
  1886.3000      8.1173      2.6011      0.0943      2.9644    116.2198     25.9503
  1886.4000      8.1173      2.6083      0.0981      2.5257    114.9503     25.8500
  1886.5000      8.0782      2.6152      0.1009      2.1066    113.4549     25.7292
  1886.6000      8.0782      2.6216      0.1025      1.7211    111.6309     25.5918
  1886.7000      8.0782      2.6272      0.1029      1.3817    109.3923     25.4401
  1886.8000      8.0543      2.6319      0.1022      1.0998    106.6886     25.2742
  1886.9000      8.0543      2.6354      0.1006      0.8846    103.5168     25.0919
  1887.0000      8.0529      2.6377      0.0983      0.7431     99.9254     24.8891
  1887.1000      8.0529      2.6388      0.0953      0.6795     96.0146     24.6613
  1887.2000      8.0529      2.6385      0.0920      0.6954     91.9249     24.4048
  1887.3000      8.0597      2.6370      0.0884      0.7897     87.8223     24.1171
  1887.4000      8.0597      2.6342      0.0848      0.9584     83.8743     23.7985
  1887.5000      8.0584      2.6303      0.0813      1.1950     80.2339     23.4516
  1887.6000      8.0584      2.6254      0.0780      1.4909     77.0222     23.0819
  1887.7000      8.0584      2.6197      0.0750      1.8355     74.3184     22.6967
  1887.8000      8.0462      2.6134      0.0722      2.2174     72.1563     22.3046
  1887.9000      8.0462      2.6067      0.0698      2.6243     70.5262     21.9147
  1888.0000      8.0491      2.5998      0.0678      3.0440     69.3840     21.5358
  1888.1000      8.0491      2.5928      0.0661      3.4650     68.6589     21.1762
  1888.2000      8.0491      2.5860      0.0648      3.8768     68.2638     20.8431
  1888.3000      8.0666      2.5795      0.0640      4.2705     68.1086     20.5424
  1888.4000      8.0666      2.5735      0.0635      4.6392     68.1068     20.2789
  1888.5000      8.0663      2.5679      0.0635      4.9778     68.1853     20.0559
  1888.6000      8.0663      2.5628      0.0639      5.2831     68.2883     19.8755
  1888.7000      8.0663      2.5584      0.0648      5.5541     68.3796     19.7380
  1888.8000      8.0382      2.5544      0.0660      5.7912     68.4434     19.6418
  1888.9000      8.0382      2.5511      0.0675      5.9963     68.4802     19.5836
  1889.0000      8.0053      2.5482      0.0691      6.1724     68.5042     19.5580
  1889.1000      8.0053      2.5457      0.0708      6.3233     68.5321     19.5578
  1889.2000      8.0053      2.5435      0.0725      6.4533     68.5796     19.5750
