~Version Information
VERS.                      2.0: CWLS Log ASCII Standard - VERSION 2.0
WRAP.                       NO: One line per depth step
~Well Information Block
STRT.FT               550.0000: 
STOP.FT              1577.7500: 
STEP.FT                 0.2500: 
NULL.                -999.2500: 
COMP.          Pioneer Natural Resources: COMPANY
WELL.          Kristin 22-23 Tr: WELL
FLD.           Purgatoire River: FIELD
LOC.           2273' FNL & 2029' FWL: LOCATION
PROV.                 Colorado: PROVINCE
CNTY.               Las Animas: COUNTRY
SRVC.                Patterson: SERVICE COMPANY
DATE.          Thu Jan 20 21:18:23 2005: LOG DATE
UWI.           05 071 08259 00: UNIQUE WELL ID
~Curve Information Block
DEPT.FT            0 000 00 00: Depth
SN.Ohm-m                      : IEL Short Normal
SP.mV                         : IEL Spontaneous Potential
DIR.Ohm-m                     : IEL Induction Resistivity
GR.GAPI                       : Gamma Ray
~Parameter Information Block
~A  Depth        SN          SP         DIR          GR     
# ...
  1153.0000     30.8177   -161.9568     24.0310     83.8631
  1153.2500     30.6627   -162.1054     24.0726     81.0001
  1153.5000     30.4451   -161.9226     23.9009     80.0592
  1153.7500     30.2670   -161.5660     23.6174     81.8287
  1154.0000     30.2104   -161.2025     23.3542     87.9656
  1154.2500     30.2864   -160.9556     23.2086     94.0985
  1154.5000     30.4231   -160.8748     23.2097    104.9061
  1154.7500     30.5001   -160.9370     23.3177    111.4629
  1155.0000     30.4041   -161.0704     23.4458    116.6613
  1155.2500     30.0742   -161.1875     23.4991    115.5816
  1155.5000     29.5269   -161.2134     23.4180    107.4648
  1155.7500     28.8631   -161.1029     23.2073     99.5136
  1156.0000     28.2486   -160.8460     22.9295     87.9776
  1156.2500     27.8543   -160.4628     22.6695     82.6427
  1156.5000     27.7749   -159.9940     22.4951     80.2002
  1156.7500     27.9766   -159.4920     22.4334     82.5137
  1157.0000     28.3169   -159.0180     22.4648     90.6877
  1157.2500     28.6224   -158.6440     22.5313     97.6427
  1157.5000     28.7694   -158.4512     22.5554    106.9007
  1157.7500     28.7233   -158.5179     22.4710    110.9101
  1158.0000     28.5311   -158.8938     22.2548    113.4257
  1158.2500     28.2859   -159.5703     21.9405    113.4782
  1158.5000     28.0795   -160.4623     21.6020    112.4977
  1158.7500     27.9506   -161.4125     21.3195    111.6865
  1159.0000     27.8455   -162.2238     21.1473    110.5498
  1159.2500     27.6224   -162.7067     21.0924    109.5584
  1159.5000     27.1178   -162.7239     21.1059    106.6317
  1159.7500     26.2460   -162.2156     21.0872    103.3394
  1160.0000     25.0556   -161.2001     20.9120     97.5375
  1160.2500     23.6977   -159.7548     20.4798     94.8273
  1160.5000     22.3335   -157.9908     19.7567     95.5083
  1160.7500     21.0567   -156.0295     18.7842     99.7940
  1161.0000     19.8765   -153.9864     17.6504    110.7356
  1161.2500     18.7507   -151.9607     16.4509    119.5405
  1161.5000     17.6346   -150.0302     15.2632    132.6617
  1161.7500     16.5168   -148.2507     14.1378    140.6323
  1162.0000     15.4233   -146.6591     13.1020    151.3208
  1162.2500     14.3993   -145.2798     12.1687    157.7888
  1162.5000     13.4855   -144.1325     11.3453    166.3953
  1162.7500     12.7068   -143.2364     10.6398    171.0140
  1163.0000     12.0716   -142.6102     10.0597    175.7258
  1163.2500     11.5773   -142.2655      9.6101    177.4423
  1163.5000     11.2154   -142.1960      9.2906    178.2485
  1163.7500     10.9730   -142.3694      9.0949    177.6577
  1164.0000     10.8316   -142.7248      9.0118    175.0614
  1164.2500     10.7659   -143.1800      9.0255    172.4144
  1164.5000     10.7482   -143.6458      9.1157    167.6266
  1164.7500     10.7552   -144.0429      9.2591    163.9583
  1165.0000     10.7707   -144.3137      9.4312    157.6509
  1165.2500     10.7878   -144.4287      9.6082    153.2853
  1165.5000     10.8102   -144.3848      9.7699    148.1024
  1165.7500     10.8501   -144.1995      9.9009    146.4686
  1166.0000     10.9154   -143.9041      9.9916    147.1683
  1166.2500     10.9951   -143.5375     10.0374    149.3123
  1166.5000     11.0572   -143.1418     10.0367    154.0093
  1166.7500     11.0660   -142.7586      9.9887    157.6467
  1167.0000     11.0075   -142.4249      9.8959    163.0571
  1167.2500     10.9027   -142.1687      9.7682    166.0730
  1167.5000     10.7999   -142.0065      9.6267    169.1356
  1167.7500     10.7522   -141.9446      9.5021    170.3764
  1168.0000     10.7954   -141.9845      9.4274    171.4586
  1168.2500     10.9381   -142.1316      9.4295    171.3038
  1168.5000     11.1678   -142.4024      9.5243    168.2536
  1168.7500     11.4712   -142.8259      9.7173    163.8313
  1169.0000     11.8541   -143.4385     10.0072    154.6033
  1169.2500     12.3446   -144.2754     10.3905    148.1531
  1169.5000     12.9799   -145.3633     10.8642    140.3481
  1169.7500     13.7861   -146.7153     11.4264    136.8554
  1170.0000     14.7655   -148.3300     12.0763    133.1447
  1170.2500     15.8908   -150.1902     12.8140    130.5780
  1170.5000     17.1091   -152.2574     13.6391    125.2540
  1170.7500     18.3624   -154.4653     14.5440    120.6623
  1171.0000     19.6178   -156.7127     15.5069    113.1091
  1171.2500     20.8721   -158.8660     16.4871    108.4061
  1171.5000     22.1148   -160.7718     17.4284    103.1001
  1171.7500     23.2829   -162.2808     18.2679    101.1834
  1172.0000     24.2529   -163.2738     18.9481    100.6791
  1172.2500     24.8806   -163.6829     19.4257    101.3730
  1172.5000     25.0632   -163.5013     19.6746    102.8510
  1172.7500     24.7826   -162.7803     19.6865    103.9548
  1173.0000     24.1041   -161.6158     19.4668    106.6685
  1173.2500     23.1359   -160.1299     19.0316    109.9208
  1173.5000     21.9860   -158.4500     18.4052    117.2942
  1173.7500     20.7410   -156.6920     17.6228    123.2818
  1174.0000     19.4629   -154.9489     16.7338    132.4737
  1174.2500     18.1959   -153.2876     15.7991    138.4422
  1174.5000     16.9811   -151.7523     14.8793    147.5736
  1174.7500     15.8634   -150.3719     14.0211    153.8489
  1175.0000     14.8826   -149.1686     13.2487    162.6051
  1175.2500     14.0599   -148.1622     12.5674    167.2987
  1175.5000     13.3990   -147.3708     11.9735    172.2854
  1175.7500     12.8933   -146.8074     11.4655    174.5133
  1176.0000     12.5279   -146.4752     11.0481    176.6419
  1176.2500     12.2786   -146.3634     10.7297    177.3273
  1176.5000     12.1184   -146.4461     10.5168    177.3893
  1176.7500     12.0263   -146.6831     10.4105    176.8432
  1177.0000     11.9901   -147.0234     10.4056    174.8735
  1177.2500     11.9999   -147.4118     10.4922    172.6376
  1177.5000     12.0419   -147.7962     10.6561    168.3947
  1177.7500     12.0978   -148.1347     10.8782    165.5547
  1178.0000     12.1528   -148.4015     11.1363    161.5755
  1178.2500     12.2079   -148.5882     11.4078    158.6498
  1178.5000     12.2863   -148.7021     11.6724    153.1642
  1178.7500     12.4224   -148.7625     11.9124    149.2243
  1179.0000     12.6396   -148.7958     12.1125    144.8887
  1179.2500     12.9331   -148.8287     12.2606    143.8461
  1179.5000     13.2691   -148.8804     12.3518    144.2150
  1179.7500     13.5981   -148.9535     12.3903    144.4467
  1180.0000     13.8733   -149.0267     12.3877    143.5753
  1180.2500     14.0669   -149.0560     12.3591    142.7683
  1180.5000     14.1741   -148.9862     12.3201    143.2620
  1180.7500     14.2017   -148.7718     12.2837    145.3621
  1181.0000     14.1529   -148.3981     12.2588    150.1968
  1181.2500     14.0233   -147.8911     12.2505    153.1089
  1181.5000     13.8154   -147.3100     12.2620    154.8196
  1181.7500     13.5574   -146.7254     12.2992    153.9239
  1182.0000     13.3137   -146.1936     12.3730    151.1704
  1182.2500     13.1761   -145.7433     12.4980    149.9912
  1182.5000     13.2372   -145.3788     12.6852    150.9714
  1182.7500     13.5543   -145.0991     12.9345    153.0187
  1183.0000     14.1209   -144.9174     13.2328    155.4294
  1183.2500     14.8660   -144.8690     13.5597    155.2639
  1183.5000     15.6863   -145.0034     13.8987    152.6829
  1183.7500     16.5004   -145.3671     14.2464    150.7817
  1184.0000     17.2909   -145.9872     14.6177    149.3978
  1184.2500     18.1014   -146.8667     15.0436    148.9302
  1184.5000     18.9878   -147.9879     15.5609    145.6435
  1184.7500     19.9695   -149.3204     16.1961    139.7896
  1185.0000     21.0230   -150.8239     16.9500    124.9465
  1185.2500     22.1173   -152.4444     17.7937    112.7148
  1185.5000     23.2510   -154.1068     18.6847     95.3380
  1185.7500     24.4551   -155.7106     19.5907     86.4045
  1186.0000     25.7538   -157.1357     20.5033     78.1074
  1186.2500     27.1062   -158.2592     21.4228     75.5462
