~Version Information
VERS.                      2.0: CWLS Log ASCII Standard - VERSION 2.0
WRAP.                       NO: One line per depth step
~Well Information Block
STRT.FT               752.0000: 
STOP.FT              2474.2000: 
STEP.FT                 0.1000: 
NULL.                -999.2500: 
COMP.          Petrogulf Corporation: COMPANY
WELL.            Montoya 7-14V: WELL
FLD.           Purgatorie River: FIELD
LOC.           535' FSL & 491' FWL: LOCATION
CNTY.               Las Animas: COUNTY
SRVC.                         : SERVICE COMPANY
DATE.          Mon Aug 23 10:41:01 2004: LOG DATE
UWI.           05 071 08019 00: UNIQUE WELL ID
STAT.                 Colorado: STATE
~Curve Information Block
DEPT.FT            0 000 00 00: Depth
DCAL.in                       : CDL Caliper
RHOB.g/cc                     : CDL Bulk Density
RHOC.g/cc                     : CDL Density Correction
DPOR.pu                       : CDL Density Porosity
GR.GAPI                       : Gamma Ray
NPOR.pu                       : Neutron Porosity
~Parameter Information Block
~A  Depth       DCAL        RHOB        RHOC        DPOR         GR         NPOR    
# ...
  1443.2000      7.8514      2.5782      0.2139      4.3521    112.2356     21.2387
  1443.3000      7.8848      2.5781      0.1890      4.3552    117.4915     22.2566
  1443.4000      7.8848      2.5603      0.1635      5.4388    118.7718     22.9763
  1443.5000      7.9173      2.5502      0.1407      6.0470    119.1221     23.4489
  1443.6000      7.9173      2.5507      0.1750      6.0206    118.1253     24.0358
  1443.7000      7.9173      2.5526      0.1692      5.9061    117.5574     25.2157
  1443.8000      7.9340      2.5445      0.1977      6.3923    122.3001     26.9855
  1443.9000      7.9340      2.5136      0.1365      8.2681    128.6803     28.1729
  1444.0000      7.9431      2.4520      0.1234     11.9979    129.3591     28.3056
  1444.1000      7.9431      2.3627      0.0536     17.4116    124.6951     28.2104
  1444.2000      7.9431      2.2733      0.0078     22.8306    122.3220     27.8225
  1444.3000      7.9713      2.2205     -0.0091     26.0325    125.5144     26.9695
  1444.4000      7.9713      2.2151      0.0085     26.3557    126.0223     26.6291
  1444.5000      7.9757      2.2503      0.0385     24.2233    120.0358     27.2723
  1444.6000      7.9757      2.3232      0.0962     19.8048    116.6530     28.0218
  1444.7000      7.9757      2.4194      0.2931     13.9754    120.6399     28.1916
  1444.8000      7.9572      2.4994      0.3993      9.1251    125.6782     27.8547
  1444.9000      7.9572      2.5331      0.4179      7.0826    127.2867     27.1604
  1445.0000      7.9116      2.5215      0.3868      7.7875    126.7469     26.7291
  1445.1000      7.9116      2.4866      0.2628      9.9058    124.5780     26.9529
  1445.2000      7.9116      2.4600      0.1216     11.5134    122.7829     27.2451
  1445.3000      7.8829      2.4605      0.0995     11.4840    124.1640     27.4466
  1445.4000      7.8829      2.4707      0.1212     10.8682    126.2752     28.0774
  1445.5000      7.8484      2.4644      0.1008     11.2485    125.5324     28.6904
  1445.6000      7.8484      2.4461      0.0360     12.3547    123.6091     28.5230
  1445.7000      7.8484      2.4338      0.0534     13.1034    123.8549     27.9231
  1445.8000      7.8826      2.4271      0.0782     13.5067    126.8933     27.3478
  1445.9000      7.8826      2.4218      0.0560     13.8323    132.1612     26.9249
  1446.0000      7.8909      2.4253      0.0682     13.6152    136.4698     26.7370
  1446.1000      7.8909      2.4433      0.0547     12.5251    134.5937     26.5758
  1446.2000      7.8909      2.4622      0.1663     11.3839    128.9918     26.2809
  1446.3000      7.9117      2.4697      0.1519     10.9250    127.7586     25.8973
  1446.4000      7.9117      2.4817      0.1969     10.1974    129.9973     25.3285
  1446.5000      7.9252      2.5154      0.1959      8.1548    126.3061     24.3065
  1446.6000      7.9252      2.5705      0.2136      4.8185    114.1722     22.9862
  1446.7000      7.9252      2.6366      0.2347      0.8091    100.3497     21.7145
  1446.8000      7.9442      2.7016      0.2623     -3.1264     90.0335     20.5256
  1446.9000      7.9442      2.7474      0.2670     -5.9027     82.9398     19.2893
  1447.0000      7.9644      2.7559      0.2297     -6.4211     79.4382     17.8887
  1447.1000      7.9644      2.7354      0.2076     -5.1779     80.2158     16.7733
  1447.2000      7.9644      2.7086      0.1720     -3.5511     81.9692     16.4699
  1447.3000      7.9266      2.6808      0.0898     -1.8696     79.8153     16.5388
  1447.4000      7.9266      2.6502      0.0236     -0.0106     73.3385     16.3807
  1447.5000      7.8432      2.6264     -0.0135      1.4321     66.7436     15.9879
  1447.6000      7.8432      2.6255     -0.0170      1.4836     64.3128     15.6743
  1447.7000      7.8432      2.6449      0.0418      0.3075     67.4274     15.9257
  1447.8000      7.8801      2.6600      0.0352     -0.6078     72.8736     16.7977
  1447.9000      7.8801      2.6610      0.0099     -0.6662     75.5390     17.4897
  1448.0000      7.9088      2.6595     -0.0038     -0.5750     75.0526     17.6212
  1448.1000      7.9088      2.6594      0.0370     -0.5669     75.7263     17.9369
  1448.2000      7.9088      2.6470      0.0308      0.1803     78.9028     18.7646
  1448.3000      7.9331      2.6149      0.0072      2.1303     82.0645     19.2344
  1448.4000      7.9331      2.5815     -0.0332      4.1487     85.8996     19.0083
  1448.5000      7.9371      2.5649     -0.0100      5.1593     90.9361     19.0450
  1448.6000      7.9371      2.5623     -0.0429      5.3181     93.8895     19.6784
  1448.7000      7.9371      2.5660      0.0190      5.0927     96.2943     20.3629
  1448.8000      7.9945      2.5615      0.0636      5.3625    102.2317     21.0064
  1448.9000      7.9945      2.5416      0.0041      6.5695    107.7960     21.6354
  1449.0000      8.1337      2.5218      0.0002      7.7706    109.9693     22.2861
  1449.1000      8.1337      2.5151     -0.0217      8.1750    111.6634     23.0174
  1449.2000      8.1337      2.5156     -0.0050      8.1475    113.0845     23.5467
  1449.3000      7.9833      2.5121      0.0174      8.3595    114.6234     23.3970
  1449.4000      7.9833      2.5078     -0.0478      8.6182    118.1874     22.8876
  1449.5000      7.8687      2.5180      0.0145      8.0009    120.0461     23.0537
  1449.6000      7.8687      2.5440     -0.0052      6.4230    116.6181     23.7574
  1449.7000      7.8687      2.5701      0.0740      4.8433    110.4301     24.2933
  1449.8000      7.8449      2.5818      0.0393      4.1321    107.0866     24.6206
  1449.9000      7.8449      2.5756      0.0924      4.5095    108.0312     25.1080
  1450.0000      7.8477      2.5569      0.0491      5.6410    110.2076     26.0332
  1450.1000      7.8477      2.5356      0.0664      6.9339    111.8620     26.8856
  1450.2000      7.8477      2.5048      0.0520      8.7996    114.6922     27.1175
  1450.3000      7.8753      2.4614      0.0039     11.4302    120.1737     27.1635
  1450.4000      7.8753      2.4287     -0.0102     13.4105    125.6561     27.4002
  1450.5000      7.9070      2.4163      0.0153     14.1644    128.6822     27.5562
  1450.6000      7.9070      2.4095      0.0161     14.5755    130.9151     27.5293
  1450.7000      7.9070      2.4054      0.0340     14.8219    132.9243     27.7728
  1450.8000      8.0748      2.4077      0.1124     14.6867    133.0242     28.4239
  1450.9000      8.0748      2.4094      0.1310     14.5840    130.0166     28.8566
  1451.0000      7.9807      2.4126      0.1092     14.3868    125.4001     28.7446
  1451.1000      7.9807      2.4192      0.2273     13.9871    125.5015     28.6202
  1451.2000      7.9807      2.4185      0.1742     14.0330    131.2503     28.9061
  1451.3000      7.9711      2.4170      0.1403     14.1212    135.1827     29.4752
  1451.4000      7.9711      2.4258      0.1917     13.5903    132.3286     29.7631
  1451.5000      7.9831      2.4340      0.2397     13.0910    126.1087     29.4154
  1451.6000      7.9831      2.4282      0.2888     13.4441    123.1560     28.7986
  1451.7000      7.9831      2.4141      0.2259     14.2956    123.8736     28.2612
  1451.8000      8.0146      2.4155      0.1765     14.2122    126.6822     27.7554
  1451.9000      8.0146      2.4472      0.1570     12.2930    128.1517     27.1964
  1452.0000      8.1195      2.4987      0.1633      9.1718    125.7171     26.8285
  1452.1000      8.1195      2.5483      0.2095      6.1623    126.5352     26.7370
  1452.2000      8.1195      2.5903      0.1832      3.6180    131.4540     26.3987
  1452.3000      7.9743      2.6270      0.2403      1.3918    131.7715     25.8294
  1452.4000      7.9743      2.6449      0.2068      0.3081    125.9773     25.3219
  1452.5000      7.9543      2.6341      0.1826      0.9652    117.4302     24.3341
  1452.6000      7.9543      2.6034      0.1143      2.8245    110.4514     22.7446
  1452.7000      7.9543      2.5714      0.1104      4.7655    108.2752     21.3228
