~Version Information
VERS.                      2.0: CWLS Log ASCII Standard - VERSION 2.0
WRAP.                       NO: One line per depth step
~Well Information Block
STRT.FT               890.0000: 
STOP.FT              1588.2000: 
STEP.FT                 0.1000: 
NULL.                -999.2500: 
COMP.          Evergreen Operating Corporation: COMPANY
WELL.            Tomahawk 44-9: WELL
FLD.           Purgatorie River: FIELD
LOC.           434' FSL & 491' FEL: LOCATION
PROV.                 Colorado: PROVINCE
CNTY.               Las Animas: COUNTRY
SRVC.                         : SERVICE COMPANY
DATE.          Mon Sep 13 10:07:57 2004: LOG DATE
UWI.           05 071 08133 00: UNIQUE WELL ID
~Curve Information Block
DEPT.FT            0 000 00 00: Depth
LTEN.lb                       : Surface Line Tension
DCAL.in                       : CDL Caliper
RHOB.g/cc                     : CDL Bulk Density
RHOC.g/cc                     : CDL Density Correction
DPOR.pu                       : CDL Density Porosity
GR.GAPI                       : Gamma Ray
NPOR.pu                       : Neutron Porosity
~Parameter Information Block
~A  Depth       LTEN        DCAL        RHOB        RHOC        DPOR         GR         NPOR    
# ...
  1074.8000   1069.1346      8.2571      2.6741      0.1054     -1.4587    130.0267     26.3573
  1074.9000   1069.1346      8.2571      2.6533      0.0124     -0.1981    129.6249     25.9404
  1075.0000   1103.4756      8.2560      2.6413      0.0021      0.5274    133.8625     25.4642
  1075.1000   1103.4756      8.2560      2.6339      0.0523      0.9731    138.3087     25.1163
  1075.2000   1103.4756      8.2560      2.6178      0.0360      1.9509    141.0358     24.9653
  1075.3000   1098.0204      8.3346      2.5965     -0.0219      3.2423    143.3092     25.0611
  1075.4000   1098.0204      8.3346      2.5826     -0.0334      4.0864    143.2672     25.4851
  1075.5000   1099.9657      8.3445      2.5754     -0.0095      4.5189    140.8977     25.8800
  1075.6000   1099.9657      8.3445      2.5666      0.0080      5.0534    141.2795     25.9563
  1075.7000   1099.9657      8.3445      2.5537     -0.0149      5.8357    146.7568     25.9327
  1075.8000   1104.5081      8.3452      2.5413      0.0084      6.5860    153.3367     25.9549
  1075.9000   1104.5081      8.3452      2.5329      0.0024      7.0969    159.2390     26.0296
  1076.0000   1104.9645      8.3460      2.5284      0.0111      7.3671    167.4104     26.3319
  1076.1000   1104.9645      8.3460      2.5257      0.0006      7.5355    176.9960     26.8845
  1076.2000   1104.9645      8.3460      2.5209      0.0150      7.8270    181.1048     27.3832
  1076.3000   1099.1257      8.3448      2.5139      0.0068      8.2490    179.8032     27.5811
  1076.4000   1099.1257      8.3448      2.5155     -0.0113      8.1489    179.8105     27.5331
  1076.5000   1116.2521      8.3328      2.5355      0.0160      6.9396    183.2218     27.5099
  1076.6000   1116.2521      8.3328      2.5606      0.0521      5.4192    187.5033     27.6536
  1076.7000   1116.2521      8.3328      2.5760      0.0514      4.4831    188.1084     27.6210
  1076.8000   1085.4408      8.3057      2.5823      0.0769      4.1026    184.1063     27.0006
  1076.9000   1085.4408      8.3057      2.5726      0.0757      4.6912    178.7475     26.1426
  1077.0000   1107.9236      8.2555      2.5338      0.0393      7.0455    175.7251     25.8501
  1077.1000   1107.9236      8.2555      2.4650      0.0248     11.2126    174.7152     26.3249
  1077.2000   1107.9236      8.2555      2.3874     -0.0222     15.9126    172.4896     26.8880
  1077.3000   1110.0388      8.2505      2.3347     -0.0288     19.1079    169.8590     26.9340
  1077.4000   1110.0388      8.2505      2.3218     -0.0129     19.8918    169.0119     26.6543
  1077.5000   1116.6392      8.2488      2.3355     -0.0072     19.0623    168.7600     26.4611
  1077.6000   1116.6392      8.2488      2.3598      0.0008     17.5873    165.9448     26.5370
  1077.7000   1116.6392      8.2488      2.4018     -0.0323     15.0431    163.0018     26.8140
  1077.8000   1077.2993      8.2532      2.4640      0.1385     11.2713    163.2476     26.9020
  1077.9000   1077.2993      8.2532      2.5157      0.2519      8.1411    166.5488     26.5331
  1078.0000   1099.1680      8.2567      2.5486      0.2522      6.1475    174.5921     26.0858
  1078.1000   1099.1680      8.2567      2.5945      0.3986      3.3665    183.8980     26.1258
  1078.2000   1099.1680      8.2567      2.6546      0.4244     -0.2812    186.5135     26.6406
  1078.3000   1074.1952      8.2551      2.6916      0.3893     -2.5191    181.2229     27.0022
  1078.4000   1074.1952      8.2551      2.6841      0.3350     -2.0646    175.5800     27.0102
  1078.5000    999.3676      8.2539      2.6553      0.1878     -0.3236    172.8465     27.2025
  1078.6000    999.3676      8.2539      2.6434      0.1743      0.4003    170.7912     27.6075
  1078.7000    999.3676      8.2539      2.6512      0.1964     -0.0744    167.9297     27.8336
  1078.8000   1098.6210      8.2432      2.6548      0.1778     -0.2879    163.7778     27.8844
  1078.9000   1098.6210      8.2432      2.6440      0.1352      0.3645    160.0947     27.7341
  1079.0000   1072.7245      8.2312      2.6229      0.1092      1.6440    160.7966     27.2873
  1079.1000   1072.7245      8.2312      2.5974      0.0809      3.1849    165.7377     26.9696
  1079.2000   1072.7245      8.2312      2.5795      0.0296      4.2756    167.4016     26.9587
  1079.3000   1010.8886      8.2318      2.5715      0.0847      4.7599    161.5277     26.9026
  1079.4000   1010.8886      8.2318      2.5598      0.0047      5.4682    152.0071     26.7918
  1079.5000   1064.4482      8.2619      2.5382     -0.0190      6.7753    142.2871     26.6309
  1079.6000   1064.4482      8.2619      2.5130      0.0289      8.3010    132.0434     26.2385
  1079.7000   1064.4482      8.2619      2.4928     -0.0169      9.5293    126.5822     25.7292
  1079.8000   1062.5740      8.2653      2.4855      0.0098      9.9696    131.8531     25.2618
  1079.9000   1062.5740      8.2653      2.4906      0.0210      9.6586    142.0196     24.8929
  1080.0000    967.8165      8.2657      2.4941      0.0333      9.4478    149.3094     24.7556
  1080.1000    967.8165      8.2657      2.4851      0.0467      9.9928    152.0762     24.7841
  1080.2000    967.8165      8.2657      2.4748     -0.0032     10.6166    152.1784     24.8269
  1080.3000   1087.3683      8.2703      2.4804      0.0455     10.2766    152.4212     25.0720
  1080.4000   1087.3683      8.2703      2.4986      0.1127      9.1752    155.5509     25.5400
  1080.5000   1085.3341      8.2808      2.5122      0.1422      8.3497    160.4901     25.6820
  1080.6000   1085.3341      8.2808      2.5162      0.1282      8.1120    164.3372     25.3456
  1080.7000   1085.3341      8.2808      2.5183      0.1389      7.9808    171.8500     25.0248
  1080.8000   1014.8903      8.2825      2.5262      0.1136      7.5022    184.5680     24.8829
  1080.9000   1014.8903      8.2825      2.5437      0.1515      6.4418    190.9277     24.8415
  1081.0000   1105.5935      8.2847      2.5664      0.1584      5.0649    183.2860     25.1206
  1081.1000   1105.5935      8.2847      2.5857      0.1921      3.8945    165.9177     25.7504
  1081.2000   1105.5935      8.2847      2.5960      0.1514      3.2741    148.1568     26.3276
  1081.3000   1088.8849      8.2832      2.5955      0.1431      3.3043    139.1341     26.7041
  1081.4000   1088.8849      8.2832      2.5866      0.1156      3.8408    139.2464     26.7511
  1081.5000   1071.3291      8.2775      2.5814      0.0992      4.1573    142.9360     26.3681
  1081.6000   1071.3291      8.2775      2.5944      0.1424      3.3672    147.9502     25.9476
  1081.7000   1071.3291      8.2775      2.6183      0.1290      1.9201    151.5994     25.6837
  1081.8000   1098.0438      8.2399      2.6301      0.1298      1.2047    151.1748     25.6925
  1081.9000   1098.0438      8.2399      2.6216      0.1077      1.7200    149.0251     25.9376
  1082.0000   1089.5250      8.2357      2.6045      0.1270      2.7569    146.6109     26.0039
  1082.1000   1089.5250      8.2357      2.5888      0.1075      3.7107    143.1775     25.8042
  1082.2000   1089.5250      8.2357      2.5765      0.0484      4.4567    143.1560     25.6686
  1082.3000   1036.9336      8.2344      2.5724      0.0391      4.7061    146.8783     25.7806
  1082.4000   1036.9336      8.2344      2.5845      0.0327      3.9716    145.1001     26.1478
  1082.5000   1082.2316      8.2343      2.6094      0.0704      2.4632    136.8411     26.7856
  1082.6000   1082.2316      8.2343      2.6261      0.1082      1.4512    131.0532     27.2116
  1082.7000   1082.2316      8.2343      2.6212      0.0163      1.7451    131.8144     26.9420
  1082.8000   1094.2965      8.2353      2.5983      0.0350      3.1319    134.1098     26.5114
  1082.9000   1094.2965      8.2353      2.5696      0.0071      4.8744    131.5346     26.4740
  1083.0000   1038.1154      8.2345      2.5535      0.0306      5.8504    124.7249     26.3293
  1083.1000   1038.1154      8.2345      2.5563      0.0331      5.6763    117.4930     25.7095
