~Version Information
VERS.                      2.0: CWLS Log ASCII Standard - VERSION 2.0
WRAP.                       NO: One line per depth step
~Well Information Block
STRT.FT                 0.5000: 
STOP.FT              2744.2500: 
STEP.FT                 0.2500: 
NULL.                -999.2500: 
COMP.          Petrogulf Corporation: COMPANY
WELL.              Silva 1-43V: WELL
FLD.           Purgatoire River: FIELD
LOC.           2010' FSL & 614' FEL--: LOCATION
PROV.                 Colorado: PROVINCE
CNTY.               Las Animas: COUNTRY
SRVC.                Patterson: SERVICE COMPANY
DATE.          Mon Sep 12 10:37:12 2005: LOG DATE
UWI.           05 071 08371 00: UNIQUE WELL ID
~Curve Information Block
DEPT.FT            0 000 00 00: Depth
CCL.                          : Casing Collar Locator
TT3.usec                      : CBL 3' Travel Time
AMP3.mV                       : CBL 3' Amplitude
GR.GAPI                       : Gamma Ray
~Parameter Information Block
~A  Depth       CCL         TT3         AMP3         GR     
# ...
   369.0000      0.0000    586.6287      2.8641     84.9766
   369.2500      0.0000    565.8150      2.9340     87.4994
   369.5000      0.0000    543.6465      3.0709     88.5060
   369.7500      0.0000    518.7596      3.2600     89.2246
   370.0000      0.0000    494.8244      3.4939     90.0298
   370.2500      0.0000    480.0773      3.7644     90.3955
   370.5000      0.0000    483.1223      4.0405     90.0848
   370.7500      0.0000    507.2063      4.2491     89.7901
   371.0000      0.0000    545.8364      4.2949     90.2550
   371.2500      0.0000    583.7751      4.1231     91.1550
   371.5000      0.0000    606.3293      3.7817     91.2900
   371.7500      0.0000    611.2986      3.4142     89.7347
   372.0000      0.0000    610.6972      3.1760     86.6173
   372.2500     -2.0000    617.9259      3.1461     83.1353
   372.5000     -2.0000    633.7390      3.3080     81.0118
   372.7500      2.0000    647.3239      3.5942     81.3808
   373.0000      0.0000    651.0204      3.9459     83.6759
   373.2500      0.0000    650.1376      4.3551     85.8261
   373.5000      0.0000    654.8947      4.8520     86.0575
   373.7500      0.0000    665.1588      5.4363     84.4787
   374.0000      0.0000    668.5725      6.0351     82.7207
   374.2500      0.0000    653.3994      6.5553     82.2370
   374.5000      0.0000    619.8334      6.9632     83.2050
   374.7500      0.0000    580.9067      7.2830     84.9294
   375.0000      0.0000    555.4269      7.5375     86.9408
   375.2500      0.0000    557.1470      7.7196     89.2999
   375.5000      0.0000    585.8997      7.8140     91.8434
   375.7500      0.0000    627.1544      7.8241     93.7943
   376.0000      0.0000    660.6374      7.7784     94.6409
   376.2500      0.0000    671.2206      7.7214     95.0665
   376.5000      0.0000    655.1945      7.6893     96.3870
   376.7500      0.0000    621.2709      7.6875     98.9263
   377.0000      0.0000    587.8636      7.6950    101.4011
   377.2500      0.0000    575.6329      7.6945    102.2054
   377.5000      0.0000    596.1968      7.6889    100.9582
   377.7500      0.0000    644.1378      7.6887     98.3508
   378.0000      0.0000    699.2754      7.6940     95.0381
   378.2500      0.0000    738.3652      7.6965     91.5223
   378.5000      0.0000    748.6125      7.6936     88.8274
   378.7500      0.0000    733.7805      7.6932     88.2413
   379.0000      0.0000    707.0913      7.7040     90.0980
   379.2500      0.0000    676.7510      7.7288     93.0954
   379.5000      0.0000    639.7729      7.7672     94.9957
   379.7500      0.0000    590.9418      7.8233     94.2517
   380.0000      0.0000    534.2546      7.9057     91.1733
   380.2500      0.0000    481.9005      8.0159     87.5414
   380.5000      0.0000    443.5545      8.1351     85.2048
   380.7500      0.0000    420.0230      8.2270     84.9608
   381.0000      0.0000    406.4445      8.2617     86.2881
   381.2500      0.0000    398.1599      8.2381     87.8218
   381.5000      0.0000    392.6888      8.1814     88.3170
   381.7500      0.0000    388.6318      8.1224     87.3557
   382.0000      0.0000    384.9904      8.0786     85.2568
   382.2500      0.0000    381.5099      8.0491     82.5696
   382.5000      0.0000    378.5728      8.0243     79.8121
   382.7500      0.0000    376.5200      8.0014     77.5516
   383.0000      0.0000    375.2910      7.9909     76.6117
   383.2500      0.0000    374.6147      8.0063     77.9888
   383.5000      0.0000    374.2480      8.0495     82.0785
   383.7500      0.0000    374.0264      8.1110     87.8279
   384.0000      0.0000    373.8410      8.1833     93.1541
   384.2500      0.0000    373.6295      8.2665     96.6868
   384.5000      0.0000    373.3671      8.3600     98.9638
   384.7500      0.0000    373.0212      8.4545    101.5541
   385.0000      0.0000    372.4426      8.5351    105.0933
   385.2500      0.0000    371.2227      8.5917    108.4666
   385.5000      0.0000    368.6665      8.6277    109.8353
   385.7500      0.0000    364.1331      8.6586    108.2201
   386.0000      0.0000    357.7413      8.6990    104.1574
   386.2500      0.0000    350.8336      8.7501     99.0299
   386.5000      0.0000    345.5452      8.7980     93.9508
   386.7500      0.0000    343.7242      8.8238     89.3229
   387.0000      0.0000    346.0619      8.8132     85.1857
   387.2500      0.0000    351.8337      8.7602     81.5341
   387.5000      0.0000    359.2562      8.6697     78.2420
   387.7500      0.0000    366.4929      8.5596     75.0641
   388.0000      0.0000    373.0658      8.4540     71.8410
   388.2500      0.0000    380.8798      8.3693     68.5132
   388.5000      0.0000    394.3322      8.3076     64.9939
   388.7500      0.0000    419.1134      8.2614     61.2950
   389.0000      0.0000    459.0746      8.2220     57.7776
   389.2500      0.0000    511.7792      8.1835     54.9837
   389.5000      0.0000    566.4678      8.1432     53.0835
   389.7500      0.0000    607.7949      8.1050     51.7358
   390.0000      0.0000    623.1036      8.0799     50.6968
   390.2500      0.0000    607.8729      8.0792     50.2920
   390.5000      0.0000    567.4679      8.1037     50.9627
   390.7500      0.0000    515.7388      8.1387     52.4298
   391.0000      0.0000    469.6824      8.1651     53.6316
   391.2500      0.0000    441.8677      8.1765     53.6101
   391.5000      0.0000    435.6619      8.1851     52.3937
   391.7500      0.0000    445.2797      8.2084     50.9986
   392.0000      0.0000    458.7394      8.2512     50.6503
   392.2500      0.0000    463.3075      8.3062     51.8869
   392.5000      0.0000    452.8522      8.3704     54.1082
   392.7500      0.0000    431.3753      8.4526     55.9016
   393.0000      0.0000    408.4089      8.5572     56.0746
   393.2500      0.0000    391.2123      8.6661     54.6199
   393.5000      0.0000    381.5096      8.7459     52.6783
   393.7500      0.0000    377.5009      8.7745     51.5674
   394.0000      0.0000    376.9746      8.7577     51.9149
   394.2500      0.0000    378.7164      8.7150     53.5895
   394.5000      0.0000    382.3213      8.6586     56.0672
   394.7500      0.0000    387.5480      8.5892     58.5689
   395.0000      0.0000    394.2487      8.5091     60.1402
   395.2500      0.0000    403.1914      8.4308     60.4138
   395.5000      0.0000    417.1269      8.3685     60.6874
   395.7500      0.0000    440.6509      8.3265     63.5834
   396.0000      0.0000    477.0037      8.2985     70.8585
   396.2500      0.0000    521.9958      8.2765     81.4795
   396.5000      0.0000    560.8124      8.2574     92.0908
   396.7500      0.0000    574.8129      8.2412     99.4639
   397.0000      0.0000    555.8483      8.2242    102.6326
   397.2500      0.0000    514.8877      8.1970    102.9365
   397.5000      0.0000    475.7644      8.1553    102.2588
   397.7500      0.0000    459.8307      8.1119    101.3871
   398.0000      0.0000    474.2460      8.0900    100.0369
   398.2500      0.0000    510.5447      8.1010     98.0587
   398.5000      0.0000    552.4597      8.1342     96.1060
   398.7500      0.0000    587.2433      8.1722     95.1758
   399.0000      0.0000    610.7761      8.2118     95.8661
   399.2500      0.0000    621.9400      8.2624     97.9696
   399.5000      0.0000    616.2202      8.3265    100.4749
   399.7500      0.0000    589.2798      8.3914    102.1000
   400.0000      0.0000    544.9176      8.4427    102.1467
   400.2500      0.0000    495.0731      8.4835    100.8737
   400.5000      0.0000    451.7093      8.5362     99.0668
   400.7500      0.0000    420.2577      8.6229     97.3810
   401.0000      0.0000    399.9671      8.7438     96.0201
   401.2500      0.0000    387.7859      8.8779     94.7327
   401.5000      0.0000    380.9460      9.0062     92.9356
   401.7500      0.0000    377.4192      9.1270     90.0796
   402.0000      0.0000    375.7258      9.2477     86.2718
   402.2500      0.0000    374.9159      9.3693     82.4592
