~Version Information
VERS.                      2.0: CWLS Log ASCII Standard - VERSION 2.0
WRAP.                       NO: One line per depth step
~Well Information Block
STRT.FT                -2.0000: 
STOP.FT              1016.0000: 
STEP.FT                 0.2500: 
NULL.                -999.2500: 
COMP.          Evergreen Operating Corp.: COMPANY
WELL.              Sunset 24-3: WELL
FLD.           Purgatorie River: FIELD
LOC.           467' FSL & 2262' FWL--: LOCATION
PROV.                       CO: PROVINCE
CNTY.               Las Animas: COUNTRY
SRVC.                         : SERVICE COMPANY
DATE.          Mon Sep 27 13:40:22 2004: LOG DATE
UWI.           005 071 08158  : UNIQUE WELL ID
~Curve Information Block
DEPT.FT            0 000 00 00: Depth
GR.GAPI                       : Gamma Ray
CCL.                          : Casing Collar Locator
TT3.usec                      : CBL 3' Travel Time
AMP3.mV                       : CBL 3' Amplitude
~Parameter Information Block
~A  Depth        GR         CCL         TT3         AMP3    
# ...
   500.5000     89.5991      0.0000    899.4696      2.8859
   500.7500     86.5620      0.0000    900.7375      2.8212
   501.0000     81.1936      0.0000    897.9734      2.7751
   501.2500     75.1049      0.0000    892.6429      2.7432
   501.5000     69.6176      0.0000    888.5480      2.7164
   501.7500     64.6699      0.0000    888.9266      2.6904
   502.0000     59.6844      0.0000    894.3135      2.6652
   502.2500     54.9969      0.0000    902.5361      2.6380
   502.5000     51.6635      0.0000    910.4802      2.6037
   502.7500     50.0305      0.0000    916.0546      2.5609
   503.0000     49.3270      0.0000    918.7728      2.5174
   503.2500     48.8204      0.0000    918.7324      2.4872
   503.5000     48.7138      0.0000    915.0876      2.4824
   503.7500     49.5702      0.0000    905.4366      2.5054
   504.0000     51.3656      0.0000    887.1794      2.5467
   504.2500     53.5544      0.0000    860.4647      2.5908
   504.5000     55.7526      0.0000    829.9172      2.6242
   504.7500     57.8886      0.0000    802.4031      2.6410
   505.0000     59.7860      0.0000    782.4357      2.6473
   505.2500     60.8376      0.0000    769.9903      2.6599
   505.5000     60.2487      0.0000    762.4745      2.6959
   505.7500     57.8769      0.0000    757.8408      2.7604
   506.0000     54.8789      0.0000    755.5164      2.8429
   506.2500     53.1418      0.0000    755.1237      2.9208
   506.5000     53.8021      0.0000    755.4295      2.9671
   506.7500     56.4546      0.0000    755.0607      2.9667
   507.0000     59.7375      0.0000    753.8258      2.9319
   507.2500     62.2849      0.0000    752.6113      2.8991
   507.5000     63.1189      0.0000    751.8829      2.8997
   507.7500     61.8909      0.0000    750.8663      2.9352
   508.0000     59.2853      0.0000    748.4615      2.9825
   508.2500     56.8516      0.0000    744.5284      3.0216
   508.5000     55.9059      0.0000    740.1306      3.0547
   508.7500     56.5345      0.0000    737.0399      3.0994
   509.0000     57.7727      0.0000    736.9982      3.1678
   509.2500     58.5548      0.0000    740.6373      3.2508
   509.5000     58.3435      0.0000    746.6763      3.3243
   509.7500     57.1524      0.0000    752.4995      3.3682
   510.0000     55.3763      0.0000    755.7083      3.3792
   510.2500     53.6698      0.0000    755.1002      3.3682
   510.5000     52.7320      0.0000    750.7018      3.3500
   510.7500     52.9564      0.0000    743.6904      3.3373
   511.0000     54.1955      0.0000    736.4199      3.3431
   511.2500     55.8694      0.0000    731.7800      3.3835
   511.5000     57.3327      0.0000    731.7540      3.4698
   511.7500     58.2569      0.0000    736.1795      3.5906
   512.0000     58.7728      0.0000    742.7698      3.7078
   512.2500     59.2417      0.0000    748.3831      3.7812
   512.5000     59.9486      0.0000    750.5894      3.8020
   512.7500     61.0993      0.0000    748.6381      3.7936
   513.0000     62.8828      0.0000    743.7361      3.7807
   513.2500     65.1708      0.0000    738.6929      3.7655
   513.5000     67.2969      0.0000    736.5926      3.7373
   513.7500     68.4976      0.0000    738.8608      3.6932
   514.0000     68.6349      0.0000    744.3322      3.6445
   514.2500     68.4509      0.0000    750.3673      3.6078
   514.5000     69.1110      0.0000    754.8886      3.5938
   514.7500     71.3320      0.0000    757.3790      3.6012
   515.0000     74.7389      0.0000    758.3964      3.6216
   515.2500     77.9753      0.0000    758.6648      3.6458
   515.5000     79.5025      0.0000    758.6297      3.6642
   515.7500     78.4444      0.0000    758.4437      3.6655
   516.0000     74.9129      0.0000    758.0139      3.6481
   516.2500     69.8031      0.0000    756.9631      3.6302
   516.5000     64.4354      0.0000    754.6921      3.6371
   516.7500     60.1979      0.0000    750.8550      3.6773
   517.0000     58.0871      0.0000    746.0939      3.7356
   517.2500     58.3335      0.0000    742.0441      3.7874
   517.5000     60.5403      0.0000    740.0173      3.8162
   517.7500     64.0467      0.0000    739.7816      3.8184
   518.0000     67.9642      0.0000    740.3049      3.7984
   518.2500     71.1416      0.0000    741.4774      3.7633
   518.5000     72.6899      0.0000    744.0570      3.7226
   518.7500     72.9104      0.0000    747.8235      3.6908
   519.0000     73.7610      0.0000    750.9368      3.6852
   519.2500     78.0504      0.0000    751.9138      3.7216
   519.5000     87.4672      0.0000    752.2728      3.8146
   519.7500    100.9813      0.0000    756.7754      3.9745
   520.0000    115.2903      0.0000    769.7718      4.1868
   520.2500    126.9840      0.0000    789.8634      4.3810
   520.5000    134.3489      0.0000    809.2105      4.4344
   520.7500    137.4968      0.0000    820.9674      4.2496
   521.0000    137.4288      0.0000    827.4498      3.8607
   521.2500    135.2109      0.0000    837.7922      3.4492
   521.5000    131.5844      0.0000    857.0459      3.2129
   521.7500    126.7341      0.0000    880.7527      3.2145
   522.0000    120.3538      0.0000    900.6974      3.3623
   522.2500    112.2519      2.0000    912.5450      3.5127
   522.5000    103.0321      0.0000    916.7195      3.5633
   522.7500     94.1067      0.0000    914.4259      3.4832
   523.0000     87.0916      0.0000    904.7858      3.3153
   523.2500     83.2297      0.0000    885.7350      3.1525
   523.5000     83.0217      0.0000    857.4874      3.0725
   523.7500     85.9288      0.0000    824.8738      3.0977
   524.0000     90.5091      0.0000    795.4055      3.2248
   524.2500     95.2601      0.0000    774.5042      3.4539
   524.5000     99.3622      0.0000    762.8121      3.7533
   524.7500    102.4773      0.0000    757.6063      4.0416
   525.0000    104.0565      0.0000    755.7369      4.2431
   525.2500    103.2505      0.0000    755.2094      4.3428
   525.5000     99.6975      0.0000    755.1387      4.3757
   525.7500     94.4496      0.0000    755.1927      4.3841
   526.0000     89.8448      0.0000    755.2371      4.3953
   526.2500     87.7647      0.0000    755.2238      4.4219
   526.5000     87.6806      0.0000    755.1749      4.4651
   526.7500     86.9507      0.0000    755.1550      4.5165
   527.0000     83.5099      0.0000    755.2533      4.5687
   527.2500     77.9486      0.0000    755.6053      4.6264
   527.5000     72.7545      0.0000    756.4604      4.7039
   527.7500     70.0712      0.0000    758.2457      4.8101
   528.0000     70.4449      0.0000    761.4618      4.9386
   528.2500     73.0663      0.0000    766.1898      5.0738
   528.5000     76.7157      0.0000    771.4037      5.2012
   528.7500     80.8451      0.0000    775.0127      5.3096
   529.0000     86.1308      0.0000    775.2474      5.3887
   529.2500     93.8114      0.0000    772.2398      5.4290
   529.5000    104.2040      0.0000    767.9211      5.4244
   529.7500    115.8688      0.0000    764.3270      5.3742
   530.0000    126.3832      0.0000    762.2698      5.2870
   530.2500    134.1456      0.0000    761.4373      5.1789
   530.5000    139.4155      0.0000    761.1838      5.0595
   530.7500    143.6038      0.0000    761.0626      4.9243
   531.0000    147.7130      0.0000    760.9283      4.7687
   531.2500    151.4149      0.0000    760.8370      4.6078
   531.5000    153.2552      0.0000    760.9034      4.4714
   531.7500    151.6817      0.0000    761.1951      4.3849
   532.0000    146.5134      0.0000    761.6780      4.3579
   532.2500    139.8876      0.0000    762.1864      4.3822
   532.5000    135.2896      0.0000    762.4221      4.4314
   532.7500    134.9642      0.0000    761.9852      4.4723
   533.0000    138.2664      0.0000    760.5245      4.4844
   533.2500    142.6234      0.0000    758.1185      4.4644
   533.5000    145.5830      0.0000    755.6721      4.4190
   533.7500    145.8611      0.0000    754.7002      4.3636
