~Version Information
VERS.                      2.0: CWLS Log ASCII Standard - VERSION 2.0
WRAP.                       NO: One line per depth step
~Well Information Block
STRT.FT                -7.5000: 
STOP.FT              1545.0000: 
STEP.FT                 0.2500: 
NULL.                -999.2500: 
COMP.          Pioneer Natural Resources: COMPANY
WELL.          Kristin 22-23 Tr: WELL
FLD.           Purgatorie River: FIELD
LOC.           2273' FNL & 2029' FWL--: LOCATION
PROV.                       CO: PROVINCE
CNTY.               Las Animas: COUNTRY
SRVC.                         : SERVICE COMPANY
DATE.          Tue Jan 25 11:16:36 2005: LOG DATE
UWI.           071-08259      : UNIQUE WELL ID
~Curve Information Block
DEPT.FT            0 000 00 00: Depth
CCL.                          : Casing Collar Locator
TT3.usec                      : CBL 3' Travel Time
AMP3.mV                       : CBL 3' Amplitude
GR.GAPI                       : Gamma Ray
~Parameter Information Block
~A  Depth       CCL         TT3         AMP3         GR     
# ...
  1198.5000      0.0000    664.5990      4.9167    165.3071
  1198.7500      0.0000    650.6743      5.0439    163.7275
  1199.0000      0.0000    645.4553      5.1745    159.2139
  1199.2500      0.0000    640.3388      5.2731    153.2568
  1199.5000      0.0000    623.2393      5.3242    146.9625
  1199.7500      0.0000    589.0593      5.3376    141.0287
  1200.0000      0.0000    544.2737      5.3396    135.7632
  1200.2500      0.0000    502.3231      5.3678    130.8996
  1200.5000      0.0000    474.9782      5.4411    126.1691
  1200.7500      0.0000    466.1918      5.5289    122.2444
  1201.0000      0.0000    470.7103      5.5703    120.5151
  1201.2500      0.0000    477.6620      5.5272    121.9922
  1201.5000      0.0000    477.9514      5.4146    126.9527
  1201.7500      0.0000    469.8206      5.2951    135.3721
  1202.0000      0.0000    457.5974      5.2439    146.8931
  1202.2500      0.0000    446.4856      5.2916    160.2877
  1202.5000      0.0000    439.3137      5.3973    173.2867
  1202.7500      0.0000    436.5402      5.4909    183.0539
  1203.0000      0.0000    437.5304      5.5297    187.1154
  1203.2500      0.0000    442.1786      5.5063    184.6290
  1203.5000      0.0000    451.5441      5.4354    177.1989
  1203.7500      0.0000    465.4356      5.3534    168.3563
  1204.0000      0.0000    478.6300      5.2957    162.0232
  1204.2500      0.0000    482.2095      5.2526    160.8463
  1204.5000      0.0000    471.4092      5.1747    164.8867
  1204.7500      0.0000    450.9145      5.0337    171.4098
  1205.0000      0.0000    430.4629      4.8543    176.3741
  1205.2500      0.0000    416.6146      4.6844    176.9118
  1205.5000      0.0000    409.8549      4.5618    172.9390
  1205.7500      0.0000    407.3134      4.5103    166.5330
  1206.0000      0.0000    406.0583      4.5424    159.8224
  1206.2500      0.0000    404.4407      4.6505    153.6477
  1206.5000      0.0000    402.0020      4.7901    148.0835
  1206.7500      0.0000    398.9970      4.8843    143.4540
  1207.0000      0.0000    396.0016      4.8718    140.1902
  1207.2500      0.0000    393.8105      4.7637    137.9825
  1207.5000      0.0000    393.3402      4.6376    135.6599
  1207.7500      0.0000    395.4808      4.5717    132.0860
  1208.0000      0.0000    401.1902      4.5983    127.0633
  1208.2500      0.0000    412.3002      4.7101    121.4815
  1208.5000      0.0000    432.2049      4.8759    116.8465
  1208.7500      0.0000    464.2358      5.0468    114.5312
  1209.0000      0.0000    507.5614      5.1854    114.9054
  1209.2500      0.0000    554.8708      5.2986    116.9854
  1209.5000      0.0000    595.8962      5.4159    119.2546
  1209.7500      0.0000    624.0676      5.5407    120.9611
  1210.0000      0.0000    639.5197      5.6452    122.3540
  1210.2500      0.0000    646.3937      5.7035    123.8172
  1210.5000      0.0000    648.4855      5.7111    125.4464
  1210.7500      0.0000    646.9849      5.6842    127.3479
  1211.0000      0.0000    640.6830      5.6464    129.4952
  1211.2500      0.0000    627.9436      5.5997    131.3060
  1211.5000      0.0000    609.5420      5.5124    132.0862
  1211.7500      0.0000    589.8660      5.3627    131.8589
  1212.0000      0.0000    573.6742      5.1836    131.0754
  1212.2500      0.0000    560.8608      5.0407    129.5086
  1212.5000      0.0000    546.0073      4.9722    125.9981
  1212.7500      0.0000    524.2472      4.9693    119.4202
  1213.0000      0.0000    496.1353      4.9905    109.8430
  1213.2500      0.0000    466.2009      4.9853     99.0148
  1213.5000      0.0000    439.0074      4.9305     89.8276
  1213.7500      0.0000    417.5136      4.8561     84.7269
  1214.0000      0.0000    402.9634      4.8139     84.0201
  1214.2500      0.0000    394.7349      4.8239     85.6955
  1214.5000      0.0000    390.8659      4.8750     87.1536
  1214.7500      0.0000    389.3146      4.9572     87.1274
  1215.0000      0.0000    388.7825      5.0579     85.8735
  1215.2500      0.0000    388.6765      5.1375     84.0110
  1215.5000      0.0000    388.7586      5.1500     82.0263
  1215.7500      0.0000    388.9254      5.0938     80.8037
  1216.0000      0.0000    389.1177      5.0252     81.4032
  1216.2500      0.0000    389.3172      5.0115     83.9015
  1216.5000      0.0000    389.5416      5.0679     87.2803
  1216.7500      0.0000    389.8526      5.1425     90.6914
  1217.0000      0.0000    390.4775      5.1719     94.0769
  1217.2500      0.0000    392.1622      5.1479     97.3601
  1217.5000      0.0000    396.7211      5.1108     99.7044
  1217.7500      0.0000    407.1523      5.0926     99.9061
  1218.0000      0.0000    426.2309      5.0980     97.3717
  1218.2500      0.0000    453.6692      5.1359     92.6997
  1218.5000      0.0000    484.5180      5.2183     87.3859
  1218.7500      0.0000    511.5265      5.3212     82.9123
  1219.0000      0.0000    529.6910      5.3787     80.0175
  1219.2500      0.0000    538.1826      5.3385     78.6421
  1219.5000      0.0000    538.1044      5.2150     78.4710
  1219.7500      0.0000    529.4946      5.0851     79.5646
  1220.0000      0.0000    511.3089      5.0198     82.2710
  1220.2500      0.0000    484.3684      5.0195     86.3118
  1220.5000      0.0000    453.5563      5.0288     90.1630
  1220.7500      0.0000    425.9327      5.0088     91.7763
  1221.0000      0.0000    406.3004      4.9687     90.2290
  1221.2500      0.0000    394.9317      4.9347     86.7504
  1221.5000      0.0000    389.1779      4.9219     83.9165
  1221.7500      0.0000    386.2521      4.9379     83.6094
  1222.0000      0.0000    384.5609      4.9850     85.6779
  1222.2500      0.0000    383.5950      5.0553     88.2811
  1222.5000      0.0000    383.5813      5.1319     89.3228
  1222.7500      0.0000    385.5432      5.1949     88.0119
  1223.0000      0.0000    391.5783      5.2323     85.3896
  1223.2500      0.0000    404.5308      5.2492     83.0418
  1223.5000      0.0000    426.2264      5.2523     81.3359
  1223.7500      0.0000    455.0454      5.2286     79.4520
  1224.0000      0.0000    485.4660      5.1565     76.9041
  1224.2500      0.0000    511.0343      5.0394     74.3769
  1224.5000      0.0000    528.2683      4.9136     73.2003
  1224.7500      0.0000    537.7708      4.8279     74.3601
  1225.0000      0.0000    542.2601      4.8096     77.7218
  1225.2500      0.0000    544.2277      4.8365     81.8794
  1225.5000      0.0000    545.0686      4.8537     84.8893
  1225.7500      0.0000    545.2570      4.8320     85.4781
  1226.0000      0.0000    544.5927      4.7964     83.8851
  1226.2500      0.0000    542.2145      4.7863     81.6999
  1226.5000      0.0000    537.0000      4.8072     80.6053
  1226.7500      0.0000    528.9257      4.8337     80.9395
  1227.0000      0.0000    520.2870      4.8500     81.6494
  1227.2500      0.0000    514.1490      4.8702     81.7337
  1227.5000      0.0000    510.2348      4.9113     81.2122
  1227.7500      0.0000    503.4270      4.9591     80.4991
  1228.0000      0.0000    488.3114      4.9899     79.6000
  1228.2500      0.0000    465.0545      5.0191     78.4527
  1228.5000      0.0000    439.6364      5.0883     77.4671
  1228.7500      0.0000    418.6645      5.2039     77.2065
  1229.0000      0.0000    404.9110      5.3147     78.0029
  1229.2500      0.0000    397.2486      5.3561     80.0465
  1229.5000      0.0000    393.2097      5.3071     83.0866
  1229.7500      0.0000    390.9557      5.2096     85.8364
  1230.0000      0.0000    389.6509      5.1380     86.6298
  1230.2500      0.0000    388.9991      5.1466     85.0418
  1230.5000      0.0000    388.8558      5.2320     82.2341
  1230.7500      0.0000    389.1212      5.3386     79.6964
  1231.0000      0.0000    389.7736      5.4115     78.2815
  1231.2500      0.0000    390.8641      5.4517     78.2803
  1231.5000      0.0000    392.5585      5.4963     79.6444
  1231.7500      0.0000    395.4320      5.5452     81.7894
