~Version Information
VERS.                      2.0: CWLS Log ASCII Standard - VERSION 2.0
WRAP.                       NO: One line per depth step
~Well Information Block
STRT.FT               506.1000: 
STOP.FT              2140.0000: 
STEP.FT                 0.1000: 
NULL.                -999.2500: 
COMP.          Petrogulf Corporation: COMPANY
WELL.            Montoya 1-44R: WELL
FLD.           Purgatorie River: FIELD
LOC.           658' FSL & 1052' FWL: LOCATION
CNTY.               Las Animas: COUNTY
SRVC.                         : SERVICE COMPANY
DATE.          Tue Nov 16 04:33:40 2004: LOG DATE
UWI.           05 071 08239 00: UNIQUE WELL ID
STAT.                 Colorado: STATE
~Curve Information Block
DEPT.FT            0 000 00 00: Depth
DCAL.in                       : CDL Caliper
RHOB.g/cc                     : CDL Bulk Density
RHOC.g/cc                     : CDL Density Correction
DPOR.pu                       : CDL Density Porosity
GR.GAPI                       : Gamma Ray
NPOR.pu                       : Neutron Porosity
~Parameter Information Block
~A  Depth       DCAL        RHOB        RHOC        DPOR         GR         NPOR    
# ...
  1091.7000      7.9044      2.5457      0.0318      6.3190    140.7782     28.0795
  1091.8000      7.9008      2.5196     -0.0161      7.9050    140.6872     28.9346
  1091.9000      7.9008      2.5204     -0.0064      7.8533    145.7872     29.7035
  1092.0000      7.9058      2.5494      0.0628      6.0943    150.1900     29.7591
  1092.1000      7.9058      2.5739      0.1028      4.6111    152.5831     29.5537
  1092.2000      7.9058      2.5745      0.0768      4.5769    152.4669     29.4899
  1092.3000      7.9119      2.5654      0.0690      5.1295    150.7238     29.2291
  1092.4000      7.9119      2.5624      0.0704      5.3084    149.7740     28.3511
  1092.5000      7.9146      2.5634      0.0820      5.2481    148.5793     26.9712
  1092.6000      7.9146      2.5605      0.0783      5.4215    142.7823     25.8735
  1092.7000      7.9146      2.5520      0.0361      5.9413    134.8700     25.6004
  1092.8000      7.9164      2.5412      0.0151      6.5912    131.8095     25.5020
  1092.9000      7.9164      2.5363      0.0487      6.8888    133.8000     24.8947
  1093.0000      7.9185      2.5471      0.0181      6.2383    134.7594     24.4095
  1093.1000      7.9185      2.5676      0.0559      4.9964    131.2322     24.8943
  1093.2000      7.9185      2.5755      0.0651      4.5160    129.0070     26.0123
  1093.3000      7.9181      2.5712      0.0387      4.7755    129.7916     26.8397
  1093.4000      7.9181      2.5646      0.1036      5.1759    127.2722     26.9531
  1093.5000      7.9142      2.5453      0.0606      6.3438    124.9921     27.0878
  1093.6000      7.9142      2.5190      0.0376      7.9404    128.7361     27.7625
  1093.7000      7.9142      2.5134      0.0272      8.2786    134.0383     28.6114
  1093.8000      7.9030      2.5298      0.0831      7.2839    135.8894     29.3296
  1093.9000      7.9030      2.5448      0.1088      6.3761    134.1691     29.3667
  1094.0000      7.8914      2.5569      0.0808      5.6435    132.7912     28.8192
  1094.1000      7.8914      2.5775      0.1191      4.3964    135.1190     28.5996
  1094.2000      7.8914      2.6007      0.1415      2.9850    137.5095     28.8397
  1094.3000      7.8860      2.6153      0.1949      2.1011    135.5584     29.0770
  1094.4000      7.8860      2.6278      0.1551      1.3462    131.4837     29.4220
  1094.5000      7.8734      2.6476      0.1814      0.1469    132.1019     29.9729
  1094.6000      7.8734      2.6602      0.1151     -0.6194    138.9389     30.0305
  1094.7000      7.8734      2.6560      0.0915     -0.3629    144.8022     29.0693
  1094.8000      7.8457      2.6484      0.0621      0.0969    143.6301     27.7792
  1094.9000      7.8457      2.6469      0.0891      0.1858    134.9088     26.8857
  1095.0000      7.8261      2.6543      0.1149     -0.2583    121.5605     26.0886
  1095.1000      7.8261      2.6728      0.0949     -1.3803    109.7613     25.3559
  1095.2000      7.8261      2.6893      0.0900     -2.3813    103.3469     25.1261
  1095.3000      7.8236      2.6858      0.0971     -2.1708    103.0040     25.3383
  1095.4000      7.8236      2.6699      0.0750     -1.2048    108.8949     25.5457
  1095.5000      7.8219      2.6596      0.0786     -0.5842    114.9652     25.2901
  1095.6000      7.8219      2.6549      0.0788     -0.2996    115.8206     24.7983
  1095.7000      7.8219      2.6474      0.0478      0.1562    115.3137     24.4290
  1095.8000      7.8192      2.6344      0.0345      0.9436    117.9313     24.1764
  1095.9000      7.8192      2.6184      0.0212      1.9151    124.3621     24.4444
  1096.0000      7.8246      2.6079      0.0612      2.5498    132.9467     25.1703
  1096.1000      7.8246      2.6114      0.0500      2.3415    139.5346     25.7677
  1096.2000      7.8246      2.6239      0.0974      1.5827    141.9167     26.1608
  1096.3000      7.8280      2.6249      0.1264      1.5190    142.1296     26.0992
  1096.4000      7.8280      2.6035      0.0994      2.8182    140.9184     25.1622
  1096.5000      7.8202      2.5773      0.0808      4.4080    137.4601     24.1870
  1096.6000      7.8202      2.5685      0.0833      4.9419    133.8604     24.1627
  1096.7000      7.8202      2.5792      0.0709      4.2930    131.9922     23.9443
  1096.8000      7.8159      2.5988      0.1107      3.1054    130.5621     22.5360
  1096.9000      7.8159      2.6190      0.0863      1.8768    127.0709     21.3344
  1097.0000      7.8195      2.6380      0.0979      0.7259    122.0895     21.7695
  1097.1000      7.8195      2.6529      0.1254     -0.1782    117.6007     22.6276
  1097.2000      7.8195      2.6645      0.1397     -0.8803    112.9315     22.1047
  1097.3000      7.8212      2.6791      0.0995     -1.7616    106.1975     21.0971
  1097.4000      7.8212      2.6954      0.1372     -2.7489     97.8848     20.4536
  1097.5000      7.8207      2.7058      0.1174     -3.3840     89.8975     19.4870
  1097.6000      7.8207      2.7078      0.1375     -3.5014     83.5979     18.6195
  1097.7000      7.8207      2.7025      0.0970     -3.1802     80.3923     18.4510
  1097.8000      7.8226      2.6991      0.1173     -2.9732     80.2761     18.4358
  1097.9000      7.8226      2.6994      0.1600     -2.9938     81.3710     18.2811
  1098.0000      7.8423      2.6935      0.1174     -2.6339     83.7224     18.0829
  1098.1000      7.8423      2.6799      0.0967     -1.8113     88.7106     17.7867
  1098.2000      7.8423      2.6610      0.1132     -0.6664     95.5769     17.5203
  1098.3000      7.8941      2.6400      0.0641      0.6047     99.0498     17.5187
  1098.4000      7.8941      2.6228      0.0798      1.6460     98.0887     17.7313
  1098.5000      7.9551      2.6068      0.0464      2.6183     99.2674     18.1831
  1098.6000      7.9551      2.5887      0.0356      3.7135    103.5681     19.2222
  1098.7000      7.9551      2.5754     -0.0116      4.5240    105.7118     20.8390
  1098.8000      7.9956      2.5746     -0.0020      4.5694    105.5636     22.3946
  1098.9000      7.9956      2.5835     -0.0062      4.0311    107.9134     23.3015
  1099.0000      8.0133      2.5856      0.0576      3.9018    111.5195     23.7988
  1099.1000      8.0133      2.5726      0.0234      4.6891    111.7043     24.6785
  1099.2000      8.0133      2.5607      0.0321      5.4114    109.1536     25.9716
  1099.3000      8.0158      2.5619      0.0310      5.3391    109.5866     27.0885
  1099.4000      8.0158      2.5661      0.0348      5.0836    113.5725     27.7447
  1099.5000      8.0114      2.5640      0.0243      5.2128    116.0172     27.8941
  1099.6000      8.0114      2.5588      0.0301      5.5270    116.6992     27.8546
  1099.7000      8.0114      2.5563      0.0240      5.6766    119.5474     28.1807
  1099.8000      8.0040      2.5540      0.0649      5.8202    124.5063     28.3709
  1099.9000      8.0040      2.5461     -0.0080      6.2947    128.3799     27.9227
  1100.0000      8.0015      2.5368     -0.0180      6.8618    131.0194     27.5264
  1100.1000      8.0015      2.5290      0.0280      7.3348    135.2079     27.5865
  1100.2000      8.0015      2.5245      0.0393      7.6041    139.4547     28.1586
  1100.3000      8.0038      2.5301      0.0368      7.2649    138.5729     29.1746
  1100.4000      8.0038      2.5440      0.0462      6.4225    135.4835     29.8848
  1100.5000      8.0074      2.5582      0.0806      5.5641    137.1161     29.7343
  1100.6000      8.0074      2.5670      0.0784      5.0282    142.8888     28.9720
  1100.7000      8.0074      2.5656      0.0844      5.1132    147.4362     28.0777
  1100.8000      8.0115      2.5554      0.0933      5.7314    146.7666     27.3142
  1100.9000      8.0115      2.5471      0.0896      6.2380    144.3062     27.0040
  1101.0000      8.0123      2.5452      0.1192      6.3486    145.0259     27.5304
  1101.1000      8.0123      2.5467      0.1013      6.2628    146.4003     28.2422
  1101.2000      8.0123      2.5495      0.0910      6.0925    145.3893     28.1548
