~Version Information
VERS.                      2.0: CWLS Log ASCII Standard - VERSION 2.0
WRAP.                       NO: One line per depth step
~Well Information Block
STRT.FT               768.0000: 
STOP.FT              2637.5000: 
STEP.FT                 0.2500: 
NULL.                -999.2500: 
COMP.          Pioneer Natural Resources: COMPANY
WELL.               Zink 44-10: WELL
FLD.           Purgatoire River: FIELD
LOC.           548' FSL & 473' FEL: LOCATION
PROV.                 Colorado: PROVINCE
CNTY.               Las Animas: COUNTRY
SRVC.                Patterson: SERVICE COMPANY
DATE.          Mon May 30 05:59:42 2005: LOG DATE
UWI.           05 071 08380 00: UNIQUE WELL ID
~Curve Information Block
DEPT.FT            0 000 00 00: Depth
SN.Ohm-m                      : IEL Short Normal
SP.mV                         : IEL Spontaneous Potential
DIR.Ohm-m                     : IEL Induction Resistivity
GR.GAPI                       : Gamma Ray
~Parameter Information Block
~A  Depth        SN          SP         DIR          GR     
# ...
  2610.5000     33.8226     29.4781     31.7068     83.3679
  2610.7500     34.0490     29.5791     31.8286     83.7881
  2611.0000     34.2315     29.6120     31.7789     82.6695
  2611.2500     34.3509     29.5827     31.5912     81.0868
  2611.5000     34.4123     29.5113     31.3331     78.4699
  2611.7500     34.4366     29.4346     31.0834     77.0932
  2612.0000     34.4349     29.3986     30.9134     75.8706
  2612.2500     34.4057     29.4338     30.8650     75.4179
  2612.5000     34.3408     29.5320     30.9303     74.7532
  2612.7500     34.2332     29.6462     31.0523     74.1262
  2613.0000     34.0847     29.7219     31.1566     72.8397
  2613.2500     33.9013     29.7360     31.1997     71.8058
  2613.5000     33.6790     29.7122     31.1902     70.2017
  2613.7500     33.4000     29.7001     31.1603     69.2565
  2614.0000     33.0492     29.7386     31.1177     68.2116
  2614.2500     32.6523     29.8324     31.0248     67.7630
  2614.5000     32.2965     29.9523     30.8258     67.2878
  2614.7500     32.0540     30.0536     30.4964     66.9646
  2615.0000     31.8945     30.0973     30.0746     66.3896
  2615.2500     31.7423     30.0662     29.6473     66.0435
  2615.5000     31.5712     29.9717     29.3059     65.8093
  2615.7500     31.4038     29.8498     29.1004     65.9139
  2616.0000     31.2707     29.7457     29.0152     66.6339
  2616.2500     31.1860     29.6958     28.9724     67.6480
  2616.5000     31.1374     29.7162     28.8602     69.9639
  2616.7500     31.0877     29.8022     28.5778     71.6903
  2617.0000     30.9807     29.9331     28.0769     73.5401
  2617.2500     30.7579     30.0783     27.3808     73.5927
  2617.5000     30.3981     30.2031     26.5756     70.3472
  2617.7500     29.9448     30.2808     25.7783     64.8413
  2618.0000     29.4762     30.3094     25.0922     50.7013
  2618.2500     29.0469     30.3202     24.5675     38.5440
  2618.5000     28.6575     30.3613     24.1842     20.8216
  2618.7500     28.2591     30.4624     23.8706     11.8482
  2619.0000     27.7755     30.6159     23.5474      3.9599
  2619.2500     27.1536     30.7900     23.1721      1.6006
  2619.5000     26.4221     30.9623     22.7512      0.3125
  2619.7500     25.6623     31.1390     22.3222      0.0867
  2620.0000     24.9072     31.3463     21.9278      0.0081
  2620.2500     24.1295     31.6040     21.5969      0.0000
  2620.5000     23.3434     31.9054     21.3345   -999.2500
  2620.7500     22.6479     32.2159     21.1167   -999.2500
  2621.0000     22.1845     32.4883     20.8996   -999.2500
  2621.2500     22.0787     32.6869     20.6428   -999.2500
  2621.5000     22.3284     32.8083     20.3397   -999.2500
  2621.7500     22.7568     32.8851     20.0244   -999.2500
  2622.0000     23.1634     32.9698     19.7444   -999.2500
  2622.2500     23.4624     33.1156     19.5177   -999.2500
  2622.5000     23.6694     33.3607     19.3086   -999.2500
  2622.7500     23.8723     33.7177     19.0442   -999.2500
  2623.0000     24.1473     34.1735     18.6643   -999.2500
  2623.2500     24.3960     34.7054     18.1620   -999.2500
  2623.5000     24.3574     35.3007     17.5817   -999.2500
  2623.7500     23.8400     35.9649     16.9787   -999.2500
  2624.0000     22.8613     36.7126     16.3871   -999.2500
  2624.2500     21.5877     37.5584     15.8180   -999.2500
  2624.5000     20.2200     38.5143     15.1737   -999.2500
  2624.7500     18.9045     39.5866     14.6870   -999.2500
  2625.0000     17.6928     40.7617     14.2676   -999.2500
  2625.2500     16.5855     41.9914     13.9302   -999.2500
  2625.5000     15.6099     43.2007     13.6728   -999.2500
  2625.7500     14.8391     44.3171     13.4797   -999.2500
  2626.0000     14.3634     45.2950     13.3323   -999.2500
  2626.2500     14.2355     46.1211     13.2208   -999.2500
  2626.5000     14.3853     46.8079     13.1509   -999.2500
  2626.7500     14.6252     47.3859     13.1460   -999.2500
  2627.0000     14.8149     47.8934     13.2513   -999.2500
  2627.2500     14.9965     48.3615     13.5494   -999.2500
  2627.5000     15.3502     48.8007     14.1846   -999.2500
  2627.7500     16.0394     49.1972     15.3933   -999.2500
  2628.0000     17.0850     49.5267     17.7116   -999.2500
  2628.2500     18.3679     49.7757     21.4454   -999.2500
  2628.5000     19.7496     49.9523     27.5876   -999.2500
  2628.7500     21.1451     50.0764     37.2007   -999.2500
  2629.0000     22.4779     50.1635     50.8753   -999.2500
  2629.2500     23.6549     50.2197     67.2133   -999.2500
  2629.5000     24.6069     50.2490     82.3013   -999.2500
  2629.7500     25.2932     50.2569     92.8037   -999.2500
  2630.0000     25.6939     50.2446     98.8991   -999.2500
  2630.2500     25.8831     50.2040    102.8442   -999.2500
  2630.5000     26.0400     50.1244    106.7556   -999.2500
  2630.7500     26.2624     50.0050    112.1041   -999.2500
  2631.0000     26.4472     49.8565   3834.7244   -999.2500
  2631.2500     26.4242     49.6923 100000.0000   -999.2500
  2631.5000     26.1482     49.5206 100000.0000   -999.2500
  2631.7500     25.7527     49.3428 100000.0000   -999.2500
  2632.0000     25.4513     49.1532 100000.0000   -999.2500
  2632.2500     25.3626     48.9401 100000.0000   -999.2500
  2632.5000     25.4315     48.6890 100000.0000   -999.2500
  2632.7500     25.5361     48.3445 100000.0000   -999.2500
  2633.0000     25.6134     47.6886 100000.0000   -999.2500
  2633.2500     25.6617     46.1648 100000.0000   -999.2500
  2633.5000     25.6730     42.8514 100000.0000   -999.2500
  2633.7500     25.5147     36.9028 100000.0000   -999.2500
  2634.0000     24.6016     28.4154 100000.0000   -999.2500
  2634.2500     21.6193     18.9022 100000.0000   -999.2500
  2634.5000     15.5740     10.5618 100000.0000   -999.2500
  2634.7500      7.8490      4.8534 100000.0000   -999.2500
  2635.0000      1.5794      1.8063 100000.0000   -999.2500
  2635.2500     -1.6657      0.5384 100000.0000   -999.2500
  2635.5000     -2.7392      0.1274 100000.0000   -999.2500
  2635.7500     -2.9665      0.0236 100000.0000   -999.2500
  2636.0000     -2.9973      0.0031 100000.0000   -999.2500
  2636.2500   -999.2500   -999.2500 100000.0000   -999.2500
  2636.5000   -999.2500   -999.2500 100000.0000   -999.2500
  2636.7500   -999.2500   -999.2500 100000.0000   -999.2500
  2637.0000   -999.2500   -999.2500 100000.0000   -999.2500
  2637.2500   -999.2500   -999.2500 100000.0000   -999.2500
  2637.5000   -999.2500   -999.2500 100000.0000   -999.2500
