~Version Information
VERS.                      2.0: CWLS Log ASCII Standard - VERSION 2.0
WRAP.                       NO: One line per depth step
~Well Information Block
STRT.FT               250.0000: 
STOP.FT              2600.7000: 
STEP.FT                 0.1000: 
NULL.                -999.2500: 
COMP.          Pioneer Natural Resources: COMPANY
WELL.              Quack 22-24: WELL
FLD.           Purgatoire River: FIELD
LOC.           2492' FNL & 2459' FWL--: LOCATION
PROV.                 Colorado: PROVINCE
CNTY.               Las Animas: COUNTRY
SRVC.                Patterson: SERVICE COMPANY
DATE.          Mon Jun 13 08:03:15 2005: LOG DATE
UWI.            05 071 0840200: UNIQUE WELL ID
~Curve Information Block
DEPT.FT            0 000 00 00: Depth
DCAL.in                       : CDL Caliper
RHOB.g/cc                     : CDL Bulk Density
RHOC.g/cc                     : CDL Density Correction
DPOR.pu                       : CDL Density Porosity
NPOR.pu                       : Neutron Porosity
GR.GAPI                       : Gamma Ray
~Parameter Information Block
~A  Depth       DCAL        RHOB        RHOC        DPOR        NPOR         GR     
# ...
  1027.6000      8.1810      2.4641     -0.0180     11.2664     28.2219    140.0609
  1027.7000      8.1810      2.4230     -0.0088     13.7578     27.1650    144.6151
  1027.8000      8.2152      2.3670     -0.0297     17.1527     26.1083    145.8704
  1027.9000      8.2152      2.3234     -0.0217     19.7968     25.3708    138.4897
  1028.0000      8.2383      2.2973      0.0435     21.3750     24.6190    127.7389
  1028.1000      8.2383      2.2707      0.0101     22.9904     23.4601    121.7280
  1028.2000      8.2383      2.2462      0.0317     24.4731     22.1228    119.7864
  1028.3000      8.2543      2.2414      0.0756     24.7659     20.8748    119.6551
  1028.4000      8.2543      2.2526      0.1518     24.0845     19.6344    121.7687
  1028.5000      8.2611      2.2565      0.1514     23.8484     18.3437    127.7793
  1028.6000      8.2611      2.2334      0.1312     25.2484     17.1156    134.8647
  1028.7000      8.2611      2.1717      0.1443     28.9856     16.3284    138.5341
  1028.8000      8.2630      2.0677      0.1197     35.2925     16.2355    137.8143
  1028.9000      8.2630      1.9458      0.0846     42.6785     16.7126    135.0225
  1029.0000      8.2805      1.8663      0.0566     47.4987     17.6969    134.7748
  1029.1000      8.2805      1.8837      0.0574     46.4446     18.9698    136.3245
  1029.2000      8.2805      1.9839      0.2042     40.3701     20.0708    136.5397
  1029.3000      8.3269      2.0963      0.3216     33.5575     20.8503    137.9046
  1029.4000      8.3269      2.1964      0.3154     27.4937     21.2059    141.3447
  1029.5000      8.3547      2.3218      0.4131     19.8929     21.3360    141.2054
  1029.6000      8.3547      2.4730      0.6111     10.7268     21.8713    137.4832
  1029.7000      8.3547      2.5962      0.6038      3.2577     22.7796    135.4153
  1029.8000      8.3061      2.6598      0.5241     -0.5969     23.6960    133.5741
  1029.9000      8.3061      2.6632      0.4910     -0.7978     24.6392    131.9275
  1030.0000      8.2249      2.6042      0.3881      2.7768     25.6943    133.3727
  1030.1000      8.2249      2.5001      0.2190      9.0863     26.6024    137.8485
  1030.2000      8.2249      2.4005      0.0662     15.1187     27.0279    145.3749
  1030.3000      8.1818      2.3425      0.0783     18.6350     26.8500    152.8008
  1030.4000      8.1818      2.3099      0.1613     20.6101     26.1933    154.0748
  1030.5000      8.1788      2.2634      0.1098     23.4329     25.7281    152.2498
  1030.6000      8.1788      2.1943      0.0318     27.6157     25.8078    155.8966
  1030.7000      8.1788      2.1243      0.0336     31.8633     25.9328    162.6161
  1030.8000      8.2246      2.0772      0.0256     34.7141     25.7142    163.8687
  1030.9000      8.2246      2.0694      0.1237     35.1897     25.1654    160.0979
  1031.0000      8.3547      2.0880      0.3293     34.0636     24.5460    154.8532
  1031.1000      8.3547      2.0931      0.3530     33.7535     24.2262    149.0336
  1031.2000      8.3547      2.0656      0.3219     35.4195     24.1247    145.3696
  1031.3000      8.5093      2.0284      0.3491     37.6730     23.9734    143.4295
  1031.4000      8.5093      2.0179      0.3965     38.3069     23.7062    139.3371
  1031.5000      8.5900      2.0582      0.4037     35.8647     23.4373    132.6065
  1031.6000      8.5900      2.1528      0.4413     30.1355     23.4917    128.3739
  1031.7000      8.5900      2.2728      0.4877     22.8577     23.7788    129.9148
  1031.8000      8.6332      2.3749      0.5224     16.6703     23.9335    134.0582
  1031.9000      8.6332      2.4366      0.5672     12.9327     23.8224    136.8878
  1032.0000      8.6755      2.4460      0.6049     12.3641     23.6845    138.2267
  1032.1000      8.6755      2.3837      0.5732     16.1392     23.7437    138.4470
  1032.2000      8.6755      2.2514      0.4386     24.1546     23.8227    135.4984
  1032.3000      8.6297      2.0895      0.2536     33.9667     23.8296    129.3618
  1032.4000      8.6297      1.9440      0.1923     42.7866     23.8786    122.5749
  1032.5000      8.4729      1.8473      0.1206     48.6478     23.9912    117.1851
  1032.6000      8.4729      1.8470      0.0854     48.6680     24.3817    114.5579
  1032.7000      8.4729      1.9989      0.1029     39.4621     25.1603    113.7625
  1032.8000      8.3759      2.2825      0.4847     22.2738     25.8405    112.6041
  1032.9000      8.3759      2.5614      0.7894      5.3684     26.1384    111.7433
  1033.0000      8.3552      2.7092      0.7758     -3.5871     26.5517    113.1383
  1033.1000      8.3552      2.7216      0.6392     -4.3383     27.5729    115.4172
  1033.2000      8.3552      2.6640      0.4679     -0.8497     28.9350    119.1972
  1033.3000      8.3076      2.5879      0.4124      3.7644     29.7660    126.7680
  1033.4000      8.3076      2.5156      0.2895      8.1473     29.5069    134.6307
  1033.5000      8.2368      2.4580      0.1880     11.6386     28.7613    137.0919
  1033.6000      8.2368      2.4138      0.1692     14.3137     28.5298    134.9881
  1033.7000      8.2368      2.3790      0.0451     16.4263     28.8944    134.1615
  1033.8000      8.2090      2.3594      0.0204     17.6124     29.3646    133.6056
  1033.9000      8.2090      2.3437      0.0629     18.5649     29.8235    128.1770
  1034.0000      8.2386      2.3113      0.0828     20.5243     30.2623    121.7946
  1034.1000      8.2386      2.2846      0.0752     22.1474     30.4357    120.0677
  1034.2000      8.2386      2.3139      0.1004     20.3667     30.2548    121.1866
  1034.3000      8.3145      2.4062      0.2546     14.7736     30.0592    124.1570
  1034.4000      8.3145      2.4987      0.4326      9.1691     29.9395    126.3928
  1034.5000      8.3914      2.5220      0.4314      7.7558     29.5457    123.6157
  1034.6000      8.3914      2.4703      0.3340     10.8937     29.0809    118.8737
  1034.7000      8.3914      2.3905      0.2002     15.7299     29.0854    116.7021
  1034.8000      8.4105      2.3251      0.2026     19.6919     29.0854    115.8558
  1034.9000      8.4105      2.2896      0.1839     21.8430     28.3567    114.0788
  1035.0000      8.4410      2.2879      0.2196     21.9472     27.4735    113.5840
  1035.1000      8.4410      2.3077      0.2945     20.7445     27.2743    117.0257
  1035.2000      8.4410      2.3231      0.3211     19.8121     27.4889    124.7050
  1035.3000      8.6108      2.3184      0.4028     20.0996     27.3477    133.3867
  1035.4000      8.6108      2.2919      0.4236     21.7048     26.8033    137.1159
  1035.5000      8.9651      2.2489      0.4004     24.3093     26.3947    135.6703
  1035.6000      8.9651      2.1996      0.3270     27.2976     26.5858    132.9503
  1035.7000      8.9651      2.1616      0.2630     29.5975     27.2070    130.1228
  1035.8000      9.3148      2.1495      0.3165     30.3314     27.5285    127.2671
  1035.9000      9.3148      2.1598      0.3741     29.7101     27.3177    123.0401
  1036.0000      9.4239      2.1880      0.4141     28.0011     27.0737    117.4863
  1036.1000      9.4239      2.2387      0.4637     24.9286     27.3110    114.2388
  1036.2000      9.4239      2.3067      0.5020     20.8039     27.9342    117.6679
  1036.3000      9.3384      2.3727      0.5025     16.8037     28.1042    128.3531
  1036.4000      9.3384      2.4122      0.4953     14.4140     27.4237    137.5144
  1036.5000      9.1809      2.4127      0.4631     14.3822     26.7190    138.3660
  1036.6000      9.1809      2.3969      0.4443     15.3396     26.3528    135.4261
  1036.7000      9.1809      2.4118      0.4070     14.4346     26.1093    132.3775
  1036.8000      8.9417      2.4870      0.4420      9.8813     26.1016    128.2703
  1036.9000      8.9417      2.6033      0.4643      2.8309     26.3168    123.8837
  1037.0000      8.6369      2.7132      0.4328     -3.8293     26.6929    119.1785
  1037.1000      8.6369      2.7831      0.4347     -8.0643     27.1928    115.8658
