~Version Information
VERS.                      2.0: CWLS Log ASCII Standard - VERSION 2.0
WRAP.                       NO: One line per depth step
~Well Information Block
STRT.FT                -7.6500: 
STOP.FT              3097.2500: 
STEP.FT                 0.0500: 
NULL.                -999.2500: 
COMP.          Pioneer Natural Resources: COMPANY
WELL.            Paradise 13-8: WELL
FLD.           Purgatoire River: FIELD
LOC.           1896' FSL & 1120' FWL--: LOCATION
PROV.                 Colorado: PROVINCE
CNTY.               Las Animas: COUNTRY
SRVC.                Patterson: SERVICE COMPANY
DATE.          Fri Feb 04 16:52:25 2005: LOG DATE
UWI.           05 071 07946 00: UNIQUE WELL ID
~Curve Information Block
DEPT.FT            0 000 00 00: Depth
CCL.                          : Casing Collar Locator
TT3.usec                      : CBL 3' Travel Time
AMP3.mV                       : CBL 3' Amplitude
GR.GAPI                       : Gamma Ray
~Parameter Information Block
~A  Depth       CCL         TT3         AMP3         GR     
# ...
    -0.9500   -999.2500   1497.0000      0.3618     43.9511
    -0.9000   -999.2500   1497.0000      0.3618     43.9511
    -0.8500   -999.2500   1497.0000      0.3687     40.7067
    -0.8000   -999.2500   1497.0000      0.3687     40.7067
    -0.7500   -999.2500   1497.0000      0.3687     40.7067
    -0.7000   -999.2500   1497.0000      0.3687     40.7067
    -0.6500   -999.2500   1497.0000      0.3687     40.7067
    -0.6000   -999.2500   1497.0000      0.3729     36.2262
    -0.5500   -999.2500   1497.0000      0.3729     36.2262
    -0.5000   -999.2500   1497.0000      0.3729     36.2262
    -0.4500   -999.2500   1497.0000      0.3729     36.2262
    -0.4000   -999.2500   1497.0000      0.3729     36.2262
    -0.3500   -999.2500   1497.0000      0.3745     32.2536
    -0.3000   -999.2500   1497.0000      0.3745     32.2536
    -0.2500   -999.2500   1497.0000      0.3745     32.2536
    -0.2000   -999.2500   1497.0000      0.3745     32.2536
    -0.1500   -999.2500   1497.0000      0.3745     32.2536
    -0.1000   -999.2500   1497.0000      0.3755     29.7786
    -0.0500   -999.2500   1497.0000      0.3755     29.7786
     0.0000   -999.2500   1497.0000      0.3755     29.7786
     0.0500   -999.2500   1497.0000      0.3755     29.7786
     0.1000   -999.2500   1497.0000      0.3755     29.7786
     0.1500   -999.2500   1497.0000      0.3755     29.7786
     0.2000   -999.2500   1497.0000      0.3755     29.7786
     0.2500   -999.2500   1497.0000      0.3778     28.5561
     0.3000   -999.2500   1497.0000      0.3778     28.5561
     0.3500   -999.2500   1497.0000      0.3778     28.5561
     0.4000   -999.2500   1497.0000      0.3778     28.5561
     0.4500   -999.2500   1497.0000      0.3778     28.5561
     0.5000   -999.2500   1497.0000      0.3738     27.9700
     0.5500   -999.2500   1497.0000      0.3738     27.9700
     0.6000   -999.2500   1497.0000      0.3738     27.9700
     0.6500   -999.2500   1497.0000      0.3738     27.9700
     0.7000   -999.2500   1497.0000      0.3738     27.9700
     0.7500   -999.2500   1497.0000      0.3634     27.8813
     0.8000   -999.2500   1497.0000      0.3634     27.8813
     0.8500   -999.2500   1497.0000      0.3634     27.8813
     0.9000   -999.2500   1497.0000      0.3634     27.8813
     0.9500   -999.2500   1497.0000      0.3634     27.8813
     1.0000   -999.2500   1497.0000      0.3496     28.5291
     1.0500   -999.2500   1497.0000      0.3496     28.5291
     1.1000   -999.2500   1497.0000      0.3496     28.5291
     1.1500   -999.2500   1497.0000      0.3496     28.5291
     1.2000   -999.2500   1497.0000      0.3496     28.5291
     1.2500   -999.2500   1497.0000      0.3383     29.9461
     1.3000   -999.2500   1497.0000      0.3383     29.9461
     1.3500   -999.2500   1497.0000      0.3383     29.9461
     1.4000   -999.2500   1497.0000      0.3383     29.9461
     1.4500   -999.2500   1497.0000      0.3383     29.9461
     1.5000   -999.2500   1497.0000      0.3337     31.9032
     1.5500   -999.2500   1497.0000      0.3337     31.9032
     1.6000   -999.2500   1497.0000      0.3337     31.9032
     1.6500   -999.2500   1497.0000      0.3337     31.9032
     1.7000   -999.2500   1497.0000      0.3337     31.9032
     1.7500   -999.2500   1497.0000      0.3371     34.4850
     1.8000   -999.2500   1497.0000      0.3371     34.4850
     1.8500   -999.2500   1497.0000      0.3371     34.4850
     1.9000   -999.2500   1497.0000      0.3371     34.4850
     1.9500   -999.2500   1497.0000      0.3371     34.4850
     2.0000   -999.2500   1497.0000      0.3466     38.3088
     2.0500   -999.2500   1497.0000      0.3466     38.3088
     2.1000   -999.2500   1497.0000      0.3466     38.3088
     2.1500   -999.2500   1497.0000      0.3466     38.3088
     2.2000   -999.2500   1497.0000      0.3466     38.3088
     2.2500   -999.2500   1497.0000      0.3579     43.7575
     2.3000   -999.2500   1497.0000      0.3579     43.7575
     2.3500   -999.2500   1497.0000      0.3579     43.7575
     2.4000   -999.2500   1497.0000      0.3579     43.7575
     2.4500   -999.2500   1497.0000      0.3579     43.7575
     2.5000   -999.2500   1497.0000      0.3662     50.1421
     2.5500   -999.2500   1497.0000      0.3662     50.1421
     2.6000   -999.2500   1497.0000      0.3662     50.1421
     2.6500   -999.2500   1497.0000      0.3662     50.1421
     2.7000   -999.2500   1497.0000      0.3662     50.1421
     2.7500   -999.2500   1497.0000      0.3694     55.8637
     2.8000   -999.2500   1497.0000      0.3694     55.8637
     2.8500   -999.2500   1497.0000      0.3694     55.8637
     2.9000   -999.2500   1497.0000      0.3694     55.8637
     2.9500   -999.2500   1497.0000      0.3694     55.8637
     3.0000   -999.2500   1497.0000      0.3685     59.3800
     3.0500   -999.2500   1497.0000      0.3685     59.3800
     3.1000      0.0000   1497.0000      0.3685     59.3800
     3.1500      0.0000   1497.0000      0.3685     59.3800
     3.2000      0.0000   1497.0000      0.3685     59.3800
     3.2500      0.0000   1497.0000      0.3664     60.0406
     3.3000      0.0000   1497.0000      0.3664     60.0406
     3.3500      0.0000   1497.0000      0.3664     60.0406
     3.4000      0.0000   1497.0000      0.3664     60.0406
     3.4500      0.0000   1497.0000      0.3664     60.0406
     3.5000      0.0000   1497.0000      0.3648     58.2783
     3.5500      0.0000   1497.0000      0.3648     58.2783
     3.6000      0.0000   1497.0000      0.3648     58.2783
     3.6500      0.0000   1497.0000      0.3648     58.2783
     3.7000      0.0000   1497.0000      0.3648     58.2783
     3.7500      0.0000   1497.0000      0.3642     55.2370
     3.8000      0.0000   1497.0000      0.3642     55.2370
     3.8500      0.0000   1497.0000      0.3642     55.2370
     3.9000      0.0000   1497.0000      0.3642     55.2370
     3.9500      0.0000   1497.0000      0.3642     55.2370
     4.0000      0.0000   1497.0000      0.3643     52.1641
     4.0500      0.0000   1497.0000      0.3643     52.1641
     4.1000      0.0000   1497.0000      0.3643     52.1641
     4.1500      0.0000   1497.0000      0.3643     52.1641
     4.2000      0.0000   1497.0000      0.3643     52.1641
     4.2500      0.0000   1497.0000      0.3641     49.8219
     4.3000      0.0000   1497.0000      0.3641     49.8219
     4.3500      0.0000   1497.0000      0.3641     49.8219
     4.4000      0.0000   1497.0000      0.3641     49.8219
     4.4500      0.0000   1497.0000      0.3641     49.8219
     4.5000      0.0000   1497.0000      0.3631     48.1984
     4.5500      0.0000   1497.0000      0.3631     48.1984
     4.6000      0.0000   1497.0000      0.3631     48.1984
     4.6500      0.0000   1497.0000      0.3631     48.1984
     4.7000      2.0000   1497.0000      0.3631     48.1984
     4.7500      2.0000   1497.0000      0.3615     46.8539
     4.8000      2.0000   1497.0000      0.3615     46.8539
     4.8500      0.0000   1497.0000      0.3615     46.8539
     4.9000      0.0000   1497.0000      0.3615     46.8539
     4.9500      0.0000   1497.0000      0.3615     46.8539
     5.0000      0.0000   1497.0000      0.3608     45.5636
     5.0500     -2.0000   1497.0000      0.3608     45.5636
     5.1000     -2.0000   1497.0000      0.3608     45.5636
     5.1500     -2.0000   1497.0000      0.3608     45.5636
     5.2000      0.0000   1497.0000      0.3608     45.5636
     5.2500      0.0000   1497.0000      0.3620     44.5215
     5.3000      0.0000   1497.0000      0.3620     44.5215
     5.3500      0.0000   1497.0000      0.3620     44.5215
     5.4000      0.0000   1497.0000      0.3620     44.5215
     5.4500      0.0000   1497.0000      0.3620     44.5215
     5.5000      0.0000   1497.0000      0.3645     44.1916
     5.5500      0.0000   1497.0000      0.3645     44.1916
     5.6000      2.0000   1497.0000      0.3645     44.1916
     5.6500      2.0000   1497.0000      0.3645     44.1916
     5.7000      2.0000   1497.0000      0.3645     44.1916
