~Version Information
VERS.                      2.0: CWLS Log ASCII Standard - VERSION 2.0
WRAP.                       NO: One line per depth step
~Well Information Block
STRT.FT               390.0000: 
STOP.FT              2770.2500: 
STEP.FT                 0.2500: 
NULL.                -999.2500: 
COMP.          Pioneer Natural Resources: COMPANY
WELL.              Lynch 43-30: WELL
FLD.           Purgatoire River: FIELD
LOC.           1438' FSL & 429' FEL: LOCATION
PROV.                 Colorado: PROVINCE
CNTY.               Las Animas: COUNTRY
SRVC.                Patterson: SERVICE COMPANY
DATE.          Wed Oct 27 08:06:51 2004: LOG DATE
UWI.           05 071 08170 00: UNIQUE WELL ID
~Curve Information Block
DEPT.FT            0 000 00 00: Depth
DIR.Ohm-m                     : IEL Induction Resistivity
SN.Ohm-m                      : IEL Short Normal
SP.mV                         : IEL Spontaneous Potential
GR.GAPI                       : Gamma Ray
~Parameter Information Block
~A  Depth       DIR          SN          SP          GR     
   390.0000      0.2473   2000.0000   2000.0000     85.6020
   390.2500      0.2413   2000.0000   2000.0000     85.8020
   390.5000      0.2357   2000.0000   2000.0000     86.6520
   390.7500      0.2313   2000.0000   2000.0000     86.9528
   391.0000      0.2282   2000.0000   2000.0000     86.3863
   391.2500      0.2260   2000.0000   2000.0000     85.5579
   391.5000      0.2243   2000.0000   2000.0000     84.2860
   391.7500      0.2224   2000.0000   2000.0000     83.4168
   392.0000      0.2200   2000.0000   2000.0000     81.5137
   392.2500      0.2171   2000.0000   2000.0000     79.6916
   392.5000      0.2138   2000.0000   2000.0000     76.6249
   392.7500      0.2106   2000.0000   2000.0000     74.7668
   393.0000      0.2075   2000.0000   2000.0000     72.4966
   393.2500      0.2049   2000.0000   2000.0000     71.2942
   393.5000      0.2029   2000.0000   2000.0000     70.0171
   393.7500      0.2014   2000.0000   2000.0000     69.5923
   394.0000      0.2006   2000.0000   2000.0000     69.5765
   394.2500      0.2002   2000.0000   2000.0000     69.9005
   394.5000      0.2002   2000.0000   2000.0000     70.7430
   394.7500      0.2003   2000.0000   2000.0000     71.4800
   395.0000      0.2005   2000.0000   2000.0000     72.7054
   395.2500      0.2006   2000.0000   2000.0000     73.3874
   395.5000      0.2007   2000.0000   2000.0000     73.6301
   395.7500      0.2007   2000.0000   2000.0000     73.0665
   396.0000      0.2005   2000.0000   2000.0000     71.4448
   396.2500      0.2003   2000.0000   2000.0000     70.3146
   396.5000      0.1998   2000.0000   2000.0000     69.1782
   396.7500      0.1991   2000.0000   2000.0000     68.7988
   397.0000      0.1981   2000.0000   2000.0000     68.3251
   397.2500      0.1968   2000.0000   2000.0000     67.8628
   397.5000      0.1954   2000.0000   2000.0000     67.2672
   397.7500      0.1938   2000.0000   2000.0000     67.5263
   398.0000      0.1923   2000.0000   2000.0000     70.0087
   398.2500      0.1908   2000.0000   2000.0000     73.2835
   398.5000      0.1892   2000.0000   2000.0000     79.8785
   398.7500      0.1875   2000.0000   2000.0000     84.5640
   399.0000      0.1854   2000.0000   2000.0000     90.5749
   399.2500      0.1832   2000.0000   2000.0000     93.1546
   399.5000      0.1809   2000.0000   2000.0000     93.9258
   399.7500      0.1786   2000.0000   2000.0000     92.3072
   400.0000      0.1764   2000.0000   2000.0000     87.7676
   400.2500      0.1745   2000.0000   2000.0000     84.4400
   400.5000      0.1729   2000.0000   2000.0000     80.6441
   400.7500      0.1716   2000.0000   2000.0000     79.2195
   401.0000      0.1706   2000.0000   2000.0000     78.1434
   401.2500      0.1696   2000.0000   2000.0000     77.5914
   401.5000      0.1683   2000.0000   2000.0000     76.5829
   401.7500      0.1668   2000.0000   2000.0000     75.8906
   402.0000      0.1649   2000.0000   2000.0000     75.2621
   402.2500      0.1630   2000.0000   2000.0000     75.4021
   402.5000      0.1613   2000.0000   2000.0000     76.9145
   402.7500      0.1600   2000.0000   2000.0000     78.9904
   403.0000      0.1592   2000.0000   2000.0000     83.7544
   403.2500      0.1589   2000.0000   2000.0000     87.8336
   403.5000      0.1590   2000.0000   2000.0000     94.5205
   403.7500      0.1595   2000.0000   2000.0000     98.6996
   404.0000      0.1605   2000.0000   2000.0000    103.5647
   404.2500      0.1619   2000.0000   2000.0000    105.7211
   404.5000      0.1636   2000.0000   2000.0000    107.9468
   404.7500      0.1656   2000.0000   2000.0000    109.3001
   405.0000      0.1675   2000.0000   2000.0000    111.3425
   405.2500      0.1693   2000.0000   2000.0000     74.8290
   405.5000      0.1709   2000.0000   2000.0000     74.7842
   405.7500      0.1728   2000.0000   2000.0000     74.4198
   406.0000      0.1762   2000.0000   2000.0000     74.8971
   406.2500      0.1831   2000.0000   2000.0000     76.7090
   406.5000      0.1968   2000.0000   2000.0000     81.5480
   406.7500      0.2205   2000.0000   2000.0000     85.1042
   407.0000      0.2574   2000.0000   2000.0000     88.7542
   407.2500      0.3097   2000.0000   2000.0000     89.7221
   407.5000      0.3791   2000.0000   2000.0000     90.6737
   407.7500      0.4692   2000.0000   2000.0000     92.4132
   408.0000      0.5890   2000.0000   2000.0000     97.5510
   408.2500      0.7569   2000.0000   2000.0000    101.8792
   408.5000      0.9982   2000.0000   2000.0000    107.5412
   408.7500      1.3283   2000.0000   2000.0000    109.8095
   409.0000      1.7014   2000.0000   2000.0000    110.1775
   409.2500      1.9842   2000.0000   2000.0000    108.3171
   409.5000      2.1044   2000.0000   2000.0000    103.0749
   409.7500      2.1895   2000.0000   2000.0000     98.9882
   410.0000      2.4634   2000.0000   2000.0000     94.1583
   410.2500      3.2543   2000.0000   2000.0000     92.6268
   410.5000      5.6140   2000.0000   2000.0000     92.8539
   410.7500     19.5901   2000.0000   2000.0000     94.1673
   411.0000 100000.0000   2000.0000   2000.0000     97.0363
   411.2500 100000.0000   2000.0000   2000.0000     99.2792
   411.5000 100000.0000   2000.0000   2000.0000    102.8576
   411.7500 100000.0000   2000.0000   2000.0000    105.2658
   412.0000 100000.0000   2000.0000   2000.0000    108.8034
   412.2500 100000.0000   2000.0000   2000.0000    110.9931
   412.5000 100000.0000   2000.0000   2000.0000    113.6337
   412.7500 100000.0000   2000.0000   2000.0000    114.8823
   413.0000 100000.0000   2000.0000   2000.0000    116.4859
   413.2500 100000.0000   2000.0000   2000.0000    117.8048
   413.5000 100000.0000   2000.0000   2000.0000    120.2932
   413.7500 100000.0000   2000.0000   2000.0000    121.8800
   414.0000 100000.0000   2000.0000   2000.0000    123.1122
   414.2500 100000.0000   2000.0000   2000.0000    122.7249
   414.5000 100000.0000   2000.0000   2000.0000    120.1197
   414.7500 100000.0000   2000.0000   2000.0000    117.2088
   415.0000   1771.7145   2000.0000   2000.0000    111.8982
   415.2500    102.7584   2000.0000   2000.0000    108.5117
   415.5000     59.4634   2000.0000   2000.0000    105.2412
   415.7500     47.6600   2000.0000   2000.0000    104.9566
   416.0000     43.8751   2000.0000   2000.0000    107.4735
   416.2500     41.8462   2000.0000   2000.0000    110.4334
   416.5000     38.4373   2000.0000   2000.0000    114.9217
   416.7500     33.3726   2000.0000   2000.0000    116.9949
   417.0000     28.2661   2000.0000   2000.0000    118.1307
   417.2500     24.2978   2000.0000   2000.0000    117.8060
   417.5000     21.6825   2000.0000   2000.0000    116.4343
   417.7500     20.2206   2000.0000   2000.0000    115.2814
   418.0000     19.6618   2000.0000   2000.0000    113.5855
   418.2500     19.7766   2000.0000   2000.0000    112.5292
   418.5000     20.3274   2000.0000   2000.0000    110.6861
   418.7500     21.0559   2000.0000   2000.0000    108.9597
   419.0000     21.7320   2000.0000   2000.0000    105.5680
   419.2500     22.2195   2000.0000   2000.0000    103.2000
   419.5000     22.4763   2000.0000   2000.0000    100.6336
   419.7500     22.5082   2000.0000   2000.0000    100.1579
   420.0000     22.3393   2000.0000   2000.0000    101.6564
   420.2500     22.0187   2000.0000   2000.0000    103.8777
   420.5000     21.6209   2000.0000   2000.0000    108.0006
   420.7500     21.2163   2000.0000   2000.0000    110.5651
   421.0000     20.8426   2000.0000   2000.0000    113.3004
   421.2500     20.5049   2000.0000   2000.0000    114.3579
   421.5000     20.1972   2000.0000   2000.0000    115.5318
   421.7500     19.9228   2000.0000   2000.0000    116.6193
   422.0000     19.6995   2000.0000   2000.0000    119.2197
   422.2500     19.5499   2000.0000   2000.0000    121.3870
   422.5000     19.4888   2000.0000   2000.0000    124.1445
   422.7500     19.5185   2000.0000   2000.0000    124.9306
   423.0000     19.6332   2000.0000   2000.0000    124.0914
   423.2500     19.8228   2000.0000   2000.0000    122.4988
