~Version Information
VERS.                      2.0: CWLS Log ASCII Standard - VERSION 2.0
WRAP.                       NO: One line per depth step
~Well Information Block
STRT.FT               -12.5000: 
STOP.FT              2742.5000: 
STEP.FT                 0.2500: 
NULL.                -999.2500: 
COMP.          Pioneer Natural Resources: COMPANY
WELL.            Rangely 22-28: WELL
FLD.           Purgatorie River: FIELD
LOC.           720' FSL & 1036' FEL--: LOCATION
PROV.                       CO: PROVINCE
CNTY.               Las Animas: COUNTRY
SRVC.                         : SERVICE COMPANY
DATE.          Wed Nov 10 08:59:10 2004: LOG DATE
UWI.                          : UNIQUE WELL ID
~Curve Information Block
DEPT.FT            0 000 00 00: Depth
GR.GAPI                       : Gamma Ray
CCL.                          : Casing Collar Locator
TT3.usec                      : CBL 3' Travel Time
AMP3.mV                       : CBL 3' Amplitude
~Parameter Information Block
~A  Depth        GR         CCL         TT3         AMP3    
# ...
   523.5000     59.5116      0.0000    787.6472     12.4099
   523.7500     58.2647      0.0000    774.2303     12.3775
   524.0000     54.7868      0.0000    750.3746     12.4317
   524.2500     51.1810      0.0000    716.1774     12.5547
   524.5000     48.7987      0.0000    675.4055     12.6983
   524.7500     47.4408      0.0000    634.0017     12.8112
   525.0000     46.1925      0.0000    599.5831     12.8689
   525.2500     44.5269      0.0000    581.0482     12.8801
   525.5000     42.5966      0.0000    583.6459     12.8704
   525.7500     40.9593      0.0000    601.6239     12.8613
   526.0000     40.3059      0.0000    619.4716     12.8546
   526.2500     41.0498      0.0000    626.1438     12.8235
   526.5000     42.7772      0.0000    627.9487     12.7172
   526.7500     44.3251      0.0000    641.9940     12.4943
   527.0000     44.7165      0.0000    676.0022     12.1632
   527.2500     43.8637      0.0000    719.7710     11.7889
   527.5000     42.2982      0.0000    756.9453     11.4558
   527.7500     40.7058      0.0000    779.5168     11.2162
   528.0000     39.9486      0.0000    789.6440     11.0659
   528.2500     40.8921      0.0000    792.9692     10.9614
   528.5000     43.5743      0.0000    793.5764     10.8523
   528.7500     46.7158      0.0000    793.2764     10.7019
   529.0000     48.4812      0.0000    792.6823     10.5007
   529.2500     47.8970      0.0000    791.9728     10.2719
   529.5000     45.6591      0.0000    790.9634     10.0518
   529.7500     43.6443      0.0000    788.7205      9.8427
   530.0000     43.4669      0.0000    783.3138      9.5902
   530.2500     45.2297      0.0000    772.5164      9.2198
   530.5000     47.5834      0.0000    755.8128      8.6976
   530.7500     49.0813      0.0000    736.4540      8.0570
   531.0000     49.5166      0.0000    721.0102      7.3835
   531.2500     49.8992      0.0000    715.8170      6.7778
   531.5000     51.2428      0.0000    723.1334      6.3244
   531.7500     53.5354      0.0000    740.3136      6.0693
   532.0000     55.8469      0.0000    761.9449      6.0099
   532.2500     57.1502      0.0000    782.8342      6.0926
   532.5000     57.0177      0.0000    800.2419      6.2248
   532.7500     55.8448      0.0000    814.2603      6.3062
   533.0000     54.6379      0.0000    825.6264      6.2740
   533.2500     54.6098      0.0000    833.5917      6.1362
   533.5000     56.8017      0.0000    837.2396      5.9631
   533.7500     61.7215      0.0000    838.3877      5.8415
   534.0000     68.9826      0.0000    840.9624      5.8215
   534.2500     77.2533      0.0000    846.8461      5.8897
   534.5000     84.6270      0.0000    853.9935      5.9822
   534.7500     89.3840      0.0000    859.0591      6.0275
   535.0000     91.0364      0.0000    860.1227      5.9867
   535.2500     90.8459      0.0000    856.9937      5.8672
   535.5000     90.8521      0.0000    851.6473      5.7158
   535.7500     92.0770      0.0000    848.8077      5.6068
   536.0000     93.9259      0.0000    853.2935      5.6161
   536.2500     95.1695      0.0000    865.5775      5.7824
   536.5000     94.8422      0.0000    880.6375      6.0812
   536.7500     92.2788      0.0000    890.9449      6.4342
   537.0000     87.3927      0.0000    890.2311      6.7507
   537.2500     81.3740      0.0000    875.8361      6.9746
   537.5000     76.2654      0.0000    849.5837      7.1090
   537.7500     73.2172      0.0000    817.4037      7.2002
   538.0000     71.5309      0.0000    787.3475      7.2921
   538.2500     69.7649      0.0000    766.2963      7.3859
   538.5000     67.3818      0.0000    757.1588      7.4437
   538.7500     65.0176      0.0000    758.2389      7.4301
   539.0000     63.4851      0.0000    764.8543      7.3487
   539.2500     63.0749      0.0000    772.1903      7.2351
   539.5000     63.8192      0.0000    778.1302      7.1250
   539.7500     65.8361      0.0000    784.0363      7.0355
   540.0000     69.0860      0.0000    792.6010      6.9651
   540.2500     73.1003      0.0000    804.6215      6.8917
   540.5000     77.2573      0.0000    817.3895      6.7731
   540.7500     81.1563      0.0000    825.8639      6.5667
   541.0000     84.5286      0.0000    826.0419      6.2647
   541.2500     87.0208      0.0000    818.0071      5.9112
   541.5000     88.2907      0.0000    806.0093      5.5787
   541.7500     88.1760      0.0000    795.7437      5.3214
   542.0000     86.7070      0.0000    791.4944      5.1464
   542.2500     84.1291      0.0000    794.2538      5.0229
   542.5000     80.9418      0.0000    800.8203      4.9117
   542.7500     77.8194      0.0000    805.7714      4.7820
   543.0000     75.3972      0.0000    806.5925      4.6134
   543.2500     73.9825      0.0000    806.4718      4.3974
   543.5000     73.3902      0.0000    810.0981      4.1454
   543.7500     73.1386      0.0000    817.6715      3.8843
   544.0000     72.8712      0.0000    825.3610      3.6317
   544.2500     72.5896      0.0000    830.7115      3.3843
   544.5000     72.5267      0.0000    834.7487      3.1455
   544.7500     72.8998      0.0000    838.7164      2.9518
   545.0000     73.9365      0.0000    841.6674      2.8493
   545.2500     76.0856      0.0000    842.6493      2.8502
   545.5000     79.6735     -2.0000    843.2688      2.9177
   545.7500     84.1119     -2.0000    846.5922      2.9821
   546.0000     87.9087      0.0000    854.5211      2.9788
   546.2500     89.5975      0.0000    866.5662      2.8964
   546.5000     88.2879      0.0000    879.9458      2.7956
   546.7500     83.8292      0.0000    890.6233      2.7699
   547.0000     77.4246      0.0000    895.4545      2.8775
   547.2500     71.8427      0.0000    894.2697      3.1075
   547.5000     69.9375      0.0000    889.5328      3.4019
   547.7500     72.5018      0.0000    883.6940      3.7057
   548.0000     77.8242      0.0000    877.5674      3.9934
   548.2500     83.3411      0.0000    871.6657      4.2538
   548.5000     87.4556      0.0000    867.6621      4.4633
   548.7500     89.8997      0.0000    867.0492      4.5865
   549.0000     90.9745      0.0000    869.0405      4.6109
   549.2500     90.9371      0.0000    870.9385      4.5730
   549.5000     90.1677      0.0000    870.2250      4.5396
   549.7500     89.5570      0.0000    865.9656      4.5570
   550.0000     90.1361      0.0000    858.9410      4.6169
   550.2500     92.0738      0.0000    851.0632      4.6758
   550.5000     94.4314      0.0000    844.3347      4.7017
   550.7500     96.1813      0.0000    839.7637      4.7009
   551.0000     97.0424      0.0000    837.1740      4.7020
   551.2500     97.1071      0.0000    836.5695      4.7244
   551.5000     96.3138      0.0000    839.7612      4.7648
   551.7500     94.8455      0.0000    849.2830      4.8023
   552.0000     93.5518      0.0000    864.8555      4.8063
   552.2500     93.3525      0.0000    881.9507      4.7439
   552.5000     94.4916      0.0000    894.3667      4.5951
   552.7500     96.6849      0.0000    897.2776      4.3672
   553.0000     99.5655      0.0000    888.4702      4.0939
   553.2500    102.6640      0.0000    869.2576      3.8239
   553.5000    105.3872      0.0000    845.5680      3.6144
   553.7500    107.4122      0.0000    825.6649      3.5229
   554.0000    108.9277      0.0000    813.7045      3.5797
   554.2500    110.1101      0.0000    806.7115      3.7546
   554.5000    110.4515      0.0000    800.6720      3.9583
   554.7500    109.0879      0.0000    797.3672      4.0948
   555.0000    105.9261      0.0000    801.2736      4.1234
   555.2500    102.0269      0.0000    812.1602      4.0831
   555.5000     98.7254      0.0000    825.0341      4.0724
   555.7500     96.7577      0.0000    835.5203      4.2008
   556.0000     96.1786      0.0000    841.8807      4.5323
   556.2500     96.4757      0.0000    843.1685      5.0493
   556.5000     96.5516      0.0000    838.2787      5.6678
   556.7500     95.3120      0.0000    826.9478      6.2874
