~Version Information
 VERS.                      2.0: CWLS Log ASCII Standard - VERSION 2.0
 WRAP.                       NO: One line per depth step
 ~Well Information Block
 STRT.FT               887.5000: 
 STOP.FT              2605.5000: 
 STEP.FT                 0.2500: 
 NULL.                -999.2500: 
 COMP.          Petrogulf Corporation: COMPANY
 WELL.               YWAM 7-23V: WELL
 FLD.           Purgatorie River: FIELD
 LOC.           230' FSL & 225' FWL: LOCATION
 CNTY.               Las Animas: COUNTY
 SRVC.                         : SERVICE COMPANY
 DATE.          Sat Oct 30 08:34:45 2004: LOG DATE
 UWI.           05 071 08227 00: UNIQUE WELL ID
 STAT.                 Colorado: STATE
 PROV.                         :Province
 ~Curve Information Block
 DEPT.FT            0 000 00 00: Depth
 SP.mV                         : DIL Spontaneous Potential
 RILD.Ohm-m                    : DIL Deep Resistivity
 RILM.Ohm-m                    : DIL Medium Resistivity
 RLL3.Ohm-m                    : DIL Shallow Resistivity
 GR.GAPI                       : Gamma Ray
 ~Parameter Information Block
 ~A  Depth        SP         RILD        RILM        RLL3         GR     
# ...
  1895.5000   -100.4732     14.2562     13.7168     14.7581    146.8682
  1895.7500   -101.3758     14.4334     13.9054     15.7262    146.9388
  1896.0000   -102.1563     14.6882     14.2105     17.1131    146.4418
  1896.2500   -102.6709     15.0147     14.6317     18.9279    145.3382
  1896.5000   -102.8409     15.4069     15.1669     21.1271    141.6979
  1896.7500   -102.6722     15.8588     15.8125     23.6086    137.7245
  1897.0000   -102.2453     16.3644     16.5618     26.2226    129.5849
  1897.2500   -101.6849     16.9182     17.4054     28.7926    123.0007
  1897.5000   -101.1183     17.5145     18.3299     31.1444    112.4480
  1897.7500   -100.6285     18.1479     19.3190     33.1365    105.9734
  1898.0000   -100.2318     18.8123     20.3526     34.6865     98.8283
  1898.2500    -99.8665     19.4996     21.4085     35.7885     96.1501
  1898.5000    -99.4297     20.1989     22.4628     36.5165     94.3688
  1898.7500    -98.8183     20.8968     23.4918     37.0111     93.7495
  1899.0000    -97.9779     21.5765     24.4735     37.4470     92.6845
  1899.2500    -96.9360     22.2200     25.3893     37.9880     91.7903
  1899.5000    -95.8030     22.8097     26.2253     38.7384     90.1420
  1899.7500    -94.7409     23.3302     26.9737     39.7095     88.7162
  1900.0000    -93.9190     23.7709     27.6302     40.8171     86.1747
  1900.2500    -93.4623     24.1264     28.1951     41.9168     84.5913
  1900.5000    -93.4186     24.3955     28.6701     42.8656     83.1308
  1900.7500    -93.7488     24.5804     29.0568     43.5883     82.9645
  1901.0000    -94.3361     24.6833     29.3562     44.1172     83.8918
  1901.2500    -95.0215     24.7040     29.5663     44.5822     85.2451
  1901.5000    -95.6334     24.6390     29.6802     45.1519     88.1643
  1901.7500    -96.0260     24.4808     29.6837     45.9464     90.2427
  1902.0000    -96.1010     24.2207     29.5536     46.9560     92.1805
  1902.2500    -95.8252     23.8526     29.2582     48.0018     92.0028
  1902.5000    -95.2361     23.3760     28.7644     48.7577     89.6078
  1902.7500    -94.4396     22.7987     28.0462     48.8331     87.5077
  1903.0000    -93.5924     22.1371     27.0973     47.8888     85.8236
  1903.2500    -92.8711     21.4127     25.9396     45.7463     86.6160
  1903.5000    -92.4322     20.6496     24.6225     42.4515     90.9904
  1903.7500    -92.3702     19.8708     23.2149     38.2702     95.7526
  1904.0000    -92.6895     19.0951     21.7890     33.6190    105.2374
  1904.2500    -93.3015     18.3376     20.4077     28.9587    112.9061
  1904.5000    -94.0485     17.6085     19.1170     24.6890    125.5268
  1904.7500    -94.7485     16.9154     17.9444     21.0763    133.7404
  1905.0000    -95.2439     16.2631     16.9014     18.2308    143.9669
  1905.2500    -95.4402     15.6555     15.9889     16.1285    148.7102
  1905.5000    -95.3196     15.0956     15.2002     14.6600    152.8430
  1905.7500    -94.9375     14.5859     14.5251     13.6819    154.4680
  1906.0000    -94.4063     14.1271     13.9520     13.0577    157.0556
  1906.2500    -93.8714     13.7190     13.4687     12.6778    159.3493
  1906.5000    -93.4950     13.3592     13.0632     12.4630    162.7040
  1906.7500    -93.4286     13.0434     12.7244     12.3588    163.8117
  1907.0000    -93.7932     12.7663     12.4420     12.3267    162.6992
  1907.2500    -94.6471     12.5217     12.2067     12.3364    160.4386
  1907.5000    -95.9608     12.3041     12.0109     12.3628    156.6536
  1907.7500    -97.5988     12.1089     11.8482     12.3872    155.1077
  1908.0000    -99.3277     11.9332     11.7138     12.3983    155.3802
  1908.2500   -100.8497     11.7756     11.6040     12.3943    157.1000
  1908.5000   -101.8615     11.6357     11.5160     12.3824    160.6955
  1908.7500   -102.1303     11.5133     11.4476     12.3756    162.8365
  1909.0000   -101.5545     11.4076     11.3967     12.3863    164.2091
  1909.2500   -100.2082     11.3176     11.3618     12.4198    163.4659
  1909.5000    -98.3289     11.2421     11.3417     12.4710    160.4393
  1909.7500    -96.2733     11.1804     11.3359     12.5248    158.0095
  1910.0000    -94.4276     11.1335     11.3452     12.5631    154.7486
  1910.2500    -93.1244     11.1049     11.3716     12.5744    152.7059
  1910.5000    -92.5619     11.1003     11.4189     12.5632    149.0373
  1910.7500    -92.7784     11.1274     11.4925     12.5527    145.9952
  1911.0000    -93.6543     11.1948     11.5993     12.5817    140.9810
  1911.2500    -94.9622     11.3107     11.7472     12.6964    137.7165
  1911.5000    -96.4287     11.4815     11.9447     12.9405    133.2782
  1911.7500    -97.7992     11.7106     12.2002     13.3502    130.6812
  1912.0000    -98.8876     11.9980     12.5214     13.9527    127.4773
  1912.2500    -99.6031     12.3398     12.9144     14.7676    125.8962
  1912.5000    -99.9567     12.7285     13.3833     15.8067    124.0188
  1912.7500   -100.0480     13.1541     13.9283     17.0712    122.4325
  1913.0000   -100.0351     13.6053     14.5452     18.5470    118.1998
  1913.2500   -100.0993     14.0716     15.2252     20.1979    113.7991
  1913.5000   -100.4013     14.5445     15.9544     21.9642    105.3140
  1913.7500   -101.0498     15.0193     16.7157     23.7640     99.0252
  1914.0000   -102.0718     15.4946     17.4916     25.4993     89.7098
  1914.2500   -103.4000     15.9724     18.2670     27.0671     83.9881
  1914.5000   -104.8863     16.4562     19.0320     28.3730     76.1129
  1914.7500   -106.3305     16.9497     19.7829     29.3482     70.8836
  1915.0000   -107.5276     17.4551     20.5212     29.9638     62.2755
  1915.2500   -108.3163     17.9724     21.2500     30.2396     56.1203
  1915.5000   -108.6240     18.4983     21.9716     30.2437     47.5776
  1915.7500   -108.4812     19.0273     22.6838     30.0800     43.2237
  1916.0000   -108.0194     19.5520     23.3788     29.8693     39.2084
  1916.2500   -107.4336     20.0641     24.0439     29.7239     37.7969
  1916.5000   -106.9396     20.5549     24.6637     29.7269     36.4583
  1916.7500   -106.7227     21.0167     25.2238     29.9181     35.6553
  1917.0000   -106.9009     21.4425     25.7134     30.2922     34.5268
  1917.2500   -107.5046     21.8267     26.1294     30.8073     34.0366
  1917.5000   -108.4668     22.1658     26.4762     31.4033     33.9333
  1917.7500   -109.6409     22.4590     26.7647     32.0198     34.1348
  1918.0000   -110.8288     22.7089     27.0102     32.6094     34.2329
  1918.2500   -111.8286     22.9216     27.2281     33.1407     33.9279
  1918.5000   -112.4746     23.1051     27.4323     33.5948     33.0173
  1918.7500   -112.6810     23.2686     27.6329     33.9578     32.2584
  1919.0000   -112.4486     23.4205     27.8363     34.2164     30.9421
  1919.2500   -111.8583     23.5656     28.0455     34.3598     29.9857
  1919.5000   -111.0353     23.7046     28.2618     34.3854     28.9271
  1919.7500   -110.1191     23.8337     28.4846     34.3051     28.9134
  1920.0000   -109.2353     23.9445     28.7102     34.1490     30.2837
  1920.2500   -108.4920     24.0250     28.9321     33.9640     31.8703
  1920.5000   -107.9839     24.0611     29.1390     33.8113     34.2480
  1920.7500   -107.7954     24.0386     29.3135     33.7622     35.2212
  1921.0000   -107.9917     23.9452     29.4335     33.8950     35.2309
  1921.2500   -108.5905     23.7724     29.4730     34.2892     34.3991
  1921.5000   -109.5355     23.5175     29.4038     35.0136     32.6573
  1921.7500   -110.6829     23.1841     29.1970     36.1011     31.6354
  1922.0000   -111.8125     22.7827     28.8268     37.5138     30.7138
  1922.2500   -112.6719     22.3283     28.2733     39.1092     30.4373
  1922.5000   -113.0436     21.8381     27.5278     40.6248     30.1395
  1922.7500   -112.8020     21.3288     26.5991     41.7049     29.9715
  1923.0000   -111.9566     20.8134     25.5169     41.9744     30.5622
  1923.2500   -110.6535     20.2997     24.3294     41.1440     32.4625
