~Version Information
VERS.                      2.0: CWLS Log ASCII Standard - VERSION 2.0
WRAP.                       NO: One line per depth step
~Well Information Block
STRT.FT               554.0000: 
STOP.FT              1002.0000: 
STEP.FT                 0.1000: 
NULL.                -999.2500: 
COMP.          Pioneer Natural Resources: COMPANY
WELL.          Rising Star 22-11: WELL
FLD.           Purgatoire River: FIELD
LOC.           2152' FNL & 2105' FWL: LOCATION
PROV.                 Colorado: PROVINCE
CNTY.               Las Animas: COUNTRY
SRVC.                Patterson: SERVICE COMPANY
DATE.          Mon Apr 11 16:46:53 2005: LOG DATE
UWI.           05 071 08354 00: UNIQUE WELL ID
~Curve Information Block
DEPT.FT            0 000 00 00: Depth
DCAL.in                       : CDL Caliper
RHOB.g/cc                     : CDL Bulk Density
RHOC.g/cc                     : CDL Density Correction
DPOR.pu                       : CDL Density Porosity
GR.GAPI                       : Gamma Ray
NPOR.pu                       : Neutron Porosity
~Parameter Information Block
~A  Depth       DCAL        RHOB        RHOC        DPOR         GR         NPOR    
# ...
   582.8000     11.1523      2.6151      0.1166      2.1152    119.6786     18.6154
   582.9000     11.1523      2.6294      0.1841      1.2490    124.2198     18.9351
   583.0000     11.1311      2.6217      0.1444      1.7133    122.9207     18.9400
   583.1000     11.1311      2.6167      0.1523      2.0152    118.0541     18.9792
   583.2000     11.1311      2.6285      0.1022      1.3034    118.2727     19.1511
   583.3000     11.1381      2.6464      0.1461      0.2187    121.9142     19.1814
   583.4000     11.1381      2.6508      0.1062     -0.0510    119.5378     19.0386
   583.5000     11.1558      2.6324      0.1133      1.0640    114.0673     18.9629
   583.6000     11.1558      2.6051      0.0228      2.7228    113.6525     19.1149
   583.7000     11.1558      2.5921      0.0328      3.5061    116.4548     19.2755
   583.8000     11.1578      2.5806      0.1230      4.2080    121.0004     19.2817
   583.9000     11.1578      2.5478      0.0422      6.1952    128.5282     19.2461
   584.0000     11.1911      2.5164     -0.0047      8.0960    133.0872     19.1217
   584.1000     11.1911      2.5183     -0.0342      7.9806    130.4889     18.9125
   584.2000     11.1911      2.5431      0.0881      6.4773    126.4789     18.9678
   584.3000     11.1842      2.5558      0.0583      5.7093    126.3984     19.4281
   584.4000     11.1842      2.5489      0.0648      6.1274    129.2658     20.0152
   584.5000     11.1887      2.5430      0.0407      6.4853    131.6526     20.5279
   584.6000     11.1887      2.5553      0.0297      5.7378    130.9248     20.9389
   584.7000     11.1887      2.5791      0.0960      4.2970    128.0160     20.9340
   584.8000     11.1842      2.5919      0.0781      3.5198    125.4147     20.4403
   584.9000     11.1842      2.5861      0.1017      3.8704    124.0706     20.0787
   585.0000     11.1870      2.5750      0.0248      4.5438    124.5879     20.1210
   585.1000     11.1870      2.5666      0.0730      5.0526    127.5440     20.0638
   585.2000     11.1870      2.5483      0.0518      6.1654    131.7823     19.5160
   585.3000     11.1827      2.5209     -0.0334      7.8241    132.7087     18.8278
   585.4000     11.1827      2.5050     -0.0147      8.7880    129.7419     18.5205
   585.5000     11.2047      2.5051      0.0113      8.7792    128.7369     18.5366
   585.6000     11.2047      2.5103      0.0043      8.4649    131.0091     18.5786
   585.7000     11.2047      2.5086      0.0482      8.5690    132.0094     18.3501
   585.8000     11.2119      2.4942      0.0059      9.4438    130.2531     17.8439
   585.9000     11.2119      2.4680      0.0316     11.0286    127.3386     17.6109
   586.0000     11.2117      2.4325     -0.0119     13.1828    125.1035     17.5186
   586.1000     11.2117      2.3952     -0.0032     15.4443    124.0561     16.7450
   586.2000     11.2117      2.3648     -0.0285     17.2828    124.8181     15.4603
   586.3000     11.2110      2.3469      0.0084     18.3701    128.2444     14.3973
   586.4000     11.2110      2.3468     -0.0170     18.3769    131.8024     13.8242
   586.5000     11.2150      2.3688      0.0079     17.0403    133.5067     13.7514
   586.6000     11.2150      2.4029      0.0713     14.9734    135.9356     14.0330
   586.7000     11.2150      2.4356      0.0676     12.9946    136.2439     14.2200
   586.8000     11.2084      2.4700      0.1134     10.9090    127.9259     13.9021
   586.9000     11.2084      2.5023      0.2321      8.9507    116.7575     13.3466
   587.0000     11.3959      2.5111      0.2544      8.4163    114.1601     12.9367
   587.1000     11.3959      2.4843      0.2684     10.0437    119.1924     12.5262
   587.2000     11.3959      2.4299      0.2388     13.3365    123.7928     12.0531
   587.3000     11.3359      2.3846      0.1015     16.0871    127.2436     11.9906
   587.4000     11.3359      2.3932      0.0966     15.5623    134.7971     12.7005
   587.5000     11.2401      2.4513      0.1952     12.0454    147.1768     13.7717
   587.6000     11.2401      2.5178      0.2075      8.0127    157.5407     14.7043
   587.7000     11.2401      2.5671      0.2592      5.0252    159.2236     15.6065
   587.8000     11.1670      2.5794      0.3071      4.2813    154.2624     16.7175
   587.9000     11.1670      2.5415      0.2918      6.5785    149.7501     17.8345
   588.0000     11.1706      2.4699      0.2490     10.9173    146.5071     18.5712
   588.1000     11.1706      2.3991      0.1806     15.2034    143.7008     19.0534
   588.2000     11.1706      2.3479      0.1525     18.3121    144.3679     19.3969
   588.3000     11.2107      2.3153      0.0876     20.2865    150.1007     19.4949
   588.4000     11.2107      2.2994      0.0640     21.2471    155.9270     19.6726
   588.5000     10.8611      2.2869      0.0768     22.0060    155.7602     19.9607
   588.6000     10.8611      2.2561      0.1006     23.8728    151.7012     19.8662
   588.7000     10.8611      2.2161      0.0520     26.2970    151.1687     19.1303
   588.8000      8.8635      2.2020      0.1177     27.1496    155.1314     17.6371
   588.9000      8.8635      2.2147      0.2368     26.3828    155.7028     15.7188
   589.0000      8.5578      2.2045      0.3989     26.9993    147.0436     14.1918
   589.1000      8.5578      2.1254      0.3371     31.7969    135.1615     13.2688
   589.2000      8.5578      1.9789      0.2072     40.6726    130.1058     12.5172
   589.3000      8.5940      1.8021      0.1287     51.3852    130.8484     11.8325
   589.4000      8.5940      1.6293      0.0933     61.8625    127.1497     11.3983
   589.5000      8.5247      1.4736      0.0475     71.2958    114.7964     11.1345
   589.6000      8.5247      1.3425     -0.0110     79.2396    101.1941     10.9108
   589.7000      8.5247      1.2563     -0.0445     84.4651     92.7148     10.8262
   589.8000      8.5274      1.2377     -0.0282     85.5935     87.8775     11.0471
   589.9000      8.5274      1.2862      0.0808     82.6548     82.2371     11.7048
   590.0000      8.5631      1.3759      0.1712     77.2164     76.1997     12.8943
   590.1000      8.5631      1.4838      0.2168     70.6806     72.6216     14.4621
   590.2000      8.5631      1.6012      0.2718     63.5656     70.9736     16.0117
   590.3000      8.4348      1.7213      0.3288     56.2877     70.3418     17.3099
   590.4000      8.4348      1.8388      0.3723     49.1662     68.8722     18.4933
   590.5000      8.3817      1.9521      0.3726     42.2959     67.3508     19.6033
   590.6000      8.3817      2.0554      0.3342     36.0369     69.4117     20.6509
   590.7000      8.3817      2.1383      0.2989     31.0145     74.4655     21.8104
   590.8000      8.3788      2.1985      0.2164     27.3633     80.9729     22.9066
   590.9000      8.3788      2.2530      0.1240     24.0593     88.4887     23.7090
   591.0000      8.3568      2.3157      0.1612     20.2590     95.0395     24.3287
   591.1000      8.3568      2.3761      0.1326     16.6016     99.4452     24.7066
   591.2000      8.3568      2.4222      0.1100     13.8044    104.4188     24.6895
   591.3000      8.3204      2.4534      0.0978     11.9148    111.6477     24.2243
   591.4000      8.3204      2.4713      0.0302     10.8323    117.7200     23.6206
   591.5000      8.2059      2.4766      0.0517     10.5118    121.3036     23.1391
   591.6000      8.2059      2.4671     -0.0077     11.0863    125.1302     22.5153
   591.7000      8.2059      2.4529     -0.0444     11.9456    130.1253     21.6759
   591.8000      8.0531      2.4454      0.0343     12.3991    133.8977     20.7772
   591.9000      8.0531      2.4321      0.0609     13.2070    135.4756     19.7139
   592.0000      8.0254      2.3975     -0.0112     15.3055    137.1803     18.4668
   592.1000      8.0254      2.3416      0.0285     18.6936    140.4364     17.3659
   592.2000      8.0254      2.2674     -0.0017     23.1871    145.2655     16.5832
   592.3000      8.0256      2.1766     -0.0483     28.6881    149.4916     16.0405
