~Version Information
VERS.                      2.0: CWLS Log ASCII Standard - VERSION 2.0
WRAP.                       NO: One line per depth step
~Well Information Block
STRT.FT                37.7500: 
STOP.FT              1898.5000: 
STEP.FT                 0.2500: 
NULL.                -999.2500: 
COMP.          Petrogulf Corporation: COMPANY
WELL.           Montoya 12-41R: WELL
FLD.           Purgatorie River: FIELD
LOC.           1086' FNL & 610' FEL--: LOCATION
PROV.                       CO: PROVINCE
CNTY.               Las Animas: COUNTRY
SRVC.                         : SERVICE COMPANY
DATE.          Wed Feb 09 11:45:45 2005: LOG DATE
UWI.         005 071 08241 : UNIQUE WELL ID
~Curve Information Block
DEPT.FT            0 000 00 00: Depth
CCL.                          : Casing Collar Locator
TT3.usec                      : CBL 3' Travel Time
AMP3.mV                       : CBL 3' Amplitude
GR.GAPI                       : Gamma Ray
~Parameter Information Block
~A  Depth       CCL         TT3         AMP3         GR     
# ...
  1377.7500      0.0000    266.0871     70.3125     79.0534
  1378.0000      0.0000    266.1165     70.2069     76.4610
  1378.2500      0.0000    266.1191     70.0485     75.7074
  1378.5000      0.0000    266.0993     69.8682     76.9472
  1378.7500      0.0000    266.0749     69.7191     79.4743
  1379.0000      0.0000    266.0650     69.6320     81.8057
  1379.2500      0.0000    266.0804     69.5852     82.7938
  1379.5000      0.0000    266.1196     69.5346     82.9386
  1379.7500      0.0000    266.1669     69.4608     84.6161
  1380.0000      0.0000    266.1998     69.3739     90.6786
  1380.2500      0.0000    266.2031     69.2841    102.3660
  1380.5000      0.0000    266.1790     69.1907    118.2247
  1380.7500      0.0000    266.1408     69.1020    134.7044
  1381.0000      0.0000    266.0999     69.0375    147.6318
  1381.2500      0.0000    266.0632     68.9982    153.7101
  1381.5000      0.0000    266.0365     68.9487    151.9044
  1381.7500      0.0000    266.0232     68.8445    144.4176
  1382.0000      0.0000    266.0194     68.6726    136.1005
  1382.2500      0.0000    266.0170     68.4599    131.6259
  1382.5000      0.0000    266.0120     68.2526    132.2594
  1382.7500      0.0000    266.0066     68.0923    135.3956
  1383.0000      0.0000    266.0020     68.0031    137.5659
  1383.2500      0.0000    265.9950     67.9868    137.7802
  1383.5000      0.0000    265.9853     68.0285    137.8897
  1383.7500      0.0000    265.9776     68.1011    140.0354
  1384.0000      0.0000    265.9750     68.1673    143.9396
  1384.2500      0.0000    265.9752     68.1869    146.5034
  1384.5000      0.0000    265.9770     68.1396    143.9008
  1384.7500      0.0000    265.9828     68.0446    134.3109
  1385.0000      0.0000    265.9896     67.9553    119.0640
  1385.2500      0.0000    265.9850     67.9295    101.4635
  1385.5000      0.0000    265.9592     68.0003     84.6374
  1385.7500      0.0000    265.9169     68.1693     70.3951
  1386.0000      0.0000    265.8716     68.4089     59.4634
  1386.2500      0.0000    265.8313     68.6614     52.1133
  1386.5000      0.0000    265.7958     68.8481     48.4788
  1386.7500      0.0000    265.7657     68.9078     48.3883
  1387.0000      0.0000    265.7481     68.8336     50.8997
  1387.2500      0.0000    265.7491     68.6732     54.4241
  1387.5000      0.0000    265.7657     68.4987     57.8718
  1387.7500      0.0000    265.7881     68.3804     61.5081
  1388.0000      0.0000    265.8065     68.3727     66.2017
  1388.2500      0.0000    265.8130     68.4982     71.9860
  1388.5000      0.0000    265.8010     68.7285     77.6981
  1388.7500      0.0000    265.7707     68.9847     81.7257
  1389.0000      0.0000    265.7343     69.1805     82.7128
  1389.2500      0.0000    265.7120     69.2802     79.9636
  1389.5000      0.0000    265.7154     69.3110     74.0968
  1389.7500      0.0000    265.7359     69.3145     67.4832
  1390.0000      0.0000    265.7511     69.2954     63.2899
  1390.2500      0.0000    265.7462     69.2269     63.3958
  1390.5000      0.0000    265.7269     69.0956     67.2083
  1390.7500      0.0000    265.7093     68.9311     72.6327
  1391.0000      0.0000    265.7027     68.7914     77.8327
  1391.2500      0.0000    265.7057     68.7304     81.7492
  1391.5000      0.0000    265.7130     68.7732     83.5634
  1391.7500      0.0000    265.7177     68.9067     82.8259
  1392.0000      0.0000    265.7128     69.0778     80.3207
  1392.2500      0.0000    265.6971     69.2036     78.1365
  1392.5000      0.0000    265.6799     69.1990     78.5353
  1392.7500      0.0000    265.6749     69.0191     82.8870
  1393.0000      0.0000    265.6873     68.6974     91.4774
  1393.2500      0.0000    265.7074     68.3444    103.8275
  1393.5000      0.0000    265.7195     68.0904    119.0648
  1393.7500      0.0000    265.7177     68.0047    136.0754
  1394.0000      0.0000    265.7119     68.0706    153.3542
  1394.2500      0.0000    265.7170     68.2523    168.9946
  1394.5000      0.0000    265.7369     68.5971    181.3884
  1394.7500      0.0000    265.7583     69.2620    190.1932
  1395.0000      0.0000    265.7603     70.4015    196.3345
  1395.2500      0.0000    265.7308     71.9869    200.7020
  1395.5000      0.0000    265.6774     73.7285    203.0550
  1395.7500      0.0000    265.6225     75.2229    202.6543
  1396.0000      0.0000    265.5847     76.2110    200.0325
  1396.2500      0.0000    265.5674     76.6920    197.8247
  1396.5000      0.0000    265.5623     76.8137    199.2138
  1396.7500      0.0000    265.5615     76.7176    205.0342
  1397.0000      0.0000    265.5645     76.5098    212.6562
  1397.2500      0.0000    265.5738     76.3281    218.1395
  1397.5000      0.0000    265.5887     76.3741    219.2400
  1397.7500      0.0000    265.6031     76.8510    215.9892
  1398.0000      0.0000    265.6132     77.8438    208.9168
  1398.2500      0.0000    265.6231     79.2282    197.6573
  1398.5000      0.0000    265.6407     80.6987    181.5317
  1398.7500      0.0000    265.6659     81.9317    160.9675
  1399.0000      0.0000    265.6865     82.7556    137.7589
  1399.2500      0.0000    265.6899     83.1788    113.9620
  1399.5000      0.0000    265.6747     83.2966     91.0138
  1399.7500      0.0000    265.6530     83.2088     70.0385
  1400.0000      0.0000    265.6412     83.0063     52.5080
  1400.2500      0.0000    265.6501     82.7743     39.9826
  1400.5000      0.0000    265.6761     82.5695     33.1804
  1400.7500      0.0000    265.7047     82.3926     31.7150
  1401.0000      0.0000    265.7258     82.2037     34.7868
  1401.2500      0.0000    265.7424     81.9707     41.5973
  1401.5000      0.0000    265.7640     81.7028     50.9714
  1401.7500      0.0000    265.7943     81.4282     61.2373
  1402.0000      0.0000    265.8312     81.1298     71.1377
  1402.2500      0.0000    265.8758     80.7045     80.6736
  1402.5000      0.0000    265.9326     80.0082     90.4548
  1402.7500      0.0000    266.0019     78.9542    100.2363
  1403.0000      0.0000    266.0739     77.5644    108.6001
  1403.2500      0.0000    266.1333     75.9368    114.1858
  1403.5000      0.0000    266.1648     74.1946    117.0459
  1403.7500      0.0000    266.1623     72.4805    118.9451
  1404.0000      0.0000    266.1360     70.9487    122.3721
  1404.2500      0.0000    266.1097     69.7016    128.7007
  1404.5000      0.0000    266.1046     68.7346    136.9569
  1404.7500      0.0000    266.1236     67.9637    144.6102
  1405.0000      0.0000    266.1541     67.2961    149.6518
  1405.2500      0.0000    266.1825     66.6590    151.7843
  1405.5000      0.0000    266.2033     65.9860    152.0453
  1405.7500      0.0000    266.2190     65.1985    151.8664
  1406.0000      0.0000    266.2383     64.2065    152.1555
  1406.2500      0.0000    266.2744     62.9471    152.3580
  1406.5000      0.0000    266.3544     61.4423    150.4518
  1406.7500      0.0000    266.5387     59.7850    144.9461
  1407.0000      0.0000    266.9271     58.0281    136.9880
  1407.2500      0.0000    267.6310     56.0718    129.5820
  1407.5000      0.0000    268.7211     53.6708    124.7575
  1407.7500      0.0000    270.1580     50.6080    122.1520
  1408.0000      0.0000    271.7291     47.0053    119.9614
  1408.2500      0.0000    273.0876     43.5159    116.5435
  1408.5000      0.0000    273.9484     41.0284    111.5043
  1408.7500      0.0000    274.2778     40.0162    106.0470
  1409.0000      0.0000    274.2735     40.2119    102.2077
  1409.2500     -2.0000    274.1853     40.9404    101.2563
  1409.5000      0.0000    274.1830     41.6752    102.8261
  1409.7500      0.0000    274.3171     42.3453    105.6158
  1410.0000      0.0000    274.4839     43.3236    108.4019
  1410.2500      0.0000    274.3953     45.1210    110.0291
  1410.5000      0.0000    273.7070     47.8621    109.0196
  1410.7500      0.0000    272.3081     51.0416    104.2281
  1411.0000      0.0000    270.4819     54.0149     96.0703
