~Version Information
VERS.                      2.0: CWLS Log ASCII Standard - VERSION 2.0
WRAP.                       NO: One line per depth step
~Well Information Block
STRT.FT                -6.7500: 
STOP.FT              1766.5000: 
STEP.FT                 0.2500: 
NULL.                -999.2500: 
COMP.          Pioneer Natural Resources: COMPANY
WELL.            Hill 33-22 Tr: WELL
FLD.           Purgatorie River: FIELD
LOC.           1573' FSL & 1585' FEL: LOCATION
PROV.                 Colorado: PROVINCE
CNTY.               Las Animas: COUNTRY
SRVC.          Patterson Wireline: SERVICE COMPANY
DATE.          Tue Apr 19 09:26:19 2005: LOG DATE
UWI.           05-071-08316-00: UNIQUE WELL ID
~Curve Information Block
DEPT.FT            0 000 00 00: Depth
CCL.                          : Casing Collar Locator
TT3.usec                      : CBL 3' Travel Time
AMP3.mV                       : CBL 3' Amplitude
GR.GAPI                       : Gamma Ray
~Parameter Information Block
~A  Depth       CCL         TT3         AMP3         GR     
# ...
   328.2500      0.0000   1330.0190      7.4486     62.5120
   328.5000      0.0000   1273.1985      7.3947     61.2203
   328.7500      0.0000   1211.5709      7.3482     61.1742
   329.0000      0.0000   1160.5293      7.2869     61.5230
   329.2500      0.0000   1118.6641      7.1950     61.4551
   329.5000      0.0000   1081.5233      7.0744     60.8019
   329.7500      0.0000   1056.9917      6.9432     60.1387
   330.0000      0.0000   1054.5969      6.8222     60.1565
   330.2500      0.0000   1065.8080      6.7214     60.8408
   330.5000      0.0000   1068.9346      6.6398     61.4224
   330.7500      0.0000   1053.1099      6.5701     61.3061
   331.0000      0.0000   1028.6194      6.5051     60.7738
   331.2500      0.0000   1013.0867      6.4412     60.5214
   331.5000      0.0000   1012.1923      6.3813     60.7850
   331.7500      0.0000   1014.5189      6.3322     61.2348
   332.0000      0.0000   1003.6700      6.2980     61.5081
   332.2500      0.0000    974.3121      6.2736     61.5474
   332.5000      0.0000    935.5021      6.2457     61.3950
   332.7500      0.0000    899.0278      6.2024     60.7500
   333.0000      0.0000    868.0807      6.1438     59.0166
   333.2500      0.0000    839.5745      6.0868     56.1471
   333.5000      0.0000    813.3089      6.0574     53.3686
   333.7500      0.0000    794.2036      6.0747     52.5219
   334.0000      0.0000    787.8365      6.1364     54.4691
   334.2500      0.0000    797.3400      6.2210     58.4646
   334.5000      0.0000    822.4228      6.3066     63.1423
   334.7500      0.0000    857.7193      6.3899     67.7675
   335.0000      0.0000    893.2043      6.4858     72.3823
   335.2500      0.0000    919.3519      6.6056     76.9825
   335.5000      0.0000    932.0497      6.7413     80.8678
   335.7500      0.0000    932.4651      6.8708     82.9802
   336.0000      0.0000    924.7489      6.9774     82.8356
   336.2500      0.0000    914.5640      7.0592     81.0201
   336.5000      0.0000    906.9556      7.1257     78.8230
   336.7500      0.0000    903.7588      7.1882     77.4630
   337.0000      0.0000    905.4269      7.2423     77.4038
   337.2500      0.0000    917.6865      7.2350     78.0586
   337.5000      0.0000    953.8168      7.0550     78.2919
   337.7500      0.0000   1024.1132      6.6100     77.5422
   338.0000      0.0000   1121.7916      5.9478     76.2446
   338.2500      0.0000   1223.1002      5.2596     74.8028
   338.5000      0.0000   1302.2250      4.7300     72.6382
   338.7500      0.0000   1345.4824      4.4076     68.9928
   339.0000     -5.0000   1354.4423      4.2310     64.4313
   339.2500      5.0000   1337.9053      4.1333     60.8315
   339.5000      0.0000   1300.4669      4.1116     59.7346
   339.7500      0.0000   1240.7620      4.2233     61.0650
   340.0000      0.0000   1161.0483      4.5153     63.6202
   340.2500      0.0000   1072.5613      4.9387     66.4574
   340.5000      0.0000    988.6936      5.3629     69.3943
   340.7500      0.0000    917.5643      5.7114     72.2879
   341.0000      0.0000    863.1953      6.0332     74.3820
   341.2500      0.0000    829.0056      6.3944     74.7417
   341.5000      0.0000    816.8190      6.7578     73.2633
   341.7500      0.0000    823.4517      7.0239     70.9852
   342.0000      0.0000    840.2321      7.1429     69.2554
   342.2500      0.0000    856.5976      7.1449     68.6947
   342.5000      0.0000    864.8607      7.0895     69.0511
   342.7500      0.0000    862.5653      7.0177     69.8005
   343.0000      0.0000    851.6058      6.9482     70.5517
   343.2500      0.0000    835.7181      6.8926     71.0280
   343.5000      0.0000    818.6100      6.8577     71.1233
   343.7500      0.0000    804.1828      6.8329     71.1113
   344.0000      0.0000    797.9561      6.7900     71.4253
   344.2500      0.0000    806.5951      6.7049     72.0084
   344.5000      0.0000    833.4904      6.5764     72.1485
   344.7500      0.0000    872.9550      6.4236     71.1277
   345.0000      0.0000    909.9684      6.2712     68.8732
   345.2500      0.0000    929.5775      6.1411     66.0052
   345.5000      0.0000    928.0935      6.0528     63.6284
   345.7500      0.0000    913.1851      6.0283     62.9730
   346.0000      0.0000    893.5880      6.0908     64.6799
   346.2500      0.0000    872.4153      6.2481     68.1978
   346.5000      0.0000    850.6041      6.4738     72.0563
   346.7500      0.0000    831.4484      6.7173     74.8620
   347.0000      0.0000    818.3140      6.9438     76.1160
   347.2500      0.0000    810.4251      7.1588     76.2399
   347.5000      0.0000    804.1093      7.3829     75.8735
   347.7500      0.0000    797.8343      7.6115     75.1612
   348.0000      0.0000    794.3338      7.8088     73.9020
   348.2500      0.0000    797.0931      7.9406     72.2396
   348.5000      0.0000    805.0994      8.0055     70.6986
   348.7500      0.0000    811.9753      8.0304     69.6557
   349.0000      0.0000    811.1043      8.0424     69.3230
   349.2500      0.0000    801.5680      8.0500     70.1454
   349.5000      0.0000    788.3481      8.0482     72.6106
   349.7500      0.0000    777.2723      8.0312     76.5673
   350.0000      0.0000    770.9260      7.9938     81.0962
   350.2500      0.0000    768.8495      7.9270     85.1449
   350.5000      0.0000    769.7981      7.8186     88.1833
   350.7500      0.0000    772.9290      7.6669     90.1887
   351.0000      0.0000    777.6612      7.4919     91.1507
   351.2500      0.0000    783.3665      7.3289     90.9458
   351.5000      0.0000    789.1660      7.2025     89.7588
   351.7500      0.0000    793.5181      7.1067     88.3410
   352.0000      0.0000    794.5322      7.0146     87.7931
   352.2500      0.0000    791.7009      6.9069     89.1289
   352.5000      0.0000    786.8564      6.7846     92.6521
   352.7500      0.0000    782.3329      6.6580     97.3222
   353.0000      0.0000    778.7206      6.5374    100.9866
   353.2500      0.0000    775.3005      6.4348    101.9182
   353.5000      0.0000    771.9011      6.3647    100.2759
   353.7500      0.0000    769.5435      6.3345     97.7816
   354.0000      0.0000    769.9315      6.3351     95.9896
   354.2500      0.0000    775.2685      6.3431     95.0273
   354.5000      0.0000    787.6445      6.3337     93.7234
   354.7500      0.0000    806.2620      6.2962     90.6966
   355.0000      0.0000    824.5200      6.2423     85.5441
   355.2500      0.0000    832.6243      6.1989     79.3021
   355.5000      0.0000    826.1142      6.1944     73.8245
   355.7500      0.0000    810.7974      6.2485     70.6178
   356.0000      0.0000    797.2193      6.3691     70.0250
   356.2500      0.0000    791.4349      6.5454     71.1896
   356.5000      0.0000    792.6281      6.7421     72.6446
   356.7500      0.0000    797.8262      6.9123     73.1189
   357.0000      0.0000    806.6927      7.0270     72.2022
   357.2500      0.0000    821.6134      7.0929     70.4903
   357.5000      0.0000    844.0547      7.1395     68.9743
   357.7500      0.0000    870.9286      7.1941     68.0792
   358.0000      0.0000    894.2474      7.2658     67.2853
   358.2500      0.0000    904.9763      7.3472     65.7404
   358.5000      0.0000    898.5985      7.4232     63.0862
   358.7500      0.0000    878.3688      7.4832     59.5101
   359.0000      0.0000    853.3005      7.5275     55.2742
   359.2500      0.0000    831.9839      7.5606     50.6959
   359.5000      0.0000    817.7249      7.5791     46.5301
   359.7500      0.0000    809.0484      7.5713     43.8525
   360.0000      0.0000    803.2969      7.5307     43.2592
   360.2500      0.0000    798.7142      7.4681     44.2225
   360.5000      0.0000    794.1314      7.4075     45.3486
   360.7500      0.0000    788.6105      7.3692     45.3951
   361.0000      0.0000    782.2340      7.3582     44.1902
   361.2500      0.0000    776.4385      7.3685     42.5491
   361.5000      0.0000    773.0951      7.3940     41.3284
