~Version Information
VERS.                      2.0: CWLS Log ASCII Standard - VERSION 2.0
WRAP.                       NO: One line per depth step
~Well Information Block
STRT.FT                -7.5000: 
STOP.FT              1129.7500: 
STEP.FT                 0.2500: 
NULL.                -999.2500: 
COMP.          Pioneer Natural Resources: COMPANY
WELL.          Drewmeister 34-34: WELL
FLD.           Purgatorie River: FIELD
LOC.           958' FSL & 1857' FEL: LOCATION
STAT.                       CO: State
CNTY.               Las Animas: COUNTRY
CTRY. USA : Country
SECT. 34 : Section
TOWN. 32S : Township
RANG. 65W : Range
SRVC.          Patterson Wireline: SERVICE COMPANY
DATE.          Fri Oct 14 14:02:00 2005: LOG DATE
API.           05 071 08131 00: UNIQUE WELL ID
~Curve Information Block
DEPT.FT            0 000 00 00: Depth
CCL.                          : Casing Collar Locator
TT3.usec                      : CBL 3' Travel Time
AMP3.mV                       : CBL 3' Amplitude
GR.GAPI                       : Gamma Ray
~Parameter Information Block
~A  Depth       CCL         TT3         AMP3         GR     
# ...
   361.0000      0.0000    959.0425      2.0286    109.2988
   361.2500      0.0000    977.9692      2.3616    106.7693
   361.5000      0.0000    998.4210      2.8042    103.7334
   361.7500      0.0000   1013.7396      3.2882    100.2958
   362.0000      0.0000   1022.1492      3.7358     96.5253
   362.2500      0.0000   1023.4259      4.1024     92.9843
   362.5000      0.0000   1015.0342      4.3941     90.0670
   362.7500      0.0000    993.3460      4.6491     87.2852
   363.0000      0.0000    959.7986      4.9061     83.6101
   363.2500      0.0000    924.1981      5.1902     78.3732
   363.5000      0.0000    897.9557      5.5139     71.6711
   363.7500      0.0000    883.2920      5.8695     64.0629
   364.0000      0.0000    872.4019      6.2155     56.2436
   364.2500      0.0000    857.5241      6.4811     49.1016
   364.5000      0.0000    837.7917      6.6007     43.7624
   364.7500      0.0000    816.2065      6.5562     41.2464
   365.0000      0.0000    795.1068      6.3974     41.9858
   365.2500      0.0000    776.1302      6.2198     45.5630
   365.5000      0.0000    761.0253      6.1088     50.7647
   365.7500      0.0000    750.6039      6.0952     56.0950
   366.0000      0.0000    743.8569      6.1549     60.6928
   366.2500      0.0000    738.5546      6.2476     64.8881
   366.5000      0.0000    732.8455      6.3524     69.6923
   366.7500      0.0000    726.9748      6.4733     75.7823
   367.0000      0.0000    723.7267      6.6275     82.9681
   367.2500      0.0000    726.2891      6.8304     90.0948
   367.5000      0.0000    735.0177      7.0784     95.2982
   367.7500      0.0000    746.6756      7.3336     97.0345
   368.0000      0.0000    756.9813      7.5370     95.2552
   368.2500      0.0000    763.6904      7.6481     91.4038
   368.5000      0.0000    767.5679      7.6699     87.5015
   368.7500      0.0000    771.1432      7.6364     85.5282
   369.0000      0.0000    776.4464      7.5842     86.8132
   369.2500      0.0000    783.2600      7.5359     90.8756
   369.5000      0.0000    789.2005      7.4922     95.1026
   369.7500      0.0000    791.8708      7.4274     96.6062
   370.0000      0.0000    791.4823      7.3026     94.6126
   370.2500      0.0000    791.6563      7.1033     90.6806
   370.5000      0.0000    797.4995      6.8653     86.6541
   370.7500      0.0000    812.1499      6.6480     82.9615
   371.0000      0.0000    834.3530      6.4760     79.1618
   371.2500      0.0000    859.4786      6.3236     75.4901
   371.5000      0.0000    882.7464      6.1642     72.9343
   371.7500      0.0000    899.6427      6.0134     71.7997
   372.0000      0.0000    903.5835      5.9171     71.0984
   372.2500      0.0000    888.2993      5.9142     69.6698
   372.5000      0.0000    855.6489      6.0089     67.2492
   372.7500      0.0000    818.4263      6.1615     64.3086
   373.0000      0.0000    793.3806      6.3086     61.6410
   373.2500      0.0000    791.7346      6.4110     60.2664
   373.5000      0.0000    813.7616      6.4811     60.9877
   373.7500      0.0000    848.0184      6.5476     63.8851
   374.0000      0.0000    876.0291      6.6056     68.7047
   374.2500      0.0000    882.8696      6.6235     75.5144
   374.5000      0.0000    866.7997      6.5885     84.2021
   374.7500      0.0000    838.5010      6.5185     93.4151
   375.0000      0.0000    810.9960      6.4381    100.7895
   375.2500      0.0000    791.2050      6.3631    104.5571
   375.5000      0.0000    779.4322      6.3051    104.7173
   375.7500      0.0000    773.0695      6.2780    102.6408
   376.0000      0.0000    769.3875      6.2938     99.8158
   376.2500      0.0000    766.6326      6.3514     97.0633
   376.5000      0.0000    764.3187      6.4264     94.7125
   376.7500      0.0000    762.8275      6.4785     93.0816
   377.0000      0.0000    762.8207      6.4762     92.3955
   377.2500      0.0000    765.1332      6.4182     92.2703
   377.5000      0.0000    770.9731      6.3292     91.7629
   377.7500      0.0000    781.6451      6.2341     90.2277
   378.0000      0.0000    797.5559      6.1366     87.9925
   378.2500      0.0000    817.2533      6.0201     86.0239
   378.5000      0.0000    837.6086      5.8669     84.8791
   378.7500      0.0000    855.2512      5.6790     84.0427
   379.0000      0.0000    868.0602      5.4858     82.4883
   379.2500      0.0000    875.7868      5.3321     79.9527
   379.5000      0.0000    880.0004      5.2492     77.3142
   379.7500      0.0000    883.4172      5.2255     75.7607
   380.0000      0.0000    888.4469      5.2033     76.0323
   380.2500      0.0000    895.8235      5.1199     78.3553
   380.5000      0.0000    904.5108      4.9669     82.5069
   380.7500      0.0000    913.1199      4.7987     87.6986
   381.0000      0.0000    921.7304      4.6745     92.4754
   381.2500      0.0000    931.8742      4.5986     94.9959
   381.5000      0.0000    943.4205      4.5200     94.1334
   381.7500      0.0000    951.3143      4.3798     90.8217
   382.0000      0.0000    947.2639      4.1553     87.8283
   382.2500      0.0000    926.3707      3.8751     87.4932
   382.5000      0.0000    892.2603      3.6018     89.7527
   382.7500      0.0000    855.4658      3.3918     92.5238
   383.0000      0.0000    827.0469      3.2648     93.6261
   383.2500      0.0000    813.2348      3.2126     92.1698
   383.5000      0.0000    813.8965      3.2274     88.7359
   383.7500      0.0000    824.1545      3.3039     84.9421
   384.0000      0.0000    838.0560      3.4193     82.6790
   384.2500      0.0000    852.4960      3.5365     83.0991
   384.5000      0.0000    868.1268      3.6347     85.9662
   384.7500      0.0000    886.1343      3.7263     89.8424
   385.0000      0.0000    904.3534      3.8401     92.9650
   385.2500      0.0000    917.5709      3.9934     94.2661
   385.5000      0.0000    922.0408      4.1774     93.8395
   385.7500      0.0000    918.9372      4.3610     92.5474
   386.0000      0.0000    912.8758      4.5087     91.1167
   386.2500      0.0000    907.4385      4.6041     89.3597
   386.5000      0.0000    902.0314      4.6572     86.3371
   386.7500      0.0000    892.5692      4.6827     81.5733
   387.0000      0.0000    875.5638      4.6793     75.9646
   387.2500      0.0000    852.1666      4.6398     71.1967
   387.5000      0.0000    828.0654      4.5805     68.5564
   387.7500      0.0000    809.3427      4.5482     68.5845
   388.0000      0.0000    798.8259      4.5940     71.4635
   388.2500      0.0000    796.0383      4.7382     77.2350
   388.5000      0.0000    799.0427      4.9535     85.5406
   388.7500      0.0000    805.3109      5.1663     95.3028
   389.0000      0.0000    811.5623      5.2739    105.0270
   389.2500      0.0000    814.4640      5.1823    113.6108
   389.5000      0.0000    812.4764      4.8530    120.5266
   389.7500      0.0000    806.8575      4.3274    125.0812
   390.0000      0.0000    800.4836      3.7123    126.3578
   390.2500      0.0000    795.7672      3.1383    124.5773
   390.5000      0.0000    793.7871      2.7141    121.7763
   390.7500      0.0000    794.8323      2.4961    120.1694
   391.0000      0.0000    799.0368      2.4854    120.0507
   391.2500      0.0000    806.3808      2.6469    119.8449
   391.5000      0.0000    816.8521      2.9300    118.1219
   391.7500      0.0000    830.6063      3.2916    115.3178
   392.0000      0.0000    846.3932      3.7186    113.4578
   392.2500      0.0000    859.0791      4.2279    114.1591
   392.5000      0.0000    861.7482      4.8204    116.9000
   392.7500      0.0000    854.0536      5.4141    119.4381
   393.0000      0.0000    847.8625      5.8427    119.9795
   393.2500      0.0000    860.5129      5.9706    118.7029
   393.5000      0.0000    899.7081      5.8300    117.0267
   393.7500      0.0000    954.3449      5.6002    115.8323
   394.0000      0.0000   1001.1092      5.4353    114.8340
   394.2500      0.0000   1022.2138      5.3431    113.2997
