~Version Information
VERS.                      2.0: CWLS Log ASCII Standard - VERSION 2.0
WRAP.                       NO: One line per depth step
~Well Information Block
STRT.FT               240.0000: 
STOP.FT              1709.2000: 
STEP.FT                 0.1000: 
NULL.                -999.2500: 
COMP.          Pioneer Natural Resources: COMPANY
WELL.              Patten 22-2: WELL
FLD.           Purgatoire River: FIELD
LOC.           2157' FNL & 1528' FWL: LOCATION
PROV.                 Colorado: PROVINCE
CNTY.               Las Animas: COUNTRY
SRVC.                Patterson: SERVICE COMPANY
DATE.          Fri Dec 10 09:15:13 2004: LOG DATE
UWI.           05 071 08168 00: UNIQUE WELL ID
~Curve Information Block
DEPT.FT            0 000 00 00: Depth
DCAL.in                       : CDL Caliper
RHOB.g/cc                     : CDL Bulk Density
RHOC.g/cc                     : CDL Density Correction
DPOR.pu                       : CDL Density Porosity
NPOR.pu                       : Neutron Porosity
GR.GAPI                       : Gamma Ray
~Parameter Information Block
~A  Depth       DCAL        RHOB        RHOC        DPOR        NPOR         GR     
# ...
   912.0000      8.0167      2.4810      0.0454     10.2404     22.6514    131.0525
   912.1000      8.0167      2.4668      0.0530     11.1031     22.6824    124.3905
   912.2000      8.0167      2.4536      0.0393     11.9011     22.9898    122.9776
   912.3000      8.0269      2.4582     -0.0037     11.6246     23.1526    123.4249
   912.4000      8.0269      2.4828      0.0893     10.1348     22.9981    121.1239
   912.5000      8.0404      2.4979      0.1140      9.2212     22.7852    120.2166
   912.6000      8.0404      2.4901      0.0385      9.6912     22.7330    121.8907
   912.7000      8.0404      2.4710      0.0581     10.8494     22.8158    121.0820
   912.8000      8.0473      2.4494      0.0133     12.1589     22.9728    118.2950
   912.9000      8.0473      2.4383      0.0083     12.8278     22.9856    116.4553
   913.0000      8.0436      2.4458      0.0220     12.3772     22.6617    115.1457
   913.1000      8.0436      2.4628      0.0596     11.3450     22.4189    113.9458
   913.2000      8.0436      2.4765      0.0479     10.5134     22.4786    112.3984
   913.3000      8.0347      2.4813      0.0823     10.2213     22.4754    111.1038
   913.4000      8.0347      2.4782      0.0232     10.4111     22.4376    111.8576
   913.5000      8.0251      2.4672      0.0874     11.0802     22.4827    113.2933
   913.6000      8.0251      2.4525      0.0025     11.9720     22.4110    112.6831
   913.7000      8.0251      2.4484      0.0174     12.2184     22.1384    109.8197
   913.8000      8.0141      2.4563      0.0636     11.7384     21.8060    104.7166
   913.9000      8.0141      2.4714      0.0221     10.8216     21.6953    100.6900
   914.0000      7.9980      2.5032      0.0425      8.8986     21.9875    100.2562
   914.1000      7.9980      2.5535      0.1017      5.8469     22.5123    100.4591
   914.2000      7.9980      2.6057      0.1428      2.6872     22.7976    102.2793
   914.3000      7.9820      2.6436      0.1384      0.3854     22.6572    107.8929
   914.4000      7.9820      2.6632      0.1499     -0.8028     22.6160    113.0172
   914.5000      7.9722      2.6661      0.1675     -0.9731     23.0879    112.8842
   914.6000      7.9722      2.6559      0.1879     -0.3580     23.7097    109.0531
   914.7000      7.9722      2.6449      0.0947      0.3086     24.0384    106.8031
   914.8000      7.9698      2.6453      0.0970      0.2841     24.2126    107.8649
   914.9000      7.9698      2.6488      0.1198      0.0728     24.6538    110.5543
   915.0000      7.9703      2.6456      0.0781      0.2644     25.3194    112.9763
   915.1000      7.9703      2.6454      0.0353      0.2813     25.6799    113.2546
   915.2000      7.9703      2.6581      0.0655     -0.4910     25.6902    110.3768
   915.3000      7.9708      2.6862      0.0830     -2.1969     25.8265    107.2760
   915.4000      7.9708      2.7223      0.1448     -4.3848     26.0948    105.5268
   915.5000      7.9706      2.7436      0.1348     -5.6743     26.3664    103.3370
   915.6000      7.9706      2.7374      0.1143     -5.2971     26.8382    100.7082
   915.7000      7.9706      2.7143      0.1420     -3.8993     27.5200     98.3198
   915.8000      7.9688      2.6914      0.0921     -2.5091     28.3160     97.8527
   915.9000      7.9688      2.6816      0.0672     -1.9147     28.9135     99.2547
   916.0000      7.9610      2.6816      0.0983     -1.9161     28.8676     98.1759
   916.1000      7.9610      2.6768      0.0810     -1.6224     28.3391     94.0842
   916.2000      7.9610      2.6688      0.0474     -1.1401     27.9652     91.8489
   916.3000      7.9493      2.6727      0.0316     -1.3785     27.9676     92.5153
   916.4000      7.9493      2.6890      0.0781     -2.3616     27.8598     95.1965
   916.5000      7.9435      2.6962      0.1054     -2.8010     27.3310    101.2458
   916.6000      7.9435      2.6698      0.1393     -1.2019     26.7300    109.1616
   916.7000      7.9435      2.6190      0.0362      1.8782     26.2510    113.9886
   916.8000      7.9497      2.5839      0.0813      4.0078     25.5477    115.3181
   916.9000      7.9497      2.5699      0.0830      4.8559     24.4313    118.0064
   917.0000      7.9886      2.5494      0.0658      6.0990     23.2059    123.2236
   917.1000      7.9886      2.5132      0.0357      8.2919     22.2741    124.8391
   917.2000      7.9886      2.4741      0.0139     10.6596     21.7569    119.4024
   917.3000      8.0888      2.4464      0.0098     12.3391     21.5628    114.3465
   917.4000      8.0888      2.4359     -0.0133     12.9767     21.4492    117.0791
   917.5000      8.1957      2.4380      0.0230     12.8461     21.1447    125.3863
   917.6000      8.1957      2.4482      0.0584     12.2286     20.7659    134.2376
   917.7000      8.1957      2.4696      0.1177     10.9329     20.6083    139.4939
   917.8000      8.2257      2.4934      0.1192      9.4885     20.9040    138.2163
   917.9000      8.2257      2.5022      0.1132      8.9556     21.5671    133.6260
   918.0000      8.2163      2.4981      0.0953      9.2078     22.0937    132.4858
   918.1000      8.2163      2.4973      0.0797      9.2531     22.3220    134.1717
   918.2000      8.2163      2.5002      0.1183      9.0769     22.5024    133.9939
   918.3000      8.2048      2.4920      0.0836      9.5778     22.6807    132.3516
   918.4000      8.2048      2.4754      0.0463     10.5843     22.8579    130.2812
   918.5000      8.1888      2.4697      0.0769     10.9272     22.9607    127.3538
   918.6000      8.1888      2.4771      0.0987     10.4795     22.6595    124.2574
   918.7000      8.1888      2.4797      0.1385     10.3230     21.9598    120.6432
   918.8000      8.1702      2.4717      0.0480     10.8047     21.1955    114.4457
   918.9000      8.1702      2.4630      0.0669     11.3308     20.6074    109.3303
   919.0000      8.1616      2.4544      0.0619     11.8561     20.3533    111.9807
   919.1000      8.1616      2.4426      0.0455     12.5709     20.2264    119.7179
   919.2000      8.1616      2.4287      0.0669     13.4142     20.0122    124.3378
   919.3000      8.1551      2.4159      0.0425     14.1861     19.7975    123.8903
   919.4000      8.1551      2.4144      0.0592     14.2796     19.7017    121.6796
   919.5000      8.1436      2.4265      0.0875     13.5456     19.8201    119.8281
   919.6000      8.1436      2.4397      0.1191     12.7473     19.9067    119.1032
   919.7000      8.1436      2.4501      0.1127     12.1174     19.5246    118.5468
   919.8000      8.1278      2.4703      0.1060     10.8934     18.9154    115.1702
   919.9000      8.1278      2.4954      0.2083      9.3669     18.4570    109.0439
   920.0000      8.0982      2.4976      0.1756      9.2385     18.0851    100.7559
   920.1000      8.0982      2.4747      0.1211     10.6215     17.9660     92.3806
   920.2000      8.0982      2.4589      0.0933     11.5835     18.2624     88.0124
   920.3000      8.0653      2.4646      0.1142     11.2340     18.6702     86.0430
   920.4000      8.0653      2.4760      0.0860     10.5452     18.8005     82.7193
   920.5000      8.0647      2.4835      0.0710     10.0938     18.6024     79.8485
   920.6000      8.0647      2.4928      0.0802      9.5272     18.1686     79.8134
   920.7000      8.0647      2.5023      0.0994      8.9496     17.7383     80.9350
   920.8000      8.0990      2.5022      0.1072      8.9552     17.5701     81.9545
   920.9000      8.0990      2.4915      0.0872      9.6031     17.6122     84.8222
   921.0000      8.1291      2.4797      0.0535     10.3197     17.6688     92.1418
   921.1000      8.1291      2.4760      0.0860     10.5443     17.8338    103.7453
   921.2000      8.1291      2.4806      0.0936     10.2644     18.2030    114.8058
   921.3000      8.1391      2.4839      0.1212     10.0666     18.5372    120.7563
   921.4000      8.1391      2.4758      0.1197     10.5560     18.6116    121.7960
   921.5000      8.1414      2.4657      0.0473     11.1671     18.3995    120.7756
