~Version Information
VERS.                      2.0: CWLS Log ASCII Standard - VERSION 2.0
WRAP.                       NO: One line per depth step
~Well Information Block
STRT.FT                -9.7500: 
STOP.FT              2612.5000: 
STEP.FT                 0.2500: 
NULL.                -999.2500: 
COMP.                         : COMPANY
WELL.                         : WELL
FLD.                          : FIELD
LOC.                          : LOCATION
CNTY.                         : COUNTY
SRVC.                         : SERVICE COMPANY
DATE.          Mon Nov 17 14:56:03 2003: LOG DATE
UWI.                          : UNIQUE WELL ID
STAT.                         : STATE
~Curve Information Block
DEPT.FT            0 000 00 00: Depth
CCL.                          : Casing Collar Locator
TT3.usec                      : CBL 3' Travel Time
AMP3.mV                       : CBL 3' Amplitude
GR.GAPI                       : Gamma Ray
~Parameter Information Block
~A  Depth       CCL         TT3         AMP3         GR     
# ...
  2569.7500      0.0000    799.5770      5.4941    104.7745
  2570.0000      0.0000    794.3358      5.7847    104.6265
  2570.2500      0.0000    789.6462      6.0030    105.1589
  2570.5000      0.0000    786.5693      6.1433    107.0968
  2570.7500      0.0000    784.9014      6.2173    110.1191
  2571.0000      0.0000    784.0568      6.2407    112.9511
  2571.2500      0.0000    783.5941      6.2292    114.6414
  2571.5000      0.0000    783.2993      6.2061    115.5272
  2571.7500      0.0000    783.1093      6.1959    116.5525
  2572.0000      0.0000    783.0250      6.1973    117.6839
  2572.2500      0.0000    783.0302      6.1729    117.5062
  2572.5000      0.0000    782.9975      6.0702    114.6523
  2572.7500      0.0000    782.5587      5.8561    109.4427
  2573.0000      0.0000    780.9511      5.5376    104.1143
  2573.2500      0.0000    777.1392      5.1567    101.6272
  2573.5000      0.0000    770.5779      4.7578    103.8092
  2573.7500      0.0000    762.2526      4.3569    109.9873
  2574.0000      0.0000    754.4982      3.9571    117.5382
  2574.2500      0.0000    748.9548      3.6028    124.0469
  2574.5000      0.0000    744.8611      3.3964    128.6864
  2574.7500      0.0000    740.3674      3.4379    131.5977
  2575.0000      0.0000    735.5108      3.7354    132.7238
  2575.2500      0.0000    732.6661      4.1772    131.7061
  2575.5000      0.0000    733.6844      4.5983    128.5656
  2575.7500      0.0000    737.7711      4.8797    124.0528
  2576.0000      0.0000    742.8769      4.9881    119.2574
  2576.2500      0.0000    748.1083      4.9409    114.8949
  2576.5000      0.0000    753.7416      4.7640    111.0879
  2576.7500      0.0000    759.5995      4.4870    107.9329
  2577.0000      0.0000    764.6060      4.1493    106.0335
  2577.2500      0.0000    767.8235      3.7909    106.1359
  2577.5000      0.0000    769.0032      3.4426    108.1502
  2577.7500      0.0000    767.8316      3.1344    110.8345
  2578.0000      0.0000    763.0581      2.9075    112.8145
  2578.2500      0.0000    753.0936      2.8046    113.8062
  2578.5000      0.0000    738.1141      2.8407    114.4114
  2578.7500      0.0000    721.5869      2.9759    114.8280
  2579.0000      0.0000    708.7498      3.1210    114.4914
  2579.2500      0.0000    702.7831      3.1862    113.1859
  2579.5000      0.0000    702.6245      3.1424    111.7085
  2579.7500      0.0000    704.7983      3.0355    110.8945
  2580.0000      0.0000    706.9676      2.9386    110.6060
  2580.2500      0.0000    709.2424      2.8923    110.2664
  2580.5000      2.0000    712.3586      2.8900    109.8663
  2580.7500      2.0000    715.5160      2.9010    109.9113
  2581.0000      0.0000    716.5660      2.8912    110.6465
  2581.2500      0.0000    714.1139      2.8322    111.4376
  2581.5000      0.0000    709.0817      2.7096    110.5530
  2581.7500      0.0000    704.1016      2.5356    105.8504
  2582.0000      0.0000    701.1823      2.3435     96.5451
  2582.2500      0.0000    699.8247      2.1599     84.4678
  2582.5000      0.0000    697.6933      1.9838     72.9556
  2582.7500      0.0000    693.2340      1.8089     64.2232
  2583.0000      0.0000    687.1252      1.6665     58.0791
  2583.2500      0.0000    681.0414      1.6246     53.1936
  2583.5000      0.0000    675.8254      1.7266     49.0132
  2583.7500      0.0000    671.4727      1.9434     46.0180
  2584.0000      0.0000    668.3307      2.1954     44.6053
  2584.2500      0.0000    667.6374      2.4074     44.4822
  2584.5000      0.0000    671.2226      2.5288     45.2088
  2584.7500      0.0000    680.7032      2.5228     46.7857
  2585.0000      0.0000    695.8126      2.3741     49.5455
  2585.2500      0.0000    712.8168      2.1228     53.8998
  2585.5000      0.0000    725.7303      1.8736     60.3290
  2585.7500      0.0000    730.4681      1.7451     69.0889
  2586.0000      0.0000    727.7138      1.7889     79.4931
  2586.2500      0.0000    721.5319      1.9511     89.7631
  2586.5000      0.0000    715.9449      2.1093     98.1216
  2586.7500      0.0000    713.0891      2.1584    103.9914
  2587.0000      0.0000    713.6735      2.0846    107.7206
  2587.2500      0.0000    718.2875      1.9668    109.4512
  2587.5000      0.0000    727.6414      1.9017    109.1788
  2587.7500      0.0000    740.7352      1.9248    107.9495
  2588.0000      0.0000    752.7437      2.0063    107.8134
  2588.2500      0.0000    756.5916      2.1044    109.9617
  2588.5000      0.0000    748.6875      2.2017    113.5144
  2588.7500      0.0000    732.6423      2.2987    116.5269
  2589.0000      0.0000    716.1099      2.3913    117.7899
  2589.2500      0.0000    704.6617      2.4633    117.3907
  2589.5000      0.0000    699.5137      2.5044    115.9992
  2589.7500      0.0000    699.7969      2.5353    114.2180
  2590.0000      0.0000    705.2557      2.5843    112.5642
  2590.2500      0.0000    716.6079      2.6331    111.4144
  2590.5000      0.0000    733.8788      2.6369    110.6262
  2590.7500      0.0000    754.7344      2.6157    109.4476
  2591.0000      0.0000    774.5152      2.6658    107.0856
  2591.2500      0.0000    788.3030      2.8438    103.4188
  2591.5000      0.0000    793.8185      3.0720     99.1951
  2591.7500      0.0000    793.1415      3.1897     95.5599
  2592.0000      0.0000    791.1111      3.0934     93.2595
  2592.2500      0.0000    790.9031      2.8310     92.1874
  2592.5000      0.0000    791.2258      2.5793     91.5384
  2592.7500      0.0000    788.4334      2.5213     90.2805
  2593.0000      0.0000    780.9952      2.7169     87.6652
  2593.2500      0.0000    771.2860      3.0712     83.6593
  2593.5000      0.0000    763.4814      3.4223     79.0458
  2593.7500      0.0000    760.4050      3.6576     75.0303
  2594.0000      0.0000    762.1903      3.7581     72.6446
  2594.2500      0.0000    766.8069      3.7687     72.4502
  2594.5000      0.0000    771.0120      3.7536     74.5843
  2594.7500      0.0000    771.9822      3.7710     78.7586
  2595.0000      0.0000    770.1353      3.8587     84.3361
  2595.2500      0.0000    770.1382      4.0211     90.8814
  2595.5000      0.0000    776.8392      4.2290     98.4953
  2595.7500      0.0000    789.6133      4.4411    107.0040
  2596.0000      0.0000    802.2458      4.6455    114.8032
  2596.2500      0.0000    808.9711      4.8951    119.1604
  2596.5000      0.0000    809.5689      5.3121    118.2165
  2596.7500      0.0000    807.9639      6.0505    112.7873
  2597.0000      0.0000    806.5120      7.2241    105.9877
  2597.2500      0.0000    802.9600      8.8311    100.9185
  2597.5000      0.0000    793.9251     10.7256     98.5368
  2597.7500      0.0000    780.4359     12.6558     97.4001
  2598.0000      0.0000    768.1442     14.3499     94.8495
  2598.2500      0.0000    762.0258     15.6223     88.2024
  2598.5000      0.0000    762.3988     16.4577     75.7305
  2598.7500      0.0000    766.1456     17.0006     57.9473
  2599.0000      0.0000    770.4175     17.4238     38.2239
  2599.2500      0.0000    774.5361     17.7777     21.1500
  2599.5000      0.0000    778.9950     17.9821      9.6176
  2599.7500      0.0000    784.0159     17.9678      3.5418
  2600.0000      0.0000    789.5821     17.7849      1.0452
  2600.2500      0.0000    795.5994     17.5424      0.2449
  2600.5000      0.0000    801.1937     17.2631      0.0450
  2600.7500      0.0000    804.4373     16.8537      0.0058
  2601.0000      0.0000    803.3884     16.2347      0.0000
  2601.2500      0.0000    797.8262     15.4611   -999.2500
  2601.5000      0.0000    790.4094     14.6879   -999.2500
  2601.7500      0.0000    785.2965     14.0489   -999.2500
  2602.0000      0.0000    784.4987     13.6070   -999.2500
  2602.2500      0.0000    786.2788     13.3776   -999.2500
  2602.5000      0.0000    787.9048     13.3298   -999.2500
  2602.7500      0.0000    787.7454     13.3685   -999.2500
  2603.0000      0.0000    782.3233     13.3434   -999.2500
