~Version Information
VERS.                      2.0: CWLS Log ASCII Standard - VERSION 2.0
WRAP.                       NO: One line per depth step
~Well Information Block
STRT.FT                -9.2500: 
STOP.FT              1945.2500: 
STEP.FT                 0.2500: 
NULL.                -999.2500: 
COMP.          Pioneer Natural Resources: COMPANY
WELL.          Titan Federal 34-17: WELL
FLD.           Purgatorie River: FIELD
LOC.           321' FSL & 1911' FEL: LOCATION
STAT.                       CO: State
CNTY.               Las Animas: COUNTY
CTRY. USA : Country
SECT. 17 : Section
TOWN. 32S : Township
RANG. 65W : Range
SRVC.          Patterson Wireline: SERVICE COMPANY
DATE.          Tue Oct 11 10:22:27 2005: LOG DATE
API.           05 071 08272 00: UNIQUE WELL ID
~Curve Information Block
DEPT.FT            0 000 00 00: Depth
CCL.                          : Casing Collar Locator
TT3.usec                      : CBL 3' Travel Time
AMP3.mV                       : CBL 3' Amplitude
GR.GAPI                       : Gamma Ray
~Parameter Information Block
~A  Depth       CCL         TT3         AMP3         GR     
# ...
   493.2500      0.0000    805.8615      8.4428    106.0084
   493.5000      0.0000    811.5964      8.4849    103.5288
   493.7500      0.0000    804.0900      8.5232     99.8009
   494.0000      0.0000    791.9399      8.5485     95.4333
   494.2500      0.0000    788.5312      8.5582     92.0061
   494.5000      0.0000    800.3273      8.5636     91.5694
   494.7500      0.0000    822.4181      8.5889     94.8771
   495.0000      0.0000    844.2490      8.6575    100.0871
   495.2500      0.0000    858.6017      8.7699    104.0333
   495.5000      0.0000    867.1056      8.8955    104.9478
   495.7500      0.0000    879.5609      8.9908    103.5707
   496.0000      0.0000    906.3216      9.0267    101.7750
   496.2500      0.0000    946.5464      9.0017    100.5869
   496.5000      0.0000    982.8782      8.9324     99.6433
   496.7500      0.0000    991.9100      8.8382     98.0867
   497.0000      0.0000    963.3821      8.7378     95.5278
   497.2500      0.0000    908.7622      8.6506     92.3733
   497.5000      0.0000    850.9102      8.5991     89.7510
   497.7500      0.0000    808.0353      8.6055     88.9380
   498.0000      0.0000    787.1871      8.6840     90.3532
   498.2500      0.0000    786.0062      8.8303     93.1057
   498.5000      0.0000    794.5928      9.0158     95.7351
   498.7500      0.0000    799.1196      9.1976     97.2438
   499.0000      0.0000    790.8551      9.3428     97.2497
   499.2500      0.0000    772.7373      9.4425     95.5634
   499.5000      0.0000    754.8919      9.5026     92.3638
   499.7500      0.0000    744.7955      9.5290     88.9167
   500.0000      0.0000    742.9993      9.5278     87.3602
   500.2500      0.0000    745.6417      9.5147     89.0371
   500.5000      0.0000    748.9047      9.5139     93.3099
   500.7500      0.0000    752.1705      9.5449     98.4141
   501.0000      0.0000    758.3860      9.6113    103.0545
   501.2500      0.0000    771.7061      9.7015    106.7633
   501.5000      0.0000    795.0101      9.8001    109.1573
   501.7500      0.0000    829.0939      9.8943    109.4781
   502.0000      0.0000    870.8176      9.9665    106.9157
   502.2500      0.0000    909.6689      9.9871    101.2295
   502.5000      0.0000    929.6823      9.9325     93.3163
   502.7500      0.0000    920.9379      9.8174     85.2521
   503.0000      0.0000    890.1145      9.6994     79.3768
   503.2500      0.0000    856.6039      9.6396     77.0784
   503.5000      0.0000    838.7059      9.6557     78.3584
   503.7500      0.0000    845.1614      9.7129     82.0800
   504.0000      0.0000    874.8297      9.7586     86.3994
   504.2500      0.0000    916.6927      9.7643     89.4725
   504.5000      0.0000    950.6976      9.7372     90.3132
   504.7500      0.0000    956.7957      9.6986     89.0658
   505.0000      0.0000    928.4807      9.6644     86.5467
   505.2500      0.0000    876.9880      9.6487     83.6586
   505.5000      0.0000    821.9127      9.6758     81.0538
   505.7500      0.0000    778.4799      9.7718     79.1006
   506.0000      0.0000    751.7230      9.9380     77.9826
   506.2500      0.0000    738.6697     10.1349     77.6911
   506.5000      0.0000    733.6528     10.2995     77.9133
   506.7500      0.0000    732.1439     10.3857     78.1105
   507.0000      0.0000    731.7666     10.3924     77.9618
   507.2500      0.0000    731.6465     10.3569     77.8740
   507.5000      0.0000    731.5793     10.3212     78.8458
   507.7500      0.0000    731.5502     10.3050     81.5307
   508.0000      0.0000    731.5370     10.3043     85.4175
   508.2500      0.0000    731.5092     10.3108     89.0638
   508.5000      0.0000    731.4745     10.3284     91.1484
   508.7500      0.0000    731.5257     10.3702     91.1736
   509.0000      0.0000    731.9006     10.4387     89.2340
   509.2500      0.0000    733.0714     10.5162     85.4453
   509.5000      0.0000    735.6904     10.5762     79.8908
   509.7500      0.0000    740.0564     10.6033     73.2254
   510.0000      0.0000    745.2509     10.5963     67.1050
   510.2500      0.0000    749.0214     10.5575     63.7136
   510.5000      0.0000    749.2565     10.4884     64.8170
   510.7500      0.0000    745.8643     10.3981     71.0629
   511.0000      0.0000    740.8586     10.3073     81.4516
   511.2500      0.0000    736.5493     10.2406     93.2479
   511.5000      0.0000    733.9685     10.2143    103.1159
   511.7500      0.0000    732.8596     10.2307    108.8765
   512.0000      0.0000    732.5168     10.2772    110.0019
   512.2500      0.0000    732.3915     10.3313    106.8553
   512.5000      0.0000    732.2289     10.3723    100.4876
   512.7500      0.0000    731.9930     10.3910     93.0933
   513.0000      0.0000    731.7534     10.3892     87.3877
   513.2500      0.0000    731.5820     10.3725     84.8921
   513.5000      0.0000    731.4993     10.3473     85.1187
   513.7500      0.0000    731.4801     10.3197     86.5030
   514.0000      0.0000    731.4953     10.2934     87.7804
   514.2500      0.0000    731.5745     10.2693     88.3960
   514.5000      0.0000    731.8840     10.2473     88.1327
   514.7500      0.0000    732.7784     10.2288     86.9719
   515.0000      0.0000    734.6407     10.2157     85.2452
   515.2500      0.0000    737.3896     10.2087     83.5255
   515.5000      0.0000    740.0432     10.2068     82.2305
   515.7500      0.0000    741.1750     10.2074     81.2394
   516.0000      0.0000    740.2485     10.2055     79.9056
   516.2500      0.0000    738.4282     10.1969     77.6907
   516.5000      0.0000    737.7493     10.1831     74.7772
   516.7500      0.0000    739.4888     10.1702     71.7916
   517.0000      0.0000    743.2972     10.1653     69.0321
   517.2500      0.0000    747.6458     10.1758     66.2964
   517.5000      0.0000    750.9301     10.2112     63.5087
   517.7500      0.0000    752.1966     10.2787     61.3257
   518.0000      0.0000    751.1298     10.3765     60.8303
   518.2500      0.0000    747.8952     10.4917     62.2922
   518.5000      0.0000    743.2675     10.6021     64.3436
   518.7500      0.0000    738.5566     10.6813     64.9410
   519.0000      0.0000    734.9101     10.7100     63.2456
   519.2500      0.0000    732.5457     10.6866     60.2701
   519.5000      0.0000    730.5626     10.6261     57.9582
   519.7500      0.0000    727.2253     10.5494     57.9706
   520.0000      0.0000    720.6308     10.4683     60.9096
   520.2500      0.0000    710.4672     10.3787     66.0002
   520.5000      0.0000    700.3700     10.2512     71.4615
   520.7500      0.0000    697.7555     10.0186     75.5247
   521.0000      0.0000    708.6434      9.5923     77.3324
   521.2500      0.0000    731.4987      8.9456     76.9146
   521.5000      0.0000    757.4231      8.1938     74.5757
   521.7500      0.0000    777.7734      7.5421     70.5900
   522.0000      0.0000    791.4827      7.1324     65.3585
   522.2500     -2.0000    804.2241      6.9643     59.5742
   522.5000      2.0000    820.8236      6.9655     54.2659
   522.7500      0.0000    839.9329      7.1074     50.5833
   523.0000      0.0000    855.8459      7.4625     49.1539
   523.2500      0.0000    862.3922      8.1598     49.5089
   523.5000      0.0000    854.8001      9.2319     50.5012
   523.7500      0.0000    832.4329     10.4574     51.4333
   524.0000      0.0000    801.5793     11.4220     52.3440
   524.2500      0.0000    772.6036     11.8248     53.0227
   524.5000      0.0000    753.0191     11.7099     52.6004
   524.7500      0.0000    743.9761     11.3621     50.9219
   525.0000      0.0000    742.1420     11.0371     49.7619
   525.2500      0.0000    743.3583     10.8288     51.5847
   525.5000      0.0000    744.9528     10.7157     57.1142
   525.7500      0.0000    746.1389     10.6469     64.8208
   526.0000      0.0000    747.2764     10.5869     72.6816
   526.2500      0.0000    749.0868     10.5238     79.6943
   526.5000      0.0000    752.0396     10.4633     85.6850
