~Version Information
VERS.                      2.0: CWLS Log ASCII Standard - VERSION 2.0
WRAP.                       NO: One line per depth step
~Well Information Block
STRT.FT               557.0000: 
STOP.FT              2136.0000: 
STEP.FT                 0.2500: 
NULL.                -999.2500: 
COMP.          Petrogulf Corporation: COMPANY
WELL.           Montoya 12-41R: WELL
FLD.           Purgatorie River: FIELD
LOC.           1086' FNL & 610' FEL: LOCATION
CNTY.               Las Animas: COUNTY
SRVC.                         : SERVICE COMPANY
DATE.          Thu Nov 18 06:03:03 2004: LOG DATE
UWI.           05 071 08241 00: UNIQUE WELL ID
STAT.                 Colorado: STATE
~Curve Information Block
DEPT.FT            0 000 00 00: Depth
SP.mV                         : DIL Spontaneous Potential
RILD.Ohm-m                    : DIL Deep Resistivity
RILM.Ohm-m                    : DIL Medium Resistivity
RLL3.Ohm-m                    : DIL Shallow Resistivity
GR.GAPI                       : Gamma Ray
~Parameter Information Block
~A  Depth        SP         RILD        RILM        RLL3         GR     
# ...
   893.0000   2000.0000     21.1006     19.9932   2000.0000    150.7392
   893.2500   2000.0000     21.0974     19.8842   2000.0000    148.2079
   893.5000   2000.0000     21.1451     19.8117   2000.0000    143.9502
   893.7500   2000.0000     21.2444     19.7905   2000.0000    141.4004
   894.0000   2000.0000     21.3960     19.8392   2000.0000    139.2878
   894.2500   2000.0000     21.6019     19.9789   2000.0000    139.4726
   894.5000   2000.0000     21.8659     20.2322   2000.0000    141.8836
   894.7500   2000.0000     22.1941     20.6233   2000.0000    144.2188
   895.0000   2000.0000     22.5956     21.1767   2000.0000    147.1321
   895.2500   2000.0000     23.0823     21.9174   2000.0000    147.8315
   895.5000   2000.0000     23.6689     22.8709   2000.0000    146.6394
   895.7500   2000.0000     24.3706     24.0632   2000.0000    144.7592
   896.0000   2000.0000     25.2021     25.5210   2000.0000    140.9577
   896.2500   2000.0000     26.1758     27.2728   2000.0000    137.6222
   896.5000   2000.0000     27.2981     29.3485   2000.0000    130.6447
   896.7500   2000.0000     28.5670     31.7799   2000.0000    124.4485
   897.0000   2000.0000     29.9666     34.5958   2000.0000    113.1962
   897.2500   2000.0000     31.4616     37.8137   2000.0000    104.8677
   897.5000   2000.0000     32.9932     41.4210   2000.0000     92.0500
   897.7500   2000.0000     34.4772     45.3446   2000.0000     83.8400
   898.0000   2000.0000     35.8094     49.4088   2000.0000     73.1786
   898.2500   2000.0000     36.8785     53.2899   2000.0000     67.9484
   898.5000   2000.0000     37.5863     56.5069   2000.0000     63.6423
   898.7500   2000.0000     37.8671     58.4898   2000.0000     62.6219
   899.0000   2000.0000     37.7025     58.7554   2000.0000     61.5792
   899.2500   2000.0000     37.1206     57.1237   2000.0000     60.0392
   899.5000   2000.0000     36.1801     53.8259   2000.0000     56.5252
   899.7500   2000.0000     34.9556     49.4136   2000.0000     54.6361
   900.0000   2000.0000     33.5227     44.5321   2000.0000     55.2539
   900.2500   2000.0000     31.9478     39.7158   2000.0000     59.0797
   900.5000   2000.0000     30.2882     35.3047   2000.0000     70.2405
   900.7500   2000.0000     28.5935     31.4575   2000.0000     80.6631
   901.0000   2000.0000     26.9071     28.2077   2000.0000     99.0150
   901.2500   2000.0000     25.2680     25.5184   2000.0000    111.8760
   901.5000   2000.0000     23.7092     23.3225   2000.0000    129.7623
   901.7500   2000.0000     22.2565     21.5435   2000.0000    139.3013
   902.0000   2000.0000     20.9276     20.1088   2000.0000    148.4250
   902.2500   2000.0000     19.7324     18.9534   2000.0000    151.1642
   902.5000   2000.0000     18.6734     18.0213   2000.0000    151.9045
   902.7500   2000.0000     17.7480     17.2648   2000.0000    151.1779
   903.0000   2000.0000     16.9495     16.6441   2000.0000    149.1711
   903.2500   2000.0000     16.2684     16.1248   2000.0000    147.3514
   903.5000   2000.0000     15.6937     15.6776   2000.0000    144.0222
   903.7500   2000.0000     15.2126     15.2781   2000.0000    141.6376
   904.0000   2000.0000     14.8119     14.9056   2000.0000    138.5904
   904.2500   2000.0000     14.4776     14.5442   2000.0000    137.4074
   904.5000   2000.0000     14.1961     14.1830   2000.0000    137.2675
   904.7500   2000.0000     13.9547     13.8163   2000.0000    138.0866
   905.0000   2000.0000     13.7425     13.4442   2000.0000    140.0588
   905.2500   2000.0000     13.5518     13.0714   2000.0000    141.5140
   905.5000   2000.0000     13.3777     12.7061   2000.0000    143.2803
   905.7500   2000.0000     13.2186     12.3582   2000.0000    143.8389
   906.0000   2000.0000     13.0755     12.0380   2000.0000    143.7466
   906.2500   2000.0000     12.9514     11.7548   2000.0000    143.5652
   906.5000   2000.0000     12.8502     11.5158   2000.0000    144.0379
   906.7500   2000.0000     12.7763     11.3271   2000.0000    144.8601
   907.0000   2000.0000     12.7335     11.1930   2000.0000    146.0921
   907.2500   2000.0000     12.7255     11.1170   2000.0000    146.5189
   907.5000   2000.0000     12.7549     11.1027   2000.0000    146.3191
   907.7500   2000.0000     12.8230     11.1532   2000.0000    145.5508
   908.0000   2000.0000     12.9298     11.2718   2000.0000    143.3412
   908.2500   2000.0000     13.0735     11.4618   2000.0000    141.2424
   908.5000   2000.0000     13.2501     11.7258   2000.0000    137.5104
   908.7500   2000.0000     13.4546     12.0651   2000.0000    134.8389
   909.0000   2000.0000     13.6811     12.4790   2000.0000    130.8060
   909.2500   2000.0000     13.9238     12.9636   2000.0000    128.2266
   909.5000   2000.0000     14.1784     13.5103   2000.0000    124.7774
   909.7500   2000.0000     14.4424     14.1044   2000.0000    122.9522
   910.0000   2000.0000     14.7149     14.7247   2000.0000    121.1635
   910.2500   2000.0000     14.9960     15.3423   2000.0000    120.5250
   910.5000   2000.0000     15.2851     15.9230   2000.0000    119.9894
   910.7500   2000.0000     15.5786     16.4312   2000.0000    119.7839
   911.0000   2000.0000     15.8688     16.8361   2000.0000    119.9371
   911.2500   2000.0000     16.1428     17.1172   2000.0000    120.6082
   911.5000   2000.0000     16.3832     17.2689   2000.0000    122.6688
   911.7500   2000.0000     16.5708     17.3002   2000.0000    124.5772
   912.0000   2000.0000     16.6873     17.2313   2000.0000    127.5866
   912.2500   2000.0000     16.7201     17.0871   2000.0000    129.3370
   912.5000   2000.0000     16.6650     16.8929   2000.0000    131.4754
   912.7500   2000.0000     16.5276     16.6702   2000.0000    132.8107
   913.0000   2000.0000     16.3224     16.4356   2000.0000    135.1102
   913.2500   2000.0000     16.0700     16.2013   2000.0000    136.8166
   913.5000   2000.0000     15.7939     15.9749   2000.0000    139.0913
   913.7500   2000.0000     15.5169     15.7617   2000.0000    140.0862
   914.0000   2000.0000     15.2593     15.5648   2000.0000    140.7975
   914.2500   2000.0000     15.0374     15.3866   2000.0000    141.1900
   914.5000   2000.0000     14.8633     15.2294   2000.0000    142.7294
   914.7500   2000.0000     14.7447     15.0964   2000.0000    144.7599
   915.0000   2000.0000     14.6860     14.9925   2000.0000    149.0139
   915.2500   2000.0000     14.6882     14.9242   2000.0000    152.1119
   915.5000   2000.0000     14.7500     14.8991   2000.0000    156.2829
   915.7500   2000.0000     14.8680     14.9248   2000.0000    158.3872
   916.0000   2000.0000     15.0382     15.0079   2000.0000    159.7815
   916.2500   2000.0000     15.2556     15.1526   2000.0000    159.0313
   916.5000   2000.0000     15.5159     15.3599   2000.0000    155.2285
   916.7500   2000.0000     15.8156     15.6282   2000.0000    151.5475
   917.0000   2000.0000     16.1518     15.9532   2000.0000    145.9704
   917.2500   2000.0000     16.5226     16.3294   2000.0000    142.8295
   917.5000   2000.0000     16.9257     16.7517   2000.0000    138.9513
   917.7500   2000.0000     17.3587     17.2163   2000.0000    136.5972
   918.0000   2000.0000     17.8174     17.7216   2000.0000    133.2042
   918.2500   2000.0000     18.2959     18.2683   2000.0000    131.2710
   918.5000   2000.0000     18.7871     18.8582   2000.0000    129.2663
   918.7500   2000.0000     19.2829     19.4936   2000.0000    128.2628
   919.0000   2000.0000     19.7756     20.1749   2000.0000    125.9675
   919.2500   2000.0000     20.2592     20.8998   2000.0000    123.3198
   919.5000   2000.0000     20.7297     21.6612   2000.0000    118.0406
   919.7500   2000.0000     21.1869     22.4470   2000.0000    114.5592
   920.0000   2000.0000     21.6329     23.2394   2000.0000    110.9903
   920.2500   2000.0000     22.0727     24.0160   2000.0000    110.1008
   920.5000   2000.0000     22.5119     24.7532   2000.0000    110.4602
   920.7500   2000.0000     22.9560     25.4280   2000.0000    111.0937
