~Version Information
VERS.                      2.0: CWLS Log ASCII Standard - VERSION 2.0
WRAP.                       NO: One line per depth step
~Well Information Block
STRT.FT               -19.2500: 
STOP.FT              2421.5000: 
STEP.FT                 0.2500: 
NULL.                -999.2500: 
COMP.          Petrogulf Corporation: COMPANY
WELL.           Montoya 13-41V: WELL
FLD.           Purgatorie River: FIELD
LOC.           449' FNL & 891' FEL: LOCATION
CNTY.               Las Animas: COUNTY
SRVC.                         : SERVICE COMPANY
DATE.          Mon Sep 13 13:48:36 2004: LOG DATE
UWI.                       N/A: UNIQUE WELL ID
STAT.                 Colorado: STATE
~Curve Information Block
DEPT.FT            0 000 00 00: Depth
TT3.usec                      : CBL 3' Travel Time
AMP3.mV                       : CBL 3' Amplitude
GR.GAPI                       : Gamma Ray
CCL.                          : Casing Collar Locator
~Parameter Information Block
~A  Depth       TT3         AMP3         GR         CCL     
# ...
  2057.7500    625.4149     10.9610    107.1710      0.0000
  2058.0000    695.3522     10.7986    105.3774      0.0000
  2058.2500    738.0748     10.4664    104.6244      0.0000
  2058.5000    756.5566      9.9958    105.6031      0.0000
  2058.7500    764.5419      9.3651    107.8695      0.0000
  2059.0000    769.3997      8.5545    109.9776      0.0000
  2059.2500    773.6821      7.6330    110.5295      0.0000
  2059.5000    776.9987      6.7508    109.3277      0.0000
  2059.7500    778.0045      6.0172    107.3326      0.0000
  2060.0000    776.7108      5.4460    105.6663      0.0000
  2060.2500    774.0709      5.0085    104.6938      0.0000
  2060.5000    770.8483      4.6694    103.7537      0.0000
  2060.7500    767.5784      4.3830    101.9638      0.0000
  2061.0000    764.8583      4.1155     99.7351      0.0000
  2061.2500    763.1378      3.8792     98.9767      0.0000
  2061.5000    761.9540      3.7109    101.0069      0.0000
  2061.7500    759.5677      3.6182    104.5340      0.0000
  2062.0000    754.2557      3.5780    106.5393      0.0000
  2062.2500    747.4527      3.5702    105.2082      0.0000
  2062.5000    743.6022      3.5764    101.5044      0.0000
  2062.7500    742.9284      3.5600     97.9805      0.0000
  2063.0000    740.7501      3.4753     96.6435      0.0000
  2063.2500    737.0202      3.2974     97.8947      0.0000
  2063.5000    736.4919      3.0447    100.7231      0.0000
  2063.7500    740.7732      2.7739    103.4232      0.0000
  2064.0000    746.5513      2.5440    104.4721      0.0000
  2064.2500    749.9781      2.3698    103.3493      0.0000
  2064.5000    750.7928      2.2174    100.7129      0.0000
  2064.7500    751.4398      2.0617     97.6268      0.0000
  2065.0000    753.4921      1.9290     94.6878      0.0000
  2065.2500    755.8329      1.8557     92.0430      0.0000
  2065.5000    755.6074      1.8428     89.9334      0.0000
  2065.7500    752.1597      1.8665     88.7066      0.0000
  2066.0000    749.1135      1.9034     88.3189      0.0000
  2066.2500    748.0836      1.9473     88.2879      0.0000
  2066.5000    745.6581      2.0064     88.2680      0.0000
  2066.7500    743.8425      2.0734     88.3475      0.0000
  2067.0000    751.7703      2.1210     88.7518      0.0000
  2067.2500    770.3472      2.1442     89.6251      0.0000
  2067.5000    788.1505      2.1862     91.1109      0.0000
  2067.7500    795.0562      2.3070     93.0774      0.0000
  2068.0000    789.9276      2.5143     94.6521      0.0000
  2068.2500    778.6911      2.7386     94.7279      0.0000
  2068.5000    770.3773      2.9002     93.3921      0.0000
  2068.7500    766.0394      2.9796     92.2980      0.0000
  2069.0000    756.8456      3.0089     93.0708      0.0000
  2069.2500    737.3024      3.0108     95.5543      0.0000
  2069.5000    711.9288      2.9664     97.8984      0.0000
  2069.7500    690.7797      2.8632     98.2687      0.0000
  2070.0000    680.0723      2.7538     96.4008      0.0000
  2070.2500    679.2339      2.7162     93.6518      0.0000
  2070.5000    687.1467      2.7670     91.6385      0.0000
  2070.7500    703.0182      2.8527     90.8296      0.0000
  2071.0000    719.2169      2.9093     90.4380      0.0000
  2071.2500    724.1798      2.9096     89.6110      0.0000
  2071.5000    718.9717      2.8679     88.5163      0.0000
  2071.7500    718.6978      2.8156     87.9859      0.0000
  2072.0000    733.0966      2.7744     88.1448      0.0000
  2072.2500    759.3146      2.7448     87.8775      0.0000
  2072.5000    789.2783      2.7205     85.9523      0.0000
  2072.7500    811.1675      2.7007     82.3416      0.0000
  2073.0000    812.5205      2.6861     78.1997      0.0000
  2073.2500    790.8796      2.6762     74.8939      0.0000
  2073.5000    754.0049      2.6740     73.2921      0.0000
  2073.7500    707.8406      2.6893     73.5952      0.0000
  2074.0000    655.3688      2.7383     75.4165      0.0000
  2074.2500    609.7830      2.8240     78.0196      0.0000
  2074.5000    596.1571      2.9115     80.6238      0.0000
  2074.7500    624.1022      2.9519     82.6252      0.0000
  2075.0000    663.8067      2.9357     83.7938      0.0000
  2075.2500    668.3564      2.9140     84.3922      0.0000
  2075.5000    617.5333      2.9561     84.8975      0.0000
  2075.7500    535.8804      3.0738     85.3839      0.0000
  2076.0000    468.8083      3.2105     85.2442      0.0000
  2076.2500    444.2822      3.3094     83.7154      0.0000
  2076.5000    467.9886      3.3644     80.7312      0.0000
  2076.7500    533.6448      3.3940     77.1933      0.0000
  2077.0000    614.8090      3.3979     74.3739      0.0000
  2077.2500    676.2361      3.3671     73.0973      0.0000
  2077.5000    709.5120      3.3161     73.4099      0.0000
  2077.7500    728.9860      3.2818     74.7913      0.0000
  2078.0000    740.8111      3.2831     76.5099      0.0000
  2078.2500    743.5911      3.2965     77.9037      0.0000
  2078.5000    741.3306      3.3048     78.5062      0.0000
  2078.7500    739.6312      3.3207     78.0872      0.0000
  2079.0000    739.9639      3.3306     76.7796      0.0000
  2079.2500    738.7925      3.3255     75.1019      0.0000
  2079.5000    731.8307      3.3552     73.5659      0.0000
  2079.7500    720.0896      3.4556     72.2906      0.0000
  2080.0000    701.8807      3.5940     71.1973      0.0000
  2080.2500    667.9844      3.7027     70.4331      3.6545
  2080.5000    624.2379      3.7323     70.3385      0.0000
  2080.7500    595.2985      3.6918     71.1043      0.0000
  2081.0000    586.3225      3.6529     72.6371      0.0000
  2081.2500    580.7014      3.6894     74.5966      0.0000
  2081.5000    578.0044      3.7805     76.3722      0.0000
  2081.7500    590.8181      3.7952     77.2928      0.0000
  2082.0000    625.4273      3.6700     77.2559      0.0000
  2082.2500    677.7592      3.5179     77.1836      0.0000
  2082.5000    726.5696      3.4135     78.6043      0.0000
  2082.7500    751.3208      3.2965     82.5056      0.0000
  2083.0000    752.7355      3.1486     88.4359      0.0000
  2083.2500    739.9382      3.0563     94.7024      0.0000
  2083.5000    721.5039      3.0794     99.4465      0.0000
  2083.7500    711.9965      3.1552    101.6059      0.0000
  2084.0000    721.1136      3.1806    101.1271      0.0000
  2084.2500    739.4899      3.1397     98.6468      0.0000
  2084.5000    752.2283      3.0932     95.1228      0.0000
  2084.7500    754.3055      3.0781     91.6019      0.0000
  2085.0000    746.7714      3.0760     88.9938      0.0000
  2085.2500    734.3242      3.0534     87.7255      0.0000
  2085.5000    727.9442      2.9694     87.5489      0.0000
  2085.7500    734.7164      2.8072     88.0263      0.0000
  2086.0000    747.3601      2.6369     89.2561      0.0000
  2086.2500    754.1692      2.5539     91.6709      0.0000
  2086.5000    750.7813      2.5709     95.0435      0.0000
  2086.7500    741.2377      2.6409     98.0645      0.0000
  2087.0000    735.7722      2.7093     99.0444      0.0000
  2087.2500    741.0189      2.7228     96.9941      0.0000
  2087.5000    751.6302      2.6740     92.2269      0.0000
  2087.7500    758.7775      2.6359     86.2052      0.0000
  2088.0000    759.9238      2.6986     80.7908      0.0000
  2088.2500    755.9430      2.8865     77.2747      0.0000
  2088.5000    746.3506      3.1423     75.8204      0.0000
  2088.7500    733.7164      3.3766     75.7427      0.0000
  2089.0000    727.8427      3.5375     76.2679      0.0000
  2089.2500    728.8307      3.6288     77.0837      0.0000
  2089.5000    710.3293      3.6726     78.3033      0.0000
  2089.7500    650.7687      3.6763     79.9455      0.0000
  2090.0000    577.7919      3.6326     81.4998      0.0000
  2090.2500    540.8084      3.5733     82.2111      0.0000
  2090.5000    547.4059      3.6048     81.8239      0.0000
  2090.7500    570.0601      3.7969     80.8809      0.0000
  2091.0000    593.8732      4.0543     80.2981      0.0000
