~Version Information
VERS.                      2.0: CWLS Log ASCII Standard - VERSION 2.0
WRAP.                       NO: One line per depth step
~Well Information Block
STRT.FT               520.0000: 
STOP.FT              1105.5000: 
STEP.FT                 0.1000: 
NULL.                -999.2500: 
COMP.          Pioneer Natural Resources: COMPANY
WELL.            Redland 23-24: WELL
FLD.           Purgatoire River: FIELD
LOC.           2356' FSL & 1880' FWL: LOCATION
PROV.                 Colorado: PROVINCE
CNTY.               Las Animas: COUNTRY
SRVC.                Patterson: SERVICE COMPANY
DATE.          Mon Mar 21 07:08:20 2005: LOG DATE
UWI.           05 071 08221 00: UNIQUE WELL ID
~Curve Information Block
DEPT.FT            0 000 00 00: Depth
DCAL.in                       : CDL Caliper
RHOB.g/cc                     : CDL Bulk Density
RHOC.g/cc                     : CDL Density Correction
DPOR.pu                       : CDL Density Porosity
GR.GAPI                       : Gamma Ray
NPOR.pu                       : Neutron Porosity
~Parameter Information Block
~A  Depth       DCAL        RHOB        RHOC        DPOR         GR         NPOR    
# ...
   635.2000      7.9177      2.5713      0.0846      4.7701     62.6487     23.2278
   635.3000      7.9477      2.5864      0.0792      3.8539     60.6233     21.9270
   635.4000      7.9477      2.5979      0.0767      3.1550     62.7966     20.9616
   635.5000      7.9352      2.5945      0.0874      3.3621     65.9542     20.2118
   635.6000      7.9352      2.5716      0.0259      4.7504     67.7131     19.0378
   635.7000      7.9352      2.5504      0.0063      6.0388     68.8519     17.7665
   635.8000      7.9161      2.5425      0.0318      6.5175     71.1628     17.0950
   635.9000      7.9161      2.5426     -0.0534      6.5069     75.6785     16.9163
   636.0000      7.8749      2.5478      0.0213      6.1916     80.5993     16.8764
   636.1000      7.8749      2.5490      0.0222      6.1214     83.5279     16.8210
   636.2000      7.8749      2.5457      0.0323      6.3184     86.2672     16.9885
   636.3000      7.8712      2.5482      0.0496      6.1697     91.2850     17.7239
   636.4000      7.8712      2.5517      0.0184      5.9584     97.1001     18.8072
   636.5000      7.8863      2.5382      0.0312      6.7767    102.0186     20.3308
   636.6000      7.8863      2.5011      0.0441      9.0268    108.0075     22.2828
   636.7000      7.8863      2.4538      0.0068     11.8905    114.2212     23.6094
   636.8000      7.8645      2.4097      0.0201     14.5620    115.7299     24.2212
   636.9000      7.8645      2.3759     -0.0299     16.6115    113.2725     25.1161
   637.0000      7.8790      2.3577      0.0175     17.7163    111.0809     25.8567
   637.1000      7.8790      2.3550     -0.0588     17.8769    111.0179     26.0154
   637.2000      7.8790      2.3651      0.0343     17.2661    113.8925     26.8006
   637.3000      7.9099      2.3845      0.0564     16.0918    119.0238     28.2974
   637.4000      7.9099      2.4146      0.1457     14.2683    122.3014     28.7601
   637.5000      7.9294      2.4498      0.1665     12.1361    122.9109     27.8170
   637.6000      7.9294      2.4791      0.1536     10.3567    125.0981     27.0486
   637.7000      7.9294      2.4955      0.1653      9.3640    128.0960     26.8661
   637.8000      7.8880      2.4966      0.1303      9.2946    128.7171     26.6695
   637.9000      7.8880      2.4939      0.0539      9.4589    130.3162     26.8652
   638.0000      7.9300      2.4962      0.0675      9.3195    136.4196     27.4827
   638.1000      7.9300      2.5020      0.0252      8.9705    143.5957     27.5473
   638.2000      7.9300      2.5187      0.0135      7.9549    146.2949     27.3258
   638.3000      7.9139      2.5443      0.0592      6.4050    143.1133     28.0012
   638.4000      7.9139      2.5526      0.1087      5.9016    135.6186     29.1419
   638.5000      7.9386      2.5374      0.0419      6.8227    128.8751     29.1160
   638.6000      7.9386      2.5289      0.0408      7.3394    127.0926     27.5707
   638.7000      7.9386      2.5441      0.0780      6.4155    127.3087     26.1864
   638.8000      7.9570      2.5631      0.1139      5.2680    126.3679     26.4070
   638.9000      7.9570      2.5634      0.0978      5.2501    126.5650     27.7690
   639.0000      7.9600      2.5442      0.0440      6.4092    132.0204     28.6199
   639.1000      7.9600      2.5151      0.0365      8.1734    139.2806     28.0918
   639.2000      7.9600      2.4914      0.0109      9.6107    142.4463     27.3156
   639.3000      7.9754      2.4860      0.0297      9.9395    143.5593     27.4243
   639.4000      7.9754      2.4926      0.0477      9.5411    144.9848     27.5731
   639.5000      7.9652      2.4997      0.0527      9.1093    146.5051     26.8151
   639.6000      7.9652      2.5013      0.0861      9.0104    147.2058     25.9161
   639.7000      7.9652      2.4958      0.0519      9.3484    145.7773     25.9821
   639.8000      7.9947      2.4891      0.0405      9.7508    141.4928     26.3791
   639.9000      7.9947      2.4872      0.0263      9.8651    135.1793     26.0544
   640.0000      7.9892      2.4860      0.0710      9.9389    129.0942     25.9865
   640.1000      7.9892      2.4790      0.0739     10.3624    123.1616     26.7721
   640.2000      7.9892      2.4713      0.0354     10.8310    117.3253     27.5921
   640.3000      7.9207      2.4780      0.0653     10.4219    113.2056     27.7895
   640.4000      7.9207      2.5051      0.0229      8.7804    109.6952     26.9718
   640.5000      7.9182      2.5371      0.0854      6.8431    104.0824     25.6263
   640.6000      7.9182      2.5437      0.0869      6.4397     97.2052     24.7595
   640.7000      7.9182      2.5138      0.0631      8.2545     90.7624     24.7737
   640.8000      7.9419      2.4753      0.0301     10.5852     85.2774     25.2299
   640.9000      7.9419      2.4609      0.0671     11.4601     81.5441     25.5294
   641.0000      7.9451      2.4716      0.0425     10.8104     77.3072     25.6615
   641.1000      7.9451      2.4990      0.0554      9.1494     69.0109     25.4492
   641.2000      7.9451      2.5442      0.1020      6.4150     57.4088     24.2981
   641.3000      7.9062      2.5979      0.1582      3.1605     46.8676     22.5899
   641.4000      7.9062      2.6427      0.1706      0.4447     40.3103     21.1530
   641.5000      7.8805      2.6731      0.1713     -1.4016     38.1643     19.7798
   641.6000      7.8805      2.6847      0.2228     -2.1025     38.1985     18.3647
   641.7000      7.8805      2.6670      0.1760     -1.0302     36.4926     16.9968
   641.8000      7.8645      2.6341      0.0472      0.9644     33.0780     15.3032
   641.9000      7.8645      2.6167     -0.0041      2.0171     30.7080     13.4756
   642.0000      7.8734      2.6217      0.0194      1.7160     29.1768     11.9704
   642.1000      7.8734      2.6379     -0.0099      0.7357     28.5445     10.8070
   642.2000      7.8734      2.6617      0.0447     -0.7086     30.2875     10.0888
   642.3000      7.9192      2.6904      0.0430     -2.4464     33.8774     10.0114
   642.4000      7.9192      2.7137      0.0058     -3.8602     36.5551     10.0147
   642.5000      7.8911      2.7165      0.0910     -4.0294     38.3088      9.5814
   642.6000      7.8911      2.6873      0.0374     -2.2631     43.1830      9.0986
   642.7000      7.8911      2.6400      0.0259      0.6033     51.7008      8.9471
   642.8000      7.8548      2.6001      0.0006      3.0227     60.5763      9.2321
   642.9000      7.8548      2.5836     -0.0011      4.0272     68.9197      9.7485
   643.0000      7.8661      2.5918     -0.0069      3.5281     77.8924     10.4056
   643.1000      7.8661      2.6179     -0.0348      1.9449     86.9031     11.5368
   643.2000      7.8661      2.6550      0.0084     -0.3032     94.0962     13.0009
   643.3000      7.8599      2.6841      0.0663     -2.0668     99.6673     13.9038
   643.4000      7.8599      2.6825      0.0456     -1.9696    105.1723     13.8214
   643.5000      7.9181      2.6456      0.0412      0.2690    110.4787     13.3667
   643.6000      7.9181      2.5897      0.0077      3.6569    115.3498     13.5011
   643.7000      7.9181      2.5383      0.0159      6.7727    120.6470     14.7958
   643.8000      7.8969      2.4965      0.0675      9.3025    127.4802     16.8861
   643.9000      7.8969      2.4606      0.0231     11.4813    134.2105     18.7294
   644.0000      7.8693      2.4453     -0.0563     12.4089    139.4228     20.2211
   644.1000      7.8693      2.4555     -0.0157     11.7869    142.9839     21.9917
   644.2000      7.8693      2.4633      0.0043     11.3179    144.4012     23.5687
   644.3000      7.8436      2.4537      0.0479     11.8941    146.4655     24.2421
   644.4000      7.8436      2.4432      0.0498     12.5351    150.4654     24.3339
   644.5000      7.8747      2.4446      0.1176     12.4512    152.5688     24.6822
   644.6000      7.8747      2.4462      0.2054     12.3498    151.2677     25.6440
   644.7000      7.8747      2.4385      0.1250     12.8184    148.9595     26.6116
