~Version Information
VERS.                      2.0: CWLS Log ASCII Standard - VERSION 2.0
WRAP.                       NO: One line per depth step
~Well Information Block
STRT.FT               750.3000: 
STOP.FT              1254.0000: 
STEP.FT                 0.1000: 
NULL.                -999.2500: 
COMP.          Petrogulf Corporation: COMPANY
WELL.           Montoya 13-41V: WELL
FLD.           Purgatorie River: FIELD
LOC.           449' FNL & 891' FEL: LOCATION
CNTY.               Las Animas: COUNTY
SRVC.                         : SERVICE COMPANY
DATE.          Tue Aug 17 15:47:43 2004: LOG DATE
UWI.           05 071 08021 00: UNIQUE WELL ID
STAT.                 Colorado: STATE
~Curve Information Block
DEPT.FT            0 000 00 00: Depth
DCAL.in                       : CDL Caliper
RHOB.g/cc                     : CDL Bulk Density
RHOC.g/cc                     : CDL Density Correction
DPOR.pu                       : CDL Density Porosity
GR.GAPI                       : Gamma Ray
NPOR.pu                       : Neutron Porosity
~Parameter Information Block
~A  Depth       DCAL        RHOB        RHOC        DPOR         GR         NPOR    
# ...
  1172.7000      7.9428      2.6453     -0.0005      0.2842     85.1923     17.2703
  1172.8000      7.9488      2.6190     -0.0160      1.8760     85.0298     16.6952
  1172.9000      7.9488      2.6118     -0.0287      2.3123     83.8612     15.8068
  1173.0000      7.9562      2.6141      0.0379      2.1761     79.3122     15.6158
  1173.1000      7.9562      2.6087      0.0121      2.5037     74.0584     16.3424
  1173.2000      7.9562      2.6057     -0.0247      2.6851     69.1579     17.3917
  1173.3000      7.9441      2.6142      0.0481      2.1717     66.0309     18.4485
  1173.4000      7.9441      2.6119      0.0782      2.3080     66.9999     19.2473
  1173.5000      7.9203      2.5857      0.0492      3.8957     69.4508     19.8222
  1173.6000      7.9203      2.5505      0.0524      6.0321     73.0578     20.6667
  1173.7000      7.9203      2.5070      0.0979      8.6650     79.1494     22.0664
  1173.8000      7.9065      2.4466      0.0223     12.3268     82.8940     24.1065
  1173.9000      7.9065      2.3884     -0.0037     15.8533     85.2053     26.3791
  1174.0000      7.9288      2.3548     -0.0043     17.8883     93.6463     27.9880
  1174.1000      7.9288      2.3421      0.0144     18.6587    107.1583     28.2943
  1174.2000      7.9288      2.3344      0.0496     19.1299    118.6423     27.6540
  1174.3000      7.9885      2.3314      0.0317     19.3077    126.8368     27.2954
  1174.4000      7.9885      2.3538      0.0453     17.9526    131.9392     27.6768
  1174.5000      8.0446      2.4061      0.1523     14.7816    133.5873     28.2014
  1174.6000      8.0446      2.4592      0.1444     11.5652    140.2370     28.8006
  1174.7000      8.0446      2.4886      0.1186      9.7832    154.8197     29.5823
  1174.8000      7.9654      2.4992      0.0761      9.1401    164.8243     29.8695
  1174.9000      7.9654      2.5054      0.0739      8.7642    163.9921     29.5094
  1175.0000      7.9995      2.5063      0.0957      8.7116    160.5922     28.9597
  1175.1000      7.9995      2.4922      0.0770      9.5636    159.1775     28.3380
  1175.2000      7.9995      2.4688      0.0508     10.9839    159.6010     28.1917
  1175.3000      8.0433      2.4504      0.0468     12.0969    161.8326     29.0671
  1175.4000      8.0433      2.4365      0.0827     12.9398    163.2473     30.3572
  1175.5000      8.0987      2.4179      0.0651     14.0686    161.8958     31.3109
  1175.6000      8.0987      2.3978      0.0194     15.2836    160.2309     31.8351
  1175.7000      8.0987      2.3863      0.0557     15.9799    163.3353     31.4103
  1175.8000      8.1439      2.3824      0.0847     16.2152    171.3511     30.0931
  1175.9000      8.1439      2.3772      0.0959     16.5319    179.6632     29.4197
  1176.0000      8.1857      2.3702      0.0921     16.9556    183.7238     29.9590
  1176.1000      8.1857      2.3637      0.1344     17.3545    184.4569     30.6837
  1176.2000      8.1857      2.3469      0.1516     18.3706    185.7348     30.8558
  1176.3000      8.2254      2.3049      0.1001     20.9135    182.8854     30.7415
  1176.4000      8.2254      2.2403      0.0408     24.8286    172.3171     30.7636
  1176.5000      8.2743      2.1748      0.0117     28.7978    162.2178     30.5497
  1176.6000      8.2743      2.1286     -0.0044     31.6019    160.5512     29.7153
  1176.7000      8.2743      2.1146     -0.0176     32.4485    161.7725     29.1692
  1176.8000      8.2918      2.1371      0.0321     31.0819    161.2624     29.9514
  1176.9000      8.2918      2.1783      0.0556     28.5889    163.1020     31.6761
  1177.0000      8.3534      2.2113      0.1003     26.5856    165.9756     32.8873
  1177.1000      8.3534      2.2291      0.0789     25.5061    163.8044     33.0623
  1177.2000      8.3534      2.2497      0.1243     24.2629    156.4018     32.8567
  1177.3000      8.4700      2.2835      0.2453     22.2130    151.8024     32.4605
  1177.4000      8.4700      2.3192      0.2982     20.0507    155.2155     31.6832
  1177.5000      8.6214      2.3421      0.3043     18.6625    162.3732     30.7365
  1177.6000      8.6214      2.3447      0.2058     18.5037    164.8356     30.1238
  1177.7000      8.6214      2.3267      0.1975     19.5942    157.8446     30.0035
  1177.8000      8.4586      2.2843      0.2340     22.1634    146.6487     30.1500
  1177.9000      8.4586      2.2180      0.2206     26.1808    138.6537     30.6094
  1178.0000      8.7166      2.1382      0.2418     31.0178    135.1418     31.2458
  1178.1000      8.7166      2.0517      0.1967     36.2607    137.5004     31.4924
  1178.2000      8.7166      1.9728      0.1251     41.0396    145.8535     31.0227
  1178.3000      9.1452      1.9306      0.1223     43.6003    152.3581     30.2667
  1178.4000      9.1452      1.9424      0.1848     42.8875    149.6682     30.0269
  1178.5000      9.5224      1.9998      0.2234     39.4068    141.9976     30.0845
  1178.6000      9.5224      2.0778      0.3272     34.6818    139.5000     29.7855
  1178.7000      9.5224      2.1517      0.3682     30.2001    147.7543     29.7887
  1178.8000      9.9898      2.2143      0.3788     26.4034    160.5508     30.5011
  1178.9000      9.9898      2.2654      0.3808     23.3083    169.0453     31.1152
  1179.0000     10.1645      2.3002      0.3831     21.2002    172.4690     31.0314
  1179.1000     10.1645      2.3212      0.3772     19.9300    169.8093     30.3950
  1179.2000     10.1645      2.3350      0.3353     19.0923    157.2143     29.7537
  1179.3000      9.7085      2.3388      0.3728     18.8601    141.6285     29.7435
  1179.4000      9.7085      2.3308      0.3423     19.3453    136.8060     30.2159
  1179.5000      9.2444      2.3229      0.3429     19.8259    148.8833     30.3836
  1179.6000      9.2444      2.3225      0.3683     19.8503    168.5219     30.1152
  1179.7000      9.2444      2.3218      0.3692     19.8898    176.9223     29.8782
  1179.8000      9.4013      2.3071      0.3971     20.7848    167.5972     29.9780
  1179.9000      9.4013      2.2676      0.3947     23.1745    153.9528     30.4512
  1180.0000      9.4751      2.2113      0.3696     26.5888    147.9162     31.1439
  1180.1000      9.4751      2.1649      0.3845     29.4024    148.6203     31.3889
  1180.2000      9.4751      2.1663      0.3152     29.3126    152.0266     30.7944
  1180.3000      9.4494      2.2462      0.3507     24.4725    158.0384     30.1521
  1180.4000      9.4494      2.3894      0.4005     15.7964    167.7777     30.3359
  1180.5000      9.1853      2.5421      0.4509      6.5372    173.6005     31.1050
  1180.6000      9.1853      2.6567      0.4956     -0.4047    171.0872     31.3662
  1180.7000      9.1853      2.7182      0.5020     -4.1357    165.4630     30.7767
  1180.8000      8.6030      2.7392      0.4915     -5.4084    158.0268     30.4335
  1180.9000      8.6030      2.7298      0.4948     -4.8358    149.5545     31.0059
  1181.0000      8.6305      2.6892      0.4157     -2.3763    142.3838     31.6598
  1181.1000      8.6305      2.6289      0.2638      1.2812    137.5130     31.6304
  1181.2000      8.6305      2.5718      0.2011      4.7423    133.7981     31.1218
  1181.3000      8.8623      2.5252      0.1637      7.5617    129.3749     30.7474
  1181.4000      8.8623      2.4883      0.1014      9.8018    127.0738     30.8003
  1181.5000      8.9442      2.4580      0.1149     11.6338    127.5727     31.1771
  1181.6000      8.9442      2.4148      0.1210     14.2565    127.8977     31.7425
  1181.7000      8.9442      2.3530      0.0684     17.9972    131.0584     32.6569
  1181.8000      9.1478      2.3061     -0.0048     20.8435    138.6233     33.6754
  1181.9000      9.1478      2.3017     -0.0211     21.1079    143.5999     33.7503
  1182.0000      9.4338      2.3215      0.0780     19.9069    141.6879     32.7463
  1182.1000      9.4338      2.3311      0.0459     19.3274    137.8287     32.0461
  1182.2000      9.4338      2.3299      0.0170     19.4007    136.2300     32.2533
