~Version Information
VERS.                      2.0: CWLS Log ASCII Standard - VERSION 2.0
WRAP.                       NO: One line per depth step
~Well Information Block
STRT.FT                -7.7500: 
STOP.FT              1532.2500: 
STEP.FT                 0.2500: 
NULL.                -999.2500: 
COMP.          Pioneer Natural Resources: COMPANY
WELL.          Big Cat Federal 44-1: WELL
FLD.           Purgatorie River: FIELD
LOC.           197' FSL & 973' FEL--: LOCATION
CNTY.               Las Animas: COUNTY
SRVC.          Patterson Wireline: SERVICE COMPANY
DATE.          Fri Apr 28 12:21:06 2006: LOG DATE
UWI.           05 071 08042 00: UNIQUE WELL ID
STAT.                       CO: STATE
~Curve Information Block
DEPT.FT            0 000 00 00: Depth
CCL.                          : Casing Collar Locator
TT3.usec                      : CBL 3' Travel Time
AMP3.mV                       : CBL 3' Amplitude
GR.GAPI                       : Gamma Ray
~Parameter Information Block
~A  Depth       CCL         TT3         AMP3         GR     
# ...
  1198.2500      0.0000    538.0620      8.7546    103.5836
  1198.5000      0.0000    517.2811      8.6352    103.9981
  1198.7500      0.0000    497.0345      8.5916    105.4960
  1199.0000      0.0000    477.7430      8.6023    108.0120
  1199.2500      0.0000    461.5308      8.6471    110.6410
  1199.5000      0.0000    450.2079      8.7181    112.0813
  1199.7500      0.0000    443.3838      8.8120    111.4971
  1200.0000      0.0000    438.9352      8.9143    109.2455
  1200.2500      0.0000    434.4081      8.9990    106.5940
  1200.5000      0.0000    428.0331      9.0512    104.5588
  1200.7500      0.0000    419.4414      9.0859    103.1568
  1201.0000      0.0000    409.8832      9.1365    101.7226
  1201.2500      0.0000    401.4048      9.2222     99.7733
  1201.5000      0.0000    395.4418      9.3295     97.7306
  1201.7500      0.0000    392.0860      9.4279     96.8830
  1202.0000      0.0000    390.5068      9.4963     98.3369
  1202.2500      0.0000    389.7795      9.5358    101.7238
  1202.5000      0.0000    389.3489      9.5602    105.0838
  1202.7500      0.0000    389.0074      9.5788    106.4474
  1203.0000      0.0000    388.6344      9.5881    105.7338
  1203.2500      0.0000    387.9496      9.5794    104.8276
  1203.5000      0.0000    386.5822      9.5520    105.5696
  1203.7500      0.0000    384.5860      9.5159    107.9227
  1204.0000      0.0000    383.2122      9.4824    110.2140
  1204.2500      0.0000    385.4161      9.4563    110.6985
  1204.5000      0.0000    396.0389      9.4342    108.6190
  1204.7500      0.0000    421.3157      9.4083    104.1842
  1205.0000      0.0000    465.8678      9.3722     98.1599
  1205.2500      0.0000    526.8088      9.3292     91.6381
  1205.5000      0.0000    590.6785      9.2915     85.7469
  1205.7500      0.0000    639.8077      9.2687     81.1795
  1206.0000      0.0000    663.6248      9.2586     78.1619
  1206.2500      0.0000    662.6872      9.2519     76.8737
  1206.5000      0.0000    642.5572      9.2448     77.3277
  1206.7500      0.0000    607.4330      9.2408     78.6427
  1207.0000      0.0000    560.8852      9.2467     79.1356
  1207.2500      0.0000    509.5086      9.2691     77.6712
  1207.5000      0.0000    462.4727      9.3116     74.6318
  1207.7500      0.0000    426.9444      9.3722     71.4080
  1208.0000      0.0000    404.4962      9.4444     69.2493
  1208.2500      0.0000    391.6541      9.5217     68.4857
  1208.5000      0.0000    383.5058      9.6005     68.2994
  1208.7500      0.0000    377.0724      9.6794     67.3323
  1209.0000      0.0000    372.2129      9.7579     64.9821
  1209.2500      0.0000    370.1486      9.8365     62.0454
  1209.5000      0.0000    371.5111      9.9131     59.8682
  1209.7500      0.0000    375.6776      9.9806     58.9894
  1210.0000      0.0000    381.3297     10.0275     58.7455
  1210.2500      0.0000    387.3731     10.0421     58.0605
  1210.5000      0.0000    393.8272     10.0089     56.4994
  1210.7500      0.0000    402.5843      9.8992     54.5337
  1211.0000      0.0000    417.7231      9.6679     52.8204
  1211.2500      0.0000    444.3431      9.2770     51.3715
  1211.5000      0.0000    483.9267      8.7466     49.6684
  1211.7500      0.0000    527.7564      8.1840     47.6076
  1212.0000      0.0000    557.4287      7.7359     45.9513
  1212.2500      0.0000    558.4171      7.4941     45.6403
  1212.5000      0.0000    534.5465      7.4531     46.8872
  1212.7500      0.0000    504.8572      7.5440     49.1529
  1213.0000      0.0000    485.8752      7.6861     51.9059
  1213.2500      2.0000    480.3133      7.8160     55.3005
  1213.5000      0.0000    481.2648      7.9088     60.1271
  1213.7500      0.0000    481.4371      7.9878     66.9752
  1214.0000      0.0000    476.9396      8.1145     75.2090
  1214.2500      0.0000    466.5725      8.3569     82.8620
  1214.5000      0.0000    451.9237      8.7315     88.0584
  1214.7500      0.0000    439.3811      9.1508     90.9289
  1215.0000      0.0000    439.8215      9.4636     93.7433
  1215.2500      0.0000    462.8176      9.5909     98.4155
  1215.5000      0.0000    509.0948      9.5986    104.1151
  1215.7500      0.0000    568.8165      9.6080    108.0915
  1216.0000      0.0000    627.6969      9.6725    108.6815
  1216.2500      0.0000    674.7719      9.7675    106.7574
  1216.5000      0.0000    705.6476      9.8581    104.2881
  1216.7500      0.0000    721.4460      9.9345    102.3230
  1217.0000      0.0000    726.5501     10.0003    100.7608
  1217.2500      0.0000    726.3272     10.0552     99.3551
  1217.5000      0.0000    725.1297     10.0956     98.2441
  1217.7500      0.0000    725.2349     10.1173     97.7580
  1218.0000      0.0000    726.8877     10.1171     98.1140
  1218.2500      0.0000    728.9384     10.0916     99.1808
  1218.5000      0.0000    729.8278     10.0383    100.4398
  1218.7500      0.0000    728.8313      9.9567    101.4182
  1219.0000      0.0000    726.5782      9.8509    102.2371
  1219.2500      0.0000    724.3155      9.7331    103.3527
  1219.5000      0.0000    722.7653      9.6241    104.4744
  1219.7500      0.0000    721.5767      9.5440    104.1657
  1220.0000      0.0000    719.0869      9.5040    101.1745
  1220.2500      0.0000    711.8989      9.5061     95.9930
  1220.5000      0.0000    695.3229      9.5500     90.7497
  1220.7500      0.0000    666.9945      9.6369     87.7786
  1221.0000      0.0000    632.8022      9.7664     88.2861
  1221.2500      0.0000    607.8444      9.9300     91.6674
  1221.5000      0.0000    606.5268     10.1113     95.6922
  1221.7500      0.0000    629.6520     10.2927     97.7027
  1222.0000      0.0000    663.6546     10.4653     96.1254
  1222.2500      0.0000    692.9087     10.6328     91.2076
  1222.5000      0.0000    710.1361     10.8072     84.6196
  1222.7500      0.0000    715.5135     11.0015     78.3226
  1223.0000      0.0000    709.6887     11.2253     73.4519
  1223.2500      0.0000    689.9562     11.4786     69.9556
  1223.5000      0.0000    653.6508     11.7433     67.0084
  1223.7500      0.0000    606.5212     11.9834     63.7063
  1224.0000      0.0000    567.3230     12.1626     59.6943
  1224.2500      0.0000    559.2794     12.2618     55.4352
  1224.5000      0.0000    592.0601     12.2799     51.8868
  1224.7500      0.0000    652.0302     12.2271     49.9278
  1225.0000      0.0000    712.4200     12.1242     50.0364
  1225.2500      0.0000    753.3848     12.0041     52.1532
  1225.5000      0.0000    772.1351     11.8995     55.4854
  1225.7500      0.0000    776.3068     11.8257     58.6367
  1226.0000      0.0000    770.9255     11.7668     60.4695
  1226.2500      0.0000    753.0293     11.6707     61.1129
  1226.5000      0.0000    718.8992     11.4542     61.9106
  1226.7500      0.0000    675.5485     11.0347     64.1642
  1227.0000      0.0000    641.6956     10.3959     67.9514
  1227.2500      0.0000    633.7405      9.6410     72.2000
  1227.5000      0.0000    651.6190      8.9592     75.6881
  1227.7500      0.0000    681.4099      8.5040     77.9105
  1228.0000      0.0000    709.4647      8.2961     79.3214
  1228.2500      0.0000    730.1324      8.2430     81.0250
  1228.5000      0.0000    743.6271      8.2378     83.9898
  1228.7500      2.0000    753.3889      8.2274     88.1550
  1229.0000      0.0000    764.6650      8.2044     92.3146
  1229.2500      0.0000    779.8597      8.1746     95.0798
  1229.5000      0.0000    794.7962      8.1543     95.9335
  1229.7500      0.0000    802.9604      8.1923     95.4181
  1230.0000      0.0000    802.9222      8.3601     94.5282
  1230.2500      0.0000    799.1179      8.6870     93.9202
  1230.5000      0.0000    796.3594      9.1029     93.5911
  1230.7500      0.0000    795.4973      9.4666     93.3036
  1231.0000      0.0000    793.5369      9.6669     93.0839
  1231.2500      0.0000    786.3052      9.6914     93.0673
  1231.5000      0.0000    771.4930      9.6008     93.1870
