~Version Information
VERS.                      2.0: CWLS Log ASCII Standard - VERSION 2.0
WRAP.                       NO: One line per depth step
~Well Information Block
STRT.FT                -7.0500: 
STOP.FT              3072.6000: 
STEP.FT                 0.0500: 
NULL.                -999.2500: 
COMP.          Pioneer Natural Resources: COMPANY
WELL.              Stones 24-8: WELL
FLD.           Purgatoire River: FIELD
LOC.           648' FSL & 2264' FWL--: LOCATION
PROV.                 Colorado: PROVINCE
CNTY.               Las Animas: COUNTRY
SRVC.                Patterson: SERVICE COMPANY
DATE.          Fri Feb 04 12:43:19 2005: LOG DATE
UWI.           05 071 07945 00: UNIQUE WELL ID
~Curve Information Block
DEPT.FT            0 000 00 00: Depth
CCL.                          : Casing Collar Locator
TT3.usec                      : CBL 3' Travel Time
AMP3.mV                       : CBL 3' Amplitude
GR.GAPI                       : Gamma Ray
~Parameter Information Block
~A  Depth       CCL         TT3         AMP3         GR     
# ...
  1426.7500      0.0000    825.8306      3.0454    110.3536
  1426.8000      0.0000    825.8306      3.0454    110.3536
  1426.8500      0.0000    825.8306      3.0454    110.3536
  1426.9000      0.0000    825.8306      3.0454    110.3536
  1426.9500      0.0000    825.8306      3.0454    110.3536
  1427.0000      0.0000    824.3913      3.1674    111.2684
  1427.0500      0.0000    824.3913      3.1674    111.2684
  1427.1000      0.0000    824.3913      3.1674    111.2684
  1427.1500      0.0000    824.3913      3.1674    111.2684
  1427.2000      0.0000    824.3913      3.1674    111.2684
  1427.2500      0.0000    819.7573      3.2382    116.0617
  1427.3000      0.0000    819.7573      3.2382    116.0617
  1427.3500      0.0000    819.7573      3.2382    116.0617
  1427.4000      0.0000    819.7573      3.2382    116.0617
  1427.4500      0.0000    819.7573      3.2382    116.0617
  1427.5000      0.0000    821.7927      3.2652    123.6367
  1427.5500      0.0000    821.7927      3.2652    123.6367
  1427.6000      0.0000    821.7927      3.2652    123.6367
  1427.6500      0.0000    821.7927      3.2652    123.6367
  1427.7000      0.0000    821.7927      3.2652    123.6367
  1427.7500      0.0000    835.0707      3.2764    132.2859
  1427.8000      0.0000    835.0707      3.2764    132.2859
  1427.8500      0.0000    835.0707      3.2764    132.2859
  1427.9000      0.0000    835.0707      3.2764    132.2859
  1427.9500      0.0000    835.0707      3.2764    132.2859
  1428.0000      0.0000    854.1559      3.2959    139.3970
  1428.0500      0.0000    854.1559      3.2959    139.3970
  1428.1000      0.0000    854.1559      3.2959    139.3970
  1428.1500      0.0000    854.1559      3.2959    139.3970
  1428.2000      0.0000    854.1559      3.2959    139.3970
  1428.2500      0.0000    867.7961      3.3339    143.0965
  1428.3000      0.0000    867.7961      3.3339    143.0965
  1428.3500      0.0000    867.7961      3.3339    143.0965
  1428.4000      0.0000    867.7961      3.3339    143.0965
  1428.4500      0.0000    867.7961      3.3339    143.0965
  1428.5000      0.0000    867.0751      3.3890    144.4899
  1428.5500      0.0000    867.0751      3.3890    144.4899
  1428.6000      0.0000    867.0751      3.3890    144.4899
  1428.6500      0.0000    867.0751      3.3890    144.4899
  1428.7000      0.0000    867.0751      3.3890    144.4899
  1428.7500      0.0000    849.7010      3.4460    146.9368
  1428.8000      0.0000    849.7010      3.4460    146.9368
  1428.8500      0.0000    849.7010      3.4460    146.9368
  1428.9000      0.0000    849.7010      3.4460    146.9368
  1428.9500      0.0000    849.7010      3.4460    146.9368
  1429.0000      0.0000    819.0207      3.4733    152.3201
  1429.0500      0.0000    819.0207      3.4733    152.3201
  1429.1000      0.0000    819.0207      3.4733    152.3201
  1429.1500      0.0000    819.0207      3.4733    152.3201
  1429.2000      0.0000    819.0207      3.4733    152.3201
  1429.2500      0.0000    781.6264      3.4341    158.6758
  1429.3000      0.0000    781.6264      3.4341    158.6758
  1429.3500      0.0000    781.6264      3.4341    158.6758
  1429.4000      0.0000    781.6264      3.4341    158.6758
  1429.4500      0.0000    781.6264      3.4341    158.6758
  1429.5000      0.0000    746.5136      3.3128    161.9277
  1429.5500      0.0000    746.5136      3.3128    161.9277
  1429.6000      0.0000    746.5136      3.3128    161.9277
  1429.6500      0.0000    746.5136      3.3128    161.9277
  1429.7000      0.0000    746.5136      3.3128    161.9277
  1429.7500      0.0000    724.0433      3.1331    159.4069
  1429.8000      0.0000    724.0433      3.1331    159.4069
  1429.8500      0.0000    724.0433      3.1331    159.4069
  1429.9000      0.0000    724.0433      3.1331    159.4069
  1429.9500      0.0000    724.0433      3.1331    159.4069
  1430.0000      0.0000    721.3201      2.9465    151.7414
  1430.0500      0.0000    721.3201      2.9465    151.7414
  1430.1000      0.0000    721.3201      2.9465    151.7414
  1430.1500      0.0000    721.3201      2.9465    151.7414
  1430.2000      0.0000    721.3201      2.9465    151.7414
  1430.2500      0.0000    736.7708      2.8019    142.5046
  1430.3000      0.0000    736.7708      2.8019    142.5046
  1430.3500      0.0000    736.7708      2.8019    142.5046
  1430.4000      0.0000    736.7708      2.8019    142.5046
  1430.4500      0.0000    736.7708      2.8019    142.5046
  1430.5000      0.0000    760.9904      2.7266    136.3736
  1430.5500      0.0000    760.9904      2.7266    136.3736
  1430.6000      0.0000    760.9904      2.7266    136.3736
  1430.6500      0.0000    760.9904      2.7266    136.3736
  1430.7000      0.0000    760.9904      2.7266    136.3736
  1430.7500      0.0000    783.6841      2.7265    136.1223
  1430.8000      0.0000    783.6841      2.7265    136.1223
  1430.8500      0.0000    783.6841      2.7265    136.1223
  1430.9000      0.0000    783.6841      2.7265    136.1223
  1430.9500      0.0000    783.6841      2.7265    136.1223
  1431.0000      0.0000    798.7607      2.7913    140.2022
  1431.0500      0.0000    798.7607      2.7913    140.2022
  1431.1000      0.0000    798.7607      2.7913    140.2022
  1431.1500      0.0000    798.7607      2.7913    140.2022
  1431.2000      0.0000    798.7607      2.7913    140.2022
  1431.2500      0.0000    804.0928      2.8970    143.8986
  1431.3000      0.0000    804.0928      2.8970    143.8986
  1431.3500      0.0000    804.0928      2.8970    143.8986
  1431.4000      0.0000    804.0928      2.8970    143.8986
  1431.4500      0.0000    804.0928      2.8970    143.8986
  1431.5000      0.0000    799.6373      3.0100    143.6608
  1431.5500      0.0000    799.6373      3.0100    143.6608
  1431.6000      0.0000    799.6373      3.0100    143.6608
  1431.6500      0.0000    799.6373      3.0100    143.6608
  1431.7000      0.0000    799.6373      3.0100    143.6608
  1431.7500      0.0000    786.8589      3.1001    140.1075
  1431.8000      0.0000    786.8589      3.1001    140.1075
  1431.8500      0.0000    786.8589      3.1001    140.1075
  1431.9000      0.0000    786.8589      3.1001    140.1075
  1431.9500      0.0000    786.8589      3.1001    140.1075
  1432.0000      0.0000    769.2966      3.1561    136.6699
  1432.0500      0.0000    769.2966      3.1561    136.6699
  1432.1000      0.0000    769.2966      3.1561    136.6699
  1432.1500      0.0000    769.2966      3.1561    136.6699
  1432.2000      0.0000    769.2966      3.1561    136.6699
  1432.2500      0.0000    753.1123      3.1856    135.9206
  1432.3000      0.0000    753.1123      3.1856    135.9206
  1432.3500      0.0000    753.1123      3.1856    135.9206
  1432.4000      0.0000    753.1123      3.1856    135.9206
  1432.4500      0.0000    753.1123      3.1856    135.9206
  1432.5000      0.0000    744.8668      3.1984    137.6034
  1432.5500      0.0000    744.8668      3.1984    137.6034
  1432.6000      0.0000    744.8668      3.1984    137.6034
  1432.6500      0.0000    744.8668      3.1984    137.6034
  1432.7000      0.0000    744.8668      3.1984    137.6034
  1432.7500      0.0000    745.6602      3.1845    139.6762
  1432.8000      0.0000    745.6602      3.1845    139.6762
  1432.8500      0.0000    745.6602      3.1845    139.6762
  1432.9000      0.0000    745.6602      3.1845    139.6762
  1432.9500      0.0000    745.6602      3.1845    139.6762
  1433.0000      0.0000    748.3965      3.1087    140.3524
  1433.0500      0.0000    748.3965      3.1087    140.3524
  1433.1000      0.0000    748.3965      3.1087    140.3524
  1433.1500      0.0000    748.3965      3.1087    140.3524
  1433.2000      0.0000    748.3965      3.1087    140.3524
  1433.2500      0.0000    744.5984      2.9319    138.8023
  1433.3000      0.0000    744.5984      2.9319    138.8023
  1433.3500      0.0000    744.5984      2.9319    138.8023
  1433.4000      0.0000    744.5984      2.9319    138.8023
