~Version Information
VERS.                      2.0: CWLS Log ASCII Standard - VERSION 2.0
WRAP.                       NO: One line per depth step
~Well Information Block
STRT.FT               240.0000: 
STOP.FT              1452.5000: 
STEP.FT                 0.1000: 
NULL.                -999.2500: 
COMP.          Petrogulf Corporation: COMPANY
WELL.          Robinson 15-12R: WELL
FLD.           Purgatorie River: FIELD
LOC.           1752' FNL & 561' FWL: LOCATION
PROV.                 Colorado: PROVINCE
CNTY.               Las Animas: COUNTRY
SRVC.                Patterson: SERVICE COMPANY
DATE.          Tue Sep 13 15:07:52 2005: LOG DATE
UWI.                          : UNIQUE WELL ID
~Curve Information Block
DEPT.FT            0 000 00 00: Depth
DCAL.in                       : CDL Caliper
RHOB.g/cc                     : CDL Bulk Density
RHOC.g/cc                     : CDL Density Correction
DPOR.pu                       : CDL Density Porosity
GR.GAPI                       : Gamma Ray
NPOR.pu                       : Neutron Porosity
~Parameter Information Block
~A  Depth       DCAL        RHOB        RHOC        DPOR         GR         NPOR    
# ...
   480.0000      7.9583      2.5415      0.0002      6.5729    133.6960     15.1995
   480.1000      7.9583      2.5334      0.0528      7.0687    130.1499     15.5956
   480.2000      7.9583      2.5364      0.0463      6.8835    131.4658     15.8279
   480.3000      7.9598      2.5415      0.0356      6.5738    137.3601     15.8071
   480.4000      7.9598      2.5520      0.0484      5.9376    140.6052     15.7266
   480.5000      7.9580      2.5687      0.0732      4.9291    140.6330     15.7461
   480.6000      7.9580      2.5910      0.0383      3.5757    140.3670     16.5445
   480.7000      7.9580      2.6125      0.0873      2.2743    141.2377     17.8586
   480.8000      7.9583      2.6155      0.0735      2.0888    144.6322     18.1685
   480.9000      7.9583      2.5922      0.0461      3.5050    148.6616     17.1960
   481.0000      7.9562      2.5548      0.0280      5.7671    150.3056     16.4545
   481.1000      7.9562      2.5257      0.0427      7.5331    149.8180     16.7831
   481.2000      7.9562      2.5146      0.0354      8.2085    149.1203     17.2056
   481.3000      7.9637      2.5215      0.0056      7.7901    150.3292     17.0173
   481.4000      7.9637      2.5432      0.0275      6.4744    154.9109     16.8898
   481.5000      7.9773      2.5655      0.0950      5.1233    160.3791     17.2389
   481.6000      7.9773      2.5746      0.0419      4.5711    161.7498     17.5997
   481.7000      7.9773      2.5693      0.0806      4.8921    159.4877     17.5632
   481.8000      7.9824      2.5573      0.0387      5.6206    157.1214     17.5774
   481.9000      7.9824      2.5482      0.0379      6.1675    156.7504     18.2038
   482.0000      7.9852      2.5455     -0.0058      6.3307    158.6132     18.7774
   482.1000      7.9852      2.5489      0.0106      6.1249    161.3119     18.3238
   482.2000      7.9852      2.5546      0.0430      5.7811    161.1024     17.1158
   482.3000      7.9903      2.5543      0.0535      5.8004    155.1815     16.2911
   482.4000      7.9903      2.5442     -0.0272      6.4097    149.5530     16.6144
   482.5000      8.0131      2.5324      0.0097      7.1298    151.3122     18.0561
   482.6000      8.0131      2.5259      0.0155      7.5242    158.7013     20.0299
   482.7000      8.0131      2.5229      0.0311      7.7029    163.0960     21.3532
   482.8000      8.0301      2.5222      0.0075      7.7476    160.0823     21.3783
   482.9000      8.0301      2.5268      0.0301      7.4682    155.3822     20.3171
   483.0000      8.0392      2.5364      0.0135      6.8874    155.3231     18.3724
   483.1000      8.0392      2.5449      0.0560      6.3686    160.8381     16.4893
   483.2000      8.0392      2.5485      0.0334      6.1521    164.9977     16.2578
   483.3000      8.0537      2.5499      0.0628      6.0684    160.9131     17.6902
   483.4000      8.0537      2.5499      0.0646      6.0648    154.9218     18.7626
   483.5000      8.0417      2.5555      0.0172      5.7250    153.4896     18.3176
   483.6000      8.0417      2.5796      0.0256      4.2686    152.3117     17.1093
   483.7000      8.0417      2.6137      0.1113      2.1999    150.3127     16.4565
   483.8000      8.0248      2.6383      0.0724      0.7101    150.9356     17.1607
   483.9000      8.0248      2.6550      0.0713     -0.3037    153.7935     18.5983
   484.0000      8.0019      2.6680      0.0917     -1.0893    154.9136     19.8109
   484.1000      8.0019      2.6668      0.0682     -1.0187    151.3119     20.5435
   484.2000      8.0019      2.6488      0.0368      0.0719    144.7418     20.1059
   484.3000      7.9928      2.6266     -0.0007      1.4181    140.4813     17.9212
   484.4000      7.9928      2.6118     -0.0297      2.3150    140.2774     15.5287
   484.5000      7.9783      2.6023      0.0286      2.8926    139.9354     14.9982
   484.6000      7.9783      2.5890      0.0122      3.6988    139.0106     16.0651
   484.7000      7.9783      2.5697      0.0421      4.8656    143.0350     16.9677
   484.8000      7.9890      2.5446      0.0230      6.3853    149.8013     17.2165
   484.9000      7.9890      2.5170      0.0023      8.0602    153.3617     17.2154
   485.0000      7.9995      2.4933      0.0032      9.4990    155.3941     17.1551
   485.1000      7.9995      2.4791     -0.0113     10.3566    158.1620     17.5667
   485.2000      7.9995      2.4773      0.0031     10.4693    161.2577     18.5394
   485.3000      7.9918      2.4780      0.0250     10.4240    163.6869     19.2414
   485.4000      7.9918      2.4683      0.0069     11.0096    163.9444     18.8573
   485.5000      8.0011      2.4522      0.0027     11.9901    161.6514     17.6732
   485.6000      8.0011      2.4475      0.0145     12.2699    159.1978     17.1738
   485.7000      8.0011      2.4653      0.0028     11.1960    159.3958     18.0715
   485.8000      8.0084      2.4936      0.0593      9.4784    159.4212     19.1382
   485.9000      8.0084      2.5120      0.0507      8.3615    155.2507     19.2686
   486.0000      7.9792      2.5189      0.0398      7.9438    150.4887     18.7821
   486.1000      7.9792      2.5244      0.0743      7.6121    149.2074     18.2861
   486.2000      7.9792      2.5271      0.0712      7.4489    149.6122     18.2466
   486.3000      7.9863      2.5226      0.0551      7.7205    150.2014     19.0790
   486.4000      7.9863      2.5176      0.0349      8.0270    151.5766     20.0495
   486.5000      7.9857      2.5179      0.0516      8.0091    151.2210     19.8203
   486.6000      7.9857      2.5170      0.0451      8.0634    148.6530     18.3569
   486.7000      7.9857      2.5097      0.0633      8.5001    146.9700     16.6242
   486.8000      7.9723      2.5081      0.0338      8.5982    148.3117     15.6812
   486.9000      7.9723      2.5255      0.0245      7.5461    155.7981     16.2006
   487.0000      7.9843      2.5498      0.0814      6.0702    166.8010     17.8272
   487.1000      7.9843      2.5650      0.0392      5.1508    171.3588     19.6554
   487.2000      7.9843      2.5769      0.0823      4.4306    167.5333     20.8566
   487.3000      7.9790      2.5914      0.0891      3.5508    162.1642     21.0373
   487.4000      7.9790      2.6041      0.0903      2.7799    157.5984     20.5301
   487.5000      8.0026      2.6075      0.0859      2.5756    153.1177     20.2268
   487.6000      8.0026      2.5949      0.1102      3.3383    152.3194     20.6147
   487.7000      8.0026      2.5678      0.0535      4.9794    155.9213     21.0004
   487.8000      8.0294      2.5406      0.0384      6.6325    160.4374     20.4440
   487.9000      8.0294      2.5224      0.0241      7.7350    164.0822     19.0468
   488.0000      8.0364      2.5076      0.0058      8.6285    165.3088     17.9176
   488.1000      8.0364      2.4921     -0.0286      9.5696    162.7617     17.7959
   488.2000      8.0364      2.4816      0.0063     10.2086    155.7285     18.1214
   488.3000      8.0555      2.4874      0.0165      9.8556    147.2072     18.2490
   488.4000      8.0555      2.5060      0.0984      8.7261    143.2666     18.1987
   488.5000      8.0527      2.5141      0.1005      8.2350    147.6289     18.2629
   488.6000      8.0527      2.5154     -0.0039      8.1559    155.3674     18.6623
   488.7000      8.0527      2.5339      0.0673      7.0376    157.0450     19.2848
   488.8000      8.0516      2.5644      0.0807      5.1887    153.1834     19.7840
   488.9000      8.0516      2.5843      0.1535      3.9823    149.9837     19.5814
   489.0000      8.0630      2.5834      0.1171      4.0387    146.6640     18.4286
   489.1000      8.0630      2.5726      0.0786      4.6939    141.6125     17.3281
   489.2000      8.0630      2.5687      0.0916      4.9254    138.6529     17.2596
   489.3000      8.0573      2.5801      0.0726      4.2339    140.3947     17.5928
   489.4000      8.0573      2.6018      0.1470      2.9208    142.6974     17.2490
   489.5000      8.0393      2.6147      0.0737      2.1365    141.3207     16.8460
