~Version Information
VERS.                      2.0: CWLS Log ASCII Standard - VERSION 2.0
WRAP.                       NO: One line per depth step
~Well Information Block
STRT.FT               510.5000: 
STOP.FT              2075.5000: 
STEP.FT                 0.1000: 
NULL.                -999.2500: 
COMP.          Petrogulf Corporation: COMPANY
WELL.          Robinson 15-11V: WELL
FLD.           Purgatorie River: FIELD
LOC.           226' FNL & 592' FWL: LOCATION
CNTY.               Las Animas: COUNTY
SRVC.                         : SERVICE COMPANY
DATE.          Wed Aug 04 06:17:53 2004: LOG DATE
UWI.           05 071 08027 00: UNIQUE WELL ID
STAT.                 Colorado: STATE
~Curve Information Block
DEPT.FT            0 000 00 00: Depth
DCAL.in                       : CDL Caliper
RHOB.g/cc                     : CDL Bulk Density
RHOC.g/cc                     : CDL Density Correction
DPOR.pu                       : CDL Density Porosity
GR.GAPI                       : Gamma Ray
NPOR.pu                       : Neutron Porosity
~Parameter Information Block
~A  Depth       DCAL        RHOB        RHOC        DPOR         GR         NPOR    
# ...
   625.7000      8.0008      2.5196      0.1289      7.9041    123.5790     29.1014
   625.8000      7.9641      2.4955      0.0279      9.3613    124.2065     29.2089
   625.9000      7.9641      2.4836      0.0425     10.0875    127.8415     29.2549
   626.0000      7.9584      2.4849      0.0510     10.0051    133.6635     29.3804
   626.1000      7.9584      2.4891      0.0701      9.7539    137.9681     29.7232
   626.2000      7.9584      2.4935      0.0514      9.4821    133.4654     30.2624
   626.3000      7.9580      2.5076      0.0476      8.6289    123.0351     30.6600
   626.4000      7.9580      2.5402      0.0461      6.6518    117.9482     30.5493
   626.5000      7.9568      2.5883      0.1142      3.7400    123.5219     30.0502
   626.6000      7.9568      2.6321      0.1775      1.0867    134.9187     29.4833
   626.7000      7.9568      2.6511      0.1856     -0.0684    141.8155     29.0036
   626.8000      7.9538      2.6460      0.1758      0.2408    141.6386     28.6883
   626.9000      7.9538      2.6302      0.1562      1.1989    140.8170     28.5591
   627.0000      7.9356      2.6196      0.0734      1.8402    142.0078     28.6330
   627.1000      7.9356      2.6248      0.0703      1.5269    142.6806     28.7924
   627.2000      7.9356      2.6325      0.0909      1.0593    140.7697     28.8343
   627.3000      7.9313      2.6263      0.0303      1.4375    135.3128     28.5414
   627.4000      7.9313      2.6153      0.0611      2.1003    127.8569     27.7819
   627.5000      7.9319      2.6120      0.0669      2.3004    123.0491     26.7449
   627.6000      7.9319      2.6095      0.0973      2.4525    123.4105     25.7143
   627.7000      7.9319      2.5978      0.0119      3.1635    125.2488     24.8685
   627.8000      7.9314      2.5781      0.0272      4.3606    123.3923     24.2785
   627.9000      7.9314      2.5595      0.0160      5.4867    116.4758     23.9065
   628.0000      7.9250      2.5556      0.0086      5.7232    108.0463     23.6704
   628.1000      7.9250      2.5686      0.0638      4.9357    101.2928     23.6297
   628.2000      7.9250      2.5819      0.1051      4.1295     96.3058     23.8452
   628.3000      7.9328      2.5828      0.0770      4.0733     93.7130     24.1990
   628.4000      7.9328      2.5742      0.0816      4.5936     93.2749     24.5372
   628.5000      7.9566      2.5627      0.0874      5.2909     92.4056     24.8784
   628.6000      7.9566      2.5560      0.0544      5.6989     89.8267     25.4118
   628.7000      7.9566      2.5590      0.1275      5.5159     86.8026     26.2308
   628.8000      7.9602      2.5715      0.1157      4.7596     82.6793     27.0451
   628.9000      7.9602      2.5931      0.1821      3.4476     80.5265     27.6438
   629.0000      7.9583      2.6175      0.1517      1.9688     85.8315     28.2386
   629.1000      7.9583      2.6309      0.1781      1.1559     94.7433     28.8026
   629.2000      7.9583      2.6242      0.1202      1.5654    100.9978     29.0127
   629.3000      7.9571      2.6028      0.1093      2.8605    107.4966     28.8861
   629.4000      7.9571      2.5782      0.0721      4.3534    116.7497     28.9227
   629.5000      7.9585      2.5572      0.0461      5.6230    125.0438     29.2714
   629.6000      7.9585      2.5371      0.0826      6.8421    128.5439     29.5142
   629.7000      7.9585      2.5173      0.0079      8.0452    125.5493     29.5850
   629.8000      7.9593      2.5183      0.0339      7.9790    119.5609     29.6398
   629.9000      7.9593      2.5590      0.0233      5.5147    115.7689     29.6983
   630.0000      7.9606      2.6215      0.1191      1.7279    117.2184     29.9204
   630.1000      7.9606      2.6741      0.1125     -1.4612    124.2127     30.3270
   630.2000      7.9606      2.7144      0.1525     -3.9040    132.9548     30.5705
   630.3000      7.9589      2.7532      0.1791     -6.2561    139.1772     30.5035
   630.4000      7.9589      2.7881      0.1798     -8.3708    142.7345     30.2860
   630.5000      7.9586      2.8072      0.2166     -9.5265    143.6019     30.2275
   630.6000      7.9586      2.7928      0.1918     -8.6547    141.7684     30.3983
   630.7000      7.9586      2.7399      0.0753     -5.4455    139.1884     30.4942
   630.8000      7.9587      2.6720     -0.0629     -1.3359    136.6220     30.3320
   630.9000      7.9587      2.6182     -0.1051      1.9251    134.7164     30.1001
   631.0000      7.9596      2.5886     -0.0489      3.7219    136.5547     29.9337
   631.1000      7.9596      2.5872      0.0493      3.8060    144.2069     29.6731
   631.2000      7.9596      2.6191      0.1187      1.8723    149.1108     29.1855
   631.3000      7.9606      2.6667      0.2549     -1.0142    142.8618     28.5817
   631.4000      7.9606      2.7015      0.2420     -3.1235    133.5380     28.0321
   631.5000      7.9615      2.7176      0.2375     -4.0961    128.8311     27.4602
   631.6000      7.9615      2.7203      0.2066     -4.2627    125.6646     26.7230
   631.7000      7.9615      2.7137      0.1903     -3.8606    124.8476     25.9525
   631.8000      7.9592      2.6984      0.1631     -2.9322    126.2735     25.4201
   631.9000      7.9592      2.6686      0.1815     -1.1300    126.3202     25.2310
   632.0000      7.9341      2.6243      0.1238      1.5584    124.6818     25.2211
   632.1000      7.9341      2.5818      0.0390      4.1331    121.5446     25.1443
   632.2000      7.9341      2.5543      0.0941      5.8004    117.7542     25.0944
   632.3000      7.9294      2.5349      0.0927      6.9767    113.3352     25.2647
   632.4000      7.9294      2.5167      0.0366      8.0802    109.5688     25.4351
   632.5000      8.0047      2.4992      0.0488      9.1390    110.9217     25.6304
   632.6000      8.0047      2.4812      0.0344     10.2324    118.9600     26.1232
   632.7000      8.0047      2.4660      0.0527     11.1525    129.6686     26.8252
   632.8000      8.0147      2.4633      0.0366     11.3168    138.9667     27.4998
   632.9000      8.0147      2.4840      0.0454     10.0630    141.8972     28.0946
   633.0000      7.9993      2.5268      0.0919      7.4674    135.6072     28.6548
   633.1000      7.9993      2.5720      0.1133      4.7302    129.4401     29.1066
   633.2000      7.9993      2.5971      0.1387      3.2053    133.1629     29.4648
   633.3000      7.9819      2.6049      0.0410      2.7336    140.9476     29.8086
   633.4000      7.9819      2.6162      0.1059      2.0500    140.4793     29.9121
   633.5000      7.9488      2.6309      0.0753      1.1603    133.4710     29.7306
   633.6000      7.9488      2.6321      0.0847      1.0868    133.1832     29.5945
   633.7000      7.9488      2.6125      0.0605      2.2710    142.9468     29.4485
   633.8000      7.9318      2.5851      0.0379      3.9320    153.2283     29.2049
   633.9000      7.9318      2.5736      0.0510      4.6307    155.9769     29.1055
   634.0000      7.9300      2.5849      0.0421      3.9468    152.8764     29.1366
   634.1000      7.9300      2.6074      0.0362      2.5820    148.5122     29.1113
   634.2000      7.9300      2.6222      0.0766      1.6822    143.8774     28.9642
   634.3000      7.9296      2.6099      0.0736      2.4285    139.1772     28.6632
   634.4000      7.9296      2.5783      0.0293      4.3430    134.3937     28.2946
   634.5000      7.9296      2.5580      0.0384      5.5779    129.2176     28.1826
   634.6000      7.9296      2.5572      0.0681      5.6238    127.0308     28.4412
   634.7000      7.9296      2.5602      0.0597      5.4405    131.3488     28.6665
   634.8000      7.9306      2.5643      0.0448      5.1958    137.5492     28.4771
   634.9000      7.9306      2.5783      0.0635      4.3464    135.1159     28.0551
   635.0000      7.9328      2.5901      0.0966      3.6324    122.1754     27.7636
   635.1000      7.9328      2.5820      0.0438      4.1201    113.3796     27.6431
   635.2000      7.9328      2.5707      0.0584      4.8084    117.0677     27.7490
