~Version Information
VERS.                      2.0: CWLS Log ASCII Standard - VERSION 2.0
WRAP.                       NO: One line per depth step
~Well Information Block
STRT.FT               595.0000: 
STOP.FT              1508.7500: 
STEP.FT                 0.2500: 
NULL.                -999.2500: 
COMP.          Pioneer Natural Resources: COMPANY
WELL.          Sumatra 34-22 Tr: WELL
FLD.           Purgatoire River: FIELD
LOC.           443' FSL & 2424' FEL--: LOCATION
PROV.                 Colorado: PROVINCE
CNTY.               Las Animas: COUNTRY
SRVC.                Patterson: SERVICE COMPANY
DATE.          Wed Jun 08 23:53:01 2005: LOG DATE
UWI.           05 071 08383 00: UNIQUE WELL ID
~Curve Information Block
DEPT.FT            0 000 00 00: Depth
SN.Ohm-m                      : IEL Short Normal
SP.mV                         : IEL Spontaneous Potential
DIR.Ohm-m                     : IEL Induction Resistivity
GR.GAPI                       : Gamma Ray
~Parameter Information Block
~A  Depth        SN          SP         DIR          GR     
# ...
  1131.0000    682.6764   -528.9788      9.0673    148.2999
  1131.2500    682.0201   -528.9572      9.1503    146.1148
  1131.5000    680.1118   -528.9388      9.2777    141.9930
  1131.7500    675.7199   -528.9256      9.4295    138.7245
  1132.0000    667.4727   -528.9193      9.5878    133.9287
  1132.2500    654.1895   -528.9206      9.7374    131.6026
  1132.5000    635.0576   -528.9291      9.8658    130.2027
  1132.7500    610.9948   -528.9435      9.9618    130.4249
  1133.0000    586.9637   -528.9617     10.0152    131.4134
  1133.2500    570.8622   -528.9813     10.0182    132.0192
  1133.5000    567.7382   -528.9996      9.9680    132.7743
  1133.7500    576.7803   -529.0148      9.8688    133.5160
  1134.0000    594.7093   -529.0259      9.7333    135.6050
  1134.2500    618.2715   -529.0325      9.5809    137.6274
  1134.5000    642.7177   -529.0352      9.4323    140.8963
  1134.7500    662.3077   -529.0348      9.3034    142.8562
  1135.0000    673.7044   -529.0326      9.2006    145.5197
  1135.2500    676.5168   -529.0298      9.1204    147.4014
  1135.5000    669.9584   -529.0273      9.0533    150.6531
  1135.7500    650.7125   -529.0254      8.9887    153.0418
  1136.0000    616.5604   -529.0240      8.9190    156.8339
  1136.2500    574.0250   -529.0227      8.8402    159.5475
  1136.5000    540.8428   -529.0206      8.7504    163.8459
  1136.7500    535.3646   -529.0166      8.6485    166.5359
  1137.0000    560.7141   -529.0101      8.5352    169.4439
  1137.2500    601.8484   -529.0004      8.4142    170.3365
  1137.5000    639.1117   -528.9872      8.2922    170.3842
  1137.7500    662.3633   -528.9706      8.1777    169.9839
  1138.0000    672.8679   -528.9511      8.0782    169.2269
  1138.2500    676.4960   -528.9295      7.9986    168.6417
  1138.5000    677.3474   -528.9066      7.9407    167.6335
  1138.7500    675.1215   -528.8835      7.9044    167.0222
  1139.0000    664.4735   -528.8611      7.8875    166.4463
  1139.2500    635.7560   -528.8399      7.8861    166.2004
  1139.5000    579.7953   -528.8202      7.8943    165.6158
  1139.7500    498.3385   -528.8017      7.9067    165.0050
  1140.0000    411.6920   -528.7838      7.9208    164.1192
  1140.2500    349.5762   -528.7653      7.9394    163.6971
  1140.5000    327.4980   -528.7451      7.9710    162.7967
  1140.7500    333.4665   -528.7220      8.0267    161.4312
  1141.0000    342.8023   -528.6953      8.1183    157.6933
  1141.2500    344.3307   -528.6647      8.2562    154.3306
  1141.5000    348.1837   -528.6314      8.4487    149.0255
  1141.7500    370.2803   -528.5973      8.7026    145.7591
  1142.0000    414.7000   -528.5656      9.0238    141.1261
  1142.2500    470.3550   -528.5402      9.4180    137.7923
  1142.5000    518.4018   -528.5250      9.8904    131.8775
  1142.7500    541.9070   -528.5231     10.4450    127.2335
  1143.0000    534.8475   -528.5361     11.0836    119.1458
  1143.2500    505.3937   -528.5635     11.8065    113.0326
  1143.5000    468.8864   -528.6031     12.6138    103.5041
  1143.7500    438.4262   -528.6508     13.5073     97.7972
  1144.0000    422.2269   -528.7014     14.4896     91.6812
  1144.2500    424.7420   -528.7496     15.5562     89.6384
  1144.5000    445.9680   -528.7907     16.6860     89.5614
  1144.7500    481.7960   -528.8214     17.8327     91.1349
  1145.0000    526.9412   -528.8398     18.9274     94.6813
  1145.2500    575.4335   -528.8459     19.8935     96.9372
  1145.5000    619.2867   -528.8414     20.6696     99.3074
  1145.7500    650.7087   -528.8284     21.2281    100.3647
  1146.0000    665.9866   -528.8102     21.5809    101.7425
  1146.2500    664.8949   -528.7897     21.7728    102.5089
  1146.5000    647.1362   -528.7696     21.8688    103.0216
  1146.7500    612.2449   -528.7524     21.9385    102.9992
  1147.0000    563.7712   -528.7399     22.0410    103.1600
  1147.2500    511.8158   -528.7336     22.2128    103.6718
  1147.5000    469.1184   -528.7344     22.4599    104.5270
  1147.7500    443.6811   -528.7430     22.7587    104.5427
  1148.0000    435.5903   -528.7593     23.0626    103.2284
  1148.2500    441.4733   -528.7825     23.3103    101.7173
  1148.5000    460.1246   -528.8110     23.4289     99.4008
  1148.7500    490.1355   -528.8427     23.3335     98.2911
  1149.0000    522.6921   -528.8748     22.9341     97.7574
  1149.2500    544.1345   -528.9045     22.1650     98.2485
  1149.5000    550.0453   -528.9295     21.0317    100.1679
  1149.7500    552.1151   -528.9480     19.6356    102.1874
  1150.0000    566.1620   -528.9593     18.1444    106.5607
  1150.2500    595.6160   -528.9636     16.7237    110.6771
  1150.5000    630.0454   -528.9624     15.4826    118.9364
  1150.7500    657.2404   -528.9574     14.4613    125.4563
  1151.0000    672.6226   -528.9508     13.6489    134.9514
  1151.2500    678.4559   -528.9449     13.0117    139.7554
  1151.5000    678.6536   -528.9415     12.5148    143.1269
  1151.7500    676.0870   -528.9420     12.1352    142.7306
  1152.0000    672.9011   -528.9475     11.8661    139.2587
  1152.2500    670.9178   -528.9581     11.7160    136.0426
  1152.5000    670.9553   -528.9736     11.7019    131.5008
  1152.7500    672.3687   -528.9929     11.8414    129.2023
  1153.0000    673.8829   -529.0146     12.1435    126.9323
  1153.2500    674.8095   -529.0372     12.6011    125.9078
  1153.5000    675.3909   -529.0590     13.1860    124.2825
  1153.7500    676.2784   -529.0785     13.8482    122.6344
  1154.0000    677.7988   -529.0950     14.5233    118.9675
  1154.2500    679.6442   -529.1081     15.1470    116.0714
  1154.5000    681.2261   -529.1180     15.6698    112.3004
  1154.7500    682.2138   -529.1253     16.0643    110.8520
  1155.0000    682.6738   -529.1306     16.3197    110.8047
  1155.2500    682.8358   -529.1344     16.4324    112.1362
  1155.5000    682.8791   -529.1372     16.4001    115.7308
  1155.7500    682.8880   -529.1393     16.2230    118.7986
  1156.0000    682.8896   -529.1408     15.9099    123.6337
  1156.2500    682.8896   -529.1415     15.4838    126.6883
  1156.5000    682.8896   -529.1415     14.9849    130.9454
  1156.7500    682.8896   -529.1407     14.4669    133.6927
  1157.0000    682.8896   -529.1391     13.9874    137.6106
  1157.2500    682.8896   -529.1369     13.5959    139.6881
  1157.5000    682.8896   -529.1342     13.3260    140.8925
  1157.7500    682.8896   -529.1313     13.1912    139.9304
  1158.0000    682.8896   -529.1285     13.1845    136.0924
  1158.2500    682.8896   -529.1261     13.2793    132.7167
  1158.5000    682.8896   -529.1241     13.4329    127.7800
  1158.7500    682.8896   -529.1229     13.5917    124.8013
  1159.0000    682.8896   -529.1223     13.7016    120.4462
  1159.2500    682.8896   -529.1224     13.7187    117.6202
  1159.5000    682.8896   -529.1228     13.6189    114.5385
  1159.7500    682.8896   -529.1235     13.3987    114.1704
  1160.0000    682.8896   -529.1241     13.0703    117.1890
  1160.2500    682.8896   -529.1247     12.6551    121.5286
  1160.5000    682.8896   -529.1251     12.1793    130.2102
  1160.7500    682.8896   -529.1254     11.6730    136.1506
  1161.0000    682.8896   -529.1256     11.1677    143.0987
  1161.2500    682.8896   -529.1259     10.6925    145.8207
  1161.5000    682.8896   -529.1262     10.2706    147.5836
  1161.7500    682.8896   -529.1265      9.9174    147.9155
  1162.0000    682.8896   -529.1269      9.6398    147.5449
  1162.2500    682.8896   -529.1273      9.4359    146.3287
  1162.5000    682.8896   -529.1276      9.2952    142.4981
  1162.7500    682.8896   -529.1277      9.2006    138.9909
  1163.0000    682.8896   -529.1277      9.1320    134.1039
  1163.2500    682.8896   -529.1276      9.0703    132.2703
  1163.5000    682.8896   -529.1272      9.0007    132.8898
  1163.7500    682.8896   -529.1267      8.9142    135.5426
  1164.0000    682.8896   -529.1260      8.8081    141.7213
  1164.2500    682.8896   -529.1253      8.6851    146.2571
