~Version Information
VERS.                      2.0: CWLS Log ASCII Standard - VERSION 2.0
WRAP.                       NO: One line per depth step
~Well Information Block
STRT.FT                -7.7500: 
STOP.FT              1383.2500: 
STEP.FT                 0.2500: 
NULL.                -999.2500: 
COMP.          Petrogulf Corporation: COMPANY
WELL.          Great Plains 22-22R: WELL
FLD.           Purgatoire River: FIELD
LOC.           2042' FNL & 1657' FWL SENW 22 33S 67W ----: LOCATION
PROV.                 Colorado: PROVINCE
CNTY.               Las Animas: COUNTRY
SRVC.                         : SERVICE COMPANY
DATE.          Thu Sep 22 14:55:58 2005: LOG DATE
UWI.             07108028     : UNIQUE WELL ID
~Curve Information Block
DEPT.FT            0 000 00 00: Depth
CCL.                          : Casing Collar Locator
TT3.usec                      : CBL 3' Travel Time
AMP3.mV                       : CBL 3' Amplitude
GR.GAPI                       : Gamma Ray
~Parameter Information Block
~A  Depth       CCL         TT3         AMP3         GR     
    -7.7500   -999.2500   -999.2500   -999.2500     80.8816
    -7.5000   -999.2500   -999.2500   -999.2500     75.1933
    -7.2500   -999.2500   -999.2500   -999.2500     65.7856
    -7.0000   -999.2500   -999.2500   -999.2500     53.2844
    -6.7500   -999.2500   -999.2500   -999.2500     40.4524
    -6.5000   -999.2500   -999.2500   -999.2500     30.0795
    -6.2500   -999.2500   -999.2500   -999.2500     23.1479
    -6.0000   -999.2500   -999.2500   -999.2500     18.9911
    -5.7500   -999.2500   -999.2500   -999.2500     16.5518
    -5.5000   -999.2500   -999.2500   -999.2500     15.1473
    -5.2500   -999.2500   -999.2500   -999.2500     14.4875
    -5.0000   -999.2500   -999.2500   -999.2500     14.5236
    -4.7500   -999.2500   -999.2500   -999.2500     15.3009
    -4.5000   -999.2500   -999.2500   -999.2500     16.6406
    -4.2500   -999.2500   -999.2500   -999.2500     17.8228
    -4.0000   -999.2500   -999.2500   -999.2500     17.8659
    -3.7500   -999.2500   -999.2500   -999.2500     16.4201
    -3.5000   -999.2500   -999.2500   -999.2500     14.3057
    -3.2500   -999.2500   -999.2500   -999.2500     13.0344
    -3.0000   -999.2500   -999.2500   -999.2500     13.8092
    -2.7500   -999.2500    801.0000      2.2712     16.8092
    -2.5000   -999.2500    801.0000      2.3182     21.1700
    -2.2500   -999.2500    801.0000      2.4276     25.7698
    -2.0000   -999.2500    800.9716      2.6748     30.2870
    -1.7500   -999.2500    800.7815      3.1945     35.4868
    -1.5000   -999.2500    799.8139      4.1768     42.3591
    -1.2500   -999.2500    795.9661      5.8290     51.0344
    -1.0000   -999.2500    784.0419      8.2964     60.5328
    -0.7500   -999.2500    755.2863     11.5485     69.2898
    -0.5000   -999.2500    701.4164     15.2638     75.7293
    -0.2500   -999.2500    623.2750     18.8096     78.7145
     0.0000   -999.2500    536.0005     21.4240     78.1703
     0.2500   -999.2500    413.7260     22.2719     72.8239
     0.5000   -999.2500    390.1782     21.0966     72.0479
     0.7500   -999.2500    379.5634     19.9273     73.7229
     1.0000   -999.2500    371.5269     19.5569     77.1322
     1.2500   -999.2500    361.1367     20.3689     80.6887
     1.5000   -999.2500    348.2772     22.1675     82.7256
     1.7500   -999.2500    336.2990     24.2787     82.3956
     2.0000   -999.2500    330.2896     25.9549     80.0685
     2.2500   -999.2500    333.9833     26.8086     76.9473
     2.5000     -2.0000    346.6910     26.9153     74.3542
     2.7500     -2.0000    362.6243     26.5822     73.2176
     3.0000      0.0000    373.6074     26.0978     73.7619
     3.2500      0.0000    373.6411     25.6505     75.3651
     3.5000      0.0000    362.2853     25.3503     76.8257
     3.7500      0.0000    344.5118     25.2464     77.0904
     4.0000      0.0000    327.1483     25.3379     75.8893
     4.2500      0.0000    314.7116     25.6026     73.6462
     4.5000     -2.0000    307.8534     26.0269     70.8173
     4.7500      0.0000    304.8133     26.6058     67.4956
     5.0000      0.0000    303.6024     27.3139     63.6570
     5.2500      0.0000    303.0476     28.0839     59.5511
     5.5000      0.0000    302.7050     28.8330     55.7125
     5.7500      0.0000    302.4587     29.5151     52.6942
     6.0000      0.0000    302.2677     30.1317     50.7817
     6.2500      0.0000    302.0986     30.6821     49.7784
     6.5000      0.0000    301.9458     31.1205     49.0153
     6.7500      0.0000    301.8344     31.3793     47.8377
     7.0000      0.0000    301.7951     31.4258     46.2096
     7.2500      0.0000    301.8350     31.2743     44.6902
     7.5000      0.0000    301.9308     30.9451     43.7972
     7.7500      0.0000    302.0495     30.4310     43.5830
     8.0000      0.0000    302.1748     29.7174     43.7654
     8.2500      0.0000    302.3159     28.8276     43.9905
     8.5000      0.0000    302.4933     27.8391     43.9463
     8.7500      0.0000    302.7166     26.8535     43.4504
     9.0000      0.0000    302.9724     25.9470     42.5739
     9.2500      0.0000    303.2290     25.1407     41.6585
     9.5000      0.0000    303.4480     24.4186     41.1419
     9.7500      0.0000    303.5944     23.7714     41.2929
    10.0000      0.0000    303.6446     23.2194     42.0966
    10.2500      0.0000    303.5956     22.7936     43.3724
    10.5000      0.0000    303.4748     22.5021     44.8741
    10.7500      0.0000    303.3379     22.3167     46.3303
    11.0000      0.0000    303.2459     22.1897     47.7415
    11.2500      0.0000    303.2303     22.0826     49.7242
    11.5000      0.0000    303.2774     21.9876     53.2087
    11.7500      0.0000    303.3466     21.9254     58.4503
    12.0000      0.0000    303.4030     21.9199     64.3858
    12.2500      0.0000    303.4289     21.9743     69.2476
    12.5000      0.0000    303.4126     22.0679     71.9221
    12.7500      0.0000    303.3425     22.1664     72.6252
    13.0000      0.0000    303.2186     22.2304     72.3412
    13.2500      0.0000    303.0648     22.2285     71.8686
    13.5000      0.0000    302.9213     22.1559     71.4534
    13.7500      0.0000    302.8219     22.0426     71.0374
    14.0000      0.0000    302.7734     21.9342     70.5473
    14.2500      0.0000    302.7527     21.8609     69.9830
    14.5000      0.0000    302.7269     21.8165     69.5194
    14.7500      0.0000    302.6818     21.7652     69.5780
    15.0000      0.0000    302.6296     21.6741     70.4632
    15.2500      0.0000    302.5905     21.5412     71.8313
    15.5000      0.0000    302.5687     21.3947     72.9515
    15.7500      0.0000    302.5501     21.2713     73.7287
    16.0000      0.0000    302.5198     21.2002     75.0849
    16.2500      0.0000    302.4760     21.2005     78.0019
    16.5000      0.0000    302.4266     21.2834     82.3737
    16.7500      0.0000    302.3759     21.4499     87.0521
    17.0000      0.0000    302.3214     21.6898     90.8501
    17.2500      0.0000    302.2588     21.9841     93.2177
    17.5000      0.0000    302.1842     22.3145     94.0495
    17.7500      0.0000    302.0941     22.6705     93.3194
    18.0000      0.0000    301.9889     23.0467     91.1612
    18.2500      0.0000    301.8787     23.4298     88.2078
    18.5000      0.0000    301.7805     23.7927     85.6899
    18.7500      0.0000    301.7077     24.1079     85.0319
    19.0000      0.0000    301.6621     24.3686     87.0298
    19.2500      0.0000    301.6339     24.5927     91.2000
    19.5000      0.0000    301.6086     24.8050     95.9937
    19.7500      0.0000    301.5746     25.0169     99.7284
    20.0000      0.0000    301.5286     25.2217    101.3381
    20.2500      0.0000    301.4722     25.3950    100.5944
    20.5000      0.0000    301.4079     25.5027     98.1303
    20.7500      0.0000    301.3368     25.5226     95.3213
    21.0000      0.0000    301.2602     25.4656     93.7291
    21.2500      0.0000    301.1801     25.3704     94.2140
    21.5000      0.0000    301.0982     25.2745     96.2979
    21.7500      0.0000    301.0150     25.1946     98.4246
    22.0000      0.0000    300.9309     25.1344     99.2600
    22.2500      0.0000    300.8476     25.0988     99.0275
    22.5000      0.0000    300.7674     25.0962     99.3212
    22.7500      0.0000    300.6922     25.1299    101.3721
    23.0000      0.0000    300.6224     25.1887    104.6680
    23.2500      0.0000    300.5573     25.2458    107.3298
    23.5000      0.0000    300.4945     25.2669    107.7053
    23.7500      0.0000    300.4302     25.2238    105.7344
    24.0000      0.0000    300.3606     25.1029    103.0764
    24.2500      0.0000    300.2863     24.9042    101.8571
    24.5000      0.0000    300.2157     24.6388    102.9812
    24.7500      0.0000    300.1635     24.3304    105.4326
    25.0000      0.0000    300.1403     24.0137    107.2654
    25.2500      0.0000    300.1456     23.7176    107.3945
    25.5000      0.0000    300.1708     23.4442    106.3853
