~Version Information
VERS.                      2.0: CWLS Log ASCII Standard - VERSION 2.0
WRAP.                       NO: One line per depth step
~Well Information Block
STRT.FT               819.0000: 
STOP.FT              2497.0000: 
STEP.FT                 0.2500: 
NULL.                -999.2500: 
COMP.          Petrogulf Corporation: COMPANY
WELL.             State 16-21V: WELL
FLD.           Purgatorie River: FIELD
LOC.           1738' FWL & 332' FNL: LOCATION
PROV.                 Colorado: PROVINCE
CNTY.               Las Animas: COUNTRY
SRVC.          Patterson Wireline: SERVICE COMPANY
DATE.          Sun Jul 13 13:45:48 2003: LOG DATE
UWI.              05-071-07884: UNIQUE WELL ID 05 071 08829 00
~Curve Information Block
DEPT.FT            0 000 00 00: Depth
DCAL.in                       : CDL Caliper
RHOB.g/cc                     : CDL Bulk Density
RHOC.g/cc                     : CDL Density Correction
DPOR.pu                       : CDL Density Porosity
GR.GAPI                       : Gamma Ray
NPOR.pu                       : Neutron Porosity
~Parameter Information Block
~A  Depth       DCAL        RHOB        RHOC        DPOR         GR         NPOR    
# ...
  1179.0000      8.1822      2.5591      0.0674      5.5085    117.9589     27.9287
  1179.2500      8.1896      2.5569      0.0600      5.6421    118.8931     28.2188
  1179.5000      8.1907      2.5552      0.0542      5.7439    121.2777     28.7334
  1179.7500      8.1959      2.5573      0.0551      5.6186    123.1291     29.0183
  1180.0000      8.1924      2.5685      0.0615      4.9407    125.9438     29.2225
  1180.2500      8.1757      2.5826      0.0679      4.0858    127.6769     29.2267
  1180.5000      8.1584      2.6137      0.0799      2.1972    129.1201     29.1803
  1180.7500      8.1448      2.6394      0.0896      0.6417    128.5395     29.1797
  1181.0000      8.1341      2.6787      0.1016     -1.7370    124.9080     29.2001
  1181.2500      8.1271      2.7000      0.1015     -3.0324    121.2475     29.1418
  1181.5000      8.1266      2.7164      0.0801     -4.0215    115.8271     28.7629
  1181.7500      8.1376      2.7141      0.0543     -3.8826    113.4502     28.2642
  1182.0000      8.1630      2.6924      0.0171     -2.5706    113.1627     27.2816
  1182.2500      8.2018      2.6699      0.0038     -1.2063    115.2466     26.6670
  1182.5000      8.2379      2.6332      0.0029      1.0167    120.5133     26.1360
  1182.7500      8.2448      2.6116      0.0089      2.3245    124.3684     26.1074
  1183.0000      8.2440      2.5890      0.0183      3.6973    129.4475     26.4023
  1183.2500      8.2436      2.5819      0.0226      4.1298    132.2055     26.6741
  1183.5000      8.2315      2.5837      0.0264      4.0174    135.4212     27.0262
  1183.7500      8.2169      2.5929      0.0280      3.4582    136.7758     27.2018
  1184.0000      8.2080      2.6169      0.0298      2.0081    136.9343     27.3641
  1184.2500      8.2040      2.6375      0.0299      0.7575    135.3435     27.3582
  1184.5000      8.1935      2.6703      0.0267     -1.2287    130.0327     27.0585
  1184.7500      8.1814      2.6897      0.0213     -2.4045    124.8355     26.6515
  1185.0000      8.1853      2.7094      0.0097     -3.5981    116.2579     25.9286
  1185.2500      8.2027      2.7143      0.0020     -3.8941    111.5417     25.5752
  1185.5000      8.2094      2.7095     -0.0038     -3.6043    108.4212     25.4893
  1185.7500      8.1901      2.7004     -0.0018     -3.0561    109.5211     25.7203
  1186.0000      8.1575      2.6838      0.0097     -2.0468    114.5623     26.2868
  1186.2500      8.1506      2.6738      0.0210     -1.4434    118.4820     26.6860
  1186.5000      8.1672      2.6640      0.0390     -0.8475    122.6385     27.2188
  1186.7500      8.1828      2.6611      0.0496     -0.6756    123.6860     27.5062
  1187.0000      8.1952      2.6605      0.0622     -0.6372    123.2909     27.7730
  1187.2500      8.1910      2.6605      0.0687     -0.6345    122.6115     27.8306
  1187.5000      8.1626      2.6572      0.0750     -0.4385    122.4159     27.8709
  1187.7500      8.1358      2.6511      0.0766     -0.0688    123.1395     27.9942
  1188.0000      8.1326      2.6337      0.0777      0.9906    125.1241     28.4142
  1188.2500      8.1518      2.6151      0.0795      2.1133    126.7697     28.7860
  1188.5000      8.1836      2.5744      0.0833      4.5845    129.5616     29.3183
  1188.7500      8.2120      2.5369      0.0839      6.8528    131.3572     29.6246
  1189.0000      8.2386      2.4645      0.0778     11.2431    132.6703     30.0578
  1189.2500      8.2801      2.4071      0.0705     14.7221    131.8284     30.3574
  1189.5000      8.3507      2.3155      0.0625     20.2736    127.7785     30.8288
  1189.7500      8.4492      2.2580      0.0634     23.7581    123.9630     31.1446
  1190.0000      8.5421      2.1908      0.0754     27.8322    118.5792     31.5708
  1190.2500      8.5964      2.1653      0.0873     29.3727    116.1487     31.7666
  1190.5000      8.5696      2.1627      0.1039     29.5315    114.4640     31.7806
  1190.7500      8.4379      2.1846      0.1109     28.2055    113.9622     31.5083
  1191.0000      8.2800      2.2463      0.1128     24.4648    112.5673     30.5497
  1191.2500      8.1953      2.3000      0.1084     21.2125    110.7923     29.5146
  1191.5000      8.1626      2.3855      0.0945     16.0311    107.5368     27.4716
  1191.7500      8.1362      2.4385      0.0824     12.8197    105.6748     25.9855
  1192.0000      8.1134      2.5039      0.0641      8.8563    103.6130     24.1206
  1192.2500      8.0963      2.5369      0.0546      6.8571    102.2726     23.3965
  1192.5000      8.0872      2.5734      0.0478      4.6450     99.9030     23.1331
  1192.7500      8.0861      2.5921      0.0487      3.5111     98.4395     23.2370
  1193.0000      8.0848      2.6157      0.0546      2.0765     96.7690     23.1197
  1193.2500      8.0737      2.6292      0.0574      1.2600     95.2587     22.5470
  1193.5000      8.0553      2.6443      0.0539      0.3445     89.9569     20.8349
  1193.7500      8.0468      2.6495      0.0456      0.0284     83.4137     19.3030
  1194.0000      8.0453      2.6489      0.0295      0.0652     69.7551     16.9289
  1194.2500      8.0446      2.6436      0.0203      0.3871     59.7582     15.5606
  1194.5000      8.0482      2.6316      0.0127      1.1180     46.7858     14.0687
  1194.7500      8.0535      2.6232      0.0116      1.6257     40.6944     13.4809
  1195.0000      8.0559      2.6136      0.0142      2.2081     35.3482     13.1907
  1195.2500      8.0548      2.6103      0.0181      2.4091     33.4057     13.3422
  1195.5000      8.0469      2.6100      0.0261      2.4267     31.2634     13.8441
  1195.7500      8.0421      2.6120      0.0324      2.3048     29.8552     14.1253
  1196.0000      8.0406      2.6158      0.0425      2.0752     27.7872     14.1296
  1196.2500      8.0355      2.6172      0.0492      1.9854     26.6671     13.8469
  1196.5000      8.0288      2.6160      0.0576      2.0633     25.7339     13.2733
  1196.7500      8.0238      2.6124      0.0610      2.2780     25.7559     12.9499
  1197.0000      8.0191      2.6040      0.0632      2.7875     26.9120     12.5865
  1197.2500      8.0235      2.5975      0.0637      3.1799     28.4038     12.3402
  1197.5000      8.0314      2.5887      0.0646      3.7144     31.4232     11.8487
  1197.7500      8.0330      2.5842      0.0652      3.9868     33.7280     11.4548
  1198.0000      8.0333      2.5794      0.0655      4.2793     37.3454     10.9163
  1198.2500      8.0363      2.5766      0.0643      4.4508     39.7565     10.7298
  1198.5000      8.0409      2.5710      0.0583      4.7877     43.2495     10.9981
  1198.7500      8.0437      2.5658      0.0513      5.1014     45.5599     11.7174
  1199.0000      8.0450      2.5566      0.0417      5.6609     49.7203     13.8288
  1199.2500      8.0504      2.5508      0.0410      6.0117     53.7843     15.9056
  1199.5000      8.0546      2.5455      0.0535      6.3359     63.1789     19.5944
  1199.7500      8.0493      2.5454      0.0676      6.3395     71.7565     22.0504
  1200.0000      8.0482      2.5517      0.0856      5.9592     86.7197     25.2130
  1200.2500      8.0626      2.5602      0.0908      5.4447     96.7406     26.8394
  1200.5000      8.0839      2.5785      0.0890      4.3346    109.3033     28.5006
  1200.7500      8.0884      2.5931      0.0841      3.4489    114.7137     29.1105
  1201.0000      8.0829      2.6145      0.0741      2.1488    117.2431     29.4215
  1201.2500      8.0834      2.6253      0.0663      1.4948    115.6501     29.3585
  1201.5000      8.0918      2.6311      0.0585      1.1465    110.8562     29.0871
  1201.7500      8.0972      2.6263      0.0622      1.4371    107.9328     28.8934
  1202.0000      8.0747      2.6068      0.0875      2.6159    106.4926     28.7038
  1202.2500      8.0433      2.5878      0.1127      3.7667    108.0050     28.6799
  1202.5000      8.0537      2.5553      0.1442      5.7392    112.9514     28.8002
  1202.7500      8.0905      2.5337      0.1526      7.0510    116.7913     28.9610
