~Version Information
VERS.                      2.0: CWLS Log ASCII Standard - VERSION 2.0
WRAP.                       NO: One line per depth step
~Well Information Block
STRT.FT               236.5000: 
STOP.FT              2818.2500: 
STEP.FT                 0.2500: 
NULL.                -999.2500: 
COMP.          Pioneer Natural Resources: COMPANY
WELL.            Sebring 42-29: WELL
FLD.           Purgatorie River: FIELD
LOC.           1751' FNL & 584' FEL--: LOCATION
PROV.                       CO: PROVINCE
CNTY.               Las Animas: COUNTRY
SRVC.          Patterson Wireline: SERVICE COMPANY
DATE.          Fri Aug 26 09:14:13 2005: LOG DATE
UWI.           05 071 08293 00: UNIQUE WELL ID
~Curve Information Block
DEPT.FT            0 000 00 00: Depth
CCL.                          : Casing Collar Locator
TT3.usec                      : CBL 3' Travel Time
AMP3.mV                       : CBL 3' Amplitude
GR.GAPI                       : Gamma Ray
~Parameter Information Block
~A  Depth       CCL         TT3         AMP3         GR     
# ...
   404.0000      0.0000   1100.5939      5.7769     48.8742
   404.2500      0.0000   1118.4037      5.7680     51.2990
   404.5000      0.0000   1120.5846      5.7592     51.8638
   404.7500      0.0000   1107.6509      5.7478     49.6152
   405.0000      0.0000   1084.3158      5.7324     45.3056
   405.2500      0.0000   1056.3425      5.7158     40.8456
   405.5000      0.0000   1028.7054      5.7019     37.6833
   405.7500      0.0000   1006.1683      5.6895     35.9663
   406.0000      0.0000    993.5845      5.6726     35.1614
   406.2500      0.0000    992.2753      5.6469     34.9399
   406.5000      0.0000    996.2206      5.6141     35.2386
   406.7500      0.0000    995.6907      5.5801     35.9534
   407.0000      0.0000    986.5258      5.5478     37.0328
   407.2500      0.0000    974.7803      5.5164     38.5853
   407.5000      0.0000    972.1447      5.4892     40.5200
   407.7500      0.0000    987.4118      5.4797     42.3473
   408.0000      0.0000   1020.4761      5.5012     43.6326
   408.2500      0.0000   1061.8693      5.5508     44.3992
   408.5000      0.0000   1098.2944      5.6070     44.7820
   408.7500      0.0000   1120.0226      5.6448     44.5177
   409.0000      0.0000   1124.5712      5.6500     43.2012
   409.2500      0.0000   1116.1499      5.6232     41.0537
   409.5000      0.0000   1103.3466      5.5773     39.1296
   409.7500      0.0000   1094.3851      5.5337     38.5757
   410.0000      0.0000   1089.7133      5.5113     39.6803
   410.2500      0.0000   1079.2413      5.5171     41.7116
   410.5000      0.0000   1051.0044      5.5428     43.6954
   410.7500      0.0000   1004.8663      5.5710     45.2407
   411.0000      0.0000    956.4385      5.5846     46.5279
   411.2500      0.0000    925.5726      5.5731     47.6517
   411.5000      0.0000    919.9333      5.5389     48.2994
   411.7500      0.0000    929.1783      5.4960     48.2138
   412.0000      0.0000    934.6766      5.4602     47.7447
   412.2500      0.0000    925.5460      5.4383     47.7610
   412.5000      0.0000    906.1269      5.4297     49.1304
   412.7500      0.0000    889.9018      5.4313     52.2915
   413.0000      0.0000    889.5612      5.4391     57.0268
   413.2500      0.0000    911.9924      5.4467     62.3389
   413.5000      0.0000    956.0050      5.4485     66.6759
   413.7500      0.0000   1010.4810      5.4443     68.7525
   414.0000      0.0000   1058.1704      5.4377     68.4436
   414.2500      0.0000   1086.8396      5.4294     66.7347
   414.5000      0.0000   1097.4460      5.4153     64.6892
   414.7500      0.0000   1099.8923      5.3924     62.6037
   415.0000      0.0000   1100.8268      5.3634     60.1124
   415.2500      0.0000   1097.3538      5.3344     56.7773
   415.5000      0.0000   1083.1256      5.3113     52.4728
   415.7500      0.0000   1058.3669      5.2989     47.5212
   416.0000      0.0000   1031.0442      5.2995     42.7416
   416.2500      0.0000   1008.5983      5.3104     39.2121
   416.5000      0.0000    991.6542      5.3237     37.7012
   416.7500      0.0000    976.7852      5.3317     38.2667
   417.0000      0.0000    962.8497      5.3353     40.2739
   417.2500      0.0000    953.2759      5.3439     42.5499
   417.5000      0.0000    952.4778      5.3689     43.7417
   417.7500      0.0000    959.1268      5.4123     43.1304
   418.0000      0.0000    963.6367      5.4631     41.2025
   418.2500      0.0000    956.3536      5.5058     39.1021
   418.5000      0.0000    939.5110      5.5316     37.6489
   418.7500      0.0000    926.6520      5.5448     37.1424
   419.0000      0.0000    927.7783      5.5560     37.7301
   419.2500      0.0000    937.5451      5.5705     39.5004
   419.5000      0.0000    939.5155      5.5817     42.4206
   419.7500      0.0000    921.3340      5.5756     46.4324
   420.0000      0.0000    886.2832      5.5414     51.2806
   420.2500      0.0000    850.8448      5.4774     56.1137
   420.5000      0.0000    829.9891      5.3885     59.7553
   420.7500      0.0000    823.4800      5.2784     61.6507
   421.0000      0.0000    817.4265      5.1457     62.2713
   421.2500      0.0000    799.6785      4.9880     62.4149
   421.5000      0.0000    771.0688      4.8085     62.2660
   421.7500      0.0000    741.0630      4.6176     61.3492
   422.0000      0.0000    717.1520      4.4276     59.4346
   422.2500      0.0000    701.1685      4.2467     57.2667
   422.5000      0.0000    692.1251      4.0819     56.0922
   422.7500      0.0000    688.4547      3.9414     56.4366
   423.0000      0.0000    688.0389      3.8333     57.6101
   423.2500      0.0000    688.8516      3.7612     58.5087
   423.5000      0.0000    691.4465      3.7220     58.6669
   423.7500      0.0000    701.4574      3.7074     58.4308
   424.0000      0.0000    729.2206      3.7084     58.2597
   424.2500      0.0000    783.9967      3.7204     58.0147
   424.5000      0.0000    864.1204      3.7441     57.0806
   424.7500      0.0000    951.0172      3.7778     55.3245
   425.0000      0.0000   1015.4031      3.8124     53.7034
   425.2500      0.0000   1032.6683      3.8359     53.7072
   425.5000      0.0000    995.7248      3.8442     56.1700
   425.7500      0.0000    918.2137      3.8427     60.4589
   426.0000      0.0000    827.8128      3.8410     64.6213
   426.2500      0.0000    752.1639      3.8457     66.5576
   426.5000      0.0000    705.2883      3.8596     65.5075
   426.7500      0.0000    685.0624      3.8832     62.5880
   427.0000      0.0000    682.3115      3.9163     59.8370
   427.2500      0.0000    691.2198      3.9571     58.5975
   427.5000      0.0000    711.9985      4.0035     58.5721
   427.7500      0.0000    745.7548      4.0532     58.2640
   428.0000      0.0000    788.9296      4.1043     56.4302
   428.2500      0.0000    835.5406      4.1556     53.2052
   428.5000      0.0000    884.8947      4.2086     49.8338
   428.7500      0.0000    941.6075      4.2661     47.4506
   429.0000      0.0000   1005.1583      4.3289     46.0665
   429.2500      0.0000   1064.7445      4.3960     44.6292
   429.5000      0.0000   1107.7389      4.4701     42.2482
   429.7500      0.0000   1128.8722      4.5568     39.5344
   430.0000      0.0000   1128.4785      4.6521     38.3322
   430.2500      0.0000   1105.9231      4.7329     39.7898
   430.5000      0.0000   1060.3066      4.7708     43.0074
   430.7500      0.0000    999.8912      4.7620     45.9100
   431.0000      0.0000    947.5106      4.7351     47.1393
   431.2500      0.0000    929.1982      4.7182     46.8165
   431.5000      0.0000    952.6857      4.7079     45.9182
   431.7500      0.0000    999.7565      4.6872     45.3657
   432.0000      0.0000   1043.1394      4.6604     45.5424
   432.2500      0.0000   1068.9780      4.6486     46.3589
   432.5000     -2.0000   1080.5232      4.6598     47.5348
   432.7500      2.0000   1082.8931      4.6806     48.5612
   433.0000      0.0000   1070.2434      4.6994     48.6416
   433.2500      0.0000   1030.7742      4.7370     47.3850
   433.5000      0.0000    963.2206      4.8529     45.6680
   433.7500      0.0000    885.9319      5.0987     45.2408
   434.0000      0.0000    827.6915      5.4408     47.1515
   434.2500      0.0000    808.5637      5.7475     50.7385
   434.5000      0.0000    827.6655      5.8913     54.3007
   434.7500      0.0000    865.1552      5.8587     56.6444
   435.0000      0.0000    894.7767      5.7399     57.8768
   435.2500      0.0000    901.3029      5.6318     58.8977
   435.5000      0.0000    891.2960      5.5756     60.3977
   435.7500      0.0000    883.4647      5.5639     62.2043
   436.0000      0.0000    885.8272      5.5719     63.4318
   436.2500      0.0000    887.4380      5.5773     63.5046
   436.5000      0.0000    874.2603      5.5695     63.0571
   436.7500      0.0000    845.6571      5.5502     63.4667
   437.0000      0.0000    811.0977      5.5269     65.6234
   437.2500      0.0000    777.4607      5.5047     69.5672
