~Version Information
VERS.                      2.0: CWLS Log ASCII Standard - VERSION 2.0
WRAP.                       NO: One line per depth step
~Well Information Block
STRT.FT               770.0000: 
STOP.FT              1997.7000: 
STEP.FT                 0.1000: 
NULL.                -999.2500: 
COMP.          Pioneer Natural Resources: COMPANY
WELL.          Titan Federal 34-17: WELL
FLD.           Purgatoire River: FIELD
LOC.           321' FSL & 1911' FEL--: LOCATION
STAT.                 Colorado: State
CNTY.               Las Animas: COUNTY
CTRY. USA : Country
SECT. 17 : Section
TOWN. 32S : Township
RANG. 65W : Range
SRVC.                Patterson: SERVICE COMPANY
DATE.          Thu Oct 06 15:09:27 2005: LOG DATE
API.           05 071 08272 00: UNIQUE WELL ID
~Curve Information Block
DEPT.FT            0 000 00 00: Depth
DCAL.in                       : CDL Caliper
RHOB.g/cc                     : CDL Bulk Density
RHOC.g/cc                     : CDL Density Correction
DPOR.pu                       : CDL Density Porosity
NPOR.pu                       : Neutron Porosity
GR.GAPI                       : Gamma Ray
~Parameter Information Block
~A  Depth       DCAL        RHOB        RHOC        DPOR        NPOR         GR     
# ...
  1970.0000      7.8529      2.3673      0.0329     17.1352     20.7056   -999.2500
  1970.1000      7.8529      2.3714      0.0286     16.8853     20.4295   -999.2500
  1970.2000      7.8529      2.3763      0.0227     16.5898     20.3473   -999.2500
  1970.3000      7.8524      2.3836      0.0268     16.1479     20.0953   -999.2500
  1970.4000      7.8524      2.3896      0.0602     15.7799     19.7624   -999.2500
  1970.5000      7.8533      2.3879      0.0474     15.8827     19.4772   -999.2500
  1970.6000      7.8533      2.3787      0.0408     16.4428     19.0803   -999.2500
  1970.7000      7.8533      2.3743      0.0306     16.7113     18.6632   -999.2500
  1970.8000      7.8539      2.3842      0.0529     16.1067     18.9447   -999.2500
  1970.9000      7.8539      2.3947      0.0747     15.4738     21.6574   -999.2500
  1971.0000      7.8542      2.3939      0.0426     15.5217     29.3250   -999.2500
  1971.1000      7.8542      2.3953      0.0363     15.4338     40.4690   -999.2500
  1971.2000      7.8542      2.4076      0.0547     14.6902     48.3198   -999.2500
  1971.3000      7.8564      2.4196      0.0811     13.9616     51.1430   -999.2500
  1971.4000      7.8564      2.4255      0.0373     13.6041     51.6967   -999.2500
  1971.5000      7.8568      2.4301      0.0407     13.3257     51.7554   -999.2500
  1971.6000      7.8568      2.4287      0.0608     13.4101     51.7587   -999.2500
  1971.7000      7.8568      2.4191      0.0297     13.9933   -999.2500   -999.2500
  1971.8000      7.8551      2.4169      0.0296     14.1267   -999.2500   -999.2500
  1971.9000      7.8551      2.4332      0.0605     13.1397   -999.2500   -999.2500
  1972.0000      7.8544      2.4577      0.0714     11.6530   -999.2500   -999.2500
  1972.1000      7.8544      2.4747      0.0657     10.6227   -999.2500   -999.2500
  1972.2000      7.8544      2.4804      0.0696     10.2810   -999.2500   -999.2500
  1972.3000      7.8537      2.4771      0.0825     10.4774   -999.2500   -999.2500
  1972.4000      7.8537      2.4671      0.0526     11.0820   -999.2500   -999.2500
  1972.5000      7.8534      2.4573      0.0226     11.6802   -999.2500   -999.2500
  1972.6000      7.8534      2.4534      0.0474     11.9121   -999.2500   -999.2500
  1972.7000      7.8534      2.4518      0.0664     12.0135   -999.2500   -999.2500
  1972.8000      7.8530      2.4454      0.0517     12.3987   -999.2500   -999.2500
  1972.9000      7.8530      2.4352      0.0495     13.0206   -999.2500   -999.2500
  1973.0000      7.8519      2.4276      0.0126     13.4791   -999.2500   -999.2500
  1973.1000      7.8519      2.4201      0.0505     13.9316   -999.2500   -999.2500
  1973.2000      7.8519      2.4030      0.0278     14.9698   -999.2500   -999.2500
  1973.3000      7.8521      2.3844     -0.0055     16.0948   -999.2500   -999.2500
  1973.4000      7.8521      2.3850      0.0065     16.0583   -999.2500   -999.2500
  1973.5000      7.8530      2.4067      0.0329     14.7447   -999.2500   -999.2500
  1973.6000      7.8530      2.4328      0.0379     13.1611   -999.2500   -999.2500
  1973.7000      7.8530      2.4533      0.0466     11.9201   -999.2500   -999.2500
  1973.8000      7.8545      2.4674      0.0360     11.0690   -999.2500   -999.2500
  1973.9000      7.8545      2.4714      0.0701     10.8243   -999.2500   -999.2500
  1974.0000      7.8552      2.4628      0.0625     11.3482   -999.2500   -999.2500
  1974.1000      7.8552      2.4490      0.0381     12.1837   -999.2500   -999.2500
  1974.2000      7.8552      2.4373      0.0459     12.8908   -999.2500   -999.2500
  1974.3000      7.8560      2.4293      0.0171     13.3743   -999.2500   -999.2500
  1974.4000      7.8560      2.4280      0.0324     13.4523   -999.2500   -999.2500
  1974.5000      7.8568      2.4333      0.0501     13.1342   -999.2500   -999.2500
  1974.6000      7.8568      2.4449      0.0442     12.4317   -999.2500   -999.2500
  1974.7000      7.8568      2.4659      0.0339     11.1605   -999.2500   -999.2500
  1974.8000      7.8530      2.4944      0.0374      9.4279   -999.2500   -999.2500
  1974.9000      7.8530      2.5214      0.0779      7.7964   -999.2500   -999.2500
  1975.0000      7.8385      2.5344      0.0615      7.0043   -999.2500   -999.2500
  1975.1000      7.8385      2.5321      0.0882      7.1460   -999.2500   -999.2500
  1975.2000      7.8385      2.5261      0.0494      7.5116   -999.2500   -999.2500
  1975.3000      7.8097      2.5338      0.0326      7.0431   -999.2500   -999.2500
  1975.4000      7.8097      2.5607      0.0834      5.4121   -999.2500   -999.2500
  1975.5000      7.7713      2.5899      0.0784      3.6433   -999.2500   -999.2500
  1975.6000      7.7713      2.6041      0.0936      2.7800   -999.2500   -999.2500
  1975.7000      7.7713      2.6030      0.0599      2.8455   -999.2500   -999.2500
  1975.8000      7.7389      2.5941      0.0507      3.3886   -999.2500   -999.2500
  1975.9000      7.7389      2.5853      0.0276      3.9196   -999.2500   -999.2500
  1976.0000      7.7258      2.5830      0.0404      4.0601   -999.2500   -999.2500
  1976.1000      7.7258      2.5839      0.0654      4.0032   -999.2500   -999.2500
  1976.2000      7.7258      2.5803      0.0471      4.2235   -999.2500   -999.2500
  1976.3000      7.7239      2.5727      0.0601      4.6862   -999.2500   -999.2500
  1976.4000      7.7239      2.5735      0.0238      4.6382   -999.2500   -999.2500
  1976.5000      7.7228      2.5908      0.0459      3.5865   -999.2500   -999.2500
  1976.6000      7.7228      2.6181      0.0428      1.9320   -999.2500   -999.2500
  1976.7000      7.7228      2.6485      0.0792      0.0913   -999.2500   -999.2500
  1976.8000      7.7199      2.6723      0.0938     -1.3494   -999.2500   -999.2500
  1976.9000      7.7199      2.6711      0.0953     -1.2789   -999.2500   -999.2500
  1977.0000      7.7087      2.6420      0.0464      0.4836   -999.2500   -999.2500
  1977.1000      7.7087      2.6055      0.0452      2.6945   -999.2500   -999.2500
  1977.2000      7.7087      2.5766      0.0189      4.4481   -999.2500   -999.2500
  1977.3000      7.6881      2.5618     -0.0008      5.3427   -999.2500   -999.2500
  1977.4000      7.6881      2.5623      0.0247      5.3161   -999.2500   -999.2500
  1977.5000      7.6739      2.5612      0.0358      5.3812   -999.2500   -999.2500
  1977.6000      7.6739      2.5484     -0.0047      6.1566   -999.2500   -999.2500
  1977.7000      7.6739      2.5283      0.0191      7.3765   -999.2500   -999.2500
  1977.8000      7.6689      2.5048      0.0109      8.7991   -999.2500   -999.2500
  1977.9000      7.6689      2.4885      0.0219      9.7881   -999.2500   -999.2500
  1978.0000      7.6664      2.4837      0.0295     10.0770   -999.2500   -999.2500
  1978.1000      7.6664      2.4843      0.0187     10.0396   -999.2500   -999.2500
  1978.2000      7.6664      2.4880      0.0585      9.8152   -999.2500   -999.2500
  1978.3000      7.6613      2.4959      0.0731      9.3411   -999.2500   -999.2500
  1978.4000      7.6613      2.5219      0.0644      7.7610   -999.2500   -999.2500
  1978.5000      7.6183      2.5972      0.0751      3.2002   -999.2500   -999.2500
  1978.6000      7.6183      2.6083      0.0839      2.5277   -999.2500   -999.2500
  1978.7000      7.6183      2.1651      0.5633     29.3882   -999.2500   -999.2500
  1978.8000      7.2314      1.2225      0.0550     86.5164   -999.2500   -999.2500
  1978.9000      7.2314      0.4131      0.0550    135.5673   -999.2500   -999.2500
  1979.0000      5.6417      0.0783   -999.2500    155.8603   -999.2500   -999.2500
  1979.1000      5.6417      0.0081   -999.2500    160.1174   -999.2500   -999.2500
  1979.2000      5.6417      0.0004   -999.2500    160.5796   -999.2500   -999.2500
  1979.3000      3.0960      0.0000   -999.2500    160.6061   -999.2500   -999.2500
  1979.4000      3.0960      0.0000   -999.2500    160.6061   -999.2500   -999.2500
  1979.5000      1.5678   -999.2500   -999.2500   -999.2500   -999.2500   -999.2500
