~Version Information
VERS.                      2.0: CWLS Log ASCII Standard - VERSION 2.0
WRAP.                       NO: One line per depth step
~Well Information Block
STRT.FT               582.2500: 
STOP.FT              2642.5000: 
STEP.FT                 0.2500: 
NULL.                -999.2500: 
COMP.          Petrogulf Corporation: COMPANY
WELL.           Montoya 12-41V: WELL
FLD.           Purgatorie River: FIELD
LOC.           1081' FNL & 605' FEL: LOCATION
CNTY.               Las Animas: COUNTY
SRVC.                         : SERVICE COMPANY
DATE.          Tue Aug 10 10:59:28 2004: LOG DATE
UWI.           05 071 08094 00: UNIQUE WELL ID
STAT.                 Colorado: STATE
~Curve Information Block
DEPT.FT            0 000 00 00: Depth
SP.mV                         : DIL Spontaneous Potential
RILD.Ohm-m                    : DIL Deep Resistivity
RILM.Ohm-m                    : DIL Medium Resistivity
RLL3.Ohm-m                    : DIL Shallow Resistivity
GR.GAPI                       : Gamma Ray
~Parameter Information Block
~A  Depth        SP         RILD        RILM        RLL3         GR     
# ...
  2626.2500     -6.7931     55.2494     22.5067     26.1358   -999.2500
  2626.5000     -5.1307     90.8061     21.8214     26.3294   -999.2500
  2626.7500     -3.6884    203.7918     21.0405     26.1889   -999.2500
  2627.0000     -2.5053   4430.1216     20.2385     25.6528   -999.2500
  2627.2500     -1.5989 100000.0000     19.4896     24.7058   -999.2500
  2627.5000     -0.9539 100000.0000     18.8566     23.4050   -999.2500
  2627.7500     -0.5306 100000.0000     18.3887     21.9009   -999.2500
  2628.0000     -0.2740 100000.0000     18.1259     20.4299   -999.2500
  2628.2500     -0.1312 100000.0000     18.1064     19.2627   -999.2500
  2628.5000     -0.0584 100000.0000     18.3763     18.6179   -999.2500
  2628.7500     -0.0240 100000.0000     19.0004     18.5700   -999.2500
  2629.0000     -0.0090 100000.0000     20.0726     18.9952   -999.2500
  2629.2500     -0.0031   1098.2943     21.7316     19.5887   -999.2500
  2629.5000     -0.0009   2023.1323     24.1796     19.9601   -999.2500
  2629.7500   -999.2500   7546.4707     27.7105     19.7761   -999.2500
  2630.0000   -999.2500 100000.0000     32.7476     18.8899   -999.2500
  2630.2500   -999.2500 100000.0000     39.8853     17.4005   -999.2500
  2630.5000   -999.2500 100000.0000     49.9107     15.6145   -999.2500
  2630.7500   -999.2500 100000.0000     63.7436     13.9395   -999.2500
  2631.0000   -999.2500 100000.0000     82.1610     12.7611   -999.2500
  2631.2500   -999.2500 100000.0000    104.7767     12.3534   -999.2500
  2631.5000   -999.2500 100000.0000    131.2508     12.8378   -999.2500
  2631.7500   -999.2500 100000.0000    156.9993     14.1811   -999.2500
  2632.0000   -999.2500 100000.0000    178.5690     16.2197   -999.2500
  2632.2500   -999.2500 100000.0000    193.7371     18.7051   -999.2500
  2632.5000   -999.2500 100000.0000    202.7418     21.3663   -999.2500
  2632.7500   -999.2500 100000.0000    207.3790     23.9682   -999.2500
  2633.0000   -999.2500 100000.0000    209.6137     26.3353   -999.2500
  2633.2500   -999.2500 100000.0000    210.9337     28.3269   -999.2500
  2633.5000   -999.2500 100000.0000    212.2683     29.7832   -999.2500
  2633.7500   -999.2500 100000.0000    214.1613     30.4944   -999.2500
  2634.0000   -999.2500 100000.0000   1007.2572     30.2350   -999.2500
  2634.2500   -999.2500 100000.0000   1091.7074     28.8610   -999.2500
  2634.5000   -999.2500 100000.0000   1216.6721     26.4139   -999.2500
  2634.7500   -999.2500 100000.0000   1397.7428     23.1643   -999.2500
  2635.0000   -999.2500 100000.0000   1657.8674     19.5591   -999.2500
  2635.2500   -999.2500 100000.0000   2030.3380     16.0978   -999.2500
  2635.5000   -999.2500 100000.0000   2561.6418     13.2017   -999.2500
  2635.7500   -999.2500   -999.2500   3311.5205     11.1334   -999.2500
  2636.0000   -999.2500   -999.2500   4343.1489      9.9854   -999.2500
  2636.2500   -999.2500   -999.2500   5693.3486      9.7181   -999.2500
  2636.5000   -999.2500   -999.2500   7318.2505     10.2127   -999.2500
  2636.7500   -999.2500   -999.2500   9049.4395     11.3244   -999.2500
  2637.0000   -999.2500   -999.2500  10631.4678     12.9174   -999.2500
  2637.2500   -999.2500   -999.2500  11855.4785     14.8786   -999.2500
  2637.5000   -999.2500   -999.2500  12662.7676     17.0935   -999.2500
  2637.7500   -999.2500   -999.2500  13128.2646     19.3889   -999.2500
  2638.0000   -999.2500   -999.2500  13368.6104     21.4736   -999.2500
  2638.2500   -999.2500   -999.2500  13482.1895     22.9306   -999.2500
  2638.5000   -999.2500   -999.2500  13531.6211     23.2993   -999.2500
  2638.7500   -999.2500   -999.2500  13551.9316     22.2317   -999.2500
  2639.0000   -999.2500   -999.2500 100000.0000     19.6542   -999.2500
  2639.2500   -999.2500   -999.2500 100000.0000     15.8442   -999.2500
  2639.5000   -999.2500   -999.2500 100000.0000     11.3676   -999.2500
  2639.7500   -999.2500   -999.2500 100000.0000      6.8988   -999.2500
  2640.0000   -999.2500   -999.2500 100000.0000      3.0085   -999.2500
  2640.2500   -999.2500   -999.2500 100000.0000      0.0187   -999.2500
  2640.5000   -999.2500   -999.2500 100000.0000     -2.0225   -999.2500
  2640.7500   -999.2500   -999.2500 100000.0000     -3.2646   -999.2500
  2641.0000   -999.2500   -999.2500 100000.0000     -3.9396   -999.2500
  2641.2500   -999.2500   -999.2500 100000.0000     -4.2676   -999.2500
  2641.5000   -999.2500   -999.2500   -999.2500     -4.4102   -999.2500
  2641.7500   -999.2500   -999.2500   -999.2500     -4.4656   -999.2500
  2642.0000   -999.2500   -999.2500   -999.2500     -4.4849   -999.2500
  2642.2500   -999.2500   -999.2500   -999.2500     -4.4909   -999.2500
  2642.5000   -999.2500   -999.2500   -999.2500   -999.2500   -999.2500
