~Version Information
VERS.                      2.0: CWLS Log ASCII Standard - VERSION 2.0
WRAP.                       NO: One line per depth step
~Well Information Block
STRT.FT                 3.5000: 
STOP.FT              1971.5000: 
STEP.FT                 0.2500: 
NULL.                -999.2500: 
COMP.          Evergreen Operating Corporation: COMPANY
WELL.          McCullough 34-32 Tr: WELL
FLD.           Purgatorie River: FIELD
LOC.           394' FSL & 2077' FEL: LOCATION
PROV.                 Colorado: PROVINCE
CNTY.               Las Animas: COUNTRY
SRVC.                         : SERVICE COMPANY
DATE.          Fri Sep 24 11:00:22 2004: LOG DATE
UWI.           05 071 08157 00: UNIQUE WELL ID
~Curve Information Block
DEPT.FT            0 000 00 00: Depth
GR.GAPI                       : Gamma Ray
CCL.                          : Casing Collar Locator
TT3.usec                      : CBL 3' Travel Time
AMP3.mV                       : CBL 3' Amplitude
~Parameter Information Block
~A  Depth        GR         CCL         TT3         AMP3    
# ...
   137.5000     60.3573      0.0000    760.1921     15.1785
   137.7500     67.8215      0.0000    754.7853     15.3861
   138.0000     73.2165      0.0000    746.4672     15.5346
   138.2500     76.5217      0.0000    737.0853     15.4813
   138.5000     78.1315      0.0000    728.8379     15.1696
   138.7500     78.5006      0.0000    721.5994     14.6960
   139.0000     77.9111      0.0000    710.8060     14.2411
   139.2500     76.6377      0.0000    689.3049     13.9537
   139.5000     75.4441      0.0000    654.3283     13.8969
   139.7500     75.5894      0.0000    614.8018     14.0615
   140.0000     77.9498      0.0000    589.8967     14.4002
   140.2500     82.1411      0.0000    595.5134     14.8437
   140.5000     86.6581      0.0000    630.3922     15.2867
   140.7500     89.9346      0.0000    677.4695     15.5860
   141.0000     91.3721      0.0000    718.4920     15.6318
   141.2500     91.3945      0.0000    745.2585     15.4457
   141.5000     90.4857      0.0000    759.1601     15.1787
   141.7500     88.4235      0.0000    765.0866     14.9963
   142.0000     84.7946      0.0000    767.1491     14.9693
   142.2500     80.0879      0.0000    767.6024     15.0521
   142.5000     75.7785      0.0000    767.2521     15.1336
   142.7500     73.3026      0.0000    766.1460     15.1228
   143.0000     73.1419      0.0000    764.2234     15.0093
   143.2500     74.7434      0.0000    761.8256     14.8297
   143.5000     77.0932      0.0000    759.7527     14.5848
   143.7500     79.3645      0.0000    758.6205     14.2397
   144.0000     81.0301      0.0000    758.2885     13.8081
   144.2500     81.5414      0.0000    758.2567     13.3818
   144.5000     80.4077      0.0000    758.5328     13.0604
   144.7500     77.8298      0.0000    759.6146     12.8846
   145.0000     74.8526      0.0000    761.5587     12.8371
   145.2500     72.5731      0.0000    763.4448     12.8728
   145.5000     71.4758      0.0000    763.7818     12.9412
   145.7500     71.6160      0.0000    761.2433     13.0066
   146.0000     72.8913      0.0000    755.4510     13.0629
   146.2500     74.8706      0.0000    747.8140     13.1351
   146.5000     76.7549      0.0000    741.3554     13.2468
   146.7500     77.8446      0.0000    738.6733     13.3670
   147.0000     77.9966      0.0000    739.9254     13.4006
   147.2500     77.4919      0.0000    743.4803     13.2693
   147.5000     76.4126      0.0000    748.1094     12.9972
   147.7500     74.3714      0.0000    753.4625     12.6877
   148.0000     71.1255      0.0000    758.9181     12.4179
   148.2500     67.3158      0.0000    763.3551     12.1942
   148.5000     64.3240      0.0000    766.1042     12.0142
   148.7500     63.4700      0.0000    767.3910     11.9379
   149.0000     65.2448      0.0000    767.8472     12.0675
   149.2500     68.8232      0.0000    767.9699     12.4575
   149.5000     72.1941      0.0000    767.9954     13.0470
   149.7500     73.3293      0.0000    768.0000     13.6852
   150.0000     71.8162      0.0000    768.0000     14.2305
   150.2500     69.4696      0.0000    768.0000     14.6313
   150.5000     69.1197      0.0000    768.0000     14.9187
   150.7500     72.4936      0.0000    768.0000     15.1356
   151.0000     79.0329      0.0000    768.0000     15.2855
   151.2500     86.4846      0.0000    768.0000     15.3443
   151.5000     92.4644      0.0000    768.0000     15.3083
   151.7500     95.7186      0.0000    768.0000     15.2146
   152.0000     96.4908      0.0000    768.0000     15.1105
   152.2500     96.0251      0.0000    768.0000     15.0120
   152.5000     95.6681      0.0000    768.0000     14.8979
   152.7500     96.1836      0.0000    768.0000     14.7492
   153.0000     97.5437      0.0000    768.0000     14.5866
   153.2500     99.1623      0.0000    768.0000     14.4530
   153.5000    100.3946      0.0000    768.0000     14.3596
   153.7500    100.8641      0.0000    768.0000     14.2778
   154.0000    100.3795      0.0000    768.0000     14.1971
   154.2500     98.8766      0.0000    768.0000     14.1572
   154.5000     96.6435      0.0000    768.0000     14.1955
   154.7500     94.2227      0.0000    768.0000     14.2839
   155.0000     91.7918      0.0000    768.0000     14.3450
   155.2500     89.0671      0.0000    768.0000     14.3252
   155.5000     86.1157      0.0000    768.0000     14.2358
   155.7500     83.6887      0.0000    768.0000     14.1202
   156.0000     82.2866      0.0000    768.0000     13.9942
   156.2500     81.2236      0.0000    768.0000     13.8306
   156.5000     79.1739      0.0000    768.0000     13.5992
   156.7500     75.7003      0.0000    768.0000     13.3093
   157.0000     71.8915      0.0000    768.0000     13.0002
   157.2500     69.3180      0.0000    768.0000     12.7053
   157.5000     68.6110      0.0000    768.0000     12.4451
   157.7500     69.3165      0.0000    767.9970     12.2433
   158.0000     70.8119      0.0000    767.9773     12.1279
   158.2500     72.8025      0.0000    767.8774     12.1120
   158.5000     75.0141      0.0000    767.4852     12.1705
   158.7500     77.0865      0.0000    766.2880     12.2360
   159.0000     79.0184      0.0000    763.4700     12.2343
   159.2500     81.3130      0.0000    758.4170     12.1407
   159.5000     84.2785      0.0000    751.7138     11.9972
   159.7500     87.2347      0.0000    745.6671     11.8588
   160.0000     88.7141      0.0000    743.2141     11.7351
   160.2500     87.6891      0.0000    745.7108     11.5953
   160.5000     84.7008      0.0000    751.7758     11.4149
   160.7500     81.5921      0.0000    758.4694     11.2024
   161.0000     79.9105      0.0000    763.5012     10.9913
   161.2500     79.7096      0.0000    766.3018     10.8209
   161.5000     80.0362      0.0000    767.4899     10.7180
   161.7500     80.1812      0.0000    767.8756     10.6850
   162.0000     80.0202      0.0000    767.9583     10.7007
   162.2500     79.4321      0.0000    767.8994     10.7414
   162.5000     78.0462      0.0000    767.6138     10.8118
   162.7500     75.7334      0.0000    766.8104     10.9449
   163.0000     73.0750      0.0000    765.1463     11.1540
   163.2500     71.1969      0.0000    762.6686     11.3908
   163.5000     70.9432      0.0000    760.2429     11.5748
   163.7500     71.9929      0.0000    759.2100     11.6679
   164.0000     72.9232      0.0000    760.2429     11.6986
   164.2500     72.4396      0.0000    762.6686     11.7100
   164.5000     70.6511      0.0000    765.1463     11.7108
   164.7500     69.0934      0.0000    766.8104     11.6975
   165.0000     69.2930      0.0000    767.6138     11.6992
   165.2500     71.1720      0.0000    767.9023     11.7622
   165.5000     73.0184      0.0000    767.9808     11.8929
   165.7500     73.2165      0.0000    767.9971     12.0529
   166.0000     71.7921      0.0000    768.0000     12.2117
   166.2500     70.1765      0.0000    768.0000     12.3720
   166.5000     69.8167      0.0000    768.0000     12.5417
   166.7500     71.0768      0.0000    768.0000     12.7095
   167.0000     73.0441      0.0000    768.0000     12.8620
   167.2500     74.3305      0.0000    768.0000     13.0143
   167.5000     74.4270      0.0000    768.0000     13.2079
   167.7500     74.2294      0.0000    768.0000     13.4637
   168.0000     74.9274      0.0000    768.0000     13.7315
   168.2500     76.5844      0.0000    768.0000     13.9068
   168.5000     78.2318      0.0000    768.0000     13.9207
   168.7500     79.2605      0.0000    768.0000     13.8084
   169.0000     80.3059      0.0000    768.0000     13.6796
   169.2500     82.5690      0.0000    768.0000     13.6297
   169.5000     86.3608      0.0000    768.0000     13.6774
   169.7500     90.5892      0.0000    767.9897     13.7666
   170.0000     93.7858      0.0000    767.9329     13.8177
   170.2500     95.4758      0.0000    767.6589     13.7826
   170.5000     96.2597      0.0000    766.6509     13.6527
   170.7500     96.6509      0.0000    763.8445     13.4312
