~Version Information
VERS.                      2.0: CWLS Log ASCII Standard - VERSION 2.0
WRAP.                       NO: One line per depth step
~Well Information Block
STRT.FT               390.0000: 
STOP.FT               902.2000: 
STEP.FT                 0.1000: 
NULL.                -999.2500: 
COMP.          Pioneer Natural Resources: COMPANY
WELL.              Venom 32-22: WELL
FLD.           Purgatoire River: FIELD
LOC.           2307' FNL & 2024' FEL----: LOCATION
PROV.                 Colorado: PROVINCE
CNTY.               Las Animas: COUNTRY
SRVC.                Patterson: SERVICE COMPANY
DATE.          Wed May 11 08:31:39 2005: LOG DATE
UWI.           05 071 08361 00: UNIQUE WELL ID
~Curve Information Block
DEPT.FT            0 000 00 00: Depth
DCAL.in                       : CDL Caliper
RHOB.g/cc                     : CDL Bulk Density
RHOC.g/cc                     : CDL Density Correction
DPOR.pu                       : CDL Density Porosity
NPOR.pu                       : Neutron Porosity
GR.GAPI                       : Gamma Ray
~Parameter Information Block
~A  Depth       DCAL        RHOB        RHOC        DPOR        NPOR         GR     
# ...
   678.0000      8.0693      2.5528      0.0518      5.8897     30.5560    171.3430
   678.1000      8.0693      2.5418      0.0458      6.5552     28.0836    168.2211
   678.2000      8.0693      2.5496      0.0166      6.0823     25.4151    164.1072
   678.3000      8.0589      2.5717      0.1102      4.7426     24.9951    165.5013
   678.4000      8.0589      2.5758      0.0963      4.4987     26.7271    167.1199
   678.5000      8.0491      2.5542      0.0472      5.8088     27.4944    165.6943
   678.6000      8.0491      2.5307      0.0235      7.2274     26.1646    166.2210
   678.7000      8.0491      2.5230      0.0135      7.6971     24.5635    165.4069
   678.8000      8.0483      2.5363      0.0272      6.8886     24.7290    156.5595
   678.9000      8.0483      2.5609      0.0966      5.3992     26.0982    143.8835
   679.0000      8.0499      2.5752      0.0936      4.5360     26.5344    132.9030
   679.1000      8.0499      2.5783      0.0585      4.3440     26.4083    127.0877
   679.2000      8.0499      2.5845      0.0708      3.9699     27.6063    130.3431
   679.3000      8.0443      2.5889      0.0981      3.7050     28.8195    138.0157
   679.4000      8.0443      2.5834      0.0700      4.0369     27.5883    142.2185
   679.5000      8.0273      2.5810      0.0441      4.1798     25.3731    140.6847
   679.6000      8.0273      2.5928      0.0171      3.4692     25.3968    133.6512
   679.7000      8.0273      2.6100      0.0742      2.4248     28.1737    124.9790
   679.8000      8.0047      2.6243      0.0451      1.5563     30.8006    118.5930
   679.9000      8.0047      2.6345      0.0931      0.9393     31.0735    111.2920
   680.0000      7.9911      2.6294      0.0665      1.2470     29.8890    102.1698
   680.1000      7.9911      2.6043      0.0705      2.7696     28.8709     97.0161
   680.2000      7.9911      2.5723      0.0683      4.7114     28.9050     98.6023
   680.3000      7.9823      2.5510     -0.0404      6.0009     29.8045    102.7479
   680.4000      7.9823      2.5458      0.0156      6.3167     30.8900    107.1536
   680.5000      7.9776      2.5439      0.0131      6.4312     31.0360    114.9183
   680.6000      7.9776      2.5374      0.0516      6.8249     30.3822    125.3085
   680.7000      7.9776      2.5260      0.0186      7.5179     30.5047    135.7097
   680.8000      7.9921      2.5121      0.0321      8.3555     30.8851    144.8320
   680.9000      7.9921      2.4976      0.0389      9.2387     29.2383    151.8396
   681.0000      8.0201      2.4718      0.0553     10.8000     26.3290    156.0876
   681.1000      8.0201      2.4230      0.0240     13.7587     25.1103    155.2319
   681.2000      8.0201      2.3614     -0.0008     17.4889     26.6316    151.2246
   681.3000      8.0380      2.3062     -0.0651     20.8347     29.2617    147.9457
   681.4000      8.0380      2.2577     -0.0196     23.7758     29.9455    144.2054
   681.5000      8.0423      2.2025     -0.0459     27.1184     29.2358    139.5944
   681.6000      8.0423      2.1315     -0.0016     31.4242     30.8121    134.1673
   681.7000      8.0423      2.0394     -0.0403     37.0040     34.9980    125.9033
   681.8000      8.0389      1.9300     -0.0747     43.6376     38.0850    114.8430
   681.9000      8.0389      1.8184     -0.0790     50.3992     37.1242    103.3007
   682.0000      8.0339      1.7156     -0.0710     56.6302     34.4900     97.2049
   682.1000      8.0339      1.6213     -0.0963     62.3446     35.2797    100.0513
   682.2000      8.0339      1.5350     -0.0725     67.5769     38.8387    106.1708
   682.3000      8.0391      1.4574     -0.0852     72.2796     39.4879    107.4854
   682.4000      8.0391      1.3916     -0.0844     76.2692     36.4234    102.3438
   682.5000      8.0659      1.3493     -0.0975     78.8302     34.0615     91.2633
   682.6000      8.0659      1.3486     -0.0489     78.8715     32.9150     76.6126
   682.7000      8.0659      1.3998      0.0015     75.7684     30.3813     63.3962
   682.8000      8.1150      1.4966      0.0825     69.9043     27.9821     55.4600
   682.9000      8.1150      1.6185      0.1223     62.5134     29.0792     56.7267
   683.0000      8.1571      1.7450      0.1656     54.8468     33.0542     67.7371
   683.1000      8.1571      1.8686      0.1858     47.3566     35.3126     83.8120
   683.2000      8.1571      1.9924      0.2330     39.8538     32.7567     99.0470
   683.3000      8.1760      2.1191      0.2371     32.1756     28.8807    108.0601
   683.4000      8.1760      2.2449      0.2878     24.5541     28.6079    111.1530
   683.5000      8.1711      2.3605      0.2653     17.5483     29.3453    114.7970
   683.6000      8.1711      2.4529      0.2655     11.9448     26.7737    120.7800
   683.7000      8.1711      2.5076      0.2011      8.6328     23.8759    123.3699
   683.8000      8.1353      2.5256      0.1449      7.5378     24.5314    122.9296
   683.9000      8.1353      2.5282      0.0768      7.3822     26.7233    125.6077
   684.0000      8.0870      2.5312      0.1070      7.2017     26.4642    129.0705
   684.1000      8.0870      2.5304      0.0744      7.2474     24.1504    128.2690
   684.2000      8.0870      2.5270      0.0500      7.4557     22.7758    127.7146
   684.3000      8.0490      2.5353      0.0256      6.9525     23.7651    133.0198
   684.4000      8.0490      2.5568      0.0858      5.6499     26.0212    138.2347
   684.5000      8.0275      2.5709      0.0619      4.7922     26.6339    136.4791
   684.6000      8.0275      2.5637      0.0636      5.2309     25.4354    128.4778
   684.7000      8.0275      2.5473      0.0419      6.2235     25.8617    117.6101
   684.8000      8.0197      2.5422      0.0650      6.5330     29.3415    111.0418
   684.9000      8.0197      2.5561      0.0674      5.6907     31.8026    115.7865
   685.0000      8.0188      2.5796      0.0721      4.2640     29.4033    128.8199
   685.1000      8.0188      2.5895      0.0969      3.6637     26.2242    135.8687
   685.2000      8.0188      2.5707      0.0669      4.8049     27.6913    129.3105
   685.3000      8.0238      2.5323      0.0295      7.1318     32.3017    119.5846
   685.4000      8.0238      2.4920      0.0070      9.5733     35.0121    116.9666
   685.5000      8.0339      2.4663      0.0135     11.1322     34.4406    120.9934
   685.6000      8.0339      2.4603      0.0029     11.4941     33.0554    128.7688
   685.7000      8.0339      2.4605      0.0369     11.4864     33.3233    134.0717
   685.8000      8.0432      2.4557      0.0238     11.7758     35.4939    136.0345
   685.9000      8.0432      2.4510      0.0276     12.0608     37.3154    144.8981
   686.0000      8.0505      2.4427      0.0741     12.5608     35.9469    155.6745
   686.1000      8.0505      2.4134      0.0483     14.3364     32.5246    154.2029
   686.2000      8.0505      2.3542      0.0231     17.9281     31.4747    146.8071
   686.3000      8.0636      2.2668      0.0556     23.2254     33.4081    144.9464
   686.4000      8.0636      2.1631     -0.0341     29.5119     34.8628    141.4607
   686.5000      8.0880      2.0668     -0.0551     35.3432     34.7729    128.2354
   686.6000      8.0880      1.9890     -0.0459     40.0618     35.0810    113.7385
   686.7000      8.0880      1.9250     -0.0821     43.9392     35.9215    107.7467
   686.8000      8.1183      1.8766     -0.0756     46.8743     36.1060    106.9217
   686.9000      8.1183      1.8458     -0.0239     48.7393     34.9085    104.7447
   687.0000      8.1403      1.8275      0.0492     49.8485     32.3245    104.7010
   687.1000      8.1403      1.8230      0.0536     50.1196     30.9604    106.3996
   687.2000      8.1403      1.8450      0.1017     48.7883     32.1198    105.5644
   687.3000      8.1400      1.8979      0.1792     45.5824     33.6162    105.5594
   687.4000      8.1400      1.9708      0.1613     41.1657     33.6268    105.8104
   687.5000      8.1080      2.0453      0.2030     36.6465     32.4257     99.8358
