~Version Information
VERS.                      2.0: CWLS Log ASCII Standard - VERSION 2.0
WRAP.                       NO: One line per depth step
~Well Information Block
STRT.FT                -9.5000: 
STOP.FT              2893.0000: 
STEP.FT                 0.2500: 
NULL.                -999.2500: 
COMP.          Pioneer Natural Resources: COMPANY
WELL.          Old Yeller 31-32: WELL
FLD.           Purgatoire River: FIELD
LOC.           1832' FEL & 793' FNL----: LOCATION
STAT.                 Colorado: State
CNTY.               Las Animas: COUNTY
CTRY. USA : Country
SECT. 32 : Section
TOWN. 32S : Township
RANG. 67W : Range
SRVC.                         : SERVICE COMPANY
DATE.          Fri Sep 02 16:45:38 2005: LOG DATE
API. 05-071-08356                         : UNIQUE WELL ID
~Curve Information Block
DEPT.FT            0 000 00 00: Depth
CCL.                          : Casing Collar Locator
TT3.usec                      : CBL 3' Travel Time
AMP5.mV                       : CBL 5' Amplitude
GR.GAPI                       : Gamma Ray
~Parameter Information Block
~A  Depth       CCL         TT3         AMP5         GR     
# ...
  2871.5000      0.0000    632.8254      3.4337     66.1377
  2871.7500      0.0000    616.9794      3.7819     68.6307
  2872.0000      0.0000    601.8823      4.0430     70.8810
  2872.2500      0.0000    596.2646      3.7819     72.5866
  2872.5000      0.0000    605.9791      3.7819     74.4389
  2872.7500      0.0000    624.0133      4.3912     76.7992
  2873.0000      0.0000    630.3296      4.3912     78.8784
  2873.2500      0.0000    605.8668      4.2171     79.5549
  2873.5000      0.0000    549.3667      4.5653     78.6308
  2873.7500      0.0000    481.0128      4.4782     76.8984
  2874.0000      0.0000    428.4984      4.8264     75.2197
  2874.2500      0.0000    407.8106      4.1300     74.0572
  2874.5000      0.0000    415.3733      4.7394     73.7899
  2874.7500      0.0000    435.5375      4.6523     74.8641
  2875.0000      0.0000    453.0568      4.5653     77.3438
  2875.2500      0.0000    459.4247      4.4782     80.4757
  2875.5000      0.0000    451.8745      4.5653     82.9397
  2875.7500      0.0000    430.9784      4.4782     83.7396
  2876.0000      0.0000    400.5654      4.7394     83.1500
  2876.2500      0.0000    367.7501      5.0876     83.0116
  2876.5000      0.0000    340.1057      5.0876     85.8731
  2876.7500      0.0000    321.6557      5.6098     93.2242
  2877.0000      0.0000    311.7502      6.3062    104.2164
  2877.2500      0.0000    307.3141      7.3508    116.0324
  2877.5000      0.0000    305.5104      7.0026    125.4920
  2877.7500      0.0000    304.7426      7.6119    130.5533
  2878.0000      0.0000    304.3738      8.4824    130.7979
  2878.2500      0.0000    304.2199      8.2212    126.8257
  2878.5000      0.0000    304.2433      8.3953    119.0308
  2878.7500      0.0000    304.4106      7.8730    106.7453
  2879.0000      0.0000    304.6420      8.0471     88.9534
  2879.2500      0.0000    304.8225      8.2212     66.4424
  2879.5000      0.0000    304.8599      8.4824     42.9627
  2879.7500      0.0000    304.7340      8.0471     23.3811
  2880.0000      0.0000    304.4960      8.2212     10.4891
  2880.2500      0.0000    304.2314      7.9601      3.8212
  2880.5000      0.0000    304.0419      8.5694      1.1181
  2880.7500      0.0000    304.0631      7.7860      0.2604
  2881.0000      0.0000    304.6901      8.4824      0.0474
  2881.2500      0.0000    307.0162      8.3083      0.0060
  2881.5000      0.0000    313.2390      7.8730      0.0000
  2881.7500      0.0000    325.8153      7.7860   -999.2500
  2882.0000      0.0000    344.3167      7.2637   -999.2500
  2882.2500      0.0000    362.3572      7.0896   -999.2500
  2882.5000      0.0000    370.1179      6.7414   -999.2500
  2882.7500      0.0000    362.7009      5.9580   -999.2500
  2883.0000      0.0000    345.0594      4.8264   -999.2500
  2883.2500      0.0000    326.9821      5.3487   -999.2500
  2883.5000      0.0000    314.4218      5.0876   -999.2500
  2883.7500      0.0000    306.2415      5.4357   -999.2500
  2884.0000      0.0000    296.2296   -999.2500   -999.2500
  2884.2500      0.0000    276.0457   -999.2500   -999.2500
  2884.5000      0.0000    238.8726   -999.2500   -999.2500
  2884.7500      0.0000    184.7277   -999.2500   -999.2500
  2885.0000      0.0000    123.3133   -999.2500   -999.2500
  2885.2500      0.0000     69.0876   -999.2500   -999.2500
  2885.5000      0.0000     31.8114   -999.2500   -999.2500
  2885.7500      0.0000     11.8571   -999.2500   -999.2500
  2886.0000      0.0000      3.5386   -999.2500   -999.2500
  2886.2500      0.0000      0.8379   -999.2500   -999.2500
  2886.5000      0.0000      0.1551   -999.2500   -999.2500
  2886.7500      0.0000      0.0206   -999.2500   -999.2500
  2887.0000      0.0000   -999.2500   -999.2500   -999.2500
  2887.2500      0.0000   -999.2500   -999.2500   -999.2500
  2887.5000      0.0000   -999.2500   -999.2500   -999.2500
  2887.7500      0.0000   -999.2500   -999.2500   -999.2500
  2888.0000      0.0000   -999.2500   -999.2500   -999.2500
  2888.2500      0.0000   -999.2500   -999.2500   -999.2500
  2888.5000      0.0000   -999.2500   -999.2500   -999.2500
  2888.7500      0.0000   -999.2500   -999.2500   -999.2500
  2889.0000      0.0000   -999.2500   -999.2500   -999.2500
  2889.2500      0.0000   -999.2500   -999.2500   -999.2500
  2889.5000      0.0000   -999.2500   -999.2500   -999.2500
  2889.7500      0.0000   -999.2500   -999.2500   -999.2500
  2890.0000      0.0000   -999.2500   -999.2500   -999.2500
  2890.2500      0.0000   -999.2500   -999.2500   -999.2500
  2890.5000      0.0000   -999.2500   -999.2500   -999.2500
  2890.7500      0.0000   -999.2500   -999.2500   -999.2500
  2891.0000      0.0000   -999.2500   -999.2500   -999.2500
  2891.2500      0.0000   -999.2500   -999.2500   -999.2500
  2891.5000      0.0000   -999.2500   -999.2500   -999.2500
  2891.7500      0.0000   -999.2500   -999.2500   -999.2500
  2892.0000      0.0000   -999.2500   -999.2500   -999.2500
  2892.2500      0.0000   -999.2500   -999.2500   -999.2500
  2892.5000   -999.2500   -999.2500   -999.2500   -999.2500
  2892.7500   -999.2500   -999.2500   -999.2500   -999.2500
  2893.0000   -999.2500   -999.2500   -999.2500   -999.2500
