~Version Information
 VERS.                                  2.0 : CWLS LAS VERSION
 WRAP.                                   NO : WRAPING MODE
 SWARE .                 MController 2.5.0E : SOFTWARE VERSION
~Well Information
 WELL.                         STATE 16-32R : WELL
 COMP.                      Petrogulf Corp. : COMPANY
 FLD.                      Purgatorie River : FIELD
 LOC.                SW/NE Sec 16 T33S R67W : LOCATION
 DATE.                      5/12/04-5/13/04 : DATE(S) LOGGED
 SRVC.       Blanco Geological Services LLC : SERVICE COMPANY
 STAT.                                   CO : STATE
 CNTY.                           Las Animas : COUNTY
 CTRY.                                  USA : COUNTRY
 API.                       05-071-08033-00 : API NUMBER
 STRT.FT                             167.00 : START DEPTH
 STOP.FT                            1918.00 : STOP DEPTH
 STEP.FT                               1.00 : DEPTH INCREMENT
 NULL.                                -9999 : NULL VALUE
~Curve information
 DEPTH.FT                                   :
 ROP.MIN/FT                                 :
 GAS.UNITS                                  :
~ASCII Log data
# ...
      367.00        0.267          2.7 
      368.00        0.200          3.4 
      369.00        0.250          2.9 
      370.00        0.233          2.8 
      371.00        0.233          3.3 
      372.00        0.200          3.1 
      373.00        0.233          3.5 
      374.00        0.267          3.4 
      375.00        0.433          3.4 
      376.00        0.233          2.8 
      377.00        0.233          3.4 
      378.00        0.300          3.0 
      379.00        0.233          2.7 
      380.00        0.267          3.5 
      381.00        0.200          3.2 
      382.00        1.817          3.5 
      383.00        0.167          2.1 
      384.00        0.167          2.0 
      385.00        0.133          2.0 
      386.00        0.133          2.9 
      387.00        0.133          2.8 
      388.00        0.133          2.8 
      389.00        0.200          3.3 
      390.00        0.200          2.6 
      391.00        0.267          3.0 
      392.00        0.250          2.3 
      393.00        0.200          2.3 
      394.00        0.167          2.5 
      395.00        0.200          2.1 
      396.00        0.200          2.1 
      397.00        0.267          2.3 
      398.00        0.333          2.1 
      399.00        0.433          2.6 
      400.00        0.333          1.8 
      401.00        0.367          2.4 
      402.00        0.133          2.4 
      403.00        0.100          2.4 
      404.00        0.200          2.2 
      405.00        0.167          2.2 
      406.00        0.250          2.6 
      407.00        0.200          2.0 
      408.00        0.200          2.0 
      409.00        0.200          2.9 
      410.00        0.300          2.1 
      411.00        0.233          2.6 
      412.00        2.000          2.9 
      413.00        0.317          2.7 
      414.00        0.267          2.4 
      415.00        0.333          2.1 
      416.00        0.367          2.5 
      417.00        0.367          2.6 
      418.00        0.333          2.8 
      419.00        0.367          2.7 
      420.00        0.333          2.3 
      421.00        0.333          2.4 
      422.00        0.417          1.9 
      423.00        0.233          2.0 
      424.00        0.300          2.3 
      425.00        0.333          2.4 
      426.00        0.400          2.5 
      427.00        0.400          2.4 
      428.00        0.400          2.5 
      429.00        0.333          2.7 
      430.00        0.367          2.5 
      431.00        0.333          2.3 
      432.00        0.450          2.1 
      433.00        0.367          2.3 
      434.00        0.200          1.8 
      435.00        0.233          1.5 
      436.00        0.167          2.0 
      437.00        0.167          2.4 
      438.00        0.133          2.4 
      439.00        0.167          2.0 
      440.00        0.167          2.0 
      441.00        0.133          1.7 
      442.00        1.550          2.4 
      443.00        0.233          2.1 
      444.00        0.167          2.1 
      445.00        0.133          1.6 
      446.00        0.133          1.6 
      447.00        0.100          1.6 
      448.00        0.100          1.6 
      449.00        0.100          1.6 
      450.00        0.100          1.1 
      451.00        0.200          2.1 
      452.00        0.167          2.0 
      453.00        0.200          1.4 
      454.00        0.233          1.2 
      455.00        0.200          1.8 
      456.00        0.200          1.4 
      457.00        0.133          1.4 
      458.00        0.267          1.6 
      459.00        0.133          1.9 
      460.00        0.167          1.7 
      461.00        0.167          2.8 
      462.00        0.117          2.8 
      463.00        0.100          2.8 
      464.00        0.233          2.4 
      465.00        0.267          1.6 
      466.00        0.267          1.9 
      467.00        0.267          2.0 
      468.00        0.300          1.8 
      469.00        0.233          2.0 
      470.00        0.267          2.3 
      471.00        0.233          2.0 
      472.00        1.917          2.5 
      473.00        0.333          2.6 
      474.00        0.300          2.3 
      475.00        0.267          2.2 
      476.00        0.267          2.3 
      477.00        0.300          2.5 
      478.00        0.300          1.9 
      479.00        0.267          2.1 
      480.00        0.267          2.7 
      481.00        0.350          2.5 
      482.00        0.333          1.7 
      483.00        0.267          2.2 
      484.00        0.300          2.4 
      485.00        0.300          2.1 
      486.00        0.300          2.1 
      487.00        0.333          2.0 
      488.00        0.333          2.5 
      489.00        0.400          2.0 
      490.00        0.400          2.8 
      491.00        0.417          2.4 
      492.00        0.400          2.5 
      493.00        0.467          2.7 
      494.00        0.467          2.2 
      495.00        0.467          2.1 
      496.00        0.533          2.7 
      497.00        0.533          2.8 
      498.00        0.417          2.1 
      499.00        0.433          2.6 
      500.00        0.367          2.8 
      501.00        0.367          2.3 
      502.00        3.117          2.8 
      503.00        0.433          2.4 
      504.00        0.433          2.3 
      505.00        0.367          2.5 
      506.00        0.433          2.1 
      507.00        0.333          2.3 
      508.00        0.350          1.7 
      509.00        0.400          2.3 
      510.00        0.233          2.4 
      511.00        0.167          2.6 
      512.00        0.133          2.6 
      513.00        0.200          2.0 
      514.00        0.267          1.6 
      515.00        0.267          2.5 
      516.00        0.167          2.5 
      517.00        0.133          2.5 
      518.00        0.133          2.5 
      519.00        0.200          1.9 
      520.00        0.300          2.3 
      521.00        0.333          2.3 
      522.00        0.333          2.6 
      523.00        0.350          2.3 
      524.00        0.333          1.5 
      525.00        0.333          2.4 
      526.00        0.300          2.6 
      527.00        0.467          1.9 
      528.00        0.500          2.1 
      529.00        0.267          2.1 
      530.00        0.233          1.9 
      531.00        0.200          1.9 
      532.00        5.300          2.7 
      533.00        0.567          2.5 
      534.00        0.467          2.6 
      535.00        0.367          2.6 
      536.00        0.417          2.1 
      537.00        0.433          1.7 
      538.00        0.367          1.8 
      539.00        0.333          1.7 
      540.00        0.400          2.1 
      541.00        0.433          1.3 
      542.00        0.367          1.5 
      543.00        0.500          1.9 
      544.00        0.400          2.1 
      545.00        0.250          2.1 
      546.00        0.167          1.4 
      547.00        0.200          0.7 
      548.00        0.267          1.2 
      549.00        0.200          1.4 
      550.00        0.300          0.7 
      551.00        0.533          1.6 
      552.00        0.367          1.2 
      553.00        0.400          1.1 
      554.00        0.533          1.2 
      555.00        0.317          1.6 
      556.00        0.367          4.3 
      557.00        0.367          9.8 
      558.00        0.300          5.3 
      559.00        0.333          4.0 
      560.00        0.367          3.6 
      561.00        0.333          3.0 
      562.00        2.783          4.6 
      563.00        0.367          9.9 
      564.00        0.333         11.0 
      565.00        0.300         12.1 
      566.00        0.233         12.0 
