~Version Information
VERS.                      2.0: CWLS Log ASCII Standard - VERSION 2.0
WRAP.                       NO: One line per depth step
~Well Information Block
STRT.FT                -4.7500: 
STOP.FT              2809.5000: 
STEP.FT                 0.2500: 
NULL.                -999.2500: 
COMP.          Pioneer Natural Resources: COMPANY
WELL.              Lynch 43-30: WELL
FLD.           Purgatorie River: FIELD
LOC.           1438' FSL & 429' FEL--: LOCATION
PROV.                       CO: PROVINCE
CNTY.               Las Animas: COUNTRY
SRVC.                         : SERVICE COMPANY
DATE.          Sat Oct 30 09:52:34 2004: LOG DATE
UWI.          005 071 08170   : UNIQUE WELL ID
~Curve Information Block
DEPT.FT            0 000 00 00: Depth
GR.GAPI                       : Gamma Ray
CCL.                          : Casing Collar Locator
TT3.usec                      : CBL 3' Travel Time
AMP3.mV                       : CBL 3' Amplitude
~Parameter Information Block
~A  Depth        GR         CCL         TT3         AMP3    
# ...
  2775.7500     65.9346      0.0000    721.1409      5.5833
  2776.0000     70.2119      0.0000    712.6929      5.7288
  2776.2500     74.8781      0.0000    705.4158      5.8442
  2776.5000     78.6055      0.0000    698.6530      5.9122
  2776.7500     80.3020      0.0000    690.6004      5.9288
  2777.0000     80.0904      0.0000    680.2691      5.8997
  2777.2500     79.3848      0.0000    669.6640      5.8425
  2777.5000     79.5569      0.0000    662.6459      5.7916
  2777.7500     80.6041      0.0000    660.2863      5.7842
  2778.0000     81.2215      0.0000    657.1729      5.8333
  2778.2500     79.9646      0.0000    643.1503      5.9150
  2778.5000     76.4122      0.0000    610.2329      5.9872
  2778.7500     71.6246      0.0000    559.6635      6.0189
  2779.0000     67.5844      0.0000    502.8337      6.0052
  2779.2500     65.8279      0.0000    454.2215      5.9633
  2779.5000     66.2704      0.0000    422.5448      5.9168
  2779.7500     67.3212      0.0000    408.2818      5.8790
  2780.0000     67.2745      0.0000    408.2580      5.8450
  2780.2500     65.7234      0.0000    420.4055      5.7976
  2780.5000     63.7291      0.0000    443.1613      5.7242
  2780.7500     62.8371      0.0000    471.4196      5.6350
  2781.0000     64.0989      0.0000    496.2038      5.5637
  2781.2500     67.7695      0.0000    511.0445      5.5451
  2781.5000     73.3381      0.0000    518.0734      5.5868
  2781.7500     79.6377      0.0000    525.5649      5.6639
  2782.0000     85.2092      0.0000    538.5426      5.7375
  2782.2500     88.9060      0.0000    552.0543      5.7779
  2782.5000     90.4636      0.0000    554.7092      5.7774
  2782.7500     90.8414      0.0000    541.2607      5.7464
  2783.0000     91.8982      0.0000    522.0521      5.7000
  2783.2500     95.2095      0.0000    516.4946      5.6460
  2783.5000    100.7972      0.0000    534.6979      5.5874
  2783.7500    106.9136      0.0000    566.8667      5.5326
  2784.0000    111.2198      0.0000    592.7043      5.4954
  2784.2500    112.3504      0.0000    600.7395      5.4817
  2784.5000    110.5916      0.0000    597.1555      5.4777
  2784.7500    107.3827      0.0000    595.6797      5.4606
  2785.0000    104.3390      0.0000    601.2198      5.4234
  2785.2500    102.5437      0.0000    606.2559      5.3881
  2785.5000    102.4057      0.0000    602.5645      5.3841
  2785.7500    103.8333      0.0000    592.6509      5.4074
  2786.0000    106.2278      0.0000    588.1953      5.4055
  2786.2500    108.4183      0.0000    599.6413      5.3133
  2786.5000    109.2811      0.0000    628.3174      5.1091
  2786.7500    108.7423      0.0000    666.2064      4.8364
  2787.0000    107.6927      0.0000    700.7953      4.5688
  2787.2500    106.8467      0.0000    721.3099      4.3487
  2787.5000    106.2775      0.0000    723.8643      4.1612
  2787.7500    105.9759      0.0000    712.5381      3.9805
  2788.0000    106.0636      0.0000    695.8272      3.8302
  2788.2500    106.3522      0.0000    682.1331      3.7686
  2788.5000    106.2611      0.0000    677.1373      3.8156
  2788.7500    105.1721      0.0000    682.3865      3.9165
  2789.0000    102.7482      0.0000    695.0510      3.9728
  2789.2500     99.3872      0.0000    709.8420      3.9070
  2789.5000     96.6152      0.0000    721.8819      3.7215
  2789.7500     96.4985      0.0000    728.1296      3.5165
  2790.0000    100.1097      0.0000    727.4044      3.4349
  2790.2500    106.5281      0.0000    720.6628      3.5670
  2790.5000    113.4285      0.0000    711.3278      3.8986
  2790.7500    118.7090      0.0000    703.8864      4.3384
  2791.0000    121.8647      0.0000    700.6686      4.7880
  2791.2500    123.8767      0.0000    699.6028      5.1819
  2791.5000    125.5857      0.0000    695.9278      5.4866
  2791.7500    126.5074      0.0000    687.1511      5.6944
  2792.0000    125.6640      0.0000    676.5846      5.8229
  2792.2500    123.0508      0.0000    670.9775      5.8997
  2792.5000    119.7162      0.0000    674.0627      5.9368
  2792.7500    116.8365      0.0000    682.8430      5.9239
  2793.0000    114.9940      0.0000    690.2566      5.8510
  2793.2500    113.6787      0.0000    690.9134      5.7313
  2793.5000    111.2170      0.0000    684.9126      5.5982
  2793.7500    106.0151      0.0000    677.3880      5.4843
  2794.0000     98.3786      0.0000    674.5186      5.4098
  2794.2500     90.6858      0.0000    679.2289      5.3885
  2794.5000     85.3244      0.0000    689.6755      5.4261
  2794.7500     82.6490      0.0000    700.9990      5.5039
  2795.0000     81.2579      0.0000    708.7570      5.5751
  2795.2500     80.0145      0.0000    711.1791      5.5889
  2795.5000     79.2679      0.0000    708.2774      5.5269
  2795.7500     80.0838      0.0000    699.6701      5.4170
  2796.0000     82.7493      0.0000    684.2768      5.3085
  2796.2500     86.2533      0.0000    660.7847      5.2113
  2796.5000     89.0446      0.0000    625.3143      5.0234
  2796.7500     90.1154      0.0000    568.6443      4.5107
  2797.0000     89.5003      0.0000    480.9329      3.4219
  2797.2500     88.1158      0.0000    364.0732      1.7164
  2797.5000     87.0702      0.0000    238.1602     -0.2963
  2797.7500     86.5272      0.0000    130.9191     -2.1141
  2798.0000     85.1720      0.0000     59.2455     -3.3808
  2798.2500     81.4960      0.0000     21.7468     -4.0646
  2798.5000     75.7320      0.0000      6.4053     -4.3512
  2798.7500     70.0172      0.0000      1.4997     -4.4446
  2799.0000     66.7243      0.0000      0.2744     -4.4683
  2799.2500     66.9919      0.0000      0.0353     -4.4730
  2799.5000     70.4072      0.0000   -999.2500   -999.2500
  2799.7500     75.3371      0.0000   -999.2500   -999.2500
  2800.0000     79.5549      0.0000   -999.2500   -999.2500
  2800.2500     81.2237      0.0000   -999.2500   -999.2500
  2800.5000     79.8868      0.0000   -999.2500   -999.2500
  2800.7500     76.7326      0.0000   -999.2500   -999.2500
  2801.0000     73.8244      0.0000   -999.2500   -999.2500
  2801.2500     72.8262      0.0000   -999.2500   -999.2500
  2801.5000     74.2330      0.0000   -999.2500   -999.2500
  2801.7500     77.6303      0.0000   -999.2500   -999.2500
  2802.0000     82.3495      0.0000   -999.2500   -999.2500
  2802.2500     87.6134      0.0000   -999.2500   -999.2500
  2802.5000     92.2758      0.0000   -999.2500   -999.2500
  2802.7500     94.9649      0.0000   -999.2500   -999.2500
  2803.0000     94.8113      0.0000   -999.2500   -999.2500
  2803.2500     92.0381      0.0000   -999.2500   -999.2500
  2803.5000     87.8517      0.0000   -999.2500   -999.2500
  2803.7500     83.7888      0.0000   -999.2500   -999.2500
  2804.0000     81.1255      0.0000   -999.2500   -999.2500
  2804.2500     80.6982      0.0000   -999.2500   -999.2500
  2804.5000     82.7889      0.0000   -999.2500   -999.2500
  2804.7500     86.8763      0.0000   -999.2500   -999.2500
  2805.0000     91.7754   -999.2500   -999.2500   -999.2500
  2805.2500     96.4366   -999.2500   -999.2500   -999.2500
  2805.5000    100.5763   -999.2500   -999.2500   -999.2500
  2805.7500    104.4370   -999.2500   -999.2500   -999.2500
  2806.0000    108.0373   -999.2500   -999.2500   -999.2500
  2806.2500    110.5967   -999.2500   -999.2500   -999.2500
  2806.5000    110.2676   -999.2500   -999.2500   -999.2500
  2806.7500    104.4123   -999.2500   -999.2500   -999.2500
  2807.0000     90.9618   -999.2500   -999.2500   -999.2500
  2807.2500     70.4909   -999.2500   -999.2500   -999.2500
  2807.5000     47.0980   -999.2500   -999.2500   -999.2500
  2807.7500     26.4285   -999.2500   -999.2500   -999.2500
  2808.0000     12.2013   -999.2500   -999.2500   -999.2500
  2808.2500      4.5641   -999.2500   -999.2500   -999.2500
  2808.5000      1.3674   -999.2500   -999.2500   -999.2500
  2808.7500      0.3252   -999.2500   -999.2500   -999.2500
  2809.0000      0.0603   -999.2500   -999.2500   -999.2500
