~Version Information
VERS.                      2.0: CWLS Log ASCII Standard - VERSION 2.0
WRAP.                       NO: One line per depth step
~Well Information Block
STRT.FT               575.0000: 
STOP.FT              2016.2500: 
STEP.FT                 0.2500: 
NULL.                -999.2500: 
COMP.          Pioneer Natural Resources: COMPANY
WELL.          Bucksnort 41-35: WELL
FLD.           Purgatoire River: FIELD
LOC.           117' FNL & 463' FEL--: LOCATION
PROV.                 Colorado: PROVINCE
CNTY.               Las Animas: COUNTRY
SRVC.                Patterson: SERVICE COMPANY
DATE.          Thu Jul 21 10:13:55 2005: LOG DATE
UWI.           05 071 08401 00: UNIQUE WELL ID
~Curve Information Block
DEPT.FT            0 000 00 00: Depth
SN.Ohm-m                      : IEL Short Normal
SP.mV                         : IEL Spontaneous Potential
DIR.Ohm-m                     : IEL Induction Resistivity
GR.GAPI                       : Gamma Ray
~Parameter Information Block
~A  Depth        SN          SP         DIR          GR     
# ...
  1245.0000     13.7908     -9.6622     12.8458    154.5959
  1245.2500     12.9529     -9.4593     12.1786    156.4886
  1245.5000     12.2658     -9.2786     11.6004    158.2663
  1245.7500     11.7513     -9.1262     11.1125    159.2739
  1246.0000     11.3928     -9.0040     10.7079    160.7202
  1246.2500     11.1449     -8.9095     10.3746    161.3162
  1246.5000     10.9580     -8.8371     10.0990    161.1986
  1246.7500     10.7997     -8.7793      9.8665    160.5583
  1247.0000     10.6607     -8.7288      9.6639    159.3300
  1247.2500     10.5484     -8.6795      9.4832    158.6292
  1247.5000     10.4775     -8.6278      9.3239    158.1023
  1247.7500     10.4636     -8.5738      9.1947    158.2896
  1248.0000     10.5188     -8.5209      9.1109    159.6948
  1248.2500     10.6491     -8.4757      9.0912    161.3575
  1248.5000     10.8551     -8.4464      9.1538    164.0284
  1248.7500     11.1321     -8.4415      9.3126    164.8947
  1249.0000     11.4702     -8.4669      9.5743    162.8315
  1249.2500     11.8588     -8.5248      9.9375    158.3513
  1249.5000     12.3014     -8.6125     10.3951    146.7349
  1249.7500     12.8338     -8.7225     10.9395    136.6175
  1250.0000     13.5297     -8.8440     11.5703    120.8972
  1250.2500     14.4811     -8.9651     12.2982    111.9710
  1250.5000     15.7529     -9.0756     13.1437    103.0534
  1250.7500     17.3271     -9.1697     14.1288    100.3243
  1251.0000     19.0820     -9.2475     15.2646     99.8119
  1251.2500     20.8380     -9.3163     16.5393    100.5455
  1251.5000     22.4427     -9.3896     17.9122    101.1396
  1251.7500     23.8280     -9.4849     19.3188    100.5491
  1252.0000     25.0070     -9.6204     20.6878     98.1624
  1252.2500     26.0364     -9.8107     21.9649     95.9459
  1252.5000     26.9798    -10.0627     23.1291     92.5307
  1252.7500     27.8832    -10.3733     24.1957     90.5837
  1253.0000     28.7659    -10.7290     25.2056     88.3720
  1253.2500     29.6299    -11.1081     26.2062     87.3369
  1253.5000     30.4787    -11.4856     27.2347     86.5019
  1253.7500     31.3237    -11.8385     28.3072     86.5642
  1254.0000     32.1662    -12.1503     29.4149     87.7171
  1254.2500     32.9716    -12.4139     30.5190     89.0061
  1254.5000     33.6645    -12.6302     31.5434     90.7085
  1254.7500     34.1595    -12.8057     32.3783     90.8695
  1255.0000     34.4142    -12.9483     32.9136     88.8987
  1255.2500     34.4691    -13.0634     33.0978     86.4875
  1255.5000     34.4409    -13.1523     32.9781     82.8114
  1255.7500     34.4663    -13.2125     32.6810     81.1209
  1256.0000     34.6243    -13.2389     32.3448     80.0173
  1256.2500     34.8872    -13.2259     32.0569     79.8024
  1256.5000     35.1296    -13.1690     31.8321     79.1772
  1256.7500     35.1866    -13.0654     31.6247     78.0747
  1257.0000     34.9214    -12.9135     31.3534     74.9890
  1257.2500     34.2716    -12.7133     30.9233     72.0045
  1257.5000     33.2625    -12.4659     30.2522     66.9645
  1257.7500     31.9880    -12.1740     29.3021     64.2483
  1258.0000     30.5682    -11.8430     28.0999     63.1334
  1258.2500     29.0990    -11.4809     26.7252     65.0917
  1258.5000     27.6221    -11.0978     25.2689     72.0966
  1258.7500     26.1302    -10.7049     23.7945     78.8876
  1259.0000     24.6023    -10.3117     22.3290     90.6493
  1259.2500     23.0424     -9.9249     20.8805     98.5627
  1259.5000     21.4914     -9.5473     19.4639    109.5391
  1259.7500     20.0097     -9.1787     18.1119    116.2572
  1260.0000     18.6505     -8.8179     16.8674    125.8599
  1260.2500     17.4490     -8.4648     15.7688    131.9954
  1260.5000     16.4304     -8.1223     14.8408    140.3121
  1260.7500     15.6196     -7.7958     14.0949    144.9084
  1261.0000     15.0402     -7.4914     13.5353    150.3237
  1261.2500     14.7026     -7.2132     13.1640    153.2491
  1261.5000     14.5931     -6.9612     12.9822    156.6686
  1261.7500     14.6746     -6.7298     12.9882    157.6201
  1262.0000     14.8992     -6.5090     13.1744    155.4934
  1262.2500     15.2243     -6.2869     13.5249    151.4416
  1262.5000     15.6199     -6.0527     14.0156    142.4254
  1262.7500     16.0692     -5.7984     14.6169    135.3688
  1263.0000     16.5679     -5.5193     15.2976    124.5170
  1263.2500     17.1178     -5.2130     16.0284    117.7189
  1263.5000     17.7147     -4.8775     16.7824    109.2125
  1263.7500     18.3315     -4.5101     17.5297    105.1889
  1264.0000     18.9086     -4.1067     18.2287    102.0053
  1264.2500     19.3585     -3.6637     18.8189    101.5850
  1264.5000     19.5892     -3.1796     19.2244    102.5966
  1264.7500     19.5368     -2.6563     19.3710    103.7985
  1265.0000     19.1913     -2.1001     19.2129    106.1602
  1265.2500     18.5981     -1.5212     18.7533    108.5614
  1265.5000     17.8387     -0.9326     18.0448    114.3029
  1265.7500     17.0024     -0.3489     17.1709    119.4928
  1266.0000     16.1646      0.2146     16.2214    128.1536
  1266.2500     15.3761      0.7417     15.2740    133.6696
  1266.5000     14.6633      1.2165     14.3855    140.3815
  1266.7500     14.0346      1.6230     13.5907    143.3935
  1267.0000     13.4909      1.9468     12.9057    145.8530
  1267.2500     13.0327      2.1762     12.3325    146.7513
  1267.5000     12.6594      2.3034     11.8638    148.1913
  1267.7500     12.3640      2.3255     11.4871    149.3876
  1268.0000     12.1299      2.2444     11.1872    150.7478
  1268.2500     11.9373      2.0660     10.9495    150.8400
  1268.5000     11.7728      1.7996     10.7624    149.8665
  1268.7500     11.6354      1.4567     10.6186    149.0984
  1269.0000     11.5359      1.0509     10.5159    148.7735
  1269.2500     11.4897      0.5966     10.4565    149.2564
  1269.5000     11.5074      0.1096     10.4446    150.4448
  1269.7500     11.5851     -0.3939     10.4827    150.8045
  1270.0000     11.7001     -0.8976     10.5663    149.1467
  1270.2500     11.8159     -1.3864     10.6786    146.0323
  1270.5000     11.8954     -1.8469     10.7907    139.0880
  1270.7500     11.9156     -2.2691     10.8681    134.3695
  1271.0000     11.8735     -2.6466     10.8822    129.8761
  1271.2500     11.7842     -2.9764     10.8204    129.3692
  1271.5000     11.6724     -3.2590     10.6882    131.7379
  1271.7500     11.5621     -3.4966     10.5037    134.5493
  1272.0000     11.4676     -3.6921     10.2917    139.7481
  1272.2500     11.3908     -3.8481     10.0781    143.8980
  1272.5000     11.3286     -3.9668      9.8885    151.4495
  1272.7500     11.2840     -4.0497      9.7464    157.3161
  1273.0000     11.2731     -4.0984      9.6724    166.5117
  1273.2500     11.3207     -4.1151      9.6823    171.8230
  1273.5000     11.4537     -4.1024      9.7866    175.9922
  1273.7500     11.7020     -4.0635      9.9905    174.8953
  1274.0000     12.1080     -4.0010     10.2963    166.5064
  1274.2500     12.7360     -3.9161     10.7062    156.9070
  1274.5000     13.6656     -3.8083     11.2247    138.8707
  1274.7500     14.9660     -3.6755     11.8584    126.2109
  1275.0000     16.6623     -3.5144     12.6141    108.7420
  1275.2500     18.7076     -3.3221     13.4938     98.8331
  1275.5000     20.9703     -3.0970     14.4874     86.9217
  1275.7500     23.2411     -2.8396     15.5618     80.9515
  1276.0000     25.2669     -2.5522     16.6485     74.9414
  1276.2500     26.8101     -2.2363     17.6402     73.0904
  1276.5000     27.7036     -1.8903     18.4073     74.3987
  1276.7500     27.8634     -1.5054     18.8355     78.3044
  1277.0000     27.2674     -1.0636     18.8644     87.4990
  1277.2500     25.9488     -0.5372     18.4993     94.0750
  1277.5000     24.0244      0.1074     17.7978    101.5990
  1277.7500     21.7142      0.9028     16.8498    104.5197
  1278.0000     19.3026      1.8726     15.7602    107.3802
  1278.2500     17.0549      3.0228     14.6311    109.8672
