~Version Information
VERS.                      2.0: CWLS Log ASCII Standard - VERSION 2.0
WRAP.                       NO: One line per depth step
~Well Information Block
STRT.FT                -2.7500: 
STOP.FT              2141.2500: 
STEP.FT                 0.2500: 
NULL.                -999.2500: 
COMP.          Pioneer Nautural Resources: COMPANY
WELL.             Enzo 43-8 Tr: WELL
FLD.           Purgatorie River: FIELD
LOC.           2303' FSL & 604' FEL--: LOCATION
PROV.                       CO: PROVINCE
CNTY.               Las Animas: COUNTRY
SRVC.                         : SERVICE COMPANY
DATE.          Thu Nov 04 09:01:55 2004: LOG DATE
UWI.            05-071-08213  : UNIQUE WELL ID
~Curve Information Block
DEPT.FT            0 000 00 00: Depth
GR.GAPI                       : Gamma Ray
CCL.                          : Casing Collar Locator
TT3.usec                      : CBL 3' Travel Time
AMP3.mV                       : CBL 3' Amplitude
~Parameter Information Block
~A  Depth        GR         CCL         TT3         AMP3    
# ...
  1973.7500    151.2481      0.0000    714.3948      7.9563
  1974.0000    146.9657      0.0000    723.3046      7.9459
  1974.2500    141.6909      0.0000    731.0065      7.9170
  1974.5000    137.5894      0.0000    736.2362      7.8465
  1974.7500    136.4955      0.0000    739.2261      7.7258
  1975.0000    138.9201      0.0000    741.5128      7.5723
  1975.2500    143.3031      0.0000    745.3735      7.4198
  1975.5000    146.6693      0.0000    753.2886      7.2915
  1975.7500    146.7315      0.0000    767.2101      7.1824
  1976.0000    143.5379      0.0000    787.3499      7.0681
  1976.2500    139.1635      0.0000    810.9704      6.9310
  1976.5000    135.9913      0.0000    832.1229      6.7839
  1976.7500    134.9236      0.0000    843.5351      6.6659
  1977.0000    134.7358      0.0000    840.4678      6.6112
  1977.2500    133.0804      0.0000    823.9304      6.6155
  1977.5000    128.3097      0.0000    800.1727      6.6363
  1977.7500    120.5492      0.0000    776.7124      6.6258
  1978.0000    111.4128      0.0000    758.4263      6.5617
  1978.2500    102.8092      0.0000    746.2932      6.4464
  1978.5000     95.7265      0.0000    738.6418      6.2894
  1978.7500     89.9046      0.0000    733.9124      6.1069
  1979.0000     84.5337      0.0000    732.9080      5.9422
  1979.2500     78.9999      0.0000    737.8567      5.8670
  1979.5000     73.0016      0.0000    748.8467      5.9411
  1979.7500     66.5050      0.0000    762.0389      6.1662
  1980.0000     59.9724      0.0000    772.0646      6.4805
  1980.2500     54.3591      0.0000    775.6912      6.7915
  1980.5000     50.5142      0.0000    772.9321      7.0128
  1980.7500     48.6336      0.0000    765.7296      7.0944
  1981.0000     48.4715      0.0000    756.3101      7.0419
  1981.2500     49.8942      0.0000    746.6116      6.9171
  1981.5000     52.9232      0.0000    739.0995      6.8117
  1981.7500     57.3398      0.0000    737.5296      6.8024
  1982.0000     62.6144      0.0000    745.3470      6.9069
  1982.2500     68.3288      0.0000    762.3622      7.0777
  1982.5000     74.5289      0.0000    783.7669      7.2439
  1982.7500     81.3820      0.0000    803.1437      7.3603
  1983.0000     88.2058      0.0000    815.7134      7.4137
  1983.2500     92.9030      0.0000    818.9340      7.4005
  1983.5000     93.1119      0.0000    812.3768      7.3268
  1983.7500     88.4558      0.0000    798.4974      7.2369
  1984.0000     81.4057      0.0000    782.3102      7.2134
  1984.2500     75.5907      0.0000    768.7570      7.3250
  1984.5000     73.2157      0.0000    760.0969      7.5743
  1984.7500     73.8299      0.0000    755.7292      7.9046
  1985.0000     75.0611      0.0000    753.8911      8.2475
  1985.2500     74.4465      0.0000    753.1292      8.5508
  1985.5000     71.1441      0.0000    752.7015      8.7777
  1985.7500     66.6654      0.0000    752.3510      8.9104
  1986.0000     64.2553      0.0000    752.1205      8.9655
  1986.2500     66.9744      0.0000    752.3167      8.9971
  1986.5000     75.4717      0.0000    753.5474      9.0748
  1986.7500     87.2468      0.0000    756.6841      9.2511
  1987.0000     98.2390      0.0000    762.5623      9.5375
  1987.2500    105.3636      0.0000    771.4801      9.9020
  1987.5000    108.1527      0.0000    783.0831     10.2869
  1987.7500    108.6668      0.0000    796.8937     10.6320
  1988.0000    109.8138      0.0000    812.2556     10.8917
  1988.2500    113.1994      0.0000    826.7661     11.0482
  1988.5000    118.2704      0.0000    835.4321     11.1180
  1988.7500    123.3162      0.0000    833.4991     11.1386
  1989.0000    126.7356      0.0000    820.9689     11.1415
  1989.2500    127.1785      0.0000    803.3098     11.1370
  1989.5000    123.6213      0.0000    787.2233     11.1194
  1989.7500    116.6030      0.0000    776.2197     11.0739
  1990.0000    109.0365      0.0000    770.1034     10.9836
  1990.2500    104.4796      0.0000    767.4541     10.8448
  1990.5000    104.3609      0.0000    767.4017     10.6804
  1990.7500    107.3642      0.0000    768.9600     10.5288
  1991.0000    111.2746      0.0000    769.9359     10.4159
  1991.2500    114.8645      0.0000    767.8214     10.3429
  1991.5000    118.1300      0.0000    761.7015     10.2955
  1991.7500    121.2816      0.0000    752.6321     10.2545
  1992.0000    123.9319      0.0000    742.5888     10.2009
  1992.2500    125.3695      0.0000    733.9337     10.1235
  1992.5000    125.4789      0.0000    729.2264     10.0227
  1992.7500    125.2545      0.0000    729.9020      9.9051
  1993.0000    126.2566      0.0000    734.8113      9.7797
  1993.2500    129.2781      0.0000    740.9205      9.6602
  1993.5000    133.4594      0.0000    745.6623      9.5623
  1993.7500    137.1075      0.0000    748.2784      9.4900
  1994.0000    139.4893      0.0000    749.2822      9.4263
  1994.2500    141.2999      0.0000    749.3331      9.3453
  1994.5000    143.4449      0.0000    748.5833      9.2369
  1994.7500    146.2927      0.0000    746.4329      9.1180
  1995.0000    150.0730      0.0000    741.6061      9.0208
  1995.2500    154.6604      0.0000    733.0319      8.9671
  1995.5000    158.7784      0.0000    721.4844      8.9503
  1995.7500    160.7477      0.0000    710.3253      8.9413
  1996.0000    160.4645      0.0000    703.3223      8.9156
  1996.2500    159.6792      0.0000    700.8039      8.8717
  1996.5000    159.9491      0.0000    698.7269      8.8239
  1996.7500    161.1940      0.0000    692.9113      8.7803
  1997.0000    162.6251      0.0000    684.0185      8.7337
  1997.2500    164.0196      0.0000    677.3019      8.6719
  1997.5000    165.2403      0.0000    677.5316      8.5890
  1997.7500    165.4737      0.0000    684.8866      8.4827
  1998.0000    164.1792      0.0000    695.0944      8.3460
  1998.2500    162.1925      0.0000    702.2798      8.1699
  1998.5000    160.7773      0.0000    702.2571      7.9594
  1998.7500    160.0525      0.0000    695.0549      7.7423
  1999.0000    159.2519      0.0000    685.1221      7.5562
  1999.2500    158.2016      0.0000    678.1501      7.4252
  1999.5000    157.8064      0.0000    676.7173      7.3480
  1999.7500    159.1495      0.0000    678.9462      7.3059
  2000.0000    162.5047      0.0000    681.6483      7.2809
  2000.2500    166.9870      0.0000    684.5399      7.2657
  2000.5000    170.7042      0.0000    690.3290      7.2605
  2000.7500    171.3810      0.0000    699.9445      7.2600
  2001.0000    167.3790      0.0000    708.5617      7.2465
  2001.2500    158.5645      0.0000    707.9493      7.1999
  2001.5000    146.5792      0.0000    693.5746      7.1173
  2001.7500    134.5189      0.0000    669.6647      7.0178
  2002.0000    125.8297      0.0000    647.0614      6.9274
  2002.2500    122.5378      0.0000    635.6166      6.8663
  2002.5000    124.0744      0.0000    638.2341      6.8542
  2002.7500    127.7205      0.0000    651.3088      6.9118
  2003.0000    130.1100      0.0000    669.0466      7.0435
  2003.2500    128.6882      0.0000    686.4514      7.2176
  2003.5000    122.8015      0.0000    699.9224      7.3753
  2003.7500    114.1785      0.0000    707.8007      7.4668
  2004.0000    106.1552      0.0000    710.8472      7.4847
  2004.2500    101.7507      0.0000    710.9385      7.4636
  2004.5000    101.9702      0.0000    709.5218      7.4499
  2004.7500    105.6469      0.0000    708.3349      7.4723
  2005.0000    110.7147      0.0000    710.2152      7.5381
  2005.2500    115.5936      0.0000    716.8310      7.6434
  2005.5000    119.5574      0.0000    726.0563      7.7761
  2005.7500    122.2327      0.0000    733.1365      7.9084
  2006.0000    123.2971      0.0000    734.0727      8.0031
  2006.2500    122.8002      0.0000    727.4865      8.0357
  2006.5000    121.2951      0.0000    714.6648      8.0129
  2006.7500    119.2833      0.0000    698.8851      7.9697
  2007.0000    116.9639      0.0000    683.7043      7.9500
