~Version Information
VERS.                      2.0: CWLS Log ASCII Standard - VERSION 2.0
WRAP.                       NO: One line per depth step
~Well Information Block
STRT.FT               -11.2500: 
STOP.FT              1597.0000: 
STEP.FT                 0.2500: 
NULL.                -999.2500: 
COMP.          Petrogulf Corporation: COMPANY
WELL.          Great Plains 22-21R: WELL
FLD.           Purgatorie River: FIELD
LOC.           73' FNL & 1992' FWL--: LOCATION
PROV.                       CO: PROVINCE
CNTY.               Las Animas: COUNTRY
SRVC.          Patterson Wireline: SERVICE COMPANY
DATE.          Fri Sep 09 09:02:35 2005: LOG DATE
UWI.           05 071 08343 00: UNIQUE WELL ID
~Curve Information Block
DEPT.FT            0 000 00 00: Depth
CCL.                          : Casing Collar Locator
TT3.usec                      : CBL 3' Travel Time
AMP3.mV                       : CBL 3' Amplitude
GR.GAPI                       : Gamma Ray
~Parameter Information Block
~A  Depth       CCL         TT3         AMP3         GR     
   -11.2500   -999.2500   -999.2500   -999.2500     68.4877
   -11.0000   -999.2500   -999.2500   -999.2500     65.1908
   -10.7500   -999.2500   -999.2500   -999.2500     62.3459
   -10.5000   -999.2500   -999.2500   -999.2500     61.6688
   -10.2500   -999.2500   -999.2500   -999.2500     63.8439
   -10.0000   -999.2500   -999.2500   -999.2500     68.3304
    -9.7500   -999.2500   -999.2500   -999.2500     73.7151
    -9.5000   -999.2500   -999.2500   -999.2500     78.1838
    -9.2500   -999.2500   -999.2500   -999.2500     80.2218
    -9.0000   -999.2500   -999.2500   -999.2500     79.4630
    -8.7500   -999.2500   -999.2500   -999.2500     77.0289
    -8.5000   -999.2500   -999.2500   -999.2500     74.8180
    -8.2500   -999.2500   -999.2500   -999.2500     74.1280
    -8.0000   -999.2500   -999.2500   -999.2500     74.8898
    -7.7500   -999.2500   -999.2500   -999.2500     76.2219
    -7.5000   -999.2500   -999.2500   -999.2500     77.3925
    -7.2500   -999.2500   -999.2500   -999.2500     78.0076
    -7.0000   -999.2500   -999.2500   -999.2500     77.6478
    -6.7500   -999.2500   -999.2500   -999.2500     75.9320
    -6.5000   -999.2500   1149.0000      1.9837     73.0721
    -6.2500   -999.2500   1149.0000      1.9846     70.1295
    -6.0000   -999.2500   1149.0000      1.9870     68.4040
    -5.7500   -999.2500   1149.0000      1.9936     68.3300
    -5.5000   -999.2500   1149.0000      2.0044     69.0875
    -5.2500   -999.2500   1149.0000      2.0154     69.4935
    -5.0000   -999.2500   1149.0000      2.0220     69.0138
    -4.7500   -999.2500   1149.0000      2.0226     67.5512
    -4.5000   -999.2500   1149.0000      2.0181     64.7037
    -4.2500   -999.2500   1149.0000      2.0095     60.1477
    -4.0000   -999.2500   1149.0000      1.9988     54.8355
    -3.7500   -999.2500   1149.0000      1.9894     50.9319
    -3.5000   -999.2500   1149.0000      1.9842     49.9616
    -3.2500   -999.2500   1149.0000      1.9835     51.2269
    -3.0000   -999.2500   1149.0000      1.9857     52.4068
    -2.7500   -999.2500   1149.0000      1.9890     51.5659
    -2.5000   -999.2500   1149.0000      1.9919     48.2601
    -2.2500   -999.2500   1149.0000      1.9937     43.1316
    -2.0000   -999.2500   1149.0000      1.9958     37.3397
    -1.7500   -999.2500   1149.0000      2.0006     32.4711
    -1.5000   -999.2500   1149.0000      2.0096     30.1676
    -1.2500   -999.2500   1149.0000      2.0217     31.2316
    -1.0000   -999.2500   1149.0000      2.0336     35.1135
    -0.7500      0.0000   1149.0000      2.0404     40.3519
    -0.5000      0.0000   1149.0000      2.0385     45.4696
    -0.2500      0.0000   1149.0000      2.0294     49.6022
     0.0000      0.0000   1149.0000      2.0205     52.5295
     0.2500      0.0000   1149.0000      2.0199     54.2381
     0.5000      0.0000   1149.0000      2.0293     54.4942
     0.7500      0.0000   1149.0000      2.0418     52.9695
     1.0000      0.0000   1149.0000      2.0472     49.7463
     1.2500      0.0000   1149.0000      2.0230     40.6355
     1.5000      0.0000   1149.0000      2.0035     36.0410
     1.7500      0.0000   1149.0000      1.9864     32.1343
     2.0000      0.0000   1149.0000      1.9731     29.1717
     2.2500      0.0000   1148.9630      1.9650     27.1035
     2.5000      0.0000   1148.6996      1.9735     25.8688
     2.7500      0.0000   1147.3290      2.0400     25.5567
     3.0000      0.0000   1141.7427      2.3173     26.1607
     3.2500      0.0000   1123.8812      3.2557     27.3978
     3.5000      0.0000   1079.0179      5.8421     28.9202
     3.7500      0.0000    990.3663     11.5566     30.6010
     4.0000      0.0000    852.3444     21.5893     32.5827
     4.2500      0.0000    682.7996     35.5133     35.0696
     4.5000     -2.0000    518.2803     50.7369     38.0273
     4.7500      0.0000    392.0606     63.8188     41.1368
     5.0000      0.0000    315.4619     72.6458     44.0663
     5.2500      0.0000    278.6900     77.3347     46.6092
     5.5000      0.0000    264.7296     79.3273     48.4942
     5.7500      0.0000    260.5374     80.0514     49.3298
     6.0000      0.0000    259.5375     80.3257     48.9291
     6.2500      0.0000    259.3449     80.4627     47.6868
     6.5000      0.0000    259.3202     80.5436     46.5587
     6.7500      0.0000    259.3251     80.5914     46.4925
     7.0000      0.0000    259.3338     80.6301     47.6389
     7.2500      0.0000    259.3409     80.6843     49.0802
     7.5000      0.0000    259.3422     80.7667     49.5784
     7.7500      0.0000    259.3363     80.8707     48.6943
     8.0000      0.0000    259.3237     80.9769     46.9663
     8.2500      0.0000    259.3062     81.0659     45.0168
     8.5000      0.0000    259.2881     81.1283     43.0645
     8.7500      0.0000    259.2751     81.1657     41.6218
     9.0000      0.0000    259.2714     81.1856     41.9703
     9.2500      0.0000    259.2768     81.1956     45.0078
     9.5000      0.0000    259.2868     81.2046     49.6822
     9.7500      0.0000    259.2947     81.2268     53.3427
    10.0000      0.0000    259.2960     81.2748     53.9205
    10.2500      0.0000    259.2918     81.3444     51.5110
    10.5000      0.0000    259.2889     81.4129     47.8798
    10.7500      0.0000    259.2933     81.4583     44.8926
    11.0000      0.0000    259.3051     81.4772     43.4777
    11.2500      0.0000    259.3190     81.4815     43.5068
    11.5000      0.0000    259.3287     81.4842     44.1366
    11.7500      0.0000    259.3309     81.4920     44.4024
    12.0000      0.0000    259.3244     81.5077     43.9405
    12.2500      0.0000    259.3095     81.5322     43.1914
    12.5000      0.0000    259.2884     81.5632     42.7441
    12.7500      0.0000    259.2658     81.5956     42.7218
    13.0000      0.0000    259.2478     81.6271     43.1073
    13.2500      0.0000    259.2376     81.6616     44.4102
    13.5000      0.0000    259.2341     81.7046     47.4931
    13.7500      0.0000    259.2350     81.7553     52.6003
    14.0000      0.0000    259.2393     81.8040     58.8021
    14.2500      0.0000    259.2478     81.8374     64.5298
    14.5000      0.0000    259.2596     81.8492     68.6342
    14.7500      0.0000    259.2715     81.8475     70.9436
    15.0000      0.0000    259.2787     81.8509     71.9441
    15.2500      0.0000    259.2769     81.8757     72.2089
    15.5000      0.0000    259.2642     81.9241     72.2252
    15.7500      0.0000    259.2428     81.9855     72.3222
    16.0000      0.0000    259.2188     82.0465     72.2588
    16.2500      0.0000    259.1986     82.1002     71.1263
    16.5000      0.0000    259.1839     82.1486     68.2911
    16.7500      0.0000    259.1712     82.1962     64.4549
    17.0000      0.0000    259.1559     82.2419     61.3173
    17.2500      0.0000    259.1373     82.2769     60.1716
    17.5000      0.0000    259.1175     82.2950     60.9412
    17.7500      0.0000    259.0988     82.3001     62.2974
    18.0000      0.0000    259.0823     82.3027     62.5316
    18.2500      0.0000    259.0687     82.3109     60.6184
    18.5000      0.0000    259.0588     82.3263     56.7638
    18.7500      0.0000    259.0539     82.3468     52.0203
    19.0000      0.0000    259.0538     82.3691     47.4391
    19.2500      0.0000    259.0565     82.3904     43.6481
    19.5000      0.0000    259.0579     82.4073     40.9695
    19.7500      0.0000    259.0527     82.4175     39.5899
    20.0000      0.0000    259.0372     82.4212     39.5539
    20.2500      0.0000    259.0106     82.4159     40.6657
    20.5000      0.0000    258.9760     82.3704     42.3446
    20.7500      0.0000    258.9437     82.1734     43.6548
    21.0000      0.0000    258.9420     81.5664     43.7044
    21.2500      0.0000    259.0573     80.1203     42.2028
    21.5000      0.0000    259.5013     77.3954     39.6867
    21.7500      0.0000    260.6528     73.3016     37.1958
    22.0000      0.0000    262.9090     68.3523     35.6173
