~Version Information
VERS.                      2.0: CWLS Log ASCII Standard - VERSION 2.0
WRAP.                       NO: One line per depth step
~Well Information Block
STRT.FT               500.0000: 
STOP.FT              2732.5000: 
STEP.FT                 0.1000: 
NULL.                -999.2500: 
COMP.          Pioneer Natural Resources: COMPANY
WELL.          Dude Canyon 22-32: WELL
FLD.           Purgatoire River: FIELD
LOC.           1662' FNL & 2446' FWL----: LOCATION
PROV.                 Colorado: PROVINCE
CNTY.               Las Animas: COUNTRY
SRVC.                Patterson: SERVICE COMPANY
DATE.          Thu Mar 10 07:06:34 2005: LOG DATE
UWI.           05 071 08257 00: UNIQUE WELL ID
~Curve Information Block
DEPT.FT            0 000 00 00: Depth
GR.GAPI                       : Gamma Ray
DCAL.in                       : CDL Caliper
DPOR.pu                       : CDL Density Porosity
NPOR.pu                       : Neutron Porosity
RHOB.g/cc                     : CDL Bulk Density
RHOC.g/cc                     : CDL Density Correction
~Parameter Information Block
~A  Depth        GR         DCAL        DPOR        NPOR        RHOB        RHOC    
# ...
  2573.6000    112.7126      7.9644     12.0033     27.1256      2.4519      0.1359
  2573.7000    117.9708      7.9644     11.4311     27.8258      2.4614      0.1128
  2573.8000    119.9876      7.9669     12.3922     28.3364      2.4455      0.0619
  2573.9000    119.0997      7.9669     13.4933     28.6628      2.4274      0.0294
  2574.0000    121.8536      7.9662     13.9770     28.7777      2.4194      0.0384
  2574.1000    131.4808      7.9662     13.8445     28.3088      2.4216     -0.0035
  2574.2000    142.0675      7.9662     13.4263     27.2186      2.4285      0.0373
  2574.3000    143.5233      7.9684     13.4405     26.4079      2.4282      0.0029
  2574.4000    132.4586      7.9684     13.8366     26.6856      2.4217     -0.0034
  2574.5000    117.6433      7.9728     14.0958     27.6905      2.4174      0.0203
  2574.6000    107.9864      7.9728     14.4797     28.6550      2.4111      0.0575
  2574.7000    104.1440      7.9728     15.3761     29.5030      2.3963     -0.0055
  2574.8000    104.4235      7.9788     17.1488     30.2331      2.3670      0.0335
  2574.9000    103.6072      7.9788     20.7721     30.6389      2.3073      0.0297
  2575.0000    101.4257      7.9838     26.4150     30.9170      2.2142     -0.0098
  2575.1000    103.8088      7.9838     32.4066     31.4380      2.1153     -0.0609
  2575.2000    107.0244      7.9838     36.9410     31.9352      2.0405     -0.0932
  2575.3000    106.7353      7.9852     39.7602     31.9675      1.9940     -0.0683
  2575.4000    104.2240      7.9852     41.9329     31.8785      1.9581     -0.0569
  2575.5000     95.4160      7.9862     44.6259     32.3355      1.9137     -0.0350
  2575.6000     82.0042      7.9862     47.7659     33.0404      1.8619     -0.0604
  2575.7000     71.3925      7.9862     50.1048     32.8992      1.8233     -0.0084
  2575.8000     64.8539      7.9888     50.6844     31.9319      1.8137      0.0092
  2575.9000     59.2397      7.9888     49.2726     30.9918      1.8370      0.0606
  2576.0000     58.0150      7.9906     46.0862     30.1689      1.8896      0.0832
  2576.1000     69.2832      7.9906     41.8324     29.4548      1.9598      0.1316
  2576.2000     86.4920      7.9906     37.4873     29.0471      2.0315      0.1522
  2576.3000     97.5786      7.9905     33.5405     28.9427      2.0966      0.1595
  2576.4000    104.3961      7.9905     29.7857     29.1196      2.1585      0.1554
  2576.5000    108.4250      7.9919     25.8857     29.3907      2.2229      0.1379
  2576.6000    106.5535      7.9919     22.0653     29.5181      2.2859      0.1451
  2576.7000     99.3295      7.9919     19.0071     29.2992      2.3364      0.1110
  2576.8000     90.4904      7.9934     16.9254     28.8963      2.3707      0.0881
  2576.9000     91.5836      7.9934     15.2128     28.6271      2.3990      0.0574
  2577.0000    103.7218      7.9936     13.2897     28.4573      2.4307      0.0611
  2577.1000    106.4459      7.9936     11.6990     28.3762      2.4570      0.0993
  2577.2000     98.9963      7.9936     11.3755     28.2037      2.4623      0.1029
  2577.3000    101.5734      7.9946     12.2655     27.6506      2.4476      0.0883
  2577.4000    111.1016      7.9946     13.3325     27.2498      2.4300      0.0420
  2577.5000    112.5536      7.9948     13.4323     27.5845      2.4284      0.0338
  2577.6000    115.8593      7.9948     12.3665     28.2543      2.4460      0.0367
  2577.7000    136.6785      7.9948     11.5506     28.6525      2.4594      0.0998
  2577.8000    152.0346      7.9938     12.3062     28.8262      2.4469      0.0447
  2577.9000    138.4739      7.9938     13.3406     28.9364      2.4299     -0.0113
  2578.0000    120.6130      7.9942     12.8804     28.8678      2.4375      0.0255
  2578.1000    117.5467      7.9942     11.8942     28.6832      2.4537      0.0827
  2578.2000    115.6577      7.9942     11.8671     28.5792      2.4542      0.0428
  2578.3000    101.8655      7.9952     12.3231     28.4736      2.4467      0.0274
  2578.4000     82.1906      7.9952     12.8156     28.3666      2.4385      0.0547
  2578.5000     74.2296      7.9926     13.5427     28.4146      2.4265      0.0278
  2578.6000     87.3095      7.9926     13.8893     28.5908      2.4208      0.0053
  2578.7000    110.8492      7.9926     13.6880     28.7590      2.4241      0.0708
  2578.8000    126.7802      7.9866     13.7485     28.6670      2.4231      0.0277
  2578.9000    128.3618      7.9866     13.9044     28.2470      2.4206      0.0229
  2579.0000    124.8601      7.9798     13.6748     27.8945      2.4244      0.0732
  2579.1000    128.9215      7.9798     13.5637     27.9074      2.4262      0.0588
  2579.2000    139.7013      7.9798     14.1869     28.4836      2.4159      0.0560
  2579.3000    141.1974      7.9751     15.5515     29.5788      2.3934      0.0184
  2579.4000    130.8178      7.9751     17.0400     30.3196      2.3688      0.0301
  2579.5000    125.0720      7.9752     18.0603     30.1915      2.3520     -0.0009
  2579.6000    122.3699      7.9752     18.3860     29.7553      2.3466      0.0305
  2579.7000    112.2821      7.9752     17.7621     29.6522      2.3569      0.0233
  2579.8000    107.6924      7.9776     16.5483     29.7819      2.3770      0.0707
  2579.9000    119.3783      7.9776     16.1616     29.7225      2.3833      0.0949
  2580.0000    136.6144      7.9766     16.8687     29.2576      2.3717      0.0458
  2580.1000    146.8842      7.9766     17.3314     28.4505      2.3640      0.0378
  2580.2000    155.7223      7.9766     16.8640     28.0619      2.3717      0.0301
  2580.3000    159.6433      7.9731     15.7097     28.5656      2.3908      0.0485
  2580.4000    145.6832      7.9731     14.4416     29.2566      2.4117      0.0760
  2580.5000    128.2353      7.9712     13.5109     29.2799      2.4271      0.0256
  2580.6000    128.8464      7.9712     12.8517     28.7904      2.4379      0.0386
  2580.7000    138.3636      7.9712     12.6278     28.5396      2.4416      0.0685
  2580.8000    140.0646      7.9720     12.6447     28.5048      2.4414     -0.0027
  2580.9000    141.4912      7.9720     11.9819     28.2143      2.4523      0.0316
  2581.0000    149.6439      7.9724     10.9998     27.6526      2.4685      0.0678
  2581.1000    148.4184      7.9724     10.9904     27.2400      2.4687      0.0596
  2581.2000    133.7368      7.9724     11.8783     27.4299      2.4540      0.0161
  2581.3000    121.2302      7.9705     12.4028     27.8548      2.4454      0.0134
  2581.4000    117.9056      7.9705     11.6434     27.6759      2.4579      0.0222
  2581.5000    119.8450      7.9689      9.7542     26.8901      2.4891      0.0650
  2581.6000    123.2965      7.9689      7.8246     26.2056      2.5209      0.0559
  2581.7000    127.8748      7.9689      6.9191     25.9739      2.5358      0.0599
  2581.8000    131.3257      7.9699      7.1067     26.0530      2.5327      0.0484
  2581.9000    130.1080      7.9699      7.7442     26.2044      2.5222      0.0435
  2582.0000    124.5840      7.9709      8.4584     26.2235      2.5104      0.0336
  2582.1000    123.2143      7.9709      8.9043     26.0651      2.5031      0.0224
  2582.2000    126.1878      7.9709      8.3900     26.1207      2.5116      0.0025
  2582.3000    125.8499      7.9730      7.2729     26.7109      2.5300      0.0540
  2582.4000    130.9018      7.9730      6.9696     27.2334      2.5350      0.0352
  2582.5000    144.4142      7.9762      7.4771     27.0922      2.5266      0.0027
  2582.6000    146.7782      7.9762      7.5424     26.4951      2.5255      0.0188
  2582.7000    136.4989      7.9762      6.6906     26.0495      2.5396      0.0184
  2582.8000    130.6447      7.9756      5.2660     26.1129      2.5631      0.0204
  2582.9000    130.8766      7.9756      4.2202     26.6122      2.5804      0.0817
  2583.0000    133.9123      7.9738      4.3884     26.9274      2.5776      0.0316
  2583.1000    138.8474      7.9738      5.0437     26.5566      2.5668      0.0177
