~Version Information
 VERS.                                  2.0 : CWLS LAS VERSION
 WRAP.                                   NO : WRAPING MODE
 SWARE .                 MController 2.5.0J : SOFTWARE VERSION
~Well Information
 WELL.                       Costello 44-24 : WELL
 COMP.    Pioneer Natural Resources USA Inc : COMPANY
 FLD.                      Purgatoire River : FIELD
 LOC.                SE/SE Sec 24 T32S R67W : LOCATION
 DATE.                            7/10/2005 : DATE(S) LOGGED
 SRVC.       BLANCO Geological Services LLC : SERVICE COMPANY
 STAT.                                   CO : STATE
 CNTY.                           Las Animas : COUNTY
 CTRY.                                  USA : COUNTRY
 API.                       05-071-08413-00 : API NUMBER
 STRT.FT                             305.00 : START DEPTH
 STOP.FT                            2545.00 : STOP DEPTH
 STEP.FT                               1.00 : DEPTH INCREMENT
 NULL.                                 999 : NULL VALUE
~Curve information
 DEPTH.FT                                   :
 ROP.MIN/FT                                 :
 GAS.UNITS                                  :
~ASCII Log data
# ...
       505.0         0.30          3.4 
       506.0         0.30          3.2 
       507.0         0.20          3.2 
       508.0         0.17          3.3 
       509.0         0.17          3.1 
       510.0         0.13          2.9 
       511.0         0.20          2.9 
       512.0         0.17          3.1 
       513.0         0.17          2.6 
       514.0         0.20          2.5 
       515.0         0.17          2.2 
       516.0         0.17          2.4 
       517.0         0.17          2.0 
       518.0         0.17          2.1 
       519.0         0.17          2.5 
       520.0         0.20          2.5 
       521.0         0.18          2.3 
       522.0         0.23          2.5 
       523.0         0.17          3.0 
       524.0         0.17          2.8 
       525.0         0.17          2.7 
       526.0         0.17          3.1 
       527.0         0.20          3.2 
       528.0         0.17          3.2 
       529.0         0.17          3.0 
       530.0         0.20          3.0 
       531.0         0.17          3.2 
       532.0         0.27          3.1 
       533.0         0.37          3.1 
       534.0         0.40          2.8 
       535.0         0.27          3.1 
       536.0         1.35          3.4 
       537.0         0.17          2.8 
       538.0         0.17          2.8 
       539.0         0.23          3.0 
       540.0         0.20          2.8 
       541.0         0.17          3.1 
       542.0         0.17          3.1 
       543.0         0.20          3.2 
       544.0         0.27          3.2 
       545.0         0.20          3.2 
       546.0         0.20          3.3 
       547.0         0.25          3.6 
       548.0         0.20          2.9 
       549.0         0.23          3.4 
       550.0         0.20          2.8 
       551.0         0.20          3.5 
       552.0         0.17          3.0 
       553.0         0.17          3.1 
       554.0         0.17          3.1 
       555.0         0.20          3.3 
       556.0         0.23          3.1 
       557.0         0.20          3.1 
       558.0         0.23          3.1 
       559.0         0.23          3.6 
       560.0         0.20          3.1 
       561.0         0.20          3.1 
       562.0         0.20          3.2 
       563.0         0.25          3.2 
       564.0         0.27          3.6 
       565.0         0.23          3.0 
       566.0         0.40          3.0 
       567.0         1.13          3.3 
       568.0         0.30          2.9 
       569.0         0.27          3.0 
       570.0         0.27          2.9 
       571.0         0.27          2.8 
       572.0         0.25          3.3 
       573.0         0.20          3.0 
       574.0         0.20          3.1 
       575.0         0.20          3.4 
       576.0         0.20          3.4 
       577.0         0.20          3.4 
       578.0         0.20          3.1 
       579.0         0.17          3.7 
       580.0         0.17          3.6 
       581.0         0.20          3.5 
       582.0         0.17          3.3 
       583.0         0.17          3.6 
       584.0         0.17          3.2 
       585.0         0.17          3.9 
       586.0         0.20          6.9 
       587.0         0.20         43.2 
       588.0         0.20         32.0 
       589.0         0.17          5.8 
       590.0         0.18          0.6 
       591.0         0.17          1.4 
       592.0         0.20          0.1 
       593.0         0.17          0.3 
       594.0         0.20          0.6 
       595.0         0.20          0.8 
       596.0         2.13          2.5 
       597.0         0.35          2.2 
       598.0         0.23          2.3 
       599.0         0.20          2.3 
       600.0         0.23          2.3 
       601.0         0.17          2.6 
       602.0         0.27          2.4 
       603.0         0.23          2.7 
       604.0         0.20          2.7 
       605.0         0.17          2.4 
       606.0         0.17          2.7 
       607.0         0.17          2.5 
       608.0         0.17          2.6 
       609.0         0.17          2.6 
       610.0         0.13          3.0 
       611.0         0.20          2.8 
       612.0         0.17          3.0 
       613.0         0.20          3.3 
       614.0         0.18          3.1 
       615.0         0.17          2.9 
       616.0         0.17          2.9 
       617.0         0.20          3.0 
       618.0         0.23          2.9 
       619.0         0.23          2.9 
       620.0         0.23          3.1 
       621.0         0.27          2.9 
       622.0         0.33          2.9 
       623.0         0.30          3.5 
       624.0         0.17          2.7 
       625.0         0.17          2.7 
       626.0         1.85          3.3 
       627.0         0.23          2.9 
       628.0         0.30          3.1 
       629.0         0.27          3.0 
       630.0         0.20          2.9 
       631.0         0.23          3.1 
       632.0         0.20          3.2 
       633.0         0.20          2.8 
       634.0         0.20          3.1 
       635.0         0.17          3.1 
       636.0         0.22          3.1 
       637.0         0.23          3.1 
       638.0         0.27          3.1 
       639.0         0.27          3.2 
       640.0         0.27          3.4 
       641.0         0.23          3.4 
       642.0         0.20          3.3 
       643.0         0.13          3.4 
       644.0         0.10          3.5 
       645.0         0.20          3.5 
       646.0         0.20          3.4 
       647.0         0.23          3.7 
       648.0         0.17          3.7 
       649.0         0.23          3.3 
       650.0         0.23          3.3 
       651.0         0.17          2.9 
       652.0         0.17          2.9 
       653.0         0.18          2.9 
       654.0         0.17          2.9 
       655.0         0.13          2.5 
       656.0         1.77          3.5 
       657.0         0.23          2.9 
       658.0         0.23          3.0 
       659.0         0.27          3.1 
       660.0         0.30          2.6 
       661.0         0.45          3.1 
       662.0         0.20          2.7 
       663.0         0.23          2.7 
       664.0         0.23          3.2 
       665.0         0.23          3.0 
       666.0         0.33          3.1 
       667.0         0.17          2.9 
       668.0         0.17          2.9 
       669.0         0.23          2.9 
       670.0         0.27          3.3 
       671.0         0.20          3.3 
       672.0         0.20          3.2 
       673.0         0.23          3.1 
       674.0         0.20          3.1 
       675.0         0.22          3.3 
       676.0         0.23          3.2 
       677.0         0.17          3.4 
       678.0         0.17          3.1 
       679.0         0.17          3.1 
       680.0         0.20          3.4 
       681.0         0.17          3.2 
       682.0         0.20          2.9 
       683.0         0.17          3.0 
       684.0         0.17          3.0 
       685.0         0.13          3.0 
       686.0         2.35          3.4 
       687.0         0.47          3.4 
       688.0         0.40          3.0 
       689.0         0.33          3.4 
       690.0         0.13          2.8 
       691.0         0.20          3.1 
       692.0         0.23          2.9 
       693.0         0.17          2.6 
       694.0         0.20          2.7 
       695.0         0.17          2.8 
       696.0         0.18          3.2 
       697.0         0.20          2.6 
       698.0         0.13          2.8 
       699.0         0.20          3.1 
       700.0         0.17          2.9 
       701.0         0.13          2.9 
       702.0         0.13          3.0 
       703.0         0.17          5.5 
       704.0         0.23         10.6 
