~Version Information
 VERS.                                  2.0 : CWLS LAS VERSION
 WRAP.                                   NO : WRAPING MODE
 SWARE .                 MController 2.5.0N : SOFTWARE VERSION
~Well Information
 WELL.                   Sand Pebbles 13-33 : WELL
 COMP.    Pioneer Natural Resources USA Inc : COMPANY
 FLD.                      Purgatoire River : FIELD
 LOC.                 NW/SW Sec 33 T32S R67W : LOCATION
 DATE.                           3/08-10/05 : DATE(S) LOGGED
 SRVC.         Blanco Geological Services LLC : SERVICE COMPANY
 STAT.                                   CO : STATE
 CNTY.                           Las Animas : COUNTY
 CTRY.                                  USA : COUNTRY
 API.                       05-071-08224-00 : API NUMBER
 STRT.FT                             655.00 : START DEPTH
 STOP.FT                            2730.00 : STOP DEPTH
 STEP.FT                               1.00 : DEPTH INCREMENT
 NULL.                                -9999 : NULL VALUE
~Curve information
 DEPTH.FT                                   :
 ROP.MIN/FT                                 :
 GAS.UNITS                                  :
~ASCII Log data
# ...
      1855.0         0.53         10.1 
      1856.0         0.53         11.0 
      1857.0         0.80          9.7 
      1858.0         0.72          8.6 
      1859.0         0.83          8.7 
      1860.0         0.80         10.5 
      1861.0         9.88          4.5 
      1862.0         0.53          7.3 
      1863.0         0.40         28.7 
      1864.0         0.40         24.3 
      1865.0         0.62          4.4 
      1866.0         0.47          3.8 
      1867.0         0.37          4.0 
      1868.0         0.43          4.0 
      1869.0         0.40          4.0 
      1870.0         0.43          4.5 
      1871.0         0.30          6.2 
      1872.0         0.30          8.6 
      1873.0         0.35         14.5 
      1874.0         0.37         18.5 
      1875.0         0.30         17.0 
      1876.0         0.47         12.0 
      1877.0         0.87          9.3 
      1878.0         0.50          8.2 
      1879.0         0.57         11.4 
      1880.0         0.48         12.3 
      1881.0         0.50         12.6 
      1882.0         0.93         10.4 
      1883.0         0.67         10.0 
      1884.0         0.37         10.8 
      1885.0         0.75         15.1 
      1886.0         0.60         16.4 
      1887.0         0.60         14.0 
      1888.0         0.67         13.7 
      1889.0         0.23         14.6 
      1890.0         0.57         18.1 
      1891.0        14.88         48.1 
      1892.0         0.50         50.1 
      1893.0         0.43         56.6 
      1894.0         0.70         10.1 
      1895.0         0.70          4.5 
      1896.0         0.48          4.7 
      1897.0         0.47          6.4 
      1898.0         0.43         10.2 
      1899.0         0.50         16.7 
      1900.0         0.53         21.5 
      1901.0         0.60         27.4 
      1902.0         0.45         30.1 
      1903.0         0.47         25.3 
      1904.0         0.60         18.6 
      1905.0         0.33         17.1 
      1906.0         0.27         16.4 
      1907.0         0.40         16.1 
      1908.0         0.37         16.8 
      1909.0         0.40         18.3 
      1910.0         0.37         18.6 
      1911.0         0.35         19.0 
      1912.0         0.33         18.7 
      1913.0         0.37         17.8 
      1914.0         0.33         17.5 
      1915.0         0.30         16.6 
      1916.0         0.27         17.3 
      1917.0         0.30         17.3 
      1918.0         0.40         15.8 
      1919.0         0.40         16.0 
      1920.0         0.42         16.7 
      1921.0        10.68         36.6 
      1922.0         0.23         38.0 
      1923.0         0.37         40.9 
      1924.0         0.40         53.4 
      1925.0         0.40         66.7 
      1926.0         0.40         35.7 
      1927.0         0.33         17.0 
      1928.0         0.37          7.0 
      1929.0         0.48          3.4 
      1930.0         0.43          3.3 
      1931.0         0.30          3.8 
      1932.0         0.37          6.1 
      1933.0         0.33          8.8 
      1934.0         0.27         11.2 
      1935.0         0.27         13.4 
      1936.0         0.30         15.9 
      1937.0         0.33         19.8 
      1938.0         0.48         22.2 
      1939.0         0.37         22.4 
      1940.0         0.37         21.5 
      1941.0         0.60         21.0 
      1942.0         0.57         17.8 
      1943.0         0.53         16.8 
      1944.0         0.70         19.5 
      1945.0         0.78         26.3 
      1946.0         0.80         16.9 
      1947.0         0.80         11.3 
      1948.0         0.83         10.4 
      1949.0         0.85         13.3 
      1950.0         0.83         14.3 
      1951.0        15.10         28.0 
      1952.0         0.55         29.1 
      1953.0         0.73         55.8 
      1954.0         0.53         32.5 
      1955.0         0.53         12.3 
      1956.0         0.50          5.2 
      1957.0         0.50          4.6 
      1958.0         0.65          6.6 
      1959.0         0.63         12.2 
      1960.0         0.30         16.5 
      1961.0         0.70         20.7 
      1962.0         0.53         19.1 
      1963.0         0.70         12.6 
      1964.0         0.78         12.3 
      1965.0         0.57         16.3 
      1966.0         0.63         18.0 
      1967.0         0.70         14.9 
      1968.0         0.60         16.9 
      1969.0         0.52         11.2 
      1970.0         0.60         11.8 
      1971.0         0.57         18.3 
      1972.0         0.70         14.2 
      1973.0         0.30         14.4 
      1974.0         0.30         14.7 
      1975.0         0.33         13.9 
      1976.0         0.38         11.9 
      1977.0         0.40         10.0 
      1978.0         0.33         10.8 
      1979.0         0.30         13.0 
      1980.0         0.20         14.7 
      1981.0        22.18          4.5 
      1982.0         0.23          5.9 
      1983.0         0.23          8.6 
      1984.0         0.23         11.6 
      1985.0         0.20         14.4 
      1986.0         0.20         17.0 
      1987.0         0.20         19.0 
      1988.0         0.17         20.8 
      1989.0         0.30         25.0 
      1990.0         0.33         28.4 
      1991.0         0.37         32.1 
      1992.0         0.50         29.6 
      1993.0         0.48         39.8 
      1994.0         0.57         28.0 
      1995.0         0.63         10.2 
      1996.0         0.53          8.1 
      1997.0         0.53         10.1 
      1998.0         0.57         19.3 
      1999.0         1.25         23.4 
      2000.0         0.60         14.5 
      2001.0         0.47          8.8 
      2002.0         0.20          7.6 
      2003.0         0.60          6.3 
      2004.0         0.58          5.4 
      2005.0         0.47          5.9 
      2006.0         0.43          8.4 
      2007.0         0.43         11.1 
      2008.0         0.53         13.5 
      2009.0         0.53         16.3 
      2010.0         0.63         19.4 
      2011.0        18.60          5.1 
      2012.0         0.33          5.3 
      2013.0         0.30          6.4 
      2014.0         0.23          8.0 
      2015.0         0.40         10.3 
      2016.0         0.38         13.8 
      2017.0         0.43         18.0 
      2018.0         0.43         19.0 
      2019.0         0.50         23.3 
      2020.0         0.47         22.9 
      2021.0         0.40         17.3 
      2022.0         0.30         14.0 
      2023.0         1.05         20.6 
      2024.0         0.97         29.9 
      2025.0         0.67         29.9 
      2026.0         0.27         24.6 
      2027.0         0.27         19.4 
      2028.0         0.40         12.8 
      2029.0         0.33         10.2 
      2030.0         0.38         10.1 
      2031.0         0.80         17.0 
      2032.0         0.63         21.0 
      2033.0         1.00         24.3 
      2034.0         0.88         16.5 
      2035.0         0.33         20.1 
      2036.0         0.63         24.1 
      2037.0         0.57         19.4 
      2038.0         0.57         20.7 
      2039.0         0.60         22.9 
      2040.0         0.42         22.0 
      2041.0        21.27         24.5 
      2042.0        17.25         84.0 
      2043.0         0.47         16.7 
      2044.0         0.53          7.5 
      2045.0         0.55         14.6 
      2046.0         0.47         36.0 
      2047.0         0.43         73.2 
      2048.0         0.37         96.0 
      2049.0         0.33        104.3 
      2050.0         0.37        109.9 
      2051.0         0.30        116.3 
      2052.0         0.47        123.2 
      2053.0         0.62        116.4 
      2054.0         0.43        107.2 
