~Version Information
VERS.                      2.0: CWLS Log ASCII Standard - VERSION 2.0
WRAP.                       NO: One line per depth step
~Well Information Block
STRT.FT                -8.5000: 
STOP.FT              1968.0000: 
STEP.FT                 0.2500: 
NULL.                -999.2500: 
COMP.          Pioneer Natural Resources: COMPANY
WELL.           Firehawk 34-26: WELL
FLD.           Purgatorie River: FIELD
LOC.           1196' FSL & 1595' FEL--: LOCATION
STAT.                       CO: State
CNTY.               Las Animas: COUNTY
CTRY. USA : Country
SECT. 26 : Section
TOWN. 32S : Township
RANG. 66W : Range 
SRVC.          Patterson Wireline: SERVICE COMPANY
DATE.          Tue Oct 25 14:45:07 2005: LOG DATE
API.           05 071 08389 00: UNIQUE WELL ID
~Curve Information Block
DEPT.FT            0 000 00 00: Depth
CCL.                          : Casing Collar Locator
TT3.usec                      : CBL 3' Travel Time
AMP3.mV                       : CBL 3' Amplitude
GR.GAPI                       : Gamma Ray
~Parameter Information Block
~A  Depth       CCL         TT3         AMP3         GR     
# ...
   125.5000      0.0000    730.9148      7.3817     87.3898
   125.7500      0.0000    737.0579      7.3840     81.6390
   126.0000      0.0000    741.6317      7.3921     77.7126
   126.2500      0.0000    744.2031      7.3923     77.7246
   126.5000      0.0000    745.1775      7.3732     81.2625
   126.7500      0.0000    744.9280      7.3279     86.2015
   127.0000      0.0000    743.0784      7.2602     90.3673
   127.2500      0.0000    738.4174      7.1847     92.6400
   127.5000      0.0000    729.6604      7.1171     92.9675
   127.7500      0.0000    716.8596      7.0616     91.8298
   128.0000      0.0000    702.2217      7.0118     90.0242
   128.2500      0.0000    689.0883      6.9594     88.7228
   128.5000      0.0000    679.7991      6.9007     89.1326
   128.7500      0.0000    674.5653      6.8348     91.8008
   129.0000      0.0000    672.1453      6.7580     96.3269
   129.2500      0.0000    671.1387      6.6651    101.7086
   129.5000      0.0000    670.6771      6.5562    106.7472
   129.7500      0.0000    670.4060      6.4436    110.1756
   130.0000      0.0000    670.2090      6.3466    110.9534
   130.2500      0.0000    670.0109      6.2793    108.9736
   130.5000      0.0000    669.7492      6.2433    105.4127
   130.7500      0.0000    669.4421      6.2329    101.9853
   131.0000      0.0000    669.2047      6.2417     99.7368
   131.2500      0.0000    669.2305      6.2650     98.5187
   131.5000      0.0000    669.8240      6.2977     97.6031
   131.7500      0.0000    671.4836      6.3347     96.7718
   132.0000      0.0000    674.7297      6.3696     96.4752
   132.2500      0.0000    679.4051      6.3896     96.7766
   132.5000      0.0000    684.0484      6.3826     96.9176
   132.7500      0.0000    686.6781      6.3510     96.4437
   133.0000      0.0000    687.0129      6.3115     96.0650
   133.2500      0.0000    687.6805      6.2778     96.7889
   133.5000      0.0000    692.3820      6.2495     98.6241
   133.7500      0.0000    702.5499      6.2227    100.4867
   134.0000      0.0000    715.9526      6.2009    101.0250
   134.2500      0.0000    728.5427      6.1907     99.4309
   134.5000      0.0000    737.4647      6.1943     95.9733
   134.7500      0.0000    742.3705      6.2105     92.1079
   135.0000      0.0000    744.5004      6.2425     89.7724
   135.2500      0.0000    745.1468      6.2976     90.0974
   135.5000      0.0000    744.8108      6.3817     92.5575
   135.7500      0.0000    743.0981      6.4906     95.3624
   136.0000      0.0000    739.0850      6.6057     96.7298
   136.2500      0.0000    732.3583      6.7010     95.7464
   136.5000      0.0000    724.4329      6.7584     92.1987
   136.7500      0.0000    718.8712      6.7800     86.3987
   137.0000      0.0000    718.8986      6.7833     79.6227
   137.2500      0.0000    724.4975      6.7852     74.0265
   137.5000      0.0000    732.4305      6.7904     71.3061
   137.7500      0.0000    739.1672      6.7933     71.3456
   138.0000      0.0000    743.2507      6.7884     72.3433
   138.2500      0.0000    745.1470      6.7756     72.4379
   138.5000      0.0000    745.8679      6.7583     71.3940
   138.7500      0.0000    746.1031      6.7359     70.5541
   139.0000      0.0000    746.1058      6.7005     70.9957
   139.2500      0.0000    745.8237      6.6412     72.0927
   139.5000      0.0000    744.9933      6.5547     72.1289
   139.7500      0.0000    743.3127      6.4528     69.9234
   140.0000      0.0000    740.8585      6.3609     65.6511
   140.2500      0.0000    738.4768      6.3081     60.5462
   140.5000      0.0000    737.4050      6.3185     56.1521
   140.7500      0.0000    738.1116      6.4051     53.7144
   141.0000      0.0000    739.6073      6.5641     53.8632
   141.2500      0.0000    740.2435      6.7698     56.4122
   141.5000      0.0000    739.2266      6.9822     60.2224
   141.7500      0.0000    737.2740      7.1695     63.4952
   142.0000      0.0000    735.7497      7.3277     64.6147
   142.2500      0.0000    735.2119      7.4721     63.0346
   142.5000      0.0000    735.0758      7.6098     59.5874
   142.7500      0.0000    734.7127      7.7278     56.0236
   143.0000      0.0000    734.1652      7.8097     54.1591
   143.2500      0.0000    733.3993      7.8577     55.0206
   143.5000      0.0000    731.7347      7.8919     58.2056
   143.7500      0.0000    728.9263      7.9299     61.9509
   144.0000      0.0000    726.2243      7.9680     64.2876
   144.2500      0.0000    725.3603      7.9821     64.3683
   144.5000      0.0000    726.7422      7.9489     62.6762
   144.7500      0.0000    729.4667      7.8683     60.3489
   145.0000      0.0000    732.7287      7.7656     58.5944
   145.2500      0.0000    736.2445      7.6738     58.2788
   145.5000      0.0000    739.5041      7.6149     59.4688
   145.7500      0.0000    741.5396      7.5957     61.3164
   146.0000      0.0000    741.6120      7.6142     62.6170
   146.2500      0.0000    739.9228      7.6633     62.5837
   146.5000      0.0000    737.7405      7.7294     61.1221
   146.7500      0.0000    736.7310      7.7958     58.5538
   147.0000      0.0000    737.7388      7.8525     55.2851
   147.2500      0.0000    740.1589      7.9033     51.7363
   147.5000      0.0000    742.6585      7.9580     48.3994
   147.7500      0.0000    744.3508      8.0174     45.7625
   148.0000      0.0000    745.1639      8.0671     44.1914
   148.2500      0.0000    745.4419      8.0831     43.9747
   148.5000      0.0000    745.5168      8.0414     45.4035
   148.7500      0.0000    745.5593      7.9290     48.7693
   149.0000      0.0000    745.5543      7.7559     54.4406
   149.2500      0.0000    745.2463      7.5566     62.7602
   149.5000      0.0000    744.0560      7.3761     73.2097
   149.7500      0.0000    741.1028      7.2489     83.5985
   150.0000      0.0000    735.6242      7.1885     91.0474
   150.2500      0.0000    727.7980      7.1890     94.2823
   150.5000      0.0000    719.2833      7.2287     94.3613
   150.7500      0.0000    712.6956      7.2750     92.9926
   151.0000      0.0000    710.2897      7.2969     90.8189
   151.2500      0.0000    712.8842      7.2807     87.4360
   151.5000      0.0000    719.5469      7.2337     82.4328
   151.7500      0.0000    728.0009      7.1770     76.0751
   152.0000      0.0000    735.7065      7.1399     69.0860
   152.2500      0.0000    741.1018      7.1522     62.1668
   152.5000      0.0000    744.0398      7.2311     56.0183
   152.7500      0.0000    745.1838      7.3703     51.5061
   153.0000      0.0000    745.1187      7.5443     49.3662
   153.2500      0.0000    743.8497      7.7236     49.6941
   153.5000      0.0000    740.7939      7.8827     51.6712
   153.7500      0.0000    735.2657      8.0032     53.7668
   154.0000      0.0000    727.3328      8.0797     54.5891
   154.2500      0.0000    718.3395      8.1230     53.8009
   154.5000      0.0000    710.3350      8.1530     52.0384
   154.7500      0.0000    704.8456      8.1829     50.0231
   155.0000      0.0000    702.2756      8.2097     48.1357
   155.2500      0.0000    702.4127      8.2197     46.8231
   155.5000      0.0000    705.1947      8.2036     46.8455
   155.7500      0.0000    710.7530      8.1638     48.7124
   156.0000      0.0000    718.6890      8.1081     52.0494
   156.2500      0.0000    727.5329      8.0396     55.7177
   156.5000      0.0000    735.2793      7.9571     58.5041
   156.7500      0.0000    740.5997      7.8637     59.7445
   157.0000      0.0000    743.4523      7.7693     59.6195
   157.2500      0.0000    744.6245      7.6876     59.1038
   157.5000      0.0000    744.9542      7.6292     59.4701
   157.7500      0.0000    744.9497      7.5942     61.4966
   158.0000      0.0000    744.8216      7.5707     65.0145
   158.2500      0.0000    744.5631      7.5420     69.1449
   158.5000      0.0000    743.9299      7.4937     72.8217
   158.7500      0.0000    742.3251      7.4187     75.1630
