~Version Information
VERS.                      2.0: CWLS Log ASCII Standard - VERSION 2.0
WRAP.                       NO: One line per depth step
~Well Information Block
STRT.FT                -6.5000: 
STOP.FT              2698.5000: 
STEP.FT                 0.2500: 
NULL.                -999.2500: 
COMP.          Pioneer Natural Resources: COMPANY
WELL.              Cluck 21-25: WELL
FLD.           Purgatorie River: FIELD
LOC.           91' FNL & 1834' FWL--: LOCATION
PROV.                       CO: PROVINCE
CNTY.               Las Animas: COUNTRY
SRVC.          Patterson Wireline: SERVICE COMPANY
DATE.          Mon Jun 13 14:54:35 2005: LOG DATE
UWI.           05 071 08397 00: UNIQUE WELL ID
~Curve Information Block
DEPT.FT            0 000 00 00: Depth
CCL.                          : Casing Collar Locator
TT3.usec                      : CBL 3' Travel Time
AMP3.mV                       : CBL 3' Amplitude
GR.GAPI                       : Gamma Ray
~Parameter Information Block
~A  Depth       CCL         TT3         AMP3         GR     
# ...
  1970.0000      2.0000    817.6998      3.4675    141.7234
  1970.2500      0.0000    801.1843      3.1836    146.6887
  1970.5000      0.0000    781.7674      2.8629    150.3857
  1970.7500      0.0000    761.9215      2.6121    153.8712
  1971.0000      0.0000    744.1589      2.5051    158.3408
  1971.2500      0.0000    728.5829      2.5698    163.9470
  1971.5000      0.0000    712.6645      2.7900    169.6515
  1971.7500      0.0000    696.3289      3.0962    173.9727
  1972.0000      0.0000    685.8265      3.3929    175.4142
  1972.2500      0.0000    688.8571      3.6219    172.7277
  1972.5000      0.0000    705.1337      3.7846    165.6994
  1972.7500      0.0000    724.1525      3.9100    155.5379
  1973.0000      0.0000    733.6801      4.0191    143.8584
  1973.2500      0.0000    729.3027      4.1085    131.6264
  1973.5000      0.0000    715.5561      4.1532    119.6838
  1973.7500      0.0000    700.2460      4.1269    109.9657
  1974.0000      0.0000    689.1645      4.0186    105.2682
  1974.2500      0.0000    684.6407      3.8444    107.2945
  1974.5000      0.0000    686.4074      3.6548    114.9578
  1974.7500      0.0000    692.6671      3.5136    124.9720
  1975.0000      0.0000    700.8439      3.4631    134.4180
  1975.2500      0.0000    708.4266      3.5150    142.6584
  1975.5000      0.0000    713.9049      3.6528    150.6109
  1975.7500      0.0000    717.0674      3.8236    158.4771
  1976.0000      0.0000    718.5034      3.9548    164.7587
  1976.2500      0.0000    718.9536      3.9980    167.4888
  1976.5000      0.0000    719.0612      3.9443    166.0004
  1976.7500      0.0000    719.2235      3.8120    161.5362
  1977.0000      0.0000    718.9353      3.6472    156.4265
  1977.2500      0.0000    715.5141      3.5150    152.4461
  1977.5000      0.0000    703.7122      3.4559    149.5290
  1977.7500      0.0000    679.0997      3.4642    146.3002
  1978.0000      0.0000    644.8229      3.5138    142.0342
  1978.2500      0.0000    614.0824      3.5743    137.5527
  1978.5000      0.0000    601.4838      3.6089    134.0435
  1978.7500      0.0000    610.3400      3.5977    131.7940
  1979.0000      0.0000    630.7253      3.5535    130.3789
  1979.2500      0.0000    649.8723      3.4971    129.3315
  1979.5000      0.0000    661.8193      3.4417    128.3053
  1979.7500      0.0000    667.8997      3.4098    127.2702
  1980.0000      0.0000    671.8265      3.4243    126.7911
  1980.2500      0.0000    675.5865      3.4833    127.3147
  1980.5000      0.0000    677.5897      3.5723    127.9412
  1980.7500      0.0000    673.2728      3.6824    126.7353
  1981.0000      0.0000    658.9315      3.7917    122.7746
  1981.2500      0.0000    636.9102      3.8605    117.4158
  1981.5000      0.0000    616.7542      3.8614    113.2279
  1981.7500      0.0000    609.7546      3.7951    112.1723
  1982.0000      0.0000    621.3893      3.6843    114.8565
  1982.2500      0.0000    648.0298      3.5799    120.7446
  1982.5000      0.0000    679.8058      3.5527    128.7464
  1982.7500      0.0000    706.7528      3.6463    138.0913
  1983.0000      0.0000    723.4891      3.8518    148.5642
  1983.2500      0.0000    729.9495      4.1311    159.1835
  1983.5000      0.0000    729.5435      4.4298    167.0778
  1983.7500      0.0000    726.8917      4.6691    169.1674
  1984.0000      0.0000    725.8792      4.7750    165.2966
  1984.2500      0.0000    728.3697      4.7264    158.7407
  1984.5000      0.0000    733.7144      4.5557    153.2911
  1984.7500      0.0000    739.3625      4.3149    150.3169
  1985.0000      0.0000    742.5701      4.0662    148.6058
  1985.2500      0.0000    742.5797      3.8741    146.3269
  1985.5000      0.0000    741.3312      3.7608    142.8219
  1985.7500      0.0000    741.5566      3.6785    138.9066
  1986.0000      0.0000    743.8545      3.5634    135.9347
  1986.2500      0.0000    746.0259      3.4057    134.6981
  1986.5000      0.0000    745.4911      3.2403    135.0068
  1986.7500      0.0000    741.5400      3.1012    135.8506
  1987.0000      0.0000    734.7551      3.0231    135.5577
  1987.2500      0.0000    725.3756      3.0569    132.1569
  1987.5000      0.0000    713.1898      3.2299    124.4957
  1987.7500      0.0000    697.8593      3.4943    113.3399
  1988.0000      0.0000    678.7894      3.7536    101.0785
  1988.2500      0.0000    656.7258      3.9321     90.2714
  1988.5000      0.0000    636.5587      3.9970     82.4611
  1988.7500      0.0000    625.9506      3.9476     77.8876
  1989.0000      0.0000    628.7116      3.8278     75.8029
  1989.2500      0.0000    640.7397      3.7265     75.0283
  1989.5000      0.0000    654.0245      3.7148     74.4822
  1989.7500      0.0000    663.3594      3.7857     73.2954
  1990.0000      0.0000    668.3001      3.8793     70.7235
  1990.2500      0.0000    670.6645      3.9490     66.5451
  1990.5000      0.0000    672.0241      3.9772     61.7266
  1990.7500      0.0000    673.0743      3.9592     58.2402
  1991.0000      0.0000    674.0113      3.9111     57.8122
  1991.2500      0.0000    674.8904      3.8783     60.6334
  1991.5000      0.0000    675.7582      3.8933     65.0137
  1991.7500      0.0000    676.5994      3.9383     68.2923
  1992.0000      0.0000    677.3212      3.9837     68.5965
  1992.2500      0.0000    677.8086      4.0349     66.2144
  1992.5000      0.0000    678.0079      4.1024     63.2575
  1992.7500      0.0000    677.9631      4.1545     61.8036
  1993.0000      0.0000    677.7736      4.1453     62.2871
  1993.2500      0.0000    677.5051      4.0664     63.7038
  1993.5000      0.0000    677.0090      3.9358     65.2105
  1993.7500      0.0000    675.5956      3.7585     67.1424
  1994.0000      0.0000    671.5717      3.5427     70.4824
  1994.2500      0.0000    662.2379      3.3371     75.9627
  1994.5000      0.0000    645.4600      3.2077     84.0011
  1994.7500      0.0000    622.8168      3.1672     94.7439
  1995.0000      0.0000    601.4128      3.1691    107.4524
  1995.2500      0.0000    590.7993      3.1826    120.1445
  1995.5000      0.0000    596.2358      3.2327    130.3700
  1995.7500      0.0000    614.5848      3.3435    136.3981
  1996.0000      0.0000    636.9962      3.4913    137.7320
  1996.2500      0.0000    655.3787      3.6446    134.8376
  1996.5000      0.0000    666.3875      3.8090    128.7525
  1996.7500      0.0000    670.4990      3.9956    121.0517
  1997.0000      0.0000    668.7440      4.1739    113.8033
  1997.2500      0.0000    660.8690      4.2926    108.8356
  1997.5000      0.0000    646.6430      4.3327    106.7632
  1997.7500      0.0000    629.1193      4.3072    106.9956
  1998.0000      0.0000    615.8973      4.2186    108.5624
  1998.2500      0.0000    615.1880      4.0584    110.4591
  1998.5000      0.0000    629.1038      3.8530    111.3823
  1998.7500      0.0000    651.0735      3.6682    109.7829
  1999.0000      0.0000    670.6497      3.5503    104.6898
  1999.2500      0.0000    681.0578      3.4941     96.8679
  1999.5000      0.0000    682.4508      3.4839     89.1590
  1999.7500      0.0000    679.2388      3.5214     85.0743
  2000.0000      0.0000    675.6230      3.5963     86.6068
  2000.2500      0.0000    673.4324      3.6771     93.3345
  2000.5000      0.0000    672.6375      3.7562    103.2776
  2000.7500      0.0000    672.7239      3.8604    114.1509
  2001.0000      0.0000    673.6284      3.9940    123.9456
  2001.2500      0.0000    676.1678      4.1174    130.9842
  2001.5000      0.0000    682.0956      4.1957    134.2250
  2001.7500      0.0000    693.5078      4.2283    133.9500
  2002.0000      0.0000    711.1855      4.2142    131.9923
  2002.2500      0.0000    732.5081      4.1367    130.8983
  2002.5000      0.0000    750.7477      4.0063    132.6180
  2002.7500      0.0000    756.9189      3.8848    137.5142
  2003.0000      0.0000    743.5888      3.8331    144.0299
  2003.2500      0.0000    709.2179      3.8486    149.3337
