~Version Information
VERS.                      2.0: CWLS Log ASCII Standard - VERSION 2.0
WRAP.                       NO: One line per depth step
~Well Information Block
STRT.FT                -2.5000: 
STOP.FT              2329.5000: 
STEP.FT                 0.2500: 
NULL.                -999.2500: 
COMP.          Pioneer Natural Resources: COMPANY
WELL.              Whinny 42-2: WELL
FLD.           Purgatorie River: FIELD
LOC.           1836' FNL & 466' FEL--: LOCATION
PROV.                       CO: PROVINCE
CNTY.               Las Animas: COUNTRY
SRVC.          Patterson Wireline: SERVICE COMPANY
DATE.          Mon Aug 29 13:18:04 2005: LOG DATE
UWI.           05 071 08406 00: UNIQUE WELL ID
~Curve Information Block
DEPT.FT            0 000 00 00: Depth
CCL.                          : Casing Collar Locator
TT3.usec                      : CBL 3' Travel Time
AMP3.mV                       : CBL 3' Amplitude
GR.GAPI                       : Gamma Ray
~Parameter Information Block
~A  Depth       CCL         TT3         AMP3         GR     
# ...
  1706.0000      0.0000    622.3132      4.9383    130.5495
  1706.2500      0.0000    612.7719      4.9185    131.5144
  1706.5000      0.0000    600.8834      4.9194    128.9292
  1706.7500      0.0000    587.2308      4.9463    124.0738
  1707.0000      0.0000    573.3398      4.9913    119.6626
  1707.2500      0.0000    562.7217      5.0347    118.0076
  1707.5000      0.0000    559.5758      5.0527    119.6930
  1707.7500      0.0000    565.7019      5.0282    123.9468
  1708.0000      0.0000    578.6494      4.9531    129.8663
  1708.2500      0.0000    593.5042      4.8214    136.9606
  1708.5000      0.0000    606.6865      4.6189    144.7882
  1708.7500      0.0000    617.6400      4.3290    152.5916
  1709.0000      0.0000    627.0903      3.9517    159.2743
  1709.2500      0.0000    634.8651      3.5156    163.3166
  1709.5000      0.0000    640.2995      3.0693    162.8391
  1709.7500      0.0000    644.4165      2.6588    156.6141
  1710.0000      0.0000    650.5864      2.3124    145.4837
  1710.2500      0.0000    662.3231      2.0404    132.3065
  1710.5000      0.0000    680.1420      1.8462    120.1355
  1710.7500      0.0000    700.1055      1.7335    110.7256
  1711.0000      0.0000    715.5252      1.7029    104.7431
  1711.2500      0.0000    721.5317      1.7465    102.6061
  1711.5000      0.0000    719.1020      1.8492    104.5091
  1711.7500      0.0000    713.8325      1.9973    109.8470
  1712.0000      0.0000    710.4222      2.1844    117.2651
  1712.2500      0.0000    709.3030      2.4124    125.5487
  1712.5000      0.0000    708.3401      2.6890    134.2412
  1712.7500      0.0000    705.9770      3.0213    143.2250
  1713.0000      0.0000    702.7131      3.4064    151.8522
  1713.2500      0.0000    701.3572      3.8243    158.5100
  1713.5000      0.0000    705.9474      4.2375    161.0131
  1713.7500      0.0000    718.5422      4.6014    157.9755
  1714.0000      0.0000    736.2654      4.8850    150.4113
  1714.2500      0.0000    752.5770      5.0869    141.7123
  1714.5000      0.0000    762.3016      5.2320    135.4049
  1714.7500      0.0000    765.3406      5.3489    132.8177
  1715.0000      0.0000    765.5241      5.4493    132.8899
  1715.2500      0.0000    766.4101      5.5260    133.6674
  1715.5000      0.0000    768.5189      5.5680    133.6201
  1715.7500      0.0000    770.0999      5.5730    131.9872
  1716.0000      0.0000    769.7971      5.5481    128.6895
  1716.2500      0.0000    768.2698      5.5005    124.4502
  1716.5000      0.0000    767.4583      5.4343    120.9010
  1716.7500      0.0000    768.4941      5.3525    119.9584
  1717.0000      0.0000    770.5129      5.2606    122.7077
  1717.2500      0.0000    771.4259      5.1666    128.8441
  1717.5000      0.0000    769.4521      5.0802    136.9260
  1717.7500      0.0000    764.0328      5.0096    144.8587
  1718.0000      0.0000    756.3267      4.9575    150.5542
  1718.2500      0.0000    749.3622      4.9225    152.8820
  1718.5000      0.0000    746.4308      4.9014    152.2516
  1718.7500      0.0000    747.8721      4.8907    149.9902
  1719.0000      0.0000    749.8580      4.8844    147.0195
  1719.2500      0.0000    747.8185      4.8743    143.3443
  1719.5000      0.0000    741.5137      4.8544    139.0196
  1719.7500      0.0000    736.0205      4.8251    135.2675
  1720.0000      0.0000    736.9522      4.7907    133.9930
  1720.2500      0.0000    744.6902      4.7562    136.0373
  1720.5000      0.0000    753.5212      4.7262    140.2546
  1720.7500      0.0000    756.0032      4.7058    144.3983
  1721.0000      0.0000    748.1146      4.6999    146.6578
  1721.2500      0.0000    731.8958      4.7103    146.4959
  1721.5000      0.0000    714.5576      4.7350    144.5411
  1721.7500      0.0000    704.1942      4.7705    141.8120
  1722.0000      0.0000    704.6376      4.8151    138.7030
  1722.2500      0.0000    713.7037      4.8662    134.6085
  1722.5000      0.0000    726.0051      4.9168    128.7231
  1722.7500      0.0000    736.8829      4.9569    121.0938
  1723.0000      0.0000    744.0111      4.9812    112.7706
  1723.2500      0.0000    746.8737      4.9921    105.1702
  1723.5000      0.0000    746.0218      4.9945     99.4736
  1723.7500      0.0000    742.8892      4.9896     96.3360
  1724.0000      0.0000    739.5434      4.9787     95.8532
  1724.2500      0.0000    737.8162      4.9673     97.6940
  1724.5000      0.0000    738.2083      4.9627    101.1902
  1724.7500      0.0000    739.5511      4.9667    105.2762
  1725.0000      0.0000    740.0152      4.9767    108.4548
  1725.2500      0.0000    738.8903      4.9925    109.1510
  1725.5000      0.0000    737.3257      5.0195    106.4328
  1725.7500      0.0000    736.8528      5.0612    100.6030
  1726.0000      0.0000    737.3726      5.1114     93.1643
  1726.2500      0.0000    737.5223      5.1581     86.3092
  1726.5000      0.0000    737.0558      5.1930     82.2755
  1726.7500      0.0000    737.5938      5.2167     82.7374
  1727.0000      0.0000    740.3373      5.2336     88.3045
  1727.2500      0.0000    744.1445      5.2447     98.3487
  1727.5000      0.0000    746.8259      5.2471    111.2956
  1727.7500      0.0000    747.4658      5.2403    125.0833
  1728.0000      0.0000    746.3442      5.2308    137.3281
  1728.2500      0.0000    743.5936      5.2263    145.5434
  1728.5000      0.0000    739.8787      5.2278    148.1954
  1728.7500      0.0000    738.0159      5.2290    145.8385
  1729.0000      0.0000    741.5042      5.2209    140.6859
  1729.2500      0.0000    750.8279      5.1926    134.8891
  1729.5000      0.0000    762.6915      5.1363    129.4423
  1729.7500      0.0000    773.0679      5.0570    124.3603
  1730.0000      0.0000    779.8937      4.9712    119.2051
  1730.2500      0.0000    782.9651      4.8919    113.6197
  1730.5000      0.0000    782.3804      4.8171    108.0723
  1730.7500      0.0000    777.5353      4.7407    104.1167
  1731.0000      0.0000    767.5625      4.6725    103.3800
  1731.2500      0.0000    752.9070      4.6309    105.9262
  1731.5000      0.0000    736.5023      4.6060    109.3848
  1731.7500      0.0000    723.1732      4.5513    109.9552
  1732.0000      0.0000    717.5922      4.4423    105.0631
  1732.2500      0.0000    722.1111      4.3246     95.4837
  1732.5000      0.0000    735.4016      4.2713     84.9950
  1732.7500      0.0000    752.8382      4.3067     78.1727
  1733.0000      2.0000    768.8124      4.3943     78.2344
  1733.2500     -1.2589    779.3606      4.4797     85.8311
  1733.5000      0.0000    783.2127      4.5328     98.7987
  1733.7500      0.0000    780.6865      4.5623    112.9798
  1734.0000      0.0000    771.4855      4.5909    124.2031
  1734.2500      0.0000    754.2304      4.5964    130.5054
  1734.5000      0.0000    729.3643      4.4949    132.7951
  1734.7500      0.0000    702.1205      4.2202    133.1535
  1735.0000      0.0000    680.8283      3.8059    132.5108
  1735.2500      0.0000    671.7761      3.3623    130.0187
  1735.5000      0.0000    675.8485      2.9912    124.3401
  1735.7500      0.0000    689.1307      2.7377    115.3410
  1736.0000      0.0000    705.8295      2.5964    104.5935
  1736.2500      0.0000    721.1024      2.5354     94.2500
  1736.5000      0.0000    732.0255      2.5207     85.6949
  1736.7500      0.0000    737.2655      2.5336     79.4748
  1737.0000      0.0000    737.1299      2.5766     76.0230
  1737.2500      0.0000    733.6183      2.6696     75.6507
  1737.5000      0.0000    729.1486      2.8436     77.6330
  1737.7500      0.0000    725.0717      3.1336     79.9098
  1738.0000      0.0000    721.8468      3.5634     80.3996
  1738.2500      0.0000    720.1879      4.1212     78.6206
  1738.5000      0.0000    721.2438      4.7435     75.6457
  1738.7500      0.0000    725.6060      5.3289     72.6944
  1739.0000      0.0000    732.3398      5.7779     70.3646
  1739.2500      0.0000    738.9822      6.0376     68.9394
