~Version Information
 VERS.                                  2.0 : CWLS LAS VERSION
 WRAP.                                   NO : WRAPING MODE
 SWARE .                 MController 2.5.0N : SOFTWARE VERSION
~Well Information
 WELL.                                  N/A : WELL
 COMP.                                  N/A : COMPANY
 FLD.                                   N/A : FIELD
 LOC.                                   N/A : LOCATION
 DATE.                                  N/A : DATE(S) LOGGED
 SRVC.                                  N/A : SERVICE COMPANY
 STAT.                                  N/A : STATE
 CNTY.                                  N/A : COUNTY
 CTRY.                                  N/A : COUNTRY
 API.                                   N/A : API NUMBER
 STRT.FT                             445.00 : START DEPTH
 STOP.FT                            1905.00 : STOP DEPTH
 STEP.FT                               1.00 : DEPTH INCREMENT
 NULL.                                -9999 : NULL VALUE
~Curve information
 DEPTH.FT                                   :
 ROP.MIN/FT                                 :
 GAS.UNITS                                  :
~ASCII Log data
# ...
      1645.0         0.23         39.2 
      1646.0         2.12         38.6 
      1647.0         0.63         37.2 
      1648.0         0.47         37.5 
      1649.0         0.33         37.7 
      1650.0         0.27         38.3 
      1651.0         0.27         38.2 
      1652.0         0.30         39.3 
      1653.0         0.30         38.9 
      1654.0         0.35         39.1 
      1655.0         0.27         39.2 
      1656.0         0.27         37.8 
      1657.0         0.27         37.8 
      1658.0         0.27         38.7 
      1659.0         0.23         37.6 
      1660.0         0.20         38.4 
      1661.0         0.17         38.3 
      1662.0         0.17         39.3 
      1663.0         0.10         39.3 
      1664.0         0.13         38.8 
      1665.0         0.10         37.0 
      1666.0         0.27         38.4 
      1667.0         0.30         38.1 
      1668.0         0.27         38.6 
      1669.0         0.28         38.2 
      1670.0         0.27         39.0 
      1671.0         0.33         40.4 
      1672.0         0.33         39.4 
      1673.0         0.30         38.5 
      1674.0         0.27         39.5 
      1675.0         0.23         39.5 
      1676.0         1.68         39.8 
      1677.0         0.23         38.7 
      1678.0         0.50         39.2 
      1679.0         0.33         39.5 
      1680.0         0.27         40.2 
      1681.0         0.30         40.9 
      1682.0         0.27         39.5 
      1683.0         0.27         40.8 
      1684.0         0.23         41.0 
      1685.0         0.30         41.0 
      1686.0         0.23         41.7 
      1687.0         0.18         41.3 
      1688.0         0.20         40.0 
      1689.0         0.23         40.3 
      1690.0         0.27         40.5 
      1691.0         0.30         40.7 
      1692.0         0.33         40.6 
      1693.0         0.27         39.7 
      1694.0         0.37         38.9 
      1695.0         0.30         39.9 
      1696.0         0.30         40.6 
      1697.0         0.37         43.4 
      1698.0         0.37         42.3 
      1699.0         0.22         40.3 
      1700.0         0.17         40.6 
      1701.0         0.23         38.9 
      1702.0         0.13         39.5 
      1703.0         0.23         38.3 
      1704.0         0.23         39.6 
      1705.0         0.23         39.9 
      1706.0         2.45         47.3 
      1707.0         0.33         42.2 
      1708.0         0.20         43.3 
      1709.0         0.20         43.0 
      1710.0         0.20         43.0 
      1711.0         0.27         43.5 
      1712.0         0.27         44.2 
      1713.0         0.20         42.7 
      1714.0         0.40         44.1 
      1715.0         0.47         43.6 
      1716.0         0.45         45.0 
      1717.0         0.40         45.8 
      1718.0         0.57         45.4 
      1719.0         0.43         48.4 
      1720.0         0.37         48.7 
      1721.0         0.23         47.8 
      1722.0         0.17         48.7 
      1723.0         0.20         49.8 
      1724.0         0.20         50.5 
      1725.0         0.17         50.9 
      1726.0         0.20         50.9 
      1727.0         0.13         51.1 
      1728.0         0.10         51.1 
      1729.0         0.15         50.2 
      1730.0         0.23         50.2 
      1731.0         0.33         50.1 
      1732.0         0.20         50.7 
      1733.0         0.20         50.7 
      1734.0         0.13         50.7 
      1735.0         0.17         51.1 
      1736.0         1.90         51.4 
      1737.0         0.18         51.7 
      1738.0         0.30         51.6 
      1739.0         0.53         51.7 
      1740.0         0.40         51.8 
      1741.0         0.33         51.8 
      1742.0         0.27         51.7 
      1743.0         0.30         51.3 
      1744.0         0.30         49.4 
      1745.0         0.33         50.1 
      1746.0         0.27         49.9 
      1747.0         0.28         49.1 
      1748.0         0.23         47.8 
      1749.0         0.20         48.4 
      1750.0         0.23         47.7 
      1751.0         0.30         49.5 
      1752.0         0.30         47.9 
      1753.0         0.27         48.1 
      1754.0         0.33         50.3 
      1755.0         0.33         50.9 
      1756.0         0.33         48.4 
      1757.0         0.33         48.3 
      1758.0         0.37         47.4 
      1759.0         0.32         46.6 
      1760.0         0.30         47.9 
      1761.0         0.27         47.1 
      1762.0         0.20         48.4 
      1763.0         0.20         47.5 
      1764.0         0.27         48.4 
      1765.0         0.33         50.0 
      1766.0         2.25         50.9 
      1767.0         0.60         50.5 
      1768.0         0.50         48.4 
      1769.0         0.30         47.3 
      1770.0         0.23         46.0 
      1771.0         0.27         46.6 
      1772.0         0.23         46.3 
      1773.0         0.27         45.7 
      1774.0         0.32         46.5 
      1775.0         0.30         45.4 
      1776.0         0.33         47.5 
      1777.0         0.20         47.5 
      1778.0         0.23         47.7 
      1779.0         0.23         47.1 
      1780.0         0.17         46.9 
      1781.0         0.33         46.3 
      1782.0         0.33         45.0 
      1783.0         0.33         45.6 
      1784.0         0.30         45.8 
      1785.0         0.20         46.0 
      1786.0         0.23         45.8 
      1787.0         0.32         45.6 
      1788.0         0.23         44.9 
      1789.0         0.23         45.6 
      1790.0         0.20         46.1 
      1791.0         0.20         46.1 
      1792.0         0.20         46.1 
      1793.0         0.20         46.4 
      1794.0         0.23         46.1 
      1795.0         0.20         45.2 
      1796.0         1.88         45.7 
      1797.0         0.53         45.1 
      1798.0         0.33         43.9 
      1799.0         0.27         43.5 
      1800.0         0.23         43.6 
      1801.0         0.30         44.2 
      1802.0         0.30         44.9 
      1803.0         0.30         45.1 
      1804.0         0.30         44.7 
      1805.0         0.28         43.3 
      1806.0         0.23         44.7 
      1807.0         0.27         43.5 
      1808.0         0.20         43.0 
      1809.0         0.27         44.2 
      1810.0         0.50         47.1 
      1811.0         0.27         45.0 
      1812.0         0.33         45.0 
      1813.0         0.33         43.9 
      1814.0         0.23         43.6 
      1815.0         0.27         42.1 
      1816.0         0.23         42.5 
      1817.0         0.25         43.2 
      1818.0         0.27         43.4 
      1819.0         0.27         43.7 
      1820.0         0.23         43.8 
      1821.0         0.23         44.1 
      1822.0         0.23         43.8 
      1823.0         0.20         44.3 
      1824.0         0.23         44.0 
      1825.0         0.23         43.8 
      1826.0         2.22         44.6 
      1827.0         0.53         41.9 
      1828.0         0.40         40.8 
      1829.0         0.37         39.9 
      1830.0         0.33         39.7 
      1831.0         0.40         40.5 
      1832.0         0.33         39.8 
      1833.0         0.35         38.7 
      1834.0         0.33         38.4 
      1835.0         0.33         36.1 
      1836.0         0.40         37.0 
      1837.0         0.47         37.2 
      1838.0         0.30         37.0 
      1839.0         0.27         36.8 
      1840.0         0.27         38.1 
      1841.0         0.40         38.0 
      1842.0         0.42         40.1 
      1843.0         0.30         40.0 
      1844.0         0.27         40.9 
