~Version Information
VERS.                      2.0: CWLS Log ASCII Standard - VERSION 2.0
WRAP.                       NO: One line per depth step
~Well Information Block
STRT.FT               236.5000: 
STOP.FT              2818.2500: 
STEP.FT                 0.2500: 
NULL.                -999.2500: 
COMP.          Pioneer Natural Resources: COMPANY
WELL.            Sebring 42-29: WELL
FLD.           Purgatorie River: FIELD
LOC.           1751' FNL & 584' FEL--: LOCATION
PROV.                       CO: PROVINCE
CNTY.               Las Animas: COUNTRY
SRVC.          Patterson Wireline: SERVICE COMPANY
DATE.          Fri Aug 26 09:14:13 2005: LOG DATE
UWI.           05 071 08293 00: UNIQUE WELL ID
~Curve Information Block
DEPT.FT            0 000 00 00: Depth
CCL.                          : Casing Collar Locator
TT3.usec                      : CBL 3' Travel Time
AMP3.mV                       : CBL 3' Amplitude
GR.GAPI                       : Gamma Ray
~Parameter Information Block
~A  Depth       CCL         TT3         AMP3         GR     
# ...
   739.0000      0.0000    748.6251      6.8801     66.9185
   739.2500      0.0000    756.6531      6.8708     67.9300
   739.5000      0.0000    764.6981      6.8963     70.9564
   739.7500      0.0000    770.7859      6.9467     75.9561
   740.0000      0.0000    774.3947      7.0085     81.6741
   740.2500      0.0000    776.1245      7.0686     86.2240
   740.5000      0.0000    776.7727      7.1162     88.2335
   740.7500      0.0000    776.8620      7.1441     87.8673
   741.0000      0.0000    776.6644      7.1486     86.6082
   741.2500      0.0000    776.3461      7.1316     86.0758
   741.5000      0.0000    776.0284      7.1034     87.3326
   741.7500      0.0000    775.7953      7.0808     90.9032
   742.0000      0.0000    775.6827      7.0781     96.4203
   742.2500      0.0000    775.6726      7.0977    101.9162
   742.5000      0.0000    775.7067      7.1310    104.3252
   742.7500      0.0000    775.7261      7.1669    101.5786
   743.0000      0.0000    775.7018      7.1984     94.3229
   743.2500      0.0000    775.6263      7.2221     85.4452
   743.5000      0.0000    775.4930      7.2363     77.9930
   743.7500      0.0000    775.3029      7.2413     73.3666
   744.0000      0.0000    775.0842      7.2403     71.0377
   744.2500      0.0000    774.8921      7.2374     69.6956
   744.5000      0.0000    774.8042      7.2343     68.5200
   744.7500      0.0000    775.0059      7.2306     67.4252
   745.0000      0.0000    775.9557      7.2272     66.6158
   745.2500      0.0000    778.5180      7.2277     66.3748
   745.5000      0.0000    783.7247      7.2375     67.0571
   745.7500      0.0000    791.9059      7.2601     68.8981
   746.0000      0.0000    801.9388      7.2942     71.8443
   746.2500      0.0000    812.1053      7.3338     75.6169
   746.5000      0.0000    821.9122      7.3693     79.7664
   746.7500      0.0000    831.9415      7.3893     83.5286
   747.0000      0.0000    841.6684      7.3837     85.8861
   747.2500      0.0000    848.8388      7.3495     86.2083
   747.5000      0.0000    851.0326      7.2927     84.9499
   747.7500      0.0000    846.6086      7.2242     83.4419
   748.0000      0.0000    835.1597      7.1536     82.9101
   748.2500      0.0000    818.9970      7.0868     83.8627
   748.5000      0.0000    803.4623      7.0269     86.2355
   748.7500      0.0000    794.3923      6.9770     89.5450
   749.0000      0.0000    795.4432      6.9399     92.8108
   749.2500      0.0000    807.3769      6.9162     94.7405
   749.5000      0.0000    827.9257      6.9028     94.2844
   749.7500      0.0000    851.8508      6.8937     91.3805
   750.0000      0.0000    872.9070      6.8829     87.5427
   750.2500      0.0000    887.1754      6.8680     85.4117
   750.5000      0.0000    894.4060      6.8512     86.8916
   750.7500      0.0000    896.2379      6.8368     91.3224
   751.0000      0.0000    893.6890      6.8256     95.7714
   751.2500      0.0000    886.6860      6.8125     97.5703
   751.5000      0.0000    876.1570      6.7900     96.4816
   751.7500      0.0000    866.1122      6.7543     94.0897
   752.0000      0.0000    862.1017      6.7071     91.4169
   752.2500      0.0000    866.5073      6.6538     87.9379
   752.5000      0.0000    876.6226      6.6036     82.9657
   752.7500      0.0000    887.9069      6.5675     77.0918
   753.0000      0.0000    896.3719      6.5496     71.7055
   753.2500      0.0000    896.3833      6.5390     67.5303
   753.5000      0.0000    880.3495      6.5123     64.2487
   753.7500      0.0000    845.2459      6.4534     61.5655
   754.0000      0.0000    799.6818      6.3755     60.0450
   754.2500      0.0000    762.5108      6.3097     60.4379
   754.5000      0.0000    752.0067      6.2512     62.4060
   754.7500      0.0000    772.4139      6.1329     64.5124
   755.0000      0.0000    809.4973      5.8933     65.5844
   755.2500      0.0000    843.3438      5.5650     65.7071
   755.5000      0.0000    867.2187      5.2567     65.7356
   755.7500     -2.0000    889.4081      5.0538     66.2379
   756.0000      2.0000    915.6621      4.9662     67.1879
   756.2500      0.0000    935.8509      4.9593     68.4001
   756.5000      0.0000    932.5971      5.0084     69.8301
   756.7500      0.0000    900.6824      5.1225     71.2852
   757.0000      0.0000    853.6961      5.3219     72.1013
   757.2500      0.0000    812.0606      5.5878     71.6333
   757.5000      0.0000    787.8010      5.8420     70.2289
   757.7500      0.0000    780.1070      6.0042     69.2668
   758.0000      0.0000    781.1042      6.0622     69.9949
   758.2500      0.0000    783.1281      6.0701     72.6774
   758.5000      0.0000    782.0322      6.0873     76.8399
   758.7500      0.0000    777.0333      6.1397     81.6338
   759.0000      0.0000    769.5408      6.2229     85.7443
   759.2500      0.0000    761.9239      6.3223     87.7710
   759.5000      0.0000    756.1901      6.4264     87.2962
   759.7500      0.0000    753.3384      6.5282     85.3643
   760.0000      0.0000    754.0213      6.6218     83.6553
   760.2500      0.0000    759.4150      6.6983     83.1718
   760.5000      0.0000    770.8101      6.7465     83.6961
   760.7500      0.0000    787.8199      6.7568     84.3651
   761.0000      0.0000    807.2488      6.7273     84.6633
   761.2500      0.0000    824.4907      6.6678     84.8944
   761.5000      0.0000    836.4529      6.5961     85.7854
   761.7500      0.0000    843.0131      6.5309     87.4871
   762.0000      0.0000    845.9573      6.4826     88.9185
   762.2500      0.0000    847.1530      6.4507     88.6310
   762.5000      0.0000    847.7217      6.4285     86.6061
   762.7500      0.0000    848.3397      6.4110     84.5115
   763.0000      0.0000    849.9434      6.3993     83.8547
   763.2500      0.0000    854.1324      6.3972     84.6226
   763.5000      0.0000    862.7008      6.4051     85.9232
   763.7500      0.0000    876.0913      6.4182     87.1536
   764.0000      0.0000    891.9225      6.4299     88.1788
   764.2500      0.0000    905.5347      6.4365     88.8893
   764.5000      0.0000    912.8232      6.4373     89.1326
   764.7500      0.0000    912.9614      6.4318     89.1600
   765.0000      0.0000    908.5250      6.4181     89.6235
   765.2500      0.0000    903.1533      6.3949     90.6820
   765.5000      0.0000    898.9984      6.3644     91.4045
   765.7500      0.0000    896.1877      6.3346     90.7028
   766.0000      0.0000    894.2879      6.3152     88.9037
   766.2500      0.0000    893.3785      6.3113     87.7375
   766.5000      0.0000    893.4634      6.3194     88.3621
   766.7500      0.0000    893.6891      6.3302     89.9007
   767.0000      0.0000    892.7179      6.3349     90.5120
   767.2500      0.0000    889.6376      6.3291     89.4946
   767.5000      0.0000    884.4250      6.3120     87.6893
   767.7500      0.0000    877.6907      6.2827     86.1917
   768.0000      0.0000    870.0919      6.2439     85.4222
   768.2500      0.0000    861.9924      6.2077     85.3995
   768.5000      0.0000    853.5448      6.1921     86.3242
   768.7500      0.0000    844.9981      6.2039     88.5128
   769.0000      0.0000    837.1262      6.2298     91.6699
   769.2500      0.0000    831.2249      6.2450     94.5751
   769.5000      0.0000    827.9777      6.2318     95.8952
   769.7500      0.0000    826.3083      6.1892     95.3493
   770.0000      0.0000    824.2842      6.1321     93.8570
   770.2500      0.0000    821.2932      6.0823     92.5126
   770.5000      0.0000    818.4590      6.0532     91.6009
   770.7500      0.0000    816.8017      6.0405     90.6336
   771.0000      0.0000    816.1030      6.0280     89.0074
   771.2500      0.0000    815.9507      6.0044     86.4091
   771.5000      0.0000    816.8961      5.9725     83.0016
   771.7500      0.0000    819.9001      5.9458     79.8363
   772.0000      0.0000    825.2382      5.9429     78.8016
   772.2500      0.0000    832.4469      5.9796     81.1919
