~Version Information
VERS.                      2.0: CWLS Log ASCII Standard - VERSION 2.0
WRAP.                       NO: One line per depth step
~Well Information Block
STRT.FT               260.0000: 
STOP.FT              2272.0000: 
STEP.FT                 0.2500: 
NULL.                -999.2500: 
COMP.          Pioneer Natural Resources: COMPANY
WELL.            Moo Moo 31-36: WELL
FLD.           Purgatoire River: FIELD
LOC.           612' FNL & 2326' FEL: LOCATION
PROV.                 Colorado: PROVINCE
CNTY.               Las Animas: COUNTRY
SRVC.                Patterson: SERVICE COMPANY
DATE.          Fri Jun 17 07:45:39 2005: LOG DATE
UWI.           05 071 08395 00: UNIQUE WELL ID
~Curve Information Block
DEPT.FT            0 000 00 00: Depth
DIR.Ohm-m                     : IEL Induction Resistivity
SN.Ohm-m                      : IEL Short Normal
SP.mV                         : IEL Spontaneous Potential
GR.GAPI                       : Gamma Ray
~Parameter Information Block
~A  Depth       DIR          SN          SP          GR     
# ...
  1198.0000     25.0072     42.5551    161.7959     47.9197
  1198.2500     27.2393     49.6841    161.6051     42.6790
  1198.5000     29.6327     57.4866    161.4230     37.0732
  1198.7500     32.0235     65.3333    161.2271     34.4414
  1199.0000     34.1948     72.4745    160.9590     31.9150
  1199.2500     35.9227     78.2376    160.5563     31.0107
  1199.5000     36.9963     82.1558    160.0094     30.1130
  1199.7500     37.2327     84.2115    159.3945     29.2889
  1200.0000     36.5383     84.7739    158.8511     27.3241
  1200.2500     34.9936     84.0746    158.5257     25.9016
  1200.5000     32.8658     82.0438    158.5173     25.0084
  1200.7500     30.5119     78.6036    158.8468     26.0612
  1201.0000     28.2520     73.6789    159.4598     30.9864
  1201.2500     26.2967     67.1149    160.2592     36.8231
  1201.5000     24.7440     58.9784    161.1594     49.9175
  1201.7500     23.6065     49.9164    162.1285     61.5885
  1202.0000     22.8395     41.1557    163.1744     82.3350
  1202.2500     22.3575     33.9947    164.2782     96.7392
  1202.5000     22.0479     29.0622    165.3391    115.4286
  1202.7500     21.7931     26.1108    166.2038    123.6706
  1203.0000     21.5000     24.4867    166.7577    126.9929
  1203.2500     21.1244     23.6083    166.9897    122.9629
  1203.5000     20.6703     23.1332    166.9764    109.9323
  1203.7500     20.1689     22.9602    166.8265     99.0893
  1204.0000     19.6559     23.1740    166.6423     83.9282
  1204.2500     19.1638     23.9347    166.5033     76.1978
  1204.5000     18.7220     25.2679    166.4398     68.9218
  1204.7500     18.3515     26.8740    166.4061     66.6072
  1205.0000     18.0505     28.2078    166.3017     66.1705
  1205.2500     17.7834     28.8058    166.0523     67.6111
  1205.5000     17.4864     28.5793    165.6834     71.8525
  1205.7500     17.0935     27.7726    165.3059     75.5841
  1206.0000     16.5687     26.6014    165.0232     81.8171
  1206.2500     15.9206     25.0354    164.8534     86.5159
  1206.5000     15.1910     23.0133    164.7359     95.8004
  1206.7500     14.4277     20.7307    164.5962    104.3654
  1207.0000     13.6647     18.4966    164.3949    120.3547
  1207.2500     12.9203     16.4681    164.1271    131.2939
  1207.5000     12.2064     14.7577    163.7992    144.0675
  1207.7500     11.5361     13.4904    163.4230    148.8146
  1208.0000     10.9212     12.6348    163.0220    151.0953
  1208.2500     10.3683     12.0523    162.6286    151.0498
  1208.5000      9.8776     11.6473    162.2672    151.1490
  1208.7500      9.4468     11.3459    161.9461    151.7647
  1209.0000      9.0763     11.0523    161.6635    152.8976
  1209.2500      8.7679     10.6892    161.4115    153.4864
  1209.5000      8.5224     10.2672    161.1719    154.3542
  1209.7500      8.3359      9.8795    160.9261    155.0578
  1210.0000      8.2010      9.6065    160.6865    155.8970
  1210.2500      8.1094      9.4597    160.5254    156.0381
  1210.5000      8.0557      9.4149    160.5544    155.8198
  1210.7500      8.0383      9.4509    160.8548    155.7388
  1211.0000      8.0582      9.5330    161.4138    155.8978
  1211.2500      8.1163      9.6338    162.1161    155.8493
  1211.5000      8.2110      9.7634    162.7925    154.4683
  1211.7500      8.3371      9.9205    163.2884    152.1467
  1212.0000      8.4865     10.0904    163.5168    146.5887
  1212.2500      8.6494     10.2523    163.4771    142.1478
  1212.5000      8.8166     10.3650    163.2352    135.7928
  1212.7500      8.9803     10.4395    162.8819    132.2872
  1213.0000      9.1357     10.5382    162.4889    128.4650
  1213.2500      9.2818     10.6886    162.0880    126.9991
  1213.5000      9.4215     10.8818    161.6888    126.7079
  1213.7500      9.5599     11.1247    161.3201    127.8233
  1214.0000      9.7019     11.4242    161.0551    130.8001
  1214.2500      9.8503     11.7352    160.9910    132.8349
  1214.5000     10.0050     11.9899    161.2056    134.6465
  1214.7500     10.1628     12.1495    161.7228    134.8575
  1215.0000     10.3175     12.2062    162.4969    134.6665
  1215.2500     10.4596     12.1773    163.4032    135.1946
  1215.5000     10.5769     12.0984    164.2450    138.4083
  1215.7500     10.6567     12.0035    164.8094    142.3443
  1216.0000     10.6882     11.8888    164.9673    149.6517
  1216.2500     10.6640     11.7147    164.7474    154.0141
  1216.5000     10.5823     11.4700    164.3071    157.3546
  1216.7500     10.4497     11.1790    163.8230    156.7440
  1217.0000     10.2821     10.8262    163.3992    152.1116
  1217.2500     10.1011     10.3428    163.0627    147.5796
  1217.5000      9.9254      9.7169    162.8128    140.6546
  1217.7500      9.7656      9.0919    162.6550    136.9260
  1218.0000      9.6240      8.7101    162.5900    133.5440
  1218.2500      9.4996      8.7424    162.5884    132.7584
  1218.5000      9.3910      9.2102    162.5861    133.4250
  1218.7500      9.2943     10.0235    162.5075    135.0310
  1219.0000      9.2008     10.9458    162.3042    138.9456
  1219.2500      9.0977     11.6525    161.9854    141.9277
  1219.5000      8.9744     11.9615    161.6259    145.3408
  1219.7500      8.8296     11.9096    161.3548    146.3494
  1220.0000      8.6735     11.6406    161.3292    146.3489
  1220.2500      8.5226     11.3007    161.6944    146.0412
  1220.5000      8.3925     10.9782    162.5257    146.1216
  1220.7500      8.2927     10.6890    163.7696    146.7446
  1221.0000      8.2248     10.4373    165.2181    148.3223
  1221.2500      8.1846     10.2473    166.5620    149.4373
  1221.5000      8.1664     10.1243    167.5232    150.3685
  1221.7500      8.1654     10.0244    167.9867    150.0952
  1222.0000      8.1795      9.9028    168.0319    148.2078
  1222.2500      8.2072      9.7917    167.8447    146.2811
  1222.5000      8.2462      9.7564    167.5917    143.4920
  1222.7500      8.2933      9.8050    167.3475    142.4299
  1223.0000      8.3447      9.9044    167.1030    142.7176
  1223.2500      8.3986     10.0222    166.8141    143.9647
  1223.5000      8.4556     10.1397    166.4468    146.3729
  1223.7500      8.5179     10.2672    165.9961    147.7933
  1224.0000      8.5863     10.4127    165.4910    149.2944
  1224.2500      8.6567     10.5280    164.9890    149.8534
  1224.5000      8.7191     10.5892    164.5542    149.9994
  1224.7500      8.7595     10.6773    164.2270    149.6870
  1225.0000      8.7653     10.8461    164.0077    148.9369
  1225.2500      8.7307     11.0523    163.8768    148.5056
  1225.5000      8.6595     11.2262    163.8405    148.2489
  1225.7500      8.5628     11.2427    163.9622    148.2610
  1226.0000      8.4556     11.0083    164.3540    148.0308
  1226.2500      8.3510     10.6563    165.1304    147.5112
  1226.5000      8.2564     10.3894    166.3433    146.5442
  1226.7500      8.1717     10.2182    167.9228    146.2158
  1227.0000      8.0929     10.0745    169.6581    146.5092
  1227.2500      8.0183      9.9800    171.2574    147.0091
  1227.5000      7.9516      9.9522    172.4752    147.7646
  1227.7500      7.9007      9.9004    173.2224    148.2896
  1228.0000      7.8732      9.7527    173.5750    149.3534
  1228.2500      7.8733      9.6043    173.6947    150.1506
  1228.5000      7.9025      9.5887    173.7389    150.8322
  1228.7500      7.9610      9.6967    173.8170    150.5822
  1229.0000      8.0498      9.8653    173.9986    148.9809
  1229.2500      8.1699     10.0924    174.3522    147.2535
  1229.5000      8.3227     10.3655    174.9692    144.2533
  1229.7500      8.5107     10.6316    175.9276    142.3820
  1230.0000      8.7376     10.8432    177.2134    140.1118
  1230.2500      9.0072     10.9949    178.6744    138.7731
  1230.5000      9.3212     11.1336    180.0696    136.2435
  1230.7500      9.6784     11.2863    181.1887    133.7930
  1231.0000     10.0776     11.4565    181.9464    128.7097
  1231.2500     10.5224     11.7120    182.3766    124.4849
