~Version Information
VERS.                      2.0: CWLS Log ASCII Standard - VERSION 2.0
WRAP.                       NO: One line per depth step
~Well Information Block
STRT.FT               480.0000: 
STOP.FT              1994.2000: 
STEP.FT                 0.1000: 
NULL.                -999.2500: 
COMP.          Evergreen Operating Corporation: COMPANY
WELL.          McCullough 34-32 Tr: WELL
FLD.           Purgatoire River: FIELD
LOC.           394' FSL & 2077' FEL: LOCATION
PROV.                 Colorado: PROVINCE
CNTY.               Las Animas: COUNTRY
SRVC.                Patterson: SERVICE COMPANY
DATE.          Mon Sep 20 07:30:00 2004: LOG DATE
UWI.           05 071 08157 00: UNIQUE WELL ID
~Curve Information Block
DEPT.FT            0 000 00 00: Depth
DCAL.in                       : CDL Caliper
RHOB.g/cc                     : CDL Bulk Density
RHOC.g/cc                     : CDL Density Correction
DPOR.pu                       : CDL Density Porosity
NPOR.pu                       : Neutron Porosity
GR.GAPI                       : Gamma Ray
~Parameter Information Block
~A  Depth       DCAL        RHOB        RHOC        DPOR        NPOR         GR     
# ...
  1670.4000      8.0115      2.0027     -0.0432     39.2282     32.3264    152.8156
  1670.5000      8.0145      1.9118     -0.1047     44.7392     32.4669    147.9817
  1670.6000      8.0145      1.8297     -0.0824     49.7168     32.3331    139.0703
  1670.7000      8.0145      1.7664     -0.1119     53.5510     31.8730    130.7883
  1670.8000      8.0173      1.7226     -0.0884     56.2061     31.2651    120.4437
  1670.9000      8.0173      1.7019     -0.0809     57.4623     30.2974    108.3931
  1671.0000      8.0192      1.7135      0.0046     56.7567     29.1170     98.8794
  1671.1000      8.0192      1.7615      0.0489     53.8472     28.0394     92.5754
  1671.2000      8.0192      1.8462      0.1071     48.7181     26.8119     87.7566
  1671.3000      8.0198      1.9614      0.1587     41.7327     25.6412     85.4224
  1671.4000      8.0198      2.0847      0.2081     34.2582     24.9236     86.9362
  1671.5000      8.0051      2.1875      0.2112     28.0328     24.3769     90.3179
  1671.6000      8.0051      2.2643      0.1826     23.3772     23.8368     92.8274
  1671.7000      8.0051      2.3325      0.1989     19.2399     23.4587     93.3622
  1671.8000      7.9857      2.4039      0.1974     14.9157     23.0412     92.3273
  1671.9000      7.9857      2.4775      0.2237     10.4559     22.0880     92.6818
  1672.0000      7.9922      2.5399      0.2552      6.6714     20.6388     96.6627
  1672.1000      7.9922      2.5727      0.1944      4.6839     19.5951    104.2535
  1672.2000      7.9922      2.5737      0.1092      4.6268     19.5699    112.7519
  1672.3000      8.0042      2.5563      0.0718      5.6789     20.2231    120.9282
  1672.4000      8.0042      2.5433      0.0083      6.4680     20.8923    129.5302
  1672.5000      8.0041      2.5535      0.0360      5.8466     21.4611    133.1568
  1672.6000      8.0041      2.5821      0.0447      4.1122     22.2783    129.3604
  1672.7000      8.0041      2.6102      0.0710      2.4092     23.0126    126.0629
  1672.8000      8.0017      2.6153      0.1224      2.1044     23.1409    126.6265
  1672.9000      8.0017      2.5879      0.0570      3.7629     23.0861    128.5968
  1673.0000      8.0033      2.5513      0.0318      5.9820     23.2484    131.4720
  1673.1000      8.0033      2.5303      0.0542      7.2517     23.3062    136.0258
  1673.2000      8.0033      2.5301     -0.0030      7.2675     23.0834    141.1482
  1673.3000      8.0065      2.5450      0.0396      6.3661     22.9777    146.4093
  1673.4000      8.0065      2.5595      0.0252      5.4870     23.1179    151.8515
  1673.5000      8.0109      2.5606      0.0479      5.4165     23.3049    154.7695
  1673.6000      8.0109      2.5527      0.0477      5.8998     23.7358    154.2320
  1673.7000      8.0109      2.5464      0.0461      6.2771     24.5788    150.0046
  1673.8000      8.0121      2.5418      0.0471      6.5588     25.3064    144.9342
  1673.9000      8.0121      2.5327      0.0591      7.1062     25.2188    144.0787
  1674.0000      8.0114      2.5199      0.0263      7.8851     24.2138    142.7229
  1674.1000      8.0114      2.5103      0.0202      8.4659     23.1647    134.7122
  1674.2000      8.0114      2.5068      0.0281      8.6807     23.2028    126.9625
  1674.3000      8.0106      2.5044      0.0260      8.8224     24.1691    130.2987
  1674.4000      8.0106      2.5015      0.0537      9.0009     24.8927    143.8874
  1674.5000      8.0094      2.5024      0.0058      8.9425     24.8102    157.5282
  1674.6000      8.0094      2.5124      0.0280      8.3416     24.3361    164.2855
  1674.7000      8.0094      2.5266      0.0586      7.4806     23.8377    162.4336
  1674.8000      8.0098      2.5380      0.0389      6.7869     23.5535    154.1212
  1674.9000      8.0098      2.5463      0.0400      6.2821     23.5218    145.2628
  1675.0000      8.0108      2.5499      0.0499      6.0648     23.5024    141.9191
  1675.1000      8.0108      2.5468      0.0528      6.2537     23.5118    145.3806
  1675.2000      8.0108      2.5416      0.0318      6.5704     23.7633    152.6479
  1675.3000      8.0101      2.5370      0.0468      6.8478     24.0864    159.6237
  1675.4000      8.0101      2.5326      0.0494      7.1127     24.2253    161.5808
  1675.5000      8.0085      2.5326      0.0289      7.1156     24.5144    157.6786
  1675.6000      8.0085      2.5422      0.0381      6.5323     25.2501    155.4646
  1675.7000      8.0085      2.5590      0.0575      5.5168     25.8937    158.9166
  1675.8000      8.0082      2.5662      0.1038      5.0774     25.8074    160.6559
  1675.9000      8.0082      2.5509      0.0314      6.0054     25.4142    155.2863
  1676.0000      8.0086      2.5287      0.0239      7.3529     25.3641    147.7226
  1676.1000      8.0086      2.5180      0.0524      7.9978     25.4481    143.8215
  1676.2000      8.0086      2.5200      0.0293      7.8758     25.3781    145.4048
  1676.3000      8.0095      2.5292      0.0421      7.3195     25.2376    152.3533
  1676.4000      8.0095      2.5344      0.0690      7.0055     25.0092    158.9872
  1676.5000      8.0115      2.5320      0.0234      7.1523     24.8222    158.3274
  1676.6000      8.0115      2.5275      0.0607      7.4253     24.9230    155.2575
  1676.7000      8.0115      2.5144      0.0609      8.2193     25.1623    155.3516
  1676.8000      8.0129      2.4938     -0.0206      9.4643     25.6210    153.7568
  1676.9000      8.0129      2.4849      0.0185     10.0082     26.5664    150.0997
  1677.0000      8.0111      2.4875      0.0386      9.8463     27.1437    148.4848
  1677.1000      8.0111      2.4855      0.0645      9.9693     26.3988    146.3449
  1677.2000      8.0111      2.4801      0.0274     10.2959     24.9778    141.0419
  1677.3000      8.0095      2.4872      0.0479      9.8694     24.0135    134.3819
  1677.4000      8.0095      2.5081      0.0885      8.6008     23.4707    129.7069
  1677.5000      8.0080      2.5317      0.0703      7.1699     22.8254    130.0446
  1677.6000      8.0080      2.5464      0.0881      6.2799     22.3048    134.7616
  1677.7000      8.0080      2.5422      0.1190      6.5309     22.2595    137.3916
  1677.8000      8.0064      2.5276      0.0651      7.4190     22.2722    134.2420
  1677.9000      8.0064      2.5260      0.0707      7.5129     21.6555    130.4182
  1678.0000      8.0068      2.5482      0.0495      6.1690     20.6409    128.9857
  1678.1000      8.0068      2.5823      0.0770      4.1028     20.1280    127.1139
  1678.2000      8.0068      2.6007      0.1194      2.9907     20.4546    122.8768
  1678.3000      8.0065      2.5886      0.0898      3.7236     21.0141    119.1246
  1678.4000      8.0065      2.5663      0.0415      5.0753     21.5042    121.2310
  1678.5000      8.0078      2.5628      0.0440      5.2866     22.3664    126.5830
  1678.6000      8.0078      2.5838      0.0572      4.0114     23.6102    128.8530
  1678.7000      8.0078      2.6113      0.1199      2.3459     24.6292    131.0327
  1678.8000      8.0151      2.6266      0.1147      1.4202     24.8561    134.2851
  1678.9000      8.0151      2.6287      0.1279      1.2893     24.3011    133.9256
  1679.0000      8.0200      2.6220      0.1365      1.6942     23.3004    133.6079
  1679.1000      8.0200      2.6093      0.0977      2.4688     21.9380    136.9845
  1679.2000      8.0200      2.5920      0.1008      3.5175     20.7012    138.3750
  1679.3000      8.0148      2.5673      0.0897      5.0130     20.3915    135.3336
  1679.4000      8.0148      2.5446      0.0230      6.3872     20.7241    131.5634
  1679.5000      8.0095      2.5450      0.0442      6.3611     20.8375    128.4668
  1679.6000      8.0095      2.5731      0.0480      4.6604     20.5617    125.6612
  1679.7000      8.0095      2.6168      0.0659      2.0119     20.2569    125.9065
  1679.8000      8.0090      2.6535      0.1116     -0.2119     20.2500    127.7323
  1679.9000      8.0090      2.6545      0.1159     -0.2721     20.0993    124.3079
