~Version Information
VERS.                      2.0: CWLS Log ASCII Standard - VERSION 2.0
WRAP.                       NO: One line per depth step
~Well Information Block
STRT.FT               550.0000: 
STOP.FT              2042.5000: 
STEP.FT                 0.2500: 
NULL.                -999.2500: 
COMP.          Petrogulf Corporation: COMPANY
WELL.          Robinson 15-12V: WELL
FLD.           Purgatorie River: FIELD
LOC.           1788' FNL & 466' FWL: LOCATION
PROV.                 Colorado: PROVINCE
CNTY.               Las Animas: COUNTRY
SRVC.                Patterson: SERVICE COMPANY
DATE.          Mon Sep 12 10:04:59 2005: LOG DATE
UWI.                          : UNIQUE WELL ID
~Curve Information Block
DEPT.FT            0 000 00 00: Depth
SP.mV                         : DIL Spontaneous Potential
RILD.Ohm-m                    : DIL Deep Resistivity
RILM.Ohm-m                    : DIL Medium Resistivity
RLL3.Ohm-m                    : DIL Shallow Resistivity
GR.GAPI                       : Gamma Ray
~Parameter Information Block
~A  Depth        SP         RILD        RILM        RLL3         GR     
# ...
  1922.0000    241.9328     19.1994     20.9456     17.5480     75.5505
  1922.2500    241.6364     18.6847     21.9281     18.4517     71.0647
  1922.5000    241.6317     18.5195     20.6477     18.3664     65.6377
  1922.7500    241.9650     18.9281     21.1143     17.9415     68.1719
  1923.0000    242.3423     18.8392     20.1579     17.6603     68.4463
  1923.2500    242.7467     18.5078     20.5646     17.6329     67.9868
  1923.5000    243.2437     18.4736     20.4550     17.6656     69.3772
  1923.7500    243.7338     18.0894     19.9202     17.7020     66.9173
  1924.0000    244.2355     18.1593     19.6647     17.6720     72.1088
  1924.2500    244.7722     17.9030     19.1977     17.0630     70.4673
  1924.5000    245.5148     17.6012     19.4527     15.9046     76.7684
  1924.7500    246.0532     17.9249     19.1258     15.9579     70.7453
  1925.0000    246.9311     17.9605     18.8898     16.0019     73.6710
  1925.2500    247.8727     17.0344     18.7657     15.9431     77.2822
  1925.5000    248.7207     17.3587     18.8623     16.1823     72.5867
  1925.7500    249.6339     17.6392     18.5235     16.8050     62.0637
  1926.0000    250.2016     16.9496     19.0226     17.0011     74.9173
  1926.2500    250.7088     16.7736     18.9782     16.5745     77.7446
  1926.5000    251.2634     16.6502     18.1427     16.1197     70.7159
  1926.7500    251.6577     16.3665     17.9182     15.6304     71.9931
  1927.0000    251.9588     16.6954     18.1058     15.2603     77.7991
  1927.2500    252.3405     16.8831     17.9108     14.9729     80.3447
  1927.5000    252.6334     17.1166     17.8892     14.6663     72.5841
  1927.7500    252.9969     16.7277     18.1843     15.1755     73.1432
  1928.0000    253.3313     17.0747     18.4845     15.7625     73.4162
  1928.2500    253.4081     17.3843     18.5232     16.0672     72.7504
  1928.5000    253.7410     16.7927     18.1078     16.1679     67.1204
  1928.7500    253.8676     16.5079     18.2086     16.2583     73.0782
  1929.0000    253.9361     16.5199     18.9902     16.2452     73.8491
  1929.2500    253.7810     16.2791     18.3047     16.3012     69.8045
  1929.5000    253.6232     16.3574     17.7735     16.5043     78.2300
  1929.7500    253.3729     16.1754     18.5607     16.2581     83.3819
  1930.0000    253.1331     16.1242     18.1435     15.8462     76.3615
  1930.2500    252.5457     15.8071     18.0613     15.5245     73.6378
  1930.5000    251.8447     16.3465     18.3082     15.3663     78.3310
  1930.7500    251.2641     15.7674     17.8273     15.2734     78.9977
  1931.0000    250.6224     15.6826     17.4450     15.0787     77.7707
  1931.2500    249.9733     15.8465     17.4852     14.7502     76.3782
  1931.5000    249.0751     15.5502     17.3553     14.8116     78.6091
  1931.7500    248.3859     15.5948     17.0203     15.1258     75.8005
  1932.0000    247.7942     15.8457     16.8601     14.8298     82.8978
  1932.2500    247.5468     15.6101     17.1885     14.3252     89.2342
  1932.5000    247.5498     15.8986     17.1256     13.7827     84.8572
  1932.7500    247.8442     16.0729     17.3909     13.6593     82.6148
  1933.0000    248.6622     16.0274     17.7101     14.8091     75.0339
  1933.2500    249.6676     16.1587     17.7403     15.9667     68.0123
  1933.5000    250.7661     16.6783     18.1511     15.8931     77.7119
  1933.7500    251.2373     15.9164     18.7066     15.3244     85.1294
  1934.0000    251.0751     16.7540     18.9038     15.0786     80.7824
  1934.2500    250.3691     16.5117     18.2960     15.5566     80.1131
  1934.5000    249.9590     16.1645     19.2213     16.7213     81.4894
  1934.7500    249.3529     15.9788     19.5391     19.7044     81.0641
  1935.0000    248.8156     16.5317     18.6662     23.3968     80.5813
  1935.2500    248.5741     16.3882     18.4280     24.1858     79.6135
  1935.5000    248.3692     16.8538     17.6154     15.9740     96.8855
  1935.7500    248.1407     17.3058     17.3032     11.7421    103.9431
  1936.0000    247.4207     17.4820     17.7904     11.6097     91.8572
  1936.2500    246.1561     17.7773     17.5353     13.2517     84.1611
  1936.5000    244.6912     17.9586     18.0539     15.7477     77.9408
  1936.7500    242.7881     17.3340     19.0765     18.2252     76.7023
  1937.0000    240.7495     18.3171     19.4449     18.4034     73.5154
  1937.2500    238.6232     18.1397     19.1695     16.6799     74.1292
  1937.5000    236.2680     18.1224     20.1355     16.4025     79.6487
  1937.7500    233.7469     18.2064     19.2796     16.7073     77.1305
  1938.0000    231.2529     18.1695     19.4496     16.8674     80.2833
  1938.2500    228.4047     17.9925     20.4386     17.8451     83.4640
  1938.5000    225.2328     18.0077     20.7510     18.9452     67.9524
  1938.7500    221.5607     16.9797     20.4986     20.0119     74.8997
  1939.0000    217.9490     16.6308     20.5602     18.7449     68.4732
  1939.2500    213.1493     15.9170     19.3104     15.6943     72.1329
  1939.5000    207.9253     14.6355     17.9307     14.6354     67.3462
  1939.7500    200.8344     13.6055     16.0858     16.0975     69.1550
  1940.0000    192.4247     11.8306     14.8753     17.9352     72.3051
  1940.2500    181.6400     11.1131     13.0325     17.9488     68.3074
  1940.5000    167.2164     11.1591     11.4600     17.0913     69.0611
  1940.7500    150.3734     11.6220      8.8078     15.4876     64.4028
  1941.0000    124.5543     12.2206      7.1833     10.3682     74.8057
  1941.2500    102.1389     12.2455      6.6756      6.0977     74.0294
  1941.5000     79.5379     12.0684      6.9685      4.6847     71.6761
  1941.7500     80.1074     11.8312      7.5446      6.0222     69.9236
  1942.0000    106.1975     11.7560      9.0329     10.9183     69.6798
  1942.2500    133.9259     11.1933     10.4351     17.9155     68.1537
  1942.5000    148.8083     10.7514     12.7870     20.1959     70.1804
  1942.7500    163.3660      9.9881     12.8050     20.6443     72.8573
  1943.0000    169.9548      9.1751     11.9361     19.7653     71.8500
  1943.2500    175.2550      8.7534     10.8867     17.4801     74.7580
  1943.5000    176.7284      8.8052     10.1611     16.8203     77.6932
  1943.7500    175.9608      9.4688      8.8102     15.7162     78.7493
  1944.0000    173.1195     10.9811      8.7451     11.6315     81.0068
  1944.2500    169.3902     11.6722      8.9410      7.9305     79.0738
  1944.5000    166.9601     12.2944      9.1743      6.1014     80.8325
  1944.7500    171.7718     12.4804     10.0008      8.6764     70.1730
  1945.0000    182.0463     13.0479     11.0534     19.5070     71.4296
  1945.2500    189.4361     12.8990     11.6934     21.8293     72.4165
  1945.5000    198.2233     13.0008     12.4947     16.5428     74.6485
  1945.7500    203.8236     12.7190     12.6264     13.5220     78.2480
  1946.0000    209.1032     12.4064     12.9477     14.1210     77.8075
  1946.2500    212.8302     11.7453     13.1166     17.3658     73.9336
  1946.5000    214.7232     11.7195     13.7046     19.2328     73.2109
  1946.7500    216.6830     12.3906     13.6002     20.4002     70.4528
  1947.0000    218.0598     12.9220     13.3823     19.7334     82.3474
  1947.2500    218.9314     13.5868     13.6872     14.5222     90.5422
  1947.5000    220.1367     13.8583     13.8304     11.2783     99.1208
  1947.7500    221.7482     14.0505     13.8532      9.7906    104.4837
  1948.0000    223.1904     14.2348     13.8336     12.0257     89.5185
  1948.2500    224.4657     15.2269     14.5231     15.0404     85.8359
  1948.5000    225.0295     15.7236     14.8679     14.5220     92.6092
  1948.7500    225.3607     15.3306     15.2407     14.0865     85.7701
  1949.0000    225.0776     15.4093     16.2326     15.5027     85.5998
  1949.2500    224.9506     15.2495     16.3224     15.9226     91.3816
  1949.5000    224.4275     15.6047     17.0179     15.1956     81.5848
  1949.7500    223.8255     15.7587     17.3259     16.6451     77.8649
