~Version Information
VERS.                      2.0: CWLS Log ASCII Standard - VERSION 2.0
WRAP.                       NO: One line per depth step
~Well Information Block
STRT.FT                 0.0000: 
STOP.FT              1439.5000: 
STEP.FT                 0.2500: 
NULL.                -999.2500: 
COMP.          Petrogulf Corporation: COMPANY
WELL.          Robinson 15-12R: WELL
FLD.           Purgatorie River: FIELD
LOC.           1752' FNL & 561' FWL: LOCATION
PROV.                 Colorado: PROVINCE
CNTY.               Las Animas: COUNTRY
SRVC.                Patterson: SERVICE COMPANY
DATE.          Tue Oct 04 09:17:52 2005: LOG DATE
UWI.                          : UNIQUE WELL ID
~Curve Information Block
DEPT.FT            0 000 00 00: Depth
GR.GAPI                       : Gamma Ray
CCL.                          : Casing Collar Locator
TT3.usec                      : CBL 3' Travel Time
AMP3.mV                       : CBL 3' Amplitude
~Parameter Information Block
~A  Depth        GR         CCL         TT3         AMP3    
# ...
  1139.0000    119.1772      0.0000    668.9067      5.8536
  1139.2500    123.7653      0.0000    672.9712      5.6511
  1139.5000    127.4908      0.0000    660.2251      6.0946
  1139.7500    131.2203      0.0000    628.5906      7.0309
  1140.0000    135.5180      2.0000    577.2729      8.2485
  1140.2500    140.0813      0.0000    518.1948      9.6490
  1140.5000    143.7169      0.0000    464.4643     11.3352
  1140.7500    144.8814      0.0000    418.1488     13.5820
  1141.0000    142.6598      0.0000    378.8797     16.4473
  1141.2500    137.6865      0.0000    349.6267     19.2553
  1141.5000    132.2981      0.0000    333.3929     21.3488
  1141.7500    129.5020      0.0000    330.7137     23.0803
  1142.0000    131.1306      0.0000    336.9438     24.8599
  1142.2500    136.4112      0.0000    340.2924     26.3672
  1142.5000    142.0539      0.0000    332.4283     27.2665
  1142.7500    144.0289      0.0000    319.0595     27.6437
  1143.0000    140.0608      0.0000    309.6986     27.7608
  1143.2500    131.0123      0.0000    306.0523     27.8480
  1143.5000    119.8782      0.0000    305.2044     28.1198
  1143.7500    109.3788      0.0000    305.0098     28.8124
  1144.0000    100.6497      0.0000    304.7334     30.0735
  1144.2500     93.8739      0.0000    304.2453     31.8826
  1144.5000     89.2325      0.0000    303.4378     34.1336
  1144.7500     86.8173      0.0000    301.6037     36.7138
  1145.0000     86.2046      0.0000    297.1079     39.4993
  1145.2500     86.7621      0.0000    288.7887     42.3480
  1145.5000     88.1923      0.0000    278.4671     45.0671
  1145.7500     90.3497      0.0000    270.1106     47.3499
  1146.0000     92.6188      0.0000    265.7525     48.8350
  1146.2500     93.9254      0.0000    264.5612     49.3034
  1146.5000     93.4935      0.0000    265.6787     48.7491
  1146.7500     91.5020      0.0000    269.9258     47.2888
  1147.0000     89.1540      0.0000    278.1422     45.1623
  1147.2500     88.2094      0.0000    288.3432     42.7293
  1147.5000     89.9176      0.0000    296.5920     40.3155
  1147.7500     93.8974      0.0000    301.0480     38.1471
  1148.0000     98.3006      0.0000    302.8311     36.3926
  1148.2500    101.4034      0.0000    303.5833     35.0897
  1148.5000    102.8965      0.0000    304.1711     34.0997
  1148.7500    103.6113      0.0000    305.2274     33.2128
  1149.0000    104.4754      0.0000    308.3771     32.2287
  1149.2500    105.8329      0.0000    316.9640     30.9947
  1149.5000    107.2366      0.0000    333.7205     29.4854
  1149.7500    107.7934      0.0000    357.0383     27.8391
  1150.0000    107.2699      0.0000    383.6455     26.2854
  1150.2500    106.9656      0.0000    414.0353     24.9852
  1150.5000    108.8699      0.0000    450.3050     23.8984
  1150.7500    113.6359      0.0000    493.8424     22.8396
  1151.0000    119.6834      0.0000    544.3893     21.6626
  1151.2500    124.6008      0.0000    597.2137     20.3765
  1151.5000    127.2575      0.0000    650.8010     19.0995
  1151.7500    128.3862      0.0000    706.2893     17.9296
  1152.0000    129.5453      0.0000    753.1775     16.8799
  1152.2500    132.0305      0.0000    779.6763     15.9100
  1152.5000    136.4719      0.0000    787.4966     14.9684
  1152.7500    142.6467      0.0000    781.0638     14.0099
  1153.0000    149.2857      0.0000    758.4787     13.0434
  1153.2500    154.3794      0.0000    725.9078     12.1676
  1153.5000    156.3371      0.0000    709.0413     11.4695
  1153.7500    155.2675      0.0000    724.6099     10.8768
  1154.0000    152.9913      0.0000    753.9089     10.1787
  1154.2500    151.3923      0.0000    771.8549      9.2265
  1154.5000    150.6335      0.0000    776.6111      8.0961
  1154.7500    149.0832      0.0000    776.1284      7.0310
  1155.0000    144.9589      0.0000    772.5859      6.2421
  1155.2500    137.9973      0.0000    768.0273      5.8111
  1155.5000    129.6963      0.0000    767.4986      5.7321
  1155.7500    122.2151      0.0000    771.1653      5.9537
  1156.0000    117.0491      0.0000    774.5228      6.4122
  1156.2500    114.4954      0.0000    777.0396      7.0786
  1156.5000    114.1815      0.0000    780.8861      7.9590
  1156.7500    115.8763      0.0000    783.9241      9.0410
  1157.0000    119.5337      0.0000    780.3585     10.2541
  1157.2500    124.7624      0.0000    762.2969     11.5378
  1157.5000    130.7429      0.0000    718.4115     12.9141
  1157.7500    136.6825      0.0000    647.4147     14.3947
  1158.0000    142.0291      0.0000    583.3084     15.8546
  1158.2500    146.2648      0.0000    573.6028     17.0443
  1158.5000    148.7138      0.0000    613.7827     17.7139
  1158.7500    148.6213      0.0000    655.8295     17.7609
  1159.0000    145.5828      0.0000    683.8064     17.2759
  1159.2500    140.1629      0.0000    714.5980     16.4424
  1159.5000    134.1630      0.0000    747.0135     15.4349
  1159.7500    130.0609      0.0000    768.5978     14.4016
  1160.0000    129.8688      0.0000    780.1127     13.4961
  1160.2500    134.0652      0.0000    787.0884     12.8880
  1160.5000    141.2239      0.0000    791.1024     12.6895
  1160.7500    148.6624      0.0000    792.5981     12.8798
  1161.0000    153.6946      0.0000    791.6116     13.3593
  1161.2500    154.5416      0.0000    784.7712     14.0191
  1161.5000    150.7651      0.0000    763.3581     14.6822
  1161.7500    143.6545      0.0000    721.4299     15.0883
  1162.0000    136.1203      0.0000    671.3981     15.1168
  1162.2500    131.1918      0.0000    633.4709     15.0128
  1162.5000    129.9506      0.0000    601.5832     15.2283
  1162.7500    131.1453      0.0000    553.7805     15.9856
  1163.0000    132.9914      0.0000    494.3952     17.0725
  1163.2500    134.7518      0.0000    453.4304     18.0265
  1163.5000    136.2600      0.0000    460.1035     18.4118
  1163.7500    136.7410      0.0000    518.5214     17.9694
  1164.0000    135.0218      0.0000    593.0330     16.6713
  1164.2500    130.7136      0.0000    646.1013     14.6978
  1164.5000    124.7445      0.0000    686.1700     12.3475
  1164.7500    119.0434      0.0000    728.1004     10.0358
  1165.0000    115.8429      0.0000    750.9653      8.2169
  1165.2500    116.3746      0.0000    745.8591      7.0223
  1165.5000    119.5524      0.0000    737.5298      6.2009
  1165.7500    122.4805      0.0000    740.4672      5.5332
  1166.0000    122.9974      0.0000    748.9065      4.9818
  1166.2500    121.6330      0.0000    756.8986      4.5124
  1166.5000    120.8794      0.0000    759.0138      4.0983
  1166.7500    122.8061      0.0000    751.4912      3.8261
  1167.0000    127.5881      0.0000    738.6300      3.8045
  1167.2500    133.9083      0.0000    728.0206      4.0333
  1167.5000    139.9614      0.0000    723.0876      4.4543
  1167.7500    143.6769      0.0000    722.1359      5.0102
  1168.0000    142.7909      0.0000    721.3488      5.5802
  1168.2500    135.9583      0.0000    716.3123      5.9998
  1168.5000    124.0711      0.0000    706.0329      6.1863
  1168.7500    109.9199      0.0000    696.7504      6.1611
  1169.0000     96.2951      0.0000    694.2597      5.9906
  1169.2500     84.6143      0.0000    697.7985      5.7627
  1169.5000     75.2331      0.0000    702.5045      5.5646
  1169.7500     68.3530      0.0000    701.8093      5.4405
  1170.0000     64.0917      0.0000    693.4459      5.3713
  1170.2500     61.9391      0.0000    682.9391      5.3040
  1170.5000     60.7271      0.0000    676.2798      5.2035
  1170.7500     59.4353      0.0000    674.6912      5.0711
  1171.0000     58.0111      0.0000    677.5082      4.9133
  1171.2500     57.3375      0.0000    684.3579      4.7302
  1171.5000     58.4462      0.0000    694.8421      4.5563
  1171.7500     61.9291      0.0000    708.8220      4.4649
  1172.0000     68.0056      0.0000    724.6567      4.5007
  1172.2500     76.7544      0.0000    737.8005      4.6368
