~Version Information
VERS.                      2.0: CWLS Log ASCII Standard - VERSION 2.0
WRAP.                       NO: One line per depth step
~Well Information Block
STRT.FT               -12.2500: 
STOP.FT              2183.0000: 
STEP.FT                 0.2500: 
NULL.                -999.2500: 
COMP.          Petrogulf Corporation: COMPANY
WELL.            Montoya 6-14R: WELL
FLD.           Purgatorie River: FIELD
LOC.           867' FSL & 751' FWL: LOCATION
CNTY.               Las Animas: COUNTY
SRVC.                         : SERVICE COMPANY
DATE.          Mon Nov 22 13:07:31 2004: LOG DATE
UWI.           05-071-08242-00: UNIQUE WELL ID
STAT.                 Colorado: STATE
~Curve Information Block
DEPT.FT            0 000 00 00: Depth
TT3.usec                      : CBL 3' Travel Time
AMP3.mV                       : CBL 3' Amplitude
GR.GAPI                       : Gamma Ray
CCL.                          : Casing Collar Locator
~Parameter Information Block
~A  Depth       TT3         AMP3         GR         CCL     
# ...
   423.2500    283.9706     82.4191    125.5445      0.0000
   423.5000    283.9860     82.3772    124.4115      0.0000
   423.7500    283.9921     82.1019    123.6443      0.0000
   424.0000    283.9917     81.6670    122.7223      0.0000
   424.2500    283.9822     81.2643    120.8656      0.0000
   424.5000    283.9592     81.0673    117.3276      0.0000
   424.7500    283.9223     81.0959    111.9610      0.0000
   425.0000    283.8784     81.1845    105.4133      0.0000
   425.2500    283.8363     81.1180     98.6696      0.0000
   425.5000    283.8002     80.8516     92.4671      0.0000
   425.7500    283.7711     80.5806     87.2353      0.0000
   426.0000    283.7525     80.5522     83.3775      0.0000
   426.2500    283.7512     80.8154     81.1837      0.0000
   426.5000    283.7731     81.1752     80.4188      0.0000
   426.7500    283.8181     81.3720     80.3768      0.0000
   427.0000    283.8767     81.2905     80.4872      0.0000
   427.2500    283.9335     81.0214     80.6408      0.0000
   427.5000    283.9747     80.7669     80.8124      0.0000
   427.7500    283.9946     80.6871     80.6304      0.0000
   428.0000    283.9959     80.8181     79.7152      0.0000
   428.2500    283.9838     81.1082     78.4785      0.0000
   428.5000    283.9589     81.4727     78.1022      0.0000
   428.7500    283.9176     81.7922     79.3648      0.0000
   429.0000    283.8578     81.9563     81.7740      0.0000
   429.2500    283.7831     81.9668     84.2531      0.0000
   429.5000    283.7081     81.9331     86.3871      0.0000
   429.7500    283.6638     81.9209     88.6037      0.0000
   430.0000    283.6849     81.8559     91.5061      0.0000
   430.2500    283.7746     81.6097     95.4095      0.0000
   430.5000    283.8848     81.1501    100.1519      0.0000
   430.7500    283.9478     80.5895    104.8761      0.0000
   431.0000    283.9307     80.1035    108.2957      0.0000
   431.2500    283.8578     79.7985    109.7589      0.0000
   431.5000    283.7850     79.6483    110.0460      0.0000
   431.7500    283.7548     79.5638    110.7266      0.0000
   432.0000    283.7726     79.5003    112.7314      0.0000
   432.2500    283.8142     79.4616    115.7004      0.0000
   432.5000    283.8530     79.4363    118.2694      0.0000
   432.7500    283.8776     79.3923    118.5472      0.0000
   433.0000    283.8897     79.3372    114.8251      0.0000
   433.2500    283.8916     79.3625    106.8017      0.0000
   433.5000    283.8810     79.6017     96.4501      0.0000
   433.7500    283.8576     80.0942     87.3094      0.0000
   434.0000    283.8290     80.6900     82.3717      0.0000
   434.2500    283.8037     81.1524     82.3287      0.0000
   434.5000    283.7816     81.3531     85.7955      0.0000
   434.7500    283.7585     81.3305     91.1197      0.0000
   435.0000    283.7362     81.2110     97.7748      0.0000
   435.2500    283.7221     81.1311    106.1525      0.0000
   435.5000    283.7223     81.1712    116.5951      0.0000
   435.7500    283.7406     81.2932    128.8411      0.0000
   436.0000    283.7770     81.3768    141.9921      0.0000
   436.2500    283.8225     81.3523    154.7640      0.0000
   436.5000    283.8606     81.2628    165.9602      0.0000
   436.7500    283.8807     81.1769    174.8412      0.0000
   437.0000    283.8900     81.0846    180.9429      0.0000
   437.2500    283.9059     80.9196    183.7786      0.0000
   437.5000    283.9365     80.6812    183.0817      0.0000
   437.7500    283.9713     80.4953    179.1505      0.0000
   438.0000    283.9951     80.5144    172.6667      0.0000
   438.2500    284.0044     80.7576    164.6076      0.0000
   438.5000    284.0090     81.0820    156.5228      0.0000
   438.7500    284.0192     81.3141    150.1207      0.0000
   439.0000    284.0337     81.3718    146.1046      0.0000
   439.2500    284.0414     81.2596    143.7648      0.0000
   439.5000    284.0327     80.9944    141.7879      0.0000
   439.7500    284.0105     80.5923    139.2343      0.0000
   440.0000    283.9887     80.1287    136.0156      0.0000
   440.2500    283.9826     79.7514    132.8411      0.0000
   440.5000    283.9959     79.5841    130.7416      0.0000
   440.7500    284.0152     79.6219    130.4355      0.0000
   441.0000    284.0173     79.7442    131.7976      0.0000
   441.2500    283.9864     79.8313    133.5861      0.0000
   441.5000    283.9265     79.8645    133.7629      0.0000
   441.7500    283.8562     79.9141    130.6403      0.0000
   442.0000    283.7948     80.0190    124.2593      0.0000
   442.2500    283.7541     80.1058    116.7066      0.0000
   442.5000    283.7373     80.0688    110.7541      0.0000
   442.7500    283.7392     79.9104    107.8788      0.0000
   443.0000    283.7509     79.7472    107.4000      0.0000
   443.2500    283.7661     79.6771    107.4006      0.0000
   443.5000    283.7822     79.6812    106.5100      0.0000
   443.7500    283.7952     79.6643    104.8526      0.0000
   444.0000    283.8004     79.5683    103.2940      0.0000
   444.2500    283.7996     79.4433    102.0619      0.0000
   444.5000    283.8040     79.4107    100.6056      0.0000
   444.7500    283.8212     79.5472     98.6290      0.0000
   445.0000    283.8431     79.8193     96.5550      0.0000
   445.2500    283.8543     80.1453     94.9031      0.0000
   445.5000    283.8503     80.4886     93.7684      0.0000
   445.7500    283.8409     80.8548     93.0377      0.0000
   446.0000    283.8388     81.2300     92.7727      0.0000
   446.2500    283.8514     81.5652     93.2194      0.0000
   446.5000    283.8804     81.8106     94.5581      0.0000
   446.7500    283.9213     81.9301     96.5998      0.0000
   447.0000    283.9601     81.8856     98.5426      0.0000
   447.2500    283.9778     81.6456     99.1622      0.0000
   447.5000    283.9644     81.2385     97.6805      0.0000
   447.7500    283.9296     80.8031     94.6283      0.0000
   448.0000    283.8963     80.5536     91.5852      0.0000
   448.2500    283.8843     80.6515     89.7507      0.0000
   448.5000    283.8972     81.0874     88.7539      0.0000
   448.7500    283.9246     81.6907     87.0080      0.0000
   449.0000    283.9525     82.2605     83.2002      0.0000
   449.2500    283.9707     82.6884     77.3152      0.0000
   449.5000    283.9728     82.9698     70.4548      0.0000
   449.7500    283.9572     83.1292     64.1418      0.0000
   450.0000    283.9312     83.1684     59.7303      0.0000
   450.2500    283.9102     83.0926     57.9366      0.0000
   450.5000    283.9095     82.9504     58.6175      0.0000
   450.7500    283.9316     82.8164     60.9182      0.0000
   451.0000    283.9625     82.7505     63.5616      0.0000
   451.2500    283.9850     82.7815     65.1980      0.0000
   451.5000    283.9978     82.8957     64.9266      0.0000
   451.7500    284.0142     83.0184     62.7135      0.0000
   452.0000    284.0444     83.0502     59.3720      0.0000
   452.2500    284.0854     82.9601     56.1994      0.0000
   452.5000    284.1384     82.8090     54.3966      0.0000
   452.7500    284.2446     82.6346     54.3646      0.0000
   453.0000    284.5108     82.3375     55.4854      0.0000
   453.2500    285.0787     81.7197     56.8441      0.0000
   453.5000    286.0272     80.5830     58.1570      0.0000
   453.7500    287.2744     78.7432     59.7692      0.0000
   454.0000    288.5865     76.0839     61.7729      0.0000
   454.2500    289.7074     72.7909     63.5483      0.0000
   454.5000    290.4993     69.4687     64.5869      0.0000
   454.7500    290.9746     66.8013     65.5131      0.0000
   455.0000    291.2268     65.0730     67.6301      2.5574
   455.2500    291.3597     64.0908     71.4364      2.0798
   455.5000    291.4574     63.5085     76.0922     -3.3768
   455.7500    291.5613     63.1670     80.3651      0.0000
   456.0000    291.6341     63.2378     83.6958      0.0000
   456.2500    291.5497     64.1432     86.2515      0.0000
   456.5000    291.1290     66.2758     88.2176      0.0000
