~Version Information
VERS.                      2.0: CWLS Log ASCII Standard - VERSION 2.0
WRAP.                       NO: One line per depth step
~Well Information Block
STRT.FT               845.0000: 
STOP.FT              2308.2000: 
STEP.FT                 0.1000: 
NULL.                -999.2500: 
COMP.          Pioneer Natural Resources: COMPANY
WELL.             Vector 33-23: WELL
FLD.           Purgatoire River: FIELD
LOC.           1560' FEL & 1988' FSL----: LOCATION
PROV.                 Colorado: PROVINCE
CNTY.               Las Animas: COUNTRY
SRVC.                Patterson: SERVICE COMPANY
DATE.          Mon Mar 28 08:17:25 2005: LOG DATE
UWI.           05 071 08336 00: UNIQUE WELL ID
~Curve Information Block
DEPT.FT            0 000 00 00: Depth
DCAL.in                       : CDL Caliper
RHOB.g/cc                     : CDL Bulk Density
RHOC.g/cc                     : CDL Density Correction
DPOR.pu                       : CDL Density Porosity
NPOR.pu                       : Neutron Porosity
GR.GAPI                       : Gamma Ray
~Parameter Information Block
~A  Depth       DCAL        RHOB        RHOC        DPOR        NPOR         GR     
# ...
  2083.4000      8.0514      2.4696      0.0298     10.9322     26.8599    152.9199
  2083.5000      8.0520      2.4734      0.0721     10.7005     26.9742    149.8370
  2083.6000      8.0520      2.4838      0.0187     10.0708     27.0993    145.3758
  2083.7000      8.0520      2.4955      0.0591      9.3634     27.2855    142.9383
  2083.8000      8.0535      2.5043      0.0569      8.8309     27.6159    139.4543
  2083.9000      8.0535      2.5187      0.0736      7.9561     27.8948    132.8741
  2084.0000      8.0538      2.5427      0.0875      6.5023     27.9948    127.6972
  2084.1000      8.0538      2.5607      0.1214      5.4136     28.1242    124.1793
  2084.2000      8.0538      2.5590      0.0661      5.5149     28.2211    120.4662
  2084.3000      8.0521      2.5423      0.0680      6.5266     27.8212    120.2382
  2084.4000      8.0521      2.5184      0.0566      7.9781     27.2925    126.6723
  2084.5000      8.0527      2.4911     -0.0071      9.6311     27.3950    134.4060
  2084.6000      8.0527      2.4759     -0.0555     10.5536     27.7484    136.5691
  2084.7000      8.0527      2.4886     -0.0119      9.7800     27.5539    134.3573
  2084.8000      8.0546      2.5130      0.0345      8.3044     27.1958    134.2353
  2084.9000      8.0546      2.5200      0.0254      7.8793     27.2015    135.8444
  2085.0000      8.0555      2.5076      0.0330      8.6293     27.3983    133.0346
  2085.1000      8.0555      2.4908      0.0266      9.6492     27.7834    128.7648
  2085.2000      8.0555      2.4763      0.0172     10.5248     28.5335    130.4702
  2085.3000      8.0543      2.4644     -0.0365     11.2478     29.1820    134.6483
  2085.4000      8.0543      2.4540     -0.0001     11.8815     28.8747    134.0961
  2085.5000      8.0543      2.4426      0.0018     12.5686     27.9861    132.3229
  2085.6000      8.0543      2.4392     -0.0100     12.7747     27.7185    137.5025
  2085.7000      8.0543      2.4465      0.0254     12.3314     28.4025    148.5350
  2085.8000      8.0611      2.4454      0.0039     12.3981     29.2350    156.6710
  2085.9000      8.0611      2.4183      0.0223     14.0429     29.7752    157.1456
  2086.0000      8.0720      2.3601      0.0166     17.5693     30.5385    151.8173
  2086.1000      8.0720      2.2820     -0.0174     22.3034     31.1752    140.4108
  2086.2000      8.0720      2.1999      0.0073     27.2813     30.8017    123.9924
  2086.3000      8.0785      2.1141     -0.0258     32.4773     29.9869    114.3469
  2086.4000      8.0785      2.0272     -0.1031     37.7442     29.7942    117.5961
  2086.5000      8.0786      1.9529     -0.0935     42.2508     30.2405    123.0514
  2086.6000      8.0786      1.8976     -0.0958     45.6021     30.7645    124.9643
  2086.7000      8.0786      1.8672     -0.1075     47.4438     31.0032    127.3985
  2086.8000      8.0753      1.8688     -0.0564     47.3426     31.1027    128.2153
  2086.9000      8.0753      1.8901      0.0393     46.0573     31.3107    124.6941
  2087.0000      8.0727      1.9152      0.0540     44.5351     31.4026    124.0917
  2087.1000      8.0727      1.9510      0.0819     42.3623     31.2121    131.8932
  2087.2000      8.0727      1.9959      0.1856     39.6422     31.2417    141.5148
  2087.3000      8.0726      2.0276      0.1671     37.7197     31.6262    145.4893
  2087.4000      8.0726      2.0451      0.0887     36.6592     31.6430    144.2207
  2087.5000      8.0734      2.0638      0.0922     35.5297     31.2174    144.0970
  2087.6000      8.0734      2.0824      0.1037     34.4013     30.9017    151.1380
  2087.7000      8.0734      2.0974      0.0824     33.4894     30.6719    161.1757
  2087.8000      8.0745      2.1180      0.0536     32.2408     30.4111    164.1442
  2087.9000      8.0745      2.1524      0.0435     30.1557     30.3784    160.3506
  2088.0000      8.0766      2.1946      0.0940     27.5983     30.5768    156.7998
  2088.1000      8.0766      2.2314      0.1049     25.3713     30.6782    150.9560
  2088.2000      8.0766      2.2612      0.0968     23.5646     30.4727    141.4297
  2088.3000      8.0790      2.2905      0.1166     21.7887     29.9869    135.0429
  2088.4000      8.0790      2.3202      0.1310     19.9899     29.5057    130.1316
  2088.5000      8.0798      2.3455      0.1391     18.4567     29.2580    122.8682
  2088.6000      8.0798      2.3601      0.0993     17.5674     29.1161    118.4539
  2088.7000      8.0798      2.3664      0.0594     17.1861     28.9966    122.1451
  2088.8000      8.0794      2.3766      0.0768     16.5717     29.1815    130.1387
  2088.9000      8.0794      2.3962      0.0521     15.3841     29.6561    132.2335
  2089.0000      8.0801      2.4176      0.0418     14.0875     29.7989    126.8459
  2089.1000      8.0801      2.4291      0.0686     13.3869     29.5177    121.5865
  2089.2000      8.0801      2.4286      0.0520     13.4168     29.4982    121.8887
  2089.3000      8.0800      2.4291      0.0465     13.3856     29.7280    123.8204
  2089.4000      8.0800      2.4402      0.0325     12.7142     29.6345    120.6023
  2089.5000      8.0796      2.4540      0.0567     11.8776     28.9870    114.3431
  2089.6000      8.0796      2.4649      0.0490     11.2153     27.6344    113.6493
  2089.7000      8.0796      2.4802      0.0530     10.2935     25.9474    120.4916
  2089.8000      8.0802      2.4979      0.0575      9.2153     24.9137    124.6896
  2089.9000      8.0802      2.5051      0.0541      8.7789     24.8604    120.1963
  2090.0000      8.0797      2.4980      0.0471      9.2144     25.2523    113.6735
  2090.1000      8.0797      2.4896      0.0260      9.7223     25.8074    109.7782
  2090.2000      8.0797      2.4970      0.0253      9.2755     26.6667    105.1141
  2090.3000      8.0799      2.5225      0.0547      7.7272     27.3515     98.9978
  2090.4000      8.0799      2.5564      0.0605      5.6721     27.3333     95.5456
  2090.5000      8.0822      2.5796      0.1055      4.2672     26.9643     94.1422
  2090.6000      8.0822      2.5689      0.0911      4.9181     26.5553     92.8102
  2090.7000      8.0822      2.5328      0.0167      7.1053     26.1503     93.3003
  2090.8000      8.0842      2.5087      0.0040      8.5621     25.8921     95.1470
  2090.9000      8.0842      2.5126      0.0190      8.3269     25.6951     97.5225
  2091.0000      8.0865      2.5295      0.0236      7.3009     25.4279    103.9237
  2091.1000      8.0865      2.5426      0.0434      6.5116     25.2200    111.0814
  2091.2000      8.0865      2.5455      0.0433      6.3328     25.0754    111.4083
  2091.3000      8.0921      2.5379      0.0217      6.7967     25.0238    106.1291
  2091.4000      8.0921      2.5187      0.0425      7.9551     25.1787    100.5763
  2091.5000      8.0996      2.4932      0.0051      9.5037     25.4064     99.7746
  2091.6000      8.0996      2.4825     -0.0387     10.1508     25.9802    105.7087
  2091.7000      8.0996      2.4994      0.0063      9.1300     26.8981    110.9832
  2091.8000      8.1033      2.5253      0.0582      7.5599     27.2814    107.8157
  2091.9000      8.1033      2.5431      0.0316      6.4802     27.0435    100.9117
  2092.0000      8.1033      2.5582      0.0629      5.5659     26.6961     98.9235
  2092.1000      8.1033      2.5792      0.0640      4.2933     26.5121    101.1404
  2092.2000      8.1033      2.6111      0.0519      2.3601     26.8900    103.6127
  2092.3000      8.1031      2.6454      0.0885      0.2810     27.6591    104.4875
  2092.4000      8.1031      2.6628      0.0598     -0.7760     28.1218    103.3256
  2092.5000      8.1024      2.6689      0.0325     -1.1425     28.3197    103.0317
  2092.6000      8.1024      2.6826      0.0508     -1.9732     28.8583    106.6922
  2092.7000      8.1024      2.6991      0.1049     -2.9732     29.5170    112.1021
  2092.8000      8.1022      2.7031      0.0882     -3.2202     29.5995    113.3230
  2092.9000      8.1022      2.6897      0.0791     -2.4089     29.1750    109.4699
