~Version Information
VERS.                      2.0: CWLS Log ASCII Standard - VERSION 2.0
WRAP.                       NO: One line per depth step
~Well Information Block
STRT.FT               582.2500: 
STOP.FT              2642.5000: 
STEP.FT                 0.2500: 
NULL.                -999.2500: 
COMP.          Petrogulf Corporation: COMPANY
WELL.           Montoya 12-41V: WELL
FLD.           Purgatorie River: FIELD
LOC.           1081' FNL & 605' FEL: LOCATION
CNTY.               Las Animas: COUNTY
SRVC.                         : SERVICE COMPANY
DATE.          Tue Aug 10 10:59:28 2004: LOG DATE
UWI.           05 071 08094 00: UNIQUE WELL ID
STAT.                 Colorado: STATE
~Curve Information Block
DEPT.FT            0 000 00 00: Depth
SP.mV                         : DIL Spontaneous Potential
RILD.Ohm-m                    : DIL Deep Resistivity
RILM.Ohm-m                    : DIL Medium Resistivity
RLL3.Ohm-m                    : DIL Shallow Resistivity
GR.GAPI                       : Gamma Ray
~Parameter Information Block
~A  Depth        SP         RILD        RILM        RLL3         GR     
# ...
  2346.2500      1.2688     10.4632      9.0492     16.2631     98.4015
  2346.5000      1.5059     10.1657      8.7847     13.6133    108.1126
  2346.7500      2.0047      9.9065      8.5901     11.6237    111.5801
  2347.0000      2.7954      9.6811      8.4547     10.3184    112.1987
  2347.2500      3.8593      9.4836      8.3668      9.5803    110.4247
  2347.5000      5.1356      9.3067      8.3147      9.2601    106.5551
  2347.7500      6.5387      9.1434      8.2876      9.2388    104.3424
  2348.0000      7.9749      8.9908      8.2763      9.4364    102.8559
  2348.2500      9.3585      8.8531      8.2735      9.7931    103.0512
  2348.5000     10.6211      8.7404      8.2742     10.2491    103.8301
  2348.7500     11.7174      8.6652      8.2760     10.7388    103.8387
  2349.0000     12.6237      8.6366      8.2783     11.1976    102.6431
  2349.2500     13.3327      8.6548      8.2820     11.5740    101.3642
  2349.5000     13.8448      8.7100      8.2881     11.8380     99.5691
  2349.7500     14.1610      8.7827      8.2970     11.9774     98.8243
  2350.0000     14.2899      8.8488      8.3082     11.9899     98.7539
  2350.2500     14.2612      8.8862      8.3201     11.8767     99.5038
  2350.5000     14.1426      8.8827      8.3315     11.6450    101.7111
  2350.7500     14.0394      8.8412      8.3425     11.3144    103.6222
  2351.0000     14.0740      8.7787      8.3550     10.9219    106.4463
  2351.2500     14.3378      8.7209      8.3739     10.5183    107.9303
  2351.5000     14.8432      8.6929      8.4055     10.1576    109.2437
  2351.7500     15.5022      8.7122      8.4578      9.8862    109.5821
  2352.0000     16.1412      8.7848      8.5386      9.7357    109.6947
  2352.2500     16.5583      8.9063      8.6558      9.7206    109.6596
  2352.5000     16.5905      9.0678      8.8168      9.8407    109.3467
  2352.7500     16.1723      9.2637      9.0291     10.0864    108.9514
  2353.0000     15.3534      9.4971      9.3007     10.4512    108.4227
  2353.2500     14.2799      9.7800      9.6401     10.9502    108.2230
  2353.5000     13.1522     10.1274     10.0566     11.6388    107.5956
  2353.7500     12.1696     10.5507     10.5595     12.6172    106.3756
  2354.0000     11.4834     11.0544     11.1576     14.0068    102.5028
  2354.2500     11.1701     11.6358     11.8577     15.9003     98.1838
  2354.5000     11.2221     12.2872     12.6637     18.3028     88.7181
  2354.7500     11.5589     12.9970     13.5738     21.0938     80.7152
  2355.0000     12.0540     13.7483     14.5795     24.0354     67.9868
  2355.2500     12.5717     14.5192     15.6631     26.8255     60.3845
  2355.5000     12.9989     15.2842     16.7972     29.1733     51.7229
  2355.7500     13.2702     16.0193     17.9448     30.8632     47.7336
  2356.0000     13.3718     16.7079     19.0611     31.7888     43.6790
  2356.2500     13.3294     17.3454     20.0954     31.9529     42.0657
  2356.5000     13.1800     17.9425     20.9953     31.4473     41.5133
  2356.7500     12.9418     18.5199     21.7126     30.4261     42.4523
  2357.0000     12.5945     19.0949     22.2126     29.0812     45.3520
  2357.2500     12.0817     19.6642     22.4856     27.6182     47.7747
  2357.5000     11.3404     20.1933     22.5532     26.2310     51.2098
  2357.7500     10.3466     20.6282     22.4683     25.0765     52.9504
  2358.0000      9.1582     20.9246     22.3032     24.2557     54.5060
  2358.2500      7.9231     21.0772     22.1325     23.8087     54.9008
  2358.5000      6.8447     21.1253     22.0181     23.7252     54.5066
  2358.7500      6.1114     21.1279     21.9980     23.9618     53.4721
  2359.0000      5.8162     21.1278     22.0818     24.4575     50.8447
  2359.2500      5.9136     21.1268     22.2505     25.1413     48.6759
  2359.5000      6.2325     21.0870     22.4620     25.9344     45.3324
  2359.7500      6.5454     20.9577     22.6609     26.7498     43.2018
  2360.0000      6.6597     20.7153     22.7937     27.4942     40.3779
  2360.2500      6.4904     20.3885     22.8245     28.0704     38.9886
  2360.5000      6.0796     20.0489     22.7470     28.3879     38.1036
  2360.7500      5.5613     19.7749     22.5838     28.3841     38.4434
  2361.0000      5.0976     19.6196     22.3765     28.0516     40.3439
  2361.2500      4.8182     19.6002     22.1716     27.4547     42.4565
  2361.5000      4.7897     19.7035     22.0086     26.7167     46.4420
  2361.7500      5.0232     19.8997     21.9157     25.9804     49.1251
  2362.0000      5.4945     20.1533     21.9106     25.3588     52.3262
  2362.2500      6.1700     20.4322     22.0059     24.9036     53.8019
  2362.5000      7.0153     20.7173     22.2136     24.6034     55.3651
  2362.7500      7.9934     21.0110     22.5476     24.4095     55.9843
  2363.0000      9.0578     21.3424     23.0235     24.2750     55.7829
  2363.2500     10.1482     21.7613     23.6557     24.1979     54.8300
  2363.5000     11.1977     22.3204     24.4547     24.2585     52.9378
  2363.7500     12.1474     23.0565     25.4218     24.6421     51.8372
  2364.0000     12.9631     23.9719     26.5490     25.6340     50.3074
  2364.2500     13.6462     25.0263     27.8180     27.5751     48.9070
  2364.5000     14.2253     26.1374     29.2011     30.7772     45.6758
  2364.7500     14.7372     27.1966     30.6589     35.4102     42.8364
  2365.0000     15.1993     28.0946     32.1363     41.3951     38.2281
  2365.2500     15.5905     28.7532     33.5518     48.3476     35.3848
  2365.5000     15.8576     29.1439     34.7872     55.6085     31.8537
  2365.7500     15.9420     29.2902     35.6877     62.3737     29.9388
  2366.0000     15.8166     29.2504     36.0860     67.8864     27.5628
  2366.2500     15.5103     29.0895     35.8523     71.6107     26.3415
  2366.5000     15.1060     28.8572     34.9506     73.3070     25.2752
  2366.7500     14.7157     28.5839     33.4703     72.9801     25.2643
  2367.0000     14.4434     28.2893     31.6017     70.7589     26.8583
  2367.2500     14.3575     27.9924     29.5731     66.8121     29.4864
  2367.5000     14.4837     27.7131     27.5868     61.3756     36.5786
  2367.7500     14.8120     27.4665     25.7820     54.8600     43.5410
  2368.0000     15.3155     27.2510     24.2330     47.9251     56.5132
  2368.2500     15.9582     27.0438     22.9627     41.4072     65.6708
  2368.5000     16.7014     26.8053     21.9616     36.0880     77.3295
  2368.7500     17.5006     26.4966     21.2050     32.4209     82.1568
  2369.0000     18.3091     26.1041     20.6634     30.3834     84.0121
  2369.2500     19.0843     25.6518     20.3093     29.5536     82.6267
  2369.5000     19.7893     25.1939     20.1181     29.3775     80.2133
  2369.7500     20.3913     24.7869     20.0671     29.4731     80.3894
  2370.0000     20.8497     24.4580     20.1295     29.7868     84.4349
  2370.2500     21.1072     24.1853     20.2703     30.5145     88.7336
  2370.5000     21.0961     23.8998     20.4428     31.8520     94.8038
  2370.7500     20.7615     23.5157     20.5894     33.7505     97.1883
  2371.0000     20.0940     22.9785     20.6494     35.8421     96.8647
  2371.2500     19.1519     22.3071     20.5703     37.5763     93.8245
  2371.5000     18.0521     21.5947     20.3221     38.4620     85.8745
  2371.7500     16.9359     20.9624     19.9047     38.2576     79.5285
  2372.0000     15.9198     20.4999     19.3476     37.0106     70.8792
  2372.2500     15.0562     20.2305     18.7008     34.9699     66.6728
  2372.5000     14.3278     20.1079     18.0209     32.4666     63.2893
  2372.7500     13.6706     20.0387     17.3609     29.8305     62.9723
  2373.0000     13.0118     19.9226     16.7623     27.3527     65.1832
  2373.2500     12.2998     19.6927     16.2532     25.2579     68.1573
  2373.5000     11.5131     19.3366     15.8486     23.6733     74.0061
  2373.7500     10.6482     18.8877     15.5518     22.6076     78.1576
  2374.0000      9.7004     18.4015     15.3573     21.9622     83.6036
