~Version Information
VERS.                      2.0: CWLS Log ASCII Standard - VERSION 2.0
WRAP.                       NO: One line per depth step
~Well Information Block
STRT.FT               742.0000: 
STOP.FT              2582.0000: 
STEP.FT                 0.2500: 
NULL.                -999.2500: 
COMP.          Petrogulf Corporation: COMPANY
WELL.            Montoya 7-12V: WELL
FLD.           Purgatorie River: FIELD
LOC.           728' FWL & 1764' FNL: LOCATION
CNTY.               Las Animas: COUNTY
SRVC.                         : SERVICE COMPANY
DATE.          Thu Feb 19 20:58:32 2004: LOG DATE
UWI.           05-071-07887-00: UNIQUE WELL ID
STAT.                 Colorado: STATE
~Curve Information Block
DEPT.FT            0 000 00 00: Depth
SP.mV                         : DIL Spontaneous Potential
RILD.Ohm-m                    : DIL Deep Resistivity
RILM.Ohm-m                    : DIL Medium Resistivity
RLL3.Ohm-m                    : DIL Shallow Resistivity
GR.GAPI                       : Gamma Ray
~Parameter Information Block
~A  Depth        SP         RILD        RILM        RLL3         GR     
# ...
  1134.0000   -196.1030     56.2788     47.1525     94.2636     90.7033
  1134.2500   -196.2878     59.0926     49.8362     98.2373     85.5220
  1134.5000   -196.4831     62.5951     52.9052    102.5296     77.9368
  1134.7500   -196.6977     66.8111     56.4666    106.5853     73.2356
  1135.0000   -196.9444     71.6855     60.5280    109.8439     67.3070
  1135.2500   -197.2354     77.0267     64.9653    112.2115     64.3630
  1135.5000   -197.5797     82.4934     69.5225    113.9287     61.8365
  1135.7500   -197.9845     87.6675     73.8601    115.0495     61.6201
  1136.0000   -198.4552     92.1857     77.6510    115.1924     63.3980
  1136.2500   -198.9938     95.8266     80.6922    113.8957     65.4415
  1136.5000   -199.5939     98.4785     82.9857    111.2372     68.4272
  1136.7500   -200.2360    100.0560     84.7386    108.1371     69.8666
  1137.0000   -200.8874    100.5128     86.2725    106.0834     71.2054
  1137.2500   -201.5058     99.9688     87.8837    106.4542     71.6652
  1137.5000   -202.0459     98.7742     89.7094    109.8012     71.4604
  1137.7500   -202.4643     97.3361     91.6402    115.4324     70.5407
  1138.0000   -202.7215     95.8075     93.3111    121.5521     68.2769
  1138.2500   -202.7848     93.9236     94.2342    126.0521     66.7278
  1138.5000   -202.6344     91.1572     94.0457    127.6105     65.2665
  1138.7500   -202.2700     87.1010     92.6811    126.3375     65.0659
  1139.0000   -201.7122     81.7417     90.2890    123.4745     65.7011
  1139.2500   -200.9941     75.4184     86.9594    120.4975     66.4625
  1139.5000   -200.1471     68.6054     82.5593    118.4165     67.5735
  1139.7500   -199.1902     61.7594     76.8408    117.5969     68.0654
  1140.0000   -198.1283     55.2659     69.7436    117.7642     68.5068
  1140.2500   -196.9608     49.4106     61.6341    117.8639     68.9840
  1140.5000   -195.6940     44.3513     53.2488    116.0278     71.0907
  1140.7500   -194.3505     40.1129     45.3771    110.1430     74.0862
  1141.0000   -192.9686     36.6144     38.5602     98.9874     81.3427
  1141.2500   -191.5955     33.7155     33.0040     83.1883     87.5511
  1141.5000   -190.2753     31.2641     28.6660     65.2136     97.6215
  1141.7500   -189.0385     29.1312     25.3845     48.3028    104.4958
  1142.0000   -187.8958     27.2260     22.9663     35.0364    115.5667
  1142.2500   -186.8401     25.4950     21.2270     26.4713    123.8251
  1142.5000   -185.8554     23.9128     19.9987     22.2404    136.9582
  1142.7500   -184.9266     22.4744     19.1262     21.2367    145.1080
  1143.0000   -184.0466     21.1879     18.4662     22.2171    154.3193
  1143.2500   -183.2175     20.0684     17.8972     24.0217    157.8098
  1143.5000   -182.4453     19.1284     17.3373     25.6027    159.7854
  1143.7500   -181.7362     18.3699     16.7582     26.1795    160.2763
  1144.0000   -181.0961     17.7817     16.1787     25.5167    162.1355
  1144.2500   -180.5325     17.3439     15.6405     23.9985    164.6325
  1144.5000   -180.0529     17.0356     15.1828     22.3039    169.5311
  1144.7500   -179.6595     16.8399     14.8286     20.9328    172.7614
  1145.0000   -179.3483     16.7426     14.5851     19.9936    176.2749
  1145.2500   -179.1127     16.7275     14.4505     19.3598    177.3404
  1145.5000   -178.9480     16.7743     14.4200     18.9532    177.6940
  1145.7500   -178.8536     16.8619     14.4889     18.8755    178.1981
  1146.0000   -178.8335     16.9742     14.6521     19.3225    180.7907
  1146.2500   -178.8932     17.1045     14.9008     20.4137    183.3406
  1146.5000   -179.0382     17.2549     15.2189     22.0606    185.6043
  1146.7500   -179.2749     17.4307     15.5835     23.9194    184.2897
  1147.0000   -179.6143     17.6350     15.9686     25.4805    177.0667
  1147.2500   -180.0727     17.8668     16.3531     26.3472    169.8403
  1147.5000   -180.6656     18.1229     16.7249     26.5514    159.1574
  1147.7500   -181.3972     18.4021     17.0786     26.5670    154.1780
  1148.0000   -182.2533     18.7091     17.4075     26.9138    150.8169
  1148.2500   -183.2046     19.0573     17.6986     27.6945    150.1553
  1148.5000   -184.2152     19.4673     17.9390     28.4982    148.9068
  1148.7500   -185.2497     19.9601     18.1313     28.7267    147.4068
  1149.0000   -186.2790     20.5479     18.3071     28.0495    145.3766
  1149.2500   -187.2849     21.2270     18.5268     26.6798    145.0409
  1149.5000   -188.2634     21.9772     18.8652     25.3726    146.0679
  1149.7500   -189.2231     22.7682     19.3905     25.2161    146.9994
  1150.0000   -190.1787     23.5730     20.1470     27.2921    147.4523
  1150.2500   -191.1412     24.3811     21.1416     32.1878    146.6705
  1150.5000   -192.1126     25.2060     22.3337     39.4208    143.2757
  1150.7500   -193.0859     26.0830     23.6369     47.1832    139.4119
  1151.0000   -194.0497     27.0604     24.9437     52.9476    132.2085
  1151.2500   -194.9926     28.1907     26.1774     54.8906    127.6117
  1151.5000   -195.9030     29.5257     27.3442     53.1557    122.4522
  1151.7500   -196.7659     31.1097     28.5461     49.8313    120.1873
  1152.0000   -197.5611     32.9659     29.9415     47.5991    117.8392
  1152.2500   -198.2632     35.0754     31.6830     48.2298    116.7730
  1152.5000   -198.8464     37.3566     33.8622     52.0572    116.1360
  1152.7500   -199.2887     39.6557     36.4716     58.3992    116.3241
  1153.0000   -199.5773     41.7586     39.3872     66.0980    116.5326
  1153.2500   -199.7133     43.4368     42.3785     73.7294    115.7138
  1153.5000   -199.7156     44.5211     45.1512     79.7755    112.0826
  1153.7500   -199.6206     44.9655     47.4148     83.1079    108.3014
  1154.0000   -199.4771     44.8503     48.9506     83.5406    102.2254
  1154.2500   -199.3335     44.3220     49.6531     81.8942     99.0487
  1154.5000   -199.2238     43.5151     49.5219     79.4098     96.8202
  1154.7500   -199.1565     42.5081     48.6186     76.9409     97.0323
  1155.0000   -199.1124     41.3271     47.0335     74.5071     99.0003
  1155.2500   -199.0504     39.9805     44.8869     71.4695    100.8878
  1155.5000   -198.9210     38.4910     42.3410     67.1536    104.5016
  1155.7500   -198.6818     36.9014     39.5869     61.4443    107.7663
  1156.0000   -198.3103     35.2579     36.8095     54.9149    114.1400
  1156.2500   -197.8124     33.5973     34.1553     48.4627    118.9300
  1156.5000   -197.2233     31.9518     31.7221     42.8372    125.8471
  1156.7500   -196.5976     30.3600     29.5616     38.4114    129.9804
  1157.0000   -195.9924     28.8687     27.6859     35.2206    135.5093
  1157.2500   -195.4488     27.5231     26.0744     33.0917    138.7500
  1157.5000   -194.9816     26.3554     24.6859     31.7364    142.6845
  1157.7500   -194.5788     25.3773     23.4778     30.8125    144.4845
  1158.0000   -194.2125     24.5804     22.4231     30.0037    145.7826
  1158.2500   -193.8524     23.9420     21.5174     29.1317    145.9013
  1158.5000   -193.4790     23.4375     20.7717     28.2187    145.6571
  1158.7500   -193.0877     23.0517     20.2000     27.4177    145.4210
  1159.0000   -192.6851     22.7819     19.8104     26.8644    144.7533
  1159.2500   -192.2826     22.6328     19.6039     26.6159    144.1667
  1159.5000   -191.8915     22.6103     19.5773     26.7260    143.8932
  1159.7500   -191.5232     22.7202     19.7270     27.3100    144.3099
  1160.0000   -191.1868     22.9698     20.0516     28.4574    144.8044
  1160.2500   -190.8855     23.3685     20.5542     30.0827    144.3320
  1160.5000   -190.6140     23.9235     21.2443     31.9491    142.6009
  1160.7500   -190.3616     24.6357     22.1362     33.9365    141.5133
  1161.0000   -190.1180     25.4966     23.2415     36.2796    140.7077
  1161.2500   -189.8742     26.4881     24.5598     39.4016    140.3199
  1161.5000   -189.6177     27.5790     26.0755     43.3638    138.5545
  1161.7500   -189.3265     28.7137     27.7660     47.5199    136.1289
