~Version Information
VERS.                      2.0: CWLS Log ASCII Standard - VERSION 2.0
WRAP.                       NO: One line per depth step
~Well Information Block
STRT.FT               899.1000: 
STOP.FT              2501.5000: 
STEP.FT                 0.1000: 
NULL.                -999.2500: 
COMP.          Petrogulf Corporation: COMPANY
WELL.           Deremer 17-21V: WELL
FLD.           Purgatorie River: FIELD
LOC.           851' FNL & 963' FWL: LOCATION
CNTY.               Las Animas: COUNTY
SRVC.                         : SERVICE COMPANY
DATE.          Tue Nov 18 09:12:06 2003: LOG DATE
UWI.                          : UNIQUE WELL ID
STAT.                 Colorado: STATE
~Curve Information Block
DEPT.FT            0 000 00 00: Depth
DPOR.pu                       : CDL Density Porosity
NEU.NAPI                      : Neutron
NPOR.pu                       : Neutron Porosity
RHOB.g/cc                     : CDL Bulk Density
RHOC.g/cc                     : CDL Density Correction
GR.GAPI                       : Gamma Ray
DCAL.in                       : CDL Caliper
~Parameter Information Block
~A  Depth       DPOR        NEU         NPOR        RHOB        RHOC         GR         DCAL    
# ...
  1142.7000      0.5414   1145.4047     24.5369      2.6411      0.2824     81.9163      7.7940
  1142.8000      2.0814   1153.8977     24.1673      2.6157      0.1924     83.5024      7.7584
  1142.9000      5.2127   1156.1007     24.0713      2.5640      0.0887     86.4707      7.7584
  1143.0000      8.1746   1165.8613     23.6452      2.5151      0.0694     89.9434      7.7592
  1143.1000     10.1797   1184.8994     22.8105      2.4820     -0.0131     94.0436      7.7592
  1143.2000     11.1620   1205.6578     21.8947      2.4658     -0.0094     99.8493      7.7592
  1143.3000     11.3003   1219.7902     21.2676      2.4635      0.0203    107.0952      7.7978
  1143.4000     10.8406   1222.2780     21.1569      2.4711     -0.0188    112.7836      7.7978
  1143.5000      9.9314   1214.8076     21.4890      2.4861      0.0863    114.6515      7.8414
  1143.6000      9.6903   1199.3027     22.1757      2.4901      0.1120    112.6072      7.8414
  1143.7000     11.7609   1176.2239     23.1914      2.4559      0.1316    109.5733      7.8414
  1143.8000     16.2369   1149.3796     24.3640      2.3821      0.0775    108.8066      7.8611
  1143.9000     20.7604   1120.2731     25.6256      2.3075     -0.0043    109.1388      7.8611
  1144.0000     23.4876   1088.0135     27.0132      2.2625      0.0505    108.3432      7.8622
  1144.1000     25.1268   1062.7322     28.0938      2.2354      0.0506    109.3348      7.8622
  1144.2000     25.9829   1054.3580     28.4505      2.2213      0.0129    113.8068      7.8622
  1144.3000     24.3650   1057.9678     28.2968      2.2480     -0.0130    117.7388      7.8597
  1144.4000     19.3249   1062.1696     28.1178      2.3311      0.1221    120.8586      7.8597
  1144.5000     12.7365   1056.4170     28.3629      2.4398      0.2796    124.0311      7.8635
  1144.6000      7.7141   1039.8190     29.0685      2.5227      0.3280    123.6627      7.8635
  1144.7000      6.1769   1023.4830     29.7611      2.5481      0.3831    121.5097      7.8635
  1144.8000      7.8343   1014.5073     30.1409      2.5207      0.3461    124.6850      7.8748
  1144.9000     10.2052   1009.7054     30.3439      2.4816      0.1840    130.1007      7.8748
  1145.0000     11.0442   1007.3510     30.4434      2.4678      0.1768    130.1058      7.8901
  1145.1000     10.7673   1010.3060     30.3185      2.4723      0.1045    126.8287      7.8901
  1145.2000     11.0206   1017.5823     30.0109      2.4682      0.1375    130.1129      7.8901
  1145.3000     12.0931   1026.1917     29.6464      2.4505      0.0339    139.3016      7.9086
  1145.4000     13.0087   1033.1903     29.3498      2.4354     -0.0147    143.3418      7.9086
  1145.5000     13.2285   1039.0009     29.1033      2.4317     -0.0110    136.2762      7.9229
  1145.6000     12.2568   1041.1199     29.0133      2.4478     -0.0278    124.2114      7.9229
  1145.7000     10.0481   1033.3063     29.3449      2.4842      0.0635    120.2453      7.9229
  1145.8000      8.1424   1019.4034     29.9338      2.5157      0.0453    127.1689      7.9293
  1145.9000      7.4061   1011.3583     30.2740      2.5278      0.0317    135.3806      7.9293
  1146.0000      6.9761   1013.5075     30.1832      2.5349      0.0264    139.8799      7.9307
  1146.1000      6.3023   1021.6874     29.8371      2.5460      0.1106    142.2729      7.9307
  1146.2000      5.5370   1034.6959     29.2859      2.5586      0.0483    143.3756      7.9307
  1146.3000      4.6415   1049.5609     28.6546      2.5734      0.0771    142.5393      7.9375
  1146.4000      4.1148   1054.2338     28.4558      2.5821      0.1557    137.7167      7.9375
  1146.5000      5.1687   1043.6582     28.9055      2.5647      0.1044    128.2836      7.9508
  1146.6000      8.1469   1029.4285     29.5093      2.5156      0.0646    119.2949      7.9508
  1146.7000     11.2116   1027.3588     29.5970      2.4650     -0.0560    116.3279      7.9508
  1146.8000     12.3478   1038.9940     29.1036      2.4463     -0.0343    117.5219      7.9653
  1146.9000     12.4528   1049.3436     28.6638      2.4445      0.0057    118.9075      7.9653
  1147.0000     13.1237   1052.6381     28.5237      2.4335     -0.0267    119.9640      7.9747
  1147.1000     13.3090   1058.6559     28.2675      2.4304     -0.0049    122.3622      7.9747
  1147.2000     11.4974   1067.0056     27.9115      2.4603      0.0359    126.8114      7.9747
  1147.3000      8.7247   1068.6058     27.8432      2.5060      0.1060    131.6853      7.9773
  1147.4000      6.5774   1065.5486     27.9737      2.5415      0.0877    135.5790      7.9773
  1147.5000      5.0848   1067.1014     27.9074      2.5661      0.1690    136.8656      7.9881
  1147.6000      4.7200   1077.7772     27.4514      2.5721      0.2698    135.5524      7.9881
  1147.7000      5.5650   1095.8981     26.6751      2.5582      0.1167    135.1045      7.9881
  1147.8000      6.0446   1115.1154     25.8482      2.5503      0.2278    138.4947      7.9979
  1147.9000      6.2141   1126.5116     25.3560      2.5475      0.1934    143.6268      7.9979
  1148.0000      7.1205   1130.1747     25.1975      2.5325      0.1365    147.0598      7.9867
  1148.1000      8.3719   1138.1931     24.8500      2.5119      0.0992    147.4759      7.9867
  1148.2000      9.2466   1149.6356     24.3529      2.4974      0.1172    146.4310      7.9867
  1148.3000      9.7009   1148.5886     24.3984      2.4899      0.0823    145.3283      7.9741
  1148.4000     10.6756   1138.7529     24.8258      2.4739      0.2399    145.1092      7.9741
  1148.5000     13.4032   1129.3054     25.2351      2.4288      0.2232    147.7099      7.9731
  1148.6000     17.0081   1108.2848     26.1425      2.3694      0.1480    151.1098      7.9731
  1148.7000     19.4464   1074.2847     27.6007      2.3291      0.1600    151.5602      7.9731
  1148.8000     20.5965   1047.3091     28.7503      2.3102      0.1570    147.8652      7.9709
  1148.9000     21.2106   1034.2294     29.3057      2.3000      0.0841    142.4071      7.9709
  1149.0000     20.8240   1026.3282     29.6406      2.3064      0.0784    140.9477      7.9651
  1149.1000     19.1253   1020.8234     29.8737      2.3344      0.1453    143.9783      7.9651
  1149.2000     17.0798   1021.7885     29.8329      2.3682      0.2153    147.1021      7.9651
  1149.3000     15.5145   1031.2050     29.4340      2.3940      0.3166    148.9953      7.9788
  1149.4000     14.1134   1040.8492     29.0248      2.4171      0.2285    150.6869      7.9788
  1149.5000     12.9552   1039.0797     29.0999      2.4362      0.3265    152.7838      8.0072
  1149.6000     13.1434   1027.0510     29.6100      2.4331      0.2237    154.1540      8.0072
  1149.7000     14.1170   1018.7667     29.9608      2.4171      0.0663    153.1807      8.0072
  1149.8000     14.0009   1020.3873     29.8922      2.4190      0.0706    148.8082      8.0183
  1149.9000     12.5866   1024.7625     29.7070      2.4423      0.1147    140.5248      8.0183
  1150.0000     10.9677   1032.2118     29.3913      2.4690      0.1230    134.9345      8.0125
  1150.1000      9.8259   1043.8580     28.8970      2.4879      0.1655    139.8924      8.0125
  1150.2000      9.0106   1050.7777     28.6029      2.5013      0.1518    147.8130      8.0125
  1150.3000      8.5300   1046.0210     28.8051      2.5093      0.2479    149.6189      8.0169
  1150.4000      9.6251   1035.6842     29.2440      2.4912      0.2281    148.9980      8.0169
  1150.5000     12.8124   1027.4935     29.5913      2.4386      0.1260    147.3632      8.0098
  1150.6000     16.3039   1019.3502     29.9361      2.3810      0.0733    143.8932      8.0098
  1150.7000     18.1134   1011.2384     30.2791      2.3511      0.0759    145.1504      8.0098
  1150.8000     17.9779   1005.9474     30.5026      2.3534      0.0062    151.7950      7.9623
  1150.9000     16.3710   1002.2798     30.6575      2.3799      0.0587    157.2824      7.9623
  1151.0000     13.2442    997.1047     30.8759      2.4315      0.0765    163.7316      7.9235
