~Version Information
VERS.                      2.0: CWLS Log ASCII Standard - VERSION 2.0
WRAP.                       NO: One line per depth step
~Well Information Block
STRT.FT               550.0000: 
STOP.FT              1577.7500: 
STEP.FT                 0.2500: 
NULL.                -999.2500: 
COMP.          Pioneer Natural Resources: COMPANY
WELL.          Kristin 22-23 Tr: WELL
FLD.           Purgatoire River: FIELD
LOC.           2273' FNL & 2029' FWL: LOCATION
PROV.                 Colorado: PROVINCE
CNTY.               Las Animas: COUNTRY
SRVC.                Patterson: SERVICE COMPANY
DATE.          Thu Jan 20 21:18:23 2005: LOG DATE
UWI.           05 071 08259 00: UNIQUE WELL ID
~Curve Information Block
DEPT.FT            0 000 00 00: Depth
SN.Ohm-m                      : IEL Short Normal
SP.mV                         : IEL Spontaneous Potential
DIR.Ohm-m                     : IEL Induction Resistivity
GR.GAPI                       : Gamma Ray
~Parameter Information Block
~A  Depth        SN          SP         DIR          GR     
# ...
  1354.0000     19.4004    -73.8569     17.8505    106.9674
  1354.2500     18.4293    -72.3150     17.3052    115.7476
  1354.5000     17.4559    -70.7369     16.6017    131.5960
  1354.7500     16.4991    -69.2179     15.8136    142.1400
  1355.0000     15.5504    -67.8277     14.9962    154.9277
  1355.2500     14.6093    -66.6116     14.1925    160.7190
  1355.5000     13.6967    -65.5919     13.4389    166.0683
  1355.7500     12.8459    -64.7703     12.7622    168.2582
  1356.0000     12.0870    -64.1308     12.1756    170.0845
  1356.2500     11.4370    -63.6454     11.6793    170.0508
  1356.5000     10.8989    -63.2824     11.2661    167.5607
  1356.7500     10.4671    -63.0128     10.9261    164.4932
  1357.0000     10.1332    -62.8150     10.6497    159.4168
  1357.2500      9.8889    -62.6741     10.4282    157.0024
  1357.5000      9.7213    -62.5785     10.2530    156.1024
  1357.7500      9.6082    -62.5168     10.1146    156.8658
  1358.0000      9.5201    -62.4752     10.0018    157.8019
  1358.2500      9.4329    -62.4394      9.9017    157.1737
  1358.5000      9.3351    -62.3962      9.8006    154.2285
  1358.7500      9.2269    -62.3368      9.6868    151.6931
  1359.0000      9.1154    -62.2574      9.5551    148.3839
  1359.2500      9.0125    -62.1586      9.4086    146.8760
  1359.5000      8.9310    -62.0429      9.2586    145.8202
  1359.7500      8.8795    -61.9129      9.1207    146.0081
  1360.0000      8.8621    -61.7701      9.0114    147.7259
  1360.2500      8.8783    -61.6149      8.9435    149.6964
  1360.5000      8.9215    -61.4457      8.9228    153.2644
  1360.7500      8.9774    -61.2598      8.9460    155.4994
  1361.0000      9.0263    -61.0530      8.9998    157.6273
  1361.2500      9.0491    -60.8203      9.0653    157.9672
  1361.5000      9.0367    -60.5575      9.1241    157.4226
  1361.7500      8.9956    -60.2628      9.1650    157.0739
  1362.0000      8.9485    -59.9381      9.1869    157.6935
  1362.2500      8.9254    -59.5907      9.1974    159.2595
  1362.5000      8.9456    -59.2344      9.2089    163.5938
  1362.7500      9.0071    -58.8912      9.2347    167.6615
  1363.0000      9.0955    -58.5912      9.2857    174.4399
  1363.2500      9.2020    -58.3712      9.3693    178.2748
  1363.5000      9.3289    -58.2718      9.4906    181.0895
  1363.7500      9.4850    -58.3312      9.6540    180.5938
  1364.0000      9.6805    -58.5788      9.8653    176.9287
  1364.2500      9.9282    -59.0286     10.1303    172.9605
  1364.5000     10.2483    -59.6754     10.4532    164.3607
  1364.7500     10.6719    -60.4951     10.8355    156.3582
  1365.0000     11.2369    -61.4477     11.2779    141.2355
  1365.2500     11.9765    -62.4846     11.7838    130.2643
  1365.5000     12.9033    -63.5565     12.3628    115.3531
  1365.7500     13.9994    -64.6202     13.0314    107.8550
  1366.0000     15.2166    -65.6429     13.8112    101.2565
  1366.2500     16.4871    -66.6031     14.7215     99.4995
  1366.5000     17.7398    -67.4883     15.7668     98.6552
  1366.7500     18.9160    -68.2914     16.9194     97.8453
  1367.0000     19.9806    -69.0080     18.1145     94.8628
  1367.2500     20.9273    -69.6355     19.2683     91.8212
  1367.5000     21.7757    -70.1739     20.3143     86.8720
  1367.7500     22.5567    -70.6274     21.2248     83.9580
  1368.0000     23.2921    -71.0046     21.9927     80.6559
  1368.2500     23.9798    -71.3170     22.6022     79.1843
  1368.5000     24.5962    -71.5758     23.0277     77.7401
  1368.7500     25.1174    -71.7896     23.2680     76.8797
  1369.0000     25.5395    -71.9635     23.3726     75.0177
  1369.2500     25.8808    -72.1006     23.4255     73.2884
  1369.5000     26.1678    -72.2046     23.5041     70.6828
  1369.7500     26.4213    -72.2821     23.6510     69.7541
  1370.0000     26.6515    -72.3431     23.8701     70.6149
  1370.2500     26.8621    -72.3999     24.1352     72.4296
  1370.5000     27.0557    -72.4645     24.4009     75.0989
  1370.7500     27.2370    -72.5450     24.6165     75.7597
  1371.0000     27.4131    -72.6448     24.7449     74.8040
  1371.2500     27.5937    -72.7629     24.7747     73.5231
  1371.5000     27.7881    -72.8978     24.7198     71.7597
  1371.7500     27.9961    -73.0513     24.6093     70.9201
  1372.0000     28.2027    -73.2309     24.4745     70.1890
  1372.2500     28.3855    -73.4471     24.3364     70.1437
  1372.5000     28.5249    -73.7041     24.1965     71.0120
  1372.7500     28.6097    -73.9867     24.0389     72.3339
  1373.0000     28.6344    -74.2472     23.8452     75.6201
  1373.2500     28.5877    -74.4015     23.6082     78.8505
  1373.5000     28.4314    -74.3395     23.3275     85.4187
  1373.7500     28.0859    -73.9497     22.9897     90.6319
  1374.0000     27.4421    -73.1507     22.5542     98.3109
  1374.2500     26.4108    -71.9175     21.9663    102.5900
  1374.5000     24.9854    -70.2891     21.1921    107.9045
  1374.7500     23.2721    -68.3564     20.2454    111.6027
  1375.0000     21.4531    -66.2368     19.1826    118.7792
  1375.2500     19.7048    -64.0479     18.0732    124.7430
  1375.5000     18.1345    -61.8894     16.9721    134.5744
  1375.7500     16.7759    -59.8380     15.9146    141.0522
  1376.0000     15.6203    -57.9493     14.9223    149.7077
  1376.2500     14.6419    -56.2618     14.0101    154.3610
  1376.5000     13.8072    -54.8000     13.1879    159.4427
  1376.7500     13.0859    -53.5754     12.4622    161.8658
  1377.0000     12.4635    -52.5880     11.8385    165.0373
  1377.2500     11.9432    -51.8281     11.3236    167.2169
  1377.5000     11.5361    -51.2806     10.9240    170.1825
  1377.7500     11.2516    -50.9290     10.6445    171.2037
  1378.0000     11.0972    -50.7592     10.4860    170.0769
  1378.2500     11.0813    -50.7622     10.4461    167.4069
  1378.5000     11.2068    -50.9334     10.5196    161.4431
  1378.7500     11.4583    -51.2667     10.6989    156.9083
  1379.0000     11.8001    -51.7439     10.9759    149.8279
  1379.2500     12.1967    -52.3235     11.3426    144.7203
  1379.5000     12.6331    -52.9346     11.7908    136.0344
  1379.7500     13.1098    -53.4824     12.3080    129.6555
  1380.0000     13.6171    -53.8648     12.8683    120.1198
  1380.2500     14.1169    -53.9957     13.4238    114.6440
  1380.5000     14.5470    -53.8256     13.9061    109.3144
  1380.7500     14.8420    -53.3519     14.2425    108.2340
  1381.0000     14.9578    -52.6155     14.3839    110.1826
  1381.2500     14.8850    -51.6867     14.3209    113.4136
  1381.5000     14.6451    -50.6479     14.0775    120.6874
  1381.7500     14.2744    -49.5790     13.6941    127.1221
  1382.0000     13.8099    -48.5473     13.2169    138.6401
  1382.2500     13.2847    -47.6024     12.6940    146.6333
  1382.5000     12.7295    -46.7735     12.1704    157.0207
  1382.7500     12.1719    -46.0694     11.6797    162.1460
  1383.0000     11.6339    -45.4808     11.2395    167.4208
  1383.2500     11.1299    -44.9871     10.8533    169.9879
  1383.5000     10.6658    -44.5648     10.5184    172.8931
  1383.7500     10.2418    -44.1966     10.2355    173.8199
  1384.0000      9.8590    -43.8768     10.0132    173.0524
  1384.2500      9.5278    -43.6117      9.8647    171.4386
  1384.5000      9.2697    -43.4140      9.7975    168.8982
  1384.7500      9.1106    -43.2951      9.8064    167.8756
  1385.0000      9.0673    -43.2572      9.8729    167.5875
  1385.2500      9.1361    -43.2899      9.9723    167.7357
  1385.5000      9.2898    -43.3721     10.0829    167.0010
  1385.7500      9.4872    -43.4788     10.1907    165.1677
  1386.0000      9.6863    -43.5896     10.2870    160.4851
  1386.2500      9.8571    -43.6954     10.3652    156.8564
  1386.5000      9.9892    -43.8003     10.4223    151.9172
  1386.7500     10.0919    -43.9171     10.4634    149.0573
  1387.0000     10.1836    -44.0588     10.5044    145.1251
  1387.2500     10.2805    -44.2283     10.5659    142.9527
