~Version Information
VERS.                      2.0: CWLS Log ASCII Standard - VERSION 2.0
WRAP.                       NO: One line per depth step
~Well Information Block
STRT.FT                15.0000: 
STOP.FT              2565.5000: 
STEP.FT                 0.2500: 
NULL.                -999.2500: 
COMP.          Pioneer Natural Resources: COMPANY
WELL.           Costello 44-24: WELL
FLD.           Purgatoire River: FIELD
LOC.           327' FSL & 378' FEL: LOCATION
PROV.                 Colorado: PROVINCE
CNTY.               Las Animas: COUNTRY
SRVC.                Patterson: SERVICE COMPANY
DATE.          Mon Jul 25 10:15:19 2005: LOG DATE
UWI.           05 071 08413 00: UNIQUE WELL ID
~Curve Information Block
DEPT.FT            0 000 00 00: Depth
GR.GAPI                       : Gamma Ray
CCL.                          : Casing Collar Locator
TT3.usec                      : CBL 3' Travel Time
AMP3.mV                       : CBL 3' Amplitude
~Parameter Information Block
~A  Depth        GR         CCL         TT3         AMP3    
# ...
  2360.0000    100.5753      0.0000    649.3535      4.8636
  2360.2500    100.7163      0.0000    649.7466      4.8071
  2360.5000     98.7765      0.0000    650.1868      4.7735
  2360.7500     95.8241      0.0000    650.5381      4.7619
  2361.0000     93.0762      0.0000    650.6420      4.7635
  2361.2500     91.2130      0.0000    650.3704      4.7675
  2361.5000     90.0722      0.0000    649.6830      4.7688
  2361.7500     88.9190      0.0000    648.6562      4.7684
  2362.0000     87.3338      0.0000    647.4622      4.7658
  2362.2500     85.8709      0.0000    646.3172      4.7565
  2362.5000     85.5241      0.0000    645.4271      4.7434
  2362.7500     86.4202      0.0000    644.9288      4.7418
  2363.0000     87.3292      0.0000    644.8525      4.7656
  2363.2500     86.7678      0.0000    645.1611      4.8096
  2363.5000     84.5356      0.0000    645.8813      4.8511
  2363.7500     81.9054      0.0000    647.2149      4.8665
  2364.0000     80.3738      0.0000    649.5451      4.8453
  2364.2500     80.5324      0.0000    653.3152      4.7974
  2364.5000     82.1457      0.0000    658.6888      4.7476
  2364.7500     84.7532      0.0000    664.9620      4.7185
  2365.0000     87.7514      0.0000    670.2703      4.7151
  2365.2500     90.1870      0.0000    672.3940      4.7256
  2365.5000     91.0666      0.0000    670.4089      4.7351
  2365.7500     90.1556      0.0000    665.5770      4.7339
  2366.0000     88.3709      0.0000    660.4052      4.7180
  2366.2500     87.2583      0.0000    656.8721      4.6878
  2366.5000     87.9969      0.0000    655.6849      4.6482
  2366.7500     90.7336      0.0000    656.9106      4.6118
  2367.0000     94.4703      0.0000    660.6194      4.6002
  2367.2500     97.3508      0.0000    666.5732      4.6387
  2367.5000     97.3745      0.0000    673.6588      4.7396
  2367.7500     93.4270      0.0000    680.2546      4.8882
  2368.0000     85.9781      0.0000    685.3446      5.0474
  2368.2500     76.8290      0.0000    689.1579      5.1823
  2368.5000     68.1717      0.0000    692.7307      5.2851
  2368.7500     61.7398      0.0000    696.8637      5.3764
  2369.0000     58.4979      0.0000    701.2240      5.4801
  2369.2500     58.6942      0.0000    704.2040      5.5983
  2369.5000     61.9028      0.0000    703.8487      5.7081
  2369.7500     67.0815      0.0000    699.4235      5.7767
  2370.0000     72.9756      0.0000    692.2114      5.7813
  2370.2500     78.6487      0.0000    684.0829      5.7177
  2370.5000     83.4478      0.0000    674.2154      5.5978
  2370.7500     86.6743      0.0000    657.2883      5.4440
  2371.0000     87.9213      0.0000    626.5699      5.2849
  2371.2500     87.7599      0.0000    580.6205      5.1502
  2371.5000     87.4410      0.0000    527.1107      5.0637
  2371.7500     87.6268      0.0000    478.8418      5.0359
  2372.0000     87.6689      0.0000    445.6656      5.0613
  2372.2500     86.2755      0.0000    430.8445      5.1187
  2372.5000     82.8311      0.0000    433.8471      5.1766
  2372.7500     78.0533      0.0000    453.3678      5.2079
  2373.0000     73.4211      0.0000    486.0302      5.2098
  2373.2500     70.0181      0.0000    524.1483      5.2090
  2373.5000     67.9433      0.0000    557.9321      5.2392
  2373.7500     66.6730      0.0000    580.9798      5.3088
  2374.0000     65.7586      0.0000    592.9988      5.3931
  2374.2500     65.1256      0.0000    597.4716      5.4567
  2374.5000     64.8291      0.0000    597.6310      5.4797
  2374.7500     64.7577      0.0000    594.2430      5.4599
  2375.0000     64.7767      0.0000    585.9175      5.4025
  2375.2500     64.9955      0.0000    571.5574      5.3158
  2375.5000     65.6063      0.0000    553.4288      5.2166
  2375.7500     66.6677      0.0000    536.9924      5.1293
  2376.0000     68.3686      0.0000    525.7009      5.0767
  2376.2500     71.2506      0.0000    516.7896      5.0698
  2376.5000     75.7321      0.0000    505.6205      5.1046
  2376.7500     81.4952      0.0000    494.2847      5.1656
  2377.0000     87.6096      0.0000    491.8571      5.2330
  2377.2500     93.1130      0.0000    504.2064      5.2868
  2377.5000     97.1954      0.0000    526.2431      5.3082
  2377.7500     99.0224      0.0000    546.4980      5.2883
  2378.0000     97.9146      0.0000    557.3635      5.2361
  2378.2500     94.0445      0.0000    557.8962      5.1736
  2378.5000     88.8886      0.0000    548.4312      5.1207
  2378.7500     84.6379      0.0000    528.1348      5.0840
  2379.0000     82.8363      0.0000    499.6145      5.0592
  2379.2500     83.4765      0.0000    471.7263      5.0410
  2379.5000     85.4318      0.0000    455.3190      5.0304
  2379.7500     87.6656      0.0000    457.7340      5.0297
  2380.0000     89.8364      0.0000    480.7000      5.0350
  2380.2500     91.8635      0.0000    519.5576      5.0390
  2380.5000     93.3598      0.0000    563.8386      5.0380
  2380.7500     93.8079      0.0000    602.2210      5.0307
  2381.0000     93.2748      0.0000    629.1661      5.0140
  2381.2500     92.7667      0.0000    646.0735      4.9869
  2381.5000     93.6381      0.0000    656.5092      4.9595
  2381.7500     96.5232      0.0000    662.1345      4.9475
  2382.0000    100.8016      0.0000    663.1354      4.9543
  2382.2500    105.1046      0.0000    660.5298      4.9621
  2382.5000    108.2588      0.0000    656.6519      4.9463
  2382.7500    109.6747      0.0000    653.6644      4.8991
  2383.0000    109.1808      0.0000    652.3334      4.8370
  2383.2500    107.0373      0.0000    652.2087      4.7898
  2383.5000    103.9956      0.0000    652.5085      4.7801
  2383.7500    100.8535      0.0000    652.7240      4.8114
  2384.0000     97.9415      0.0000    652.8054      4.8726
  2384.2500     95.1671      0.0000    653.1674      4.9488
  2384.5000     92.2150      0.0000    654.5002      5.0247
  2384.7500     88.6825      0.0000    657.2753      5.0835
  2385.0000     84.6960      0.0000    661.1433      5.1135
  2385.2500     81.5372      0.0000    664.6350      5.1173
  2385.5000     80.8209      0.0000    665.4142      5.1098
  2385.7500     82.6580      0.0000    661.1865      5.1077
  2386.0000     85.1194      0.0000    651.1337      5.1194
  2386.2500     85.9042      0.0000    636.8517      5.1441
  2386.5000     84.3662      0.0000    621.2639      5.1786
  2386.7500     81.6976      0.0000    606.3864      5.2231
  2387.0000     79.3182      0.0000    592.9896      5.2770
  2387.2500     77.6357      0.0000    582.5280      5.3306
  2387.5000     76.5562      0.0000    577.5558      5.3698
  2387.7500     76.4307      0.0000    579.0074      5.3908
  2388.0000     77.6147      0.0000    584.4765      5.4006
  2388.2500     79.4428      0.0000    590.9296      5.4039
  2388.5000     80.6958      0.0000    598.4327      5.3953
  2388.7500     81.2089      0.0000    609.8002      5.3707
  2389.0000     82.2335      0.0000    626.6403      5.3372
  2389.2500     84.8788      0.0000    646.4855      5.3056
  2389.5000     88.6453      0.0000    663.9655      5.2757
  2389.7500     91.8172      0.0000    674.4670      5.2308
  2390.0000     93.0883      0.0000    676.6619      5.1448
  2390.2500     92.5071      0.0000    672.4468      4.9930
  2390.5000     90.8998      0.0000    665.4968      4.7683
  2390.7500     88.7962      0.0000    659.7991      4.4970
  2391.0000     86.1609      0.0000    658.4327      4.2338
  2391.2500     82.8906      0.0000    662.7949      4.0333
  2391.5000     79.2273      0.0000    672.4821      3.9220
  2391.7500     75.6873      0.0000    685.5136      3.8964
  2392.0000     72.7414      0.0000    698.5246      3.9364
  2392.2500     70.6985      0.0000    707.5352      4.0145
  2392.5000     69.9196      0.0000    709.7701      4.0995
  2392.7500     70.8289      0.0000    705.0059      4.1630
  2393.0000     73.3635      0.0000    694.8107      4.1891
  2393.2500     76.5413      0.0000    681.0455      4.1808
