~Version Information
VERS.                      2.0: CWLS Log ASCII Standard - VERSION 2.0
WRAP.                       NO: One line per depth step
~Well Information Block
STRT.FT               -10.0000: 
STOP.FT              2544.2500: 
STEP.FT                 0.2500: 
NULL.                -999.2500: 
COMP.          Pioneer Natural Resources: COMPANY
WELL.            Cortina 23-25: WELL
FLD.           Purgatorie River: FIELD
LOC.           2344' FWL  & 2526' FSL------: LOCATION
PROV.                       CO: PROVINCE
CNTY.               Las Animas: COUNTRY
SRVC.          Patterson Wireline: SERVICE COMPANY
DATE.          Fri Apr 01 11:50:55 2005: LOG DATE
UWI.           05 071 08340 00: UNIQUE WELL ID
~Curve Information Block
DEPT.FT            0 000 00 00: Depth
CCL.                          : Casing Collar Locator
TT3.usec                      : CBL 3' Travel Time
AMP3.mV                       : CBL 3' Amplitude
GR.GAPI                       : Gamma Ray
~Parameter Information Block
~A  Depth       CCL         TT3         AMP3         GR     
# ...
  2000.0000      0.0000    698.0778      5.4588    127.9954
  2000.2500      0.0000    681.3436      5.4583    127.1891
  2000.5000      0.0000    671.3384      5.4564    125.6918
  2000.7500      0.0000    666.8058      5.4487    124.2782
  2001.0000      0.0000    665.2586      5.4281    123.5048
  2001.2500      0.0000    664.9405      5.3914    123.4483
  2001.5000      0.0000    665.0573      5.3449    123.4925
  2001.7500      0.0000    665.3145      5.2985    122.7745
  2002.0000      0.0000    665.5508      5.2536    121.2288
  2002.2500      0.0000    665.6356      5.2039    119.9639
  2002.5000      0.0000    665.5171      5.1507    120.0239
  2002.7500      0.0000    665.2394      5.1074    120.9868
  2003.0000      0.0000    664.9020      5.0812    121.6330
  2003.2500      0.0000    664.5984      5.0638    121.7983
  2003.5000      0.0000    664.3807      5.0411    122.5229
  2003.7500      0.0000    664.2555      5.0046    124.3402
  2004.0000      0.0000    664.2039      4.9513    126.3457
  2004.2500      0.0000    664.2104      4.8834    127.2052
  2004.5000      0.0000    664.3047      4.8124    126.5684
  2004.7500      0.0000    664.6555      4.7565    125.3262
  2005.0000      0.0000    665.7045      4.7312    124.6526
  2005.2500      0.0000    668.1660      4.7406    124.7477
  2005.5000      0.0000    672.5284      4.7817    124.3135
  2005.7500      0.0000    678.1911      4.8547    121.2512
  2006.0000      0.0000    683.0298      4.9615    114.2777
  2006.2500      0.0000    684.1022      5.0869    104.2756
  2006.5000      0.0000    678.8547      5.1925     93.8912
  2006.7500      0.0000    666.3666      5.2396     85.5851
  2007.0000      0.0000    649.2466      5.2201     80.2941
  2007.2500      0.0000    634.8585      5.1603     77.7985
  2007.5000      0.0000    631.8675      5.0972     77.5359
  2007.7500      0.0000    642.7138      5.0581     78.6904
  2008.0000      0.0000    660.3916      5.0556     80.2345
  2008.2500      0.0000    674.4440      5.0933     81.5123
  2008.5000      0.0000    679.4030      5.1670     82.6604
  2008.7500      0.0000    677.0493      5.2629     84.3875
  2009.0000      0.0000    672.7347      5.3561     87.5409
  2009.2500      0.0000    671.3491      5.4163     92.7177
  2009.5000      0.0000    675.6302      5.4207     99.8711
  2009.7500      0.0000    685.5876      5.3655    108.1736
  2010.0000      0.0000    697.9917      5.2702    116.3975
  2010.2500      0.0000    707.4097      5.1693    123.5089
  2010.5000      0.0000    709.5374      5.0980    128.9157
  2010.7500      0.0000    704.0969      5.0790    132.4582
  2011.0000      0.0000    694.2989      5.1148    134.5598
  2011.2500      0.0000    684.0482      5.1883    136.2515
  2011.5000      0.0000    675.8972      5.2737    138.4963
  2011.7500      0.0000    670.6548      5.3495    141.2145
  2012.0000      0.0000    667.9440      5.4010    143.2728
  2012.2500      0.0000    667.0546      5.4093    143.8446
  2012.5000      0.0000    667.6554      5.3500    143.7716
  2012.7500      0.0000    669.9673      5.2222    145.0625
  2013.0000      0.0000    674.1743      5.0728    148.8826
  2013.2500      0.0000    679.5085      4.9702    154.3536
  2013.5000      0.0000    684.1619      4.9500    159.1670
  2013.7500      0.0000    686.6754      4.9964    160.7978
  2014.0000      0.0000    687.2820      5.0730    157.5617
  2014.2500      0.0000    687.1754      5.1551    149.8291
  2014.5000      0.0000    686.6479      5.2317    140.4754
  2014.7500      0.0000    685.0017      5.2911    133.1690
  2015.0000      0.0000    682.2916      5.3182    129.7068
  2015.2500      0.0000    679.9437      5.3059    129.2799
  2015.5000      0.0000    679.3276      5.2667    130.1363
  2015.7500      0.0000    680.6561      5.2308    131.1814
  2016.0000      0.0000    683.5530      5.2285    131.7761
  2016.2500      0.0000    687.5943      5.2701    130.9025
  2016.5000      0.0000    691.7667      5.3385    127.5790
  2016.7500      0.0000    694.4650      5.4074    122.1457
  2017.0000      0.0000    695.0392      5.4682    116.6155
  2017.2500      0.0000    695.2598      5.5358    113.3623
  2017.5000      0.0000    698.9625      5.6273    113.3528
  2017.7500      0.0000    709.9133      5.7386    115.6610
  2018.0000      0.0000    728.9012      5.8372    118.5604
  2018.2500      0.0000    751.9185      5.8765    120.7370
  2018.5000      0.0000    771.4549      5.8279    121.4714
  2018.7500      0.0000    780.0402      5.7134    120.5576
  2019.0000      0.0000    772.8190      5.6028    118.7414
  2019.2500      0.0000    748.6210      5.5634    117.5227
  2019.5000      0.0000    711.2955      5.5992    117.5785
  2019.7500      0.0000    670.5389      5.6463    117.6952
  2020.0000      0.0000    639.4002      5.6307    115.9190
  2020.2500      0.0000    628.3884      5.5313    111.5304
  2020.5000      0.0000    639.6579      5.3897    105.5109
  2020.7500      0.0000    665.4830      5.2731     99.4347
  2021.0000      0.0000    693.1481      5.2264     94.3093
  2021.2500      0.0000    712.5694      5.2445     90.2597
  2021.5000      0.0000    720.0522      5.2788     86.9091
  2021.7500      0.0000    717.3660      5.2759     84.1170
  2022.0000      0.0000    710.0340      5.2166     82.6616
  2022.2500      0.0000    705.1608      5.1266     84.1242
  2022.5000      0.0000    707.3635      5.0531     89.7025
  2022.7500      0.0000    715.6459      5.0286     99.0236
  2023.0000      0.0000    724.7373      5.0453    110.1655
  2023.2500      0.0000    729.3641      5.0633    120.7344
  2023.5000      0.0000    727.5356      5.0488    129.0075
  2023.7500      0.0000    720.8975      5.0038    134.4260
  2024.0000      0.0000    712.8690      4.9595    137.2912
  2024.2500      0.0000    706.5851      4.9471    138.2669
  2024.5000      0.0000    703.9603      4.9771    138.3342
  2024.7500      0.0000    705.9744      5.0434    138.6479
  2025.0000      0.0000    713.3596      5.1371    139.6490
  2025.2500      0.0000    726.2129      5.2512    140.5462
  2025.5000      0.0000    742.3309      5.3723    140.3733
  2025.7500      0.0000    756.3902      5.4810    139.3434
  2026.0000      0.0000    762.3505      5.5704    138.4860
  2026.2500      0.0000    758.0648      5.6547    138.1345
  2026.5000      0.0000    747.7733      5.7409    137.5272
  2026.7500      0.0000    739.6166      5.7914    136.0217
  2027.0000      0.0000    740.1926      5.7408    134.1593
  2027.2500      0.0000    750.5789      5.5739    133.1929
  2027.5000      0.0000    766.5023      5.3631    133.8236
  2027.7500      0.0000    781.8948      5.1979    135.6864
  2028.0000      0.0000    792.7843      5.0987    137.7109
  2028.2500      0.0000    798.4980      5.0397    138.5001
  2028.5000      0.0000    800.0431      5.0280    136.8300
  2028.7500      0.0000    797.9224      5.0933    132.7770
  2029.0000      0.0000    791.4101      5.2099    128.4118
  2029.2500      0.0000    779.5767      5.2922    126.6107
  2029.5000      0.0000    762.7787      5.2805    128.7501
  2029.7500      0.0000    742.9232      5.1942    133.6216
  2030.0000      0.0000    722.5109      5.0912    138.4864
  2030.2500      0.0000    704.1938      5.0082    141.0022
  2030.5000      0.0000    691.0635      4.9515    140.3713
  2030.7500      0.0000    685.9513      4.9222    137.2243
  2031.0000      0.0000    689.8732      4.9251    132.7973
  2031.2500      0.0000    701.5567      4.9547    128.0619
  2031.5000      0.0000    718.1110      4.9858    123.1640
  2031.7500      0.0000    735.2092      4.9936    117.4980
  2032.0000      0.0000    747.0383      4.9823    110.5537
  2032.2500      0.0000    748.1529      4.9822    102.6220
  2032.5000      0.0000    737.0275      5.0120     94.2990
  2032.7500      0.0000    717.6476      5.0530     85.7185
  2033.0000      0.0000    697.0184      5.0716     77.1277
  2033.2500      0.0000    680.9221      5.0549     69.8474
