~Version Information
VERS.                      2.0: CWLS Log ASCII Standard - VERSION 2.0
WRAP.                       NO: One line per depth step
~Well Information Block
STRT.FT               240.0000: 
STOP.FT              1452.5000: 
STEP.FT                 0.1000: 
NULL.                -999.2500: 
COMP.          Petrogulf Corporation: COMPANY
WELL.          Robinson 15-12R: WELL
FLD.           Purgatorie River: FIELD
LOC.           1752' FNL & 561' FWL: LOCATION
PROV.                 Colorado: PROVINCE
CNTY.               Las Animas: COUNTRY
SRVC.                Patterson: SERVICE COMPANY
DATE.          Tue Sep 13 15:07:52 2005: LOG DATE
UWI.                          : UNIQUE WELL ID
~Curve Information Block
DEPT.FT            0 000 00 00: Depth
DCAL.in                       : CDL Caliper
RHOB.g/cc                     : CDL Bulk Density
RHOC.g/cc                     : CDL Density Correction
DPOR.pu                       : CDL Density Porosity
GR.GAPI                       : Gamma Ray
NPOR.pu                       : Neutron Porosity
~Parameter Information Block
~A  Depth       DCAL        RHOB        RHOC        DPOR         GR         NPOR    
# ...
  1440.0000      7.8170      2.4994      0.0686      9.1281    152.7505   -999.2500
  1440.1000      7.8170      2.5085      0.1042      8.5774    112.3618   -999.2500
  1440.2000      7.8170      2.5126      0.0760      8.3289     57.2845   -999.2500
  1440.3000      7.8034      2.5169      0.0840      8.0641     18.0688   -999.2500
  1440.4000      7.8034      2.5239      0.1294      7.6409      3.2858   -999.2500
  1440.5000      7.7884      2.5304      0.0767      7.2484      0.3304   -999.2500
  1440.6000      7.7884      2.5358      0.0918      6.9198      0.0174   -999.2500
  1440.7000      7.7884      2.5390      0.0860      6.7291      0.0000   -999.2500
  1440.8000      7.7872      2.5436      0.0684      6.4483   -999.2500   -999.2500
  1440.9000      7.7872      2.5573      0.0474      5.6166   -999.2500   -999.2500
  1441.0000      7.7916      2.5787      0.0703      4.3235   -999.2500   -999.2500
  1441.1000      7.7916      2.5967      0.1246      3.2324   -999.2500   -999.2500
  1441.2000      7.7916      2.6055      0.0845      2.6954   -999.2500   -999.2500
  1441.3000      7.7915      2.6071      0.1146      2.5971   -999.2500   -999.2500
  1441.4000      7.7915      2.5985      0.1499      3.1199   -999.2500   -999.2500
  1441.5000      7.7709      2.5778      0.1143      4.3751   -999.2500   -999.2500
  1441.6000      7.7709      2.5554      0.0968      5.7338   -999.2500   -999.2500
  1441.7000      7.7709      2.5417      0.0592      6.5658   -999.2500   -999.2500
  1441.8000      7.7619      2.5396      0.0779      6.6916   -999.2500   -999.2500
  1441.9000      7.7619      2.5513      0.0434      5.9848   -999.2500   -999.2500
  1442.0000      7.7836      2.5731      0.1007      4.6608   -999.2500   -999.2500
  1442.1000      7.7836      2.5899      0.1138      3.6451   -999.2500   -999.2500
  1442.2000      7.7836      2.5904      0.1130      3.6147   -999.2500   -999.2500
  1442.3000      7.7950      2.5798      0.0981      4.2551   -999.2500   -999.2500
  1442.4000      7.7950      2.5655      0.0937      5.1214   -999.2500   -999.2500
  1442.5000      7.7913      2.5502      0.0286      6.0504   -999.2500   -999.2500
  1442.6000      7.7913      2.5449      0.0108      6.3719   -999.2500   -999.2500
  1442.7000      7.7913      2.5568      0.0359      5.6486   -999.2500   -999.2500
  1442.8000      7.8004      2.5709      0.0502      4.7911   -999.2500   -999.2500
  1442.9000      7.8004      2.5650      0.0763      5.1514   -999.2500   -999.2500
  1443.0000      7.8038      2.5377      0.0335      6.8055   -999.2500   -999.2500
  1443.1000      7.8038      2.5072      0.0014      8.6557   -999.2500   -999.2500
  1443.2000      7.8038      2.4897      0.0192      9.7152   -999.2500   -999.2500
  1443.3000      7.7900      2.4923      0.0392      9.5586   -999.2500   -999.2500
  1443.4000      7.7900      2.5073      0.1043      8.6469   -999.2500   -999.2500
  1443.5000      7.7896      2.5178      0.0709      8.0151   -999.2500   -999.2500
  1443.6000      7.7896      2.5171      0.0696      8.0575   -999.2500   -999.2500
  1443.7000      7.7896      2.5102      0.0725      8.4746   -999.2500   -999.2500
  1443.8000      7.7920      2.5047      0.0803      8.8067   -999.2500   -999.2500
  1443.9000      7.7920      2.4944      0.1104      9.4323   -999.2500   -999.2500
  1444.0000      7.7786      2.4662      0.0811     11.1392   -999.2500   -999.2500
  1444.1000      7.7786      2.4294      0.0812     13.3690   -999.2500   -999.2500
  1444.2000      7.7786      2.4021      0.0666     15.0222   -999.2500   -999.2500
  1444.3000      7.7799      2.3894      0.0658     15.7952   -999.2500   -999.2500
  1444.4000      7.7799      2.3923      0.0257     15.6170   -999.2500   -999.2500
  1444.5000      7.7771      2.4069      0.0794     14.7352   -999.2500   -999.2500
  1444.6000      7.7771      2.4150      0.0737     14.2453   -999.2500   -999.2500
  1444.7000      7.7771      2.4098      0.0824     14.5592   -999.2500   -999.2500
  1444.8000      7.7974      2.4056      0.0386     14.8127   -999.2500   -999.2500
  1444.9000      7.7974      2.4077      0.0813     14.6829   -999.2500   -999.2500
  1445.0000      7.8016      2.4024      0.0886     15.0064   -999.2500   -999.2500
  1445.1000      7.8016      2.3850      0.0852     16.0592   -999.2500   -999.2500
  1445.2000      7.8016      2.3701      0.0617     16.9624   -999.2500   -999.2500
  1445.3000      7.7911      2.3674      0.0888     17.1274   -999.2500   -999.2500
  1445.4000      7.7911      2.3706      0.0510     16.9348   -999.2500   -999.2500
  1445.5000      7.8007      2.3711      0.0360     16.9000   -999.2500   -999.2500
  1445.6000      7.8007      2.3650      0.0909     17.2757   -999.2500   -999.2500
  1445.7000      7.8007      2.3576      0.0236     17.7183   -999.2500   -999.2500
  1445.8000      7.8017      2.3625      0.0334     17.4245   -999.2500   -999.2500
  1445.9000      7.8017      2.3784      0.0628     16.4578   -999.2500   -999.2500
  1446.0000      7.8035      2.3973      0.0621     15.3146   -999.2500   -999.2500
  1446.1000      7.8035      2.4166      0.0821     14.1482   -999.2500   -999.2500
  1446.2000      7.8035      2.4289      0.1037     13.3992   -999.2500   -999.2500
  1446.3000      7.7857      2.4291      0.0717     13.3861   -999.2500   -999.2500
  1446.4000      7.7857      2.4275      0.0896     13.4833   -999.2500   -999.2500
  1446.5000      7.7711      2.4411      0.0503     12.6596   -999.2500   -999.2500
  1446.6000      7.7711      2.4677      0.1142     11.0460   -999.2500   -999.2500
  1446.7000      7.7711      2.4789      0.1208     10.3727   -999.2500   -999.2500
  1446.8000      7.7772      2.4605      0.0822     11.4876   -999.2500   -999.2500
  1446.9000      7.7772      2.4291      0.0852     13.3855   -999.2500   -999.2500
  1447.0000      7.7762      2.4097      0.0283     14.5656   -999.2500   -999.2500
  1447.1000      7.7762      2.4164      0.0289     14.1551   -999.2500   -999.2500
  1447.2000      7.7762      2.4374      0.0663     12.8856   -999.2500   -999.2500
  1447.3000      7.7831      2.4457      0.0999     12.3794   -999.2500   -999.2500
  1447.4000      7.7831      2.4346      0.0635     13.0544   -999.2500   -999.2500
  1447.5000      7.7848      2.4239      0.0282     13.7014   -999.2500   -999.2500
  1447.6000      7.7848      2.4238      0.1203     13.7085   -999.2500   -999.2500
  1447.7000      7.7848      2.4198      0.1209     13.9531   -999.2500   -999.2500
  1447.8000      7.7801      2.4045      0.0840     14.8761   -999.2500   -999.2500
  1447.9000      7.7801      2.3851      0.0817     16.0574   -999.2500   -999.2500
  1448.0000      7.7614      2.3697      0.0240     16.9890   -999.2500   -999.2500
  1448.1000      7.7614      2.3713      0.0198     16.8904   -999.2500   -999.2500
  1448.2000      7.7614      2.3970      0.0687     15.3331   -999.2500   -999.2500
  1448.3000      7.7736      2.4589      0.0559     11.5818   -999.2500   -999.2500
  1448.4000      7.7736      2.5869      0.0744      3.8271   -999.2500   -999.2500
  1448.5000      7.7550      2.6550      0.1090     -0.3010   -999.2500   -999.2500
  1448.6000      7.7550      2.2375      0.5483     25.0018   -999.2500   -999.2500
  1448.7000      7.7550      1.2739      0.0000     83.4011   -999.2500   -999.2500
  1448.8000      7.1674      0.4323      0.0000    134.4045   -999.2500   -999.2500
  1448.9000      7.1674      0.0821   -999.2500    155.6293   -999.2500   -999.2500
  1449.0000      3.2718      0.0085   -999.2500    160.0930   -999.2500   -999.2500
  1449.1000      3.2718      0.0005   -999.2500    160.5782   -999.2500   -999.2500
  1449.2000      3.2718      0.0000   -999.2500    160.6061   -999.2500   -999.2500
  1449.3000      2.7457      0.0000   -999.2500    160.6061   -999.2500   -999.2500
  1449.4000      2.7457   -999.2500   -999.2500   -999.2500   -999.2500   -999.2500
  1449.5000   -999.2500   -999.2500   -999.2500   -999.2500   -999.2500   -999.2500
