~Version Information
 VERS.                                  2.0 : CWLS LAS VERSION
 WRAP.                                   NO : WRAPING MODE
 SWARE .                 MController 2.5.0I : SOFTWARE VERSION
~Well Information
 WELL.                           J&P 12-33v : WELL
 COMP.             Petrogulf Operating Corp : COMPANY
 FLD.                      Purgatorie River : FIELD
 LOC.                NW/SE Sec 12 T33S R68W : LOCATION
 DATE.                              8/27/04 : DATE(S) LOGGED
 SRVC.       Blanco Geological services LLC : SERVICE COMPANY
 STAT.                                   CO : STATE
 CNTY.                           Las Animas : COUNTY
 CTRY.                                  USA : COUNTRY
 API.                       05-071-08091-00 : API NUMBER
 STRT.FT                             770.00 : START DEPTH
 STOP.FT                            2580.00 : STOP DEPTH
 STEP.FT                               1.00 : DEPTH INCREMENT
 NULL.                                -9999 : NULL VALUE
~Curve information
 DEPTH.FT                                   :
 ROP.MIN/FT                                 :
 GAS.UNITS                                  :
~ASCII Log data
# ...
      1370.0          0.2          2.7 
      1371.0          0.2          2.6 
      1372.0          0.2          2.5 
      1373.0          0.2          2.6 
      1374.0          0.1          2.8 
      1375.0          0.1          3.3 
      1376.0          0.1          3.3 
      1377.0          0.2          3.8 
      1378.0          0.3          3.6 
      1379.0          0.2          3.3 
      1380.0          3.6         16.1 
      1381.0          0.4          6.3 
      1382.0          0.3          6.8 
      1383.0          0.3          6.0 
      1384.0          0.3          4.1 
      1385.0          0.3          2.9 
      1386.0          0.3          2.3 
      1387.0          0.3          2.1 
      1388.0          0.3          1.8 
      1389.0          0.2          1.6 
      1390.0          0.2          1.3 
      1391.0          0.2          1.2 
      1392.0          0.2          1.1 
      1393.0          0.3          0.8 
      1394.0          0.4          0.9 
      1395.0          0.3          0.9 
      1396.0          0.2          0.9 
      1397.0          0.3          1.2 
      1398.0          0.3          1.0 
      1399.0          0.2          1.2 
      1400.0          0.2          1.1 
      1401.0          0.2          1.1 
      1402.0          0.3          0.8 
      1403.0          0.2          0.9 
      1404.0          0.2          1.2 
      1405.0          0.2          1.2 
      1406.0          0.2          1.4 
      1407.0          0.2          1.5 
      1408.0          0.3          1.8 
      1409.0          0.3          2.1 
      1410.0          3.5         19.1 
      1411.0          0.3          6.6 
      1412.0          0.2          6.4 
      1413.0          0.3          5.6 
      1414.0          0.3          3.9 
      1415.0          0.3          2.8 
      1416.0          0.3          2.4 
      1417.0          0.3          2.1 
      1418.0          0.2          2.2 
      1419.0          0.4          2.4 
      1420.0          0.3          1.8 
      1421.0          0.2          1.9 
      1422.0          0.2          1.9 
      1423.0          0.2          2.4 
      1424.0          0.2          2.4 
      1425.0          0.2          2.7 
      1426.0          0.3          2.7 
      1427.0          0.2          2.8 
      1428.0          0.2          2.9 
      1429.0          0.3          3.1 
      1430.0          0.2          3.1 
      1431.0          0.2          3.0 
      1432.0          0.2          3.5 
      1433.0          0.3          3.3 
      1434.0          0.3          3.3 
      1435.0          0.3          3.3 
      1436.0          0.3          3.1 
      1437.0          0.2          3.0 
      1438.0          0.3          2.8 
      1439.0          0.2          2.3 
      1440.0          3.4         18.6 
      1441.0          0.4          8.6 
      1442.0          0.4          5.3 
      1443.0          0.4          2.4 
      1444.0          0.4          1.7 
      1445.0          0.5          1.7 
      1446.0          0.4          1.5 
      1447.0          0.4          1.3 
      1448.0          0.4          1.2 
      1449.0          0.3          1.4 
      1450.0          0.3          1.4 
      1451.0          0.3          1.4 
      1452.0          0.3          1.6 
      1453.0          0.3          1.5 
      1454.0          0.3          1.5 
      1455.0          0.3          2.0 
      1456.0          0.2          1.8 
      1457.0          0.2          2.4 
      1458.0          0.2          3.3 
      1459.0          0.3          3.7 
      1460.0          0.2          3.4 
      1461.0          0.3          3.9 
      1462.0          0.3          4.2 
      1463.0          0.3          3.8 
      1464.0          0.3          3.8 
      1465.0          0.4          4.0 
      1466.0          0.3          3.9 
      1467.0          0.3          3.6 
      1468.0          0.3          3.5 
      1469.0          0.3          3.4 
      1470.0          3.5         24.7 
      1471.0          0.9          7.8 
      1472.0          0.4          6.3 
      1473.0          0.3          3.8 
      1474.0          0.3          2.0 
      1475.0          0.3          2.1 
      1476.0          0.4          1.9 
      1477.0          0.4          1.9 
      1478.0          0.4          1.7 
      1479.0          0.4          1.7 
      1480.0          0.4          1.4 
      1481.0          0.4          1.3 
      1482.0          0.3          1.2 
      1483.0          0.3          1.5 
      1484.0          0.4          1.4 
      1485.0          0.4          1.3 
      1486.0          0.3          1.2 
      1487.0          0.3          1.3 
      1488.0          0.2          1.3 
      1489.0          0.3          1.4 
      1490.0          0.2          1.5 
      1491.0          0.3          1.3 
      1492.0          0.3          1.4 
      1493.0          0.3          1.6 
      1494.0          0.3          1.3 
      1495.0          0.4          1.3 
      1496.0          0.2          1.5 
      1497.0          0.2          1.4 
      1498.0          0.2          1.6 
      1499.0          0.2          1.4 
      1500.0          3.3         26.7 
      1501.0          0.3          9.3 
      1502.0          0.4          8.6 
      1503.0          0.4          5.8 
      1504.0          0.4          3.1 
      1505.0          0.4          2.4 
      1506.0          0.3          2.1 
      1507.0          0.3          1.9 
      1508.0          0.3          2.0 
      1509.0          0.3          1.7 
      1510.0          0.3          1.5 
      1511.0          0.4          1.5 
      1512.0          0.3          1.6 
      1513.0          0.3          1.4 
      1514.0          0.3          1.5 
      1515.0          0.3          1.4 
      1516.0          0.3          1.6 
      1517.0          0.3          1.5 
      1518.0          0.3          1.5 
      1519.0          0.3          1.5 
      1520.0          0.3          1.5 
      1521.0          0.3          1.5 
      1522.0          0.3          1.5 
      1523.0          0.3          1.7 
      1524.0          0.3          1.4 
      1525.0          0.3          1.6 
      1526.0          0.4          1.6 
      1527.0          0.3          1.5 
      1528.0          0.2          1.5 
      1529.0          0.3          1.1 
      1530.0          3.9         36.0 
      1531.0          0.3         10.3 
      1532.0          0.3         10.5 
      1533.0          0.2          8.4 
      1534.0          0.4          5.8 
      1535.0          0.3          3.0 
      1536.0          0.3          2.2 
      1537.0          0.2          1.6 
      1538.0          0.3          1.6 
      1539.0          0.3          1.7 
      1540.0          0.3          1.4 
      1541.0          0.2          1.6 
      1542.0          0.2          1.7 
      1543.0          0.2          2.5 
      1544.0          0.3          3.3 
      1545.0          0.2          4.0 
      1546.0          0.2          4.0 
      1547.0          0.2          4.6 
      1548.0          0.2          4.5 
      1549.0          0.2          4.6 
      1550.0          0.2          4.6 
      1551.0          0.2          4.4 
      1552.0          0.3          4.2 
      1553.0          0.2          3.4 
      1554.0          0.2          3.2 
      1555.0          0.2          3.6 
      1556.0          0.2          3.3 
      1557.0          0.3          3.1 
      1558.0          0.2          3.1 
      1559.0          0.2          2.8 
      1560.0          4.0         28.9 
      1561.0          0.5          8.7 
      1562.0          0.3          3.2 
      1563.0          0.4          2.6 
      1564.0          0.5          3.1 
      1565.0          0.4          2.6 
      1566.0          0.6          2.0 
      1567.0          0.3          1.7 
      1568.0          0.3          1.8 
      1569.0          0.5          2.0 
