~Version Information
VERS.                      2.0: CWLS Log ASCII Standard - VERSION 2.0
WRAP.                       NO: One line per depth step
~Well Information Block
STRT.FT               510.0000: 
STOP.FT              1848.7500: 
STEP.FT                 0.2500: 
NULL.                -999.2500: 
COMP.          Pioneer Natural Resources: COMPANY
WELL.           Stampede 42-18: WELL
FLD.           Purgatoire River: FIELD
LOC.           2479' FNL & 160' FEL--: LOCATION
CNTY.               Las Animas: COUNTY
SRVC.          Superior Well Services: SERVICE COMPANY
DATE.          Sat Jun 09 02:07:27 2007: LOG DATE
UWI.           05 071 08237 00: UNIQUE WELL ID
STAT.                 Colorado: STATE
~Curve Information Block
DEPT.FT            0 000 00 00: Depth
SN.Ohm-m                      : IEL Short Normal
SP.mV                         : IEL Spontaneous Potential
DIR.Ohm-m                     : IEL Induction Resistivity
GR.GAPI                       : Gamma Ray
~Parameter Information Block
~A  Depth        SN          SP         DIR          GR     
# ...
   677.5000   2000.0000   2000.0000      7.7658    123.8360
   677.7500   2000.0000   2000.0000      7.5789    126.3926
   678.0000   2000.0000   2000.0000      7.4222    128.9702
   678.2500   2000.0000   2000.0000      7.3107    129.8355
   678.5000   2000.0000   2000.0000      7.2549    130.6731
   678.7500   2000.0000   2000.0000      7.2589    131.4297
   679.0000   2000.0000   2000.0000      7.3202    132.6732
   679.2500   2000.0000   2000.0000      7.4325    132.7154
   679.5000   2000.0000   2000.0000      7.5902    130.0902
   679.7500   2000.0000   2000.0000      7.7922    126.5416
   680.0000   2000.0000   2000.0000      8.0424    120.1911
   680.2500   2000.0000   2000.0000      8.3495    116.4215
   680.5000   2000.0000   2000.0000      8.7254    112.3198
   680.7500   2000.0000   2000.0000      9.1848    110.4623
   681.0000   2000.0000   2000.0000      9.7465    108.4671
   681.2500   2000.0000   2000.0000     10.4347    107.5240
   681.5000   2000.0000   2000.0000     11.2772    106.6711
   681.7500   2000.0000   2000.0000     12.2981    106.4806
   682.0000   2000.0000   2000.0000     13.5020    106.7806
   682.2500   2000.0000   2000.0000     14.8535    107.3456
   682.5000   2000.0000   2000.0000     16.2624    108.4393
   682.7500   2000.0000   2000.0000     17.5882    109.0602
   683.0000   2000.0000   2000.0000     18.6738    109.6320
   683.2500   2000.0000   2000.0000     19.3968    109.9477
   683.5000   2000.0000   2000.0000     19.7119    110.9066
   683.7500   2000.0000   2000.0000     19.6599    112.1727
   684.0000   2000.0000   2000.0000     19.3368    115.1711
   684.2500   2000.0000   2000.0000     18.8478    117.6517
   684.5000   2000.0000   2000.0000     18.2750    121.1310
   684.7500   2000.0000   2000.0000     17.6730    122.7354
   685.0000   2000.0000   2000.0000     17.0787    123.8720
   685.2500   2000.0000   2000.0000     16.5221    124.2340
   685.5000   2000.0000   2000.0000     16.0304    125.3477
   685.7500   2000.0000   2000.0000     15.6278    126.8061
   686.0000   2000.0000   2000.0000     15.3316    129.3746
   686.2500   2000.0000   2000.0000     15.1477    130.4874
   686.5000   2000.0000   2000.0000     15.0688    130.3028
   686.7500   2000.0000   2000.0000     15.0770    128.9686
   687.0000   2000.0000   2000.0000     15.1526    125.5867
   687.2500   2000.0000   2000.0000     15.2829    122.6230
   687.5000   2000.0000   2000.0000     15.4654    117.5962
   687.7500   2000.0000   2000.0000     15.7065    114.2076
   688.0000   2000.0000   2000.0000     16.0153    109.2658
   688.2500   2000.0000   2000.0000     16.3971    105.9436
   688.5000   2000.0000   2000.0000     16.8482    101.1696
   688.7500   2000.0000   2000.0000     17.3558     98.8207
   689.0000   2000.0000   2000.0000     17.9047     97.9491
   689.2500   2000.0000   2000.0000     18.4842     99.3879
   689.5000   2000.0000   2000.0000     19.0858    103.5888
   689.7500   2000.0000   2000.0000     19.6897    106.7331
   690.0000   2000.0000   2000.0000     20.2555    110.4553
   690.2500   2000.0000   2000.0000     20.7310    111.6872
   690.5000   2000.0000   2000.0000     21.0774    110.9448
   690.7500   2000.0000   2000.0000     21.2858    108.5838
   691.0000   2000.0000   2000.0000     21.3767    103.0784
   691.2500   2000.0000   2000.0000     21.3900     99.2207
   691.5000   2000.0000   2000.0000     21.3776     95.1645
   691.7500   2000.0000   2000.0000     21.3980     94.2772
   692.0000   2000.0000   2000.0000     21.5070     95.6970
   692.2500   2000.0000   2000.0000     21.7520     98.0293
   692.5000   2000.0000   2000.0000     22.1727    102.2852
   692.7500   2000.0000   2000.0000     22.8017    104.6150
   693.0000   2000.0000   2000.0000     23.6572    105.5802
   693.2500   2000.0000   2000.0000     24.7256    103.8218
   693.5000   2000.0000   2000.0000     25.9530     97.5314
   693.7500   2000.0000   2000.0000     27.2621     91.6590
   694.0000   2000.0000   2000.0000     28.5933     82.3622
   694.2500   2000.0000   2000.0000     29.9365     76.8837
   694.5000   2000.0000   2000.0000     31.3249     70.7176
   694.7500   2000.0000   2000.0000     32.8002     68.1225
   695.0000   2000.0000   2000.0000     34.3908     66.2556
   695.2500   2000.0000   2000.0000     36.1218     65.9658
   695.5000   2000.0000   2000.0000     38.0363     66.1924
   695.7500   2000.0000   2000.0000     40.2021     66.5536
   696.0000   2000.0000   2000.0000     42.6958     67.3782
   696.2500   2000.0000   2000.0000     45.5745     67.9381
   696.5000   2000.0000   2000.0000     48.8442     67.9153
   696.7500   2000.0000   2000.0000     52.4185     66.8709
   697.0000   2000.0000   2000.0000     56.0607     63.9482
   697.2500   2000.0000   2000.0000     59.3575     61.6746
   697.5000   2000.0000   2000.0000     61.8025     58.7247
   697.7500   2000.0000   2000.0000     63.0117     57.3545
   698.0000   2000.0000   2000.0000     62.9310     56.3927
   698.2500   2000.0000   2000.0000     61.8596     56.5202
   698.5000   2000.0000   2000.0000     60.2803     57.7160
   698.7500   2000.0000   2000.0000     58.6490     58.9006
   699.0000   2000.0000   2000.0000     57.2613     60.5197
   699.2500   2000.0000   2000.0000     56.2145     61.0964
   699.5000   2000.0000   2000.0000     55.4419     60.9939
   699.7500   2000.0000   2000.0000     54.7819     60.5018
   700.0000   2000.0000   2000.0000     54.0564     59.8094
   700.2500   2000.0000   2000.0000     53.1280     59.6925
   700.5000   2000.0000   2000.0000     51.9313     60.1300
   700.7500   2000.0000   2000.0000     50.4892     60.6642
   701.0000   2000.0000   2000.0000     48.9174     61.4403
   701.2500   2000.0000   2000.0000     47.3969     61.8031
   701.5000   2000.0000   2000.0000     46.0961     62.1480
   701.7500   2000.0000   2000.0000     45.0814     62.3502
   702.0000   2000.0000   2000.0000     44.2772     62.7129
   702.2500   2000.0000   2000.0000     43.5166     62.9817
   702.5000   2000.0000   2000.0000     42.6370     63.4939
   702.7500   2000.0000   2000.0000     41.5427     64.0519
   703.0000   2000.0000   2000.0000     40.1984     65.3757
   703.2500   2000.0000   2000.0000     38.5983     66.4902
   703.5000   2000.0000   2000.0000     36.7637     68.2387
   703.7500   2000.0000   2000.0000     34.7548     69.4910
   704.0000   2000.0000   2000.0000     32.6635     72.0382
   704.2500   2000.0000   2000.0000     30.5923     74.6510
   704.5000   2000.0000   2000.0000     28.6326     80.6748
   704.7500   2000.0000   2000.0000     26.8507     86.2642
   705.0000   2000.0000   2000.0000     25.2772     96.4356
   705.2500   2000.0000   2000.0000     23.9086    103.5308
   705.5000   2000.0000   2000.0000     22.7195    112.7738
   705.7500   2000.0000   2000.0000     21.6844    117.1430
   706.0000   2000.0000   2000.0000     20.7896    120.5218
   706.2500   2000.0000   2000.0000     20.0318    121.0450
   706.5000   2000.0000   2000.0000     19.4067    120.7321
   706.7500   2000.0000   2000.0000     18.9008    120.7147
   707.0000   2000.0000   2000.0000     18.4921    121.7602
   707.2500   2000.0000   2000.0000     18.1588    122.9982
   707.5000   2000.0000   2000.0000     17.8865    124.7517
   707.7500   2000.0000   2000.0000     17.6723    125.3546
   708.0000   2000.0000   2000.0000     17.5219    124.9920
   708.2500   2000.0000   2000.0000     17.4422    123.8837
   708.5000   2000.0000   2000.0000     17.4334    121.1291
   708.7500   2000.0000   2000.0000     17.4831    118.8463
   709.0000   2000.0000   2000.0000     17.5692    115.4530
   709.2500   2000.0000   2000.0000     17.6697    113.5963
   709.5000   2000.0000   2000.0000     17.7735    111.8074
   709.7500   2000.0000   2000.0000     17.8833    111.4431
   710.0000   2000.0000   2000.0000     18.0096    112.5304
   710.2500   2000.0000   2000.0000     18.1616    114.3861
   710.5000   2000.0000   2000.0000     18.3389    117.7293
   710.7500   2000.0000   2000.0000     18.5229    119.0309
