~Version Information
 VERS.                                  2.0 : CWLS LAS VERSION
 WRAP.                                   NO : WRAPING MODE
 SWARE .                 MController 2.5.0J : SOFTWARE VERSION
~Well Information
 WELL.                      Sumatra 34-22Tr : WELL
 COMP.    Pioneer Natural Resources USA Inc : COMPANY
 FLD.                      Purgatoire River : FIELD
 LOC.                SW/SE sec 22 T33S R67W : LOCATION
 DATE.                              6/08/05 : DATE(S) LOGGED
 SRVC.       Blanco Geological Services LLC : SERVICE COMPANY
 STAT.                                   CO : STATE
 CNTY.                           Las Animas : COUNTY
 CTRY.                                  USA : COUNTRY
 API.                       05-071-08383-00 : API NUMBER
 STRT.FT                             575.00 : START DEPTH
 STOP.FT                            1500.00 : STOP DEPTH
 STEP.FT                               1.00 : DEPTH INCREMENT
 NULL.                                -9999 : NULL VALUE
~Curve information
 DEPTH.FT                                   :
 ROP.MIN/FT                                 :
 GAS.UNITS                                  :
~ASCII Log data
# ...
       975.0         0.67         15.9 
       976.0         0.75         14.8 
       977.0         0.73         14.8 
       978.0         0.50         14.7 
       979.0         0.50         14.6 
       980.0         0.43         15.3 
       981.0         5.03         31.0 
       982.0         0.27         25.7 
       983.0         0.40         24.8 
       984.0         0.43         24.1 
       985.0         0.47         20.3 
       986.0         0.33         19.1 
       987.0         0.40         17.8 
       988.0         0.42         17.7 
       989.0         0.37         17.2 
       990.0         0.37         17.2 
       991.0         0.40         16.0 
       992.0         0.33         15.6 
       993.0         0.30         15.0 
       994.0         0.33         14.9 
       995.0         0.33         15.2 
       996.0         0.37         14.3 
       997.0         0.62         16.2 
       998.0         0.73         18.8 
       999.0         0.47         18.1 
      1000.0         0.43         17.0 
      1001.0         0.43         15.6 
      1002.0         0.37         16.1 
      1003.0         0.40         15.0 
      1004.0         0.42         14.9 
      1005.0         0.30         15.6 
      1006.0         0.27         15.5 
      1007.0         0.27         15.9 
      1008.0         0.37         15.6 
      1009.0         0.33         16.5 
      1010.0         0.50         17.4 
      1011.0         4.48         30.7 
      1012.0         0.62         21.9 
      1013.0         0.50         19.3 
      1014.0         0.33         17.3 
      1015.0         0.37         16.0 
      1016.0         0.37         16.1 
      1017.0         0.37         17.2 
      1018.0         0.60         18.9 
      1019.0         0.52         18.5 
      1020.0         0.40         16.2 
      1021.0         0.43         15.6 
      1022.0         0.47         15.2 
      1023.0         0.33         14.7 
      1024.0         0.30         14.7 
      1025.0         0.23         15.4 
      1026.0         0.33         15.9 
      1027.0         0.47         16.7 
      1028.0         0.48         16.0 
      1029.0         0.43         16.3 
      1030.0         0.40         15.9 
      1031.0         0.40         15.2 
      1032.0         0.37         15.1 
      1033.0         0.37         15.1 
      1034.0         0.40         15.6 
      1035.0         0.40         15.2 
      1036.0         0.48         16.1 
      1037.0         0.33         15.9 
      1038.0         0.33         15.8 
      1039.0         0.30         17.0 
      1040.0         0.60         17.1 
      1041.0         3.85         32.3 
      1042.0         0.43         24.4 
      1043.0         0.47         23.0 
      1044.0         0.72         20.2 
      1045.0         1.03         17.8 
      1046.0         0.70         15.6 
      1047.0         0.47         15.9 
      1048.0         0.55         16.4 
      1049.0         0.57         16.2 
      1050.0         0.57         15.7 
      1051.0         0.50         16.3 
      1052.0         0.57         15.6 
      1053.0         0.43         16.0 
      1054.0         0.40         16.8 
      1055.0         0.35         16.3 
      1056.0         0.40         16.3 
      1057.0         0.37         16.7 
      1058.0         0.37         16.5 
      1059.0         0.43         16.3 
      1060.0         0.40         16.2 
      1061.0         0.43         15.7 
      1062.0         0.37         15.8 
      1063.0         0.40         17.4 
      1064.0         0.32         18.3 
      1065.0         0.47         18.3 
      1066.0         0.47         17.2 
      1067.0         0.47         16.9 
      1068.0         0.43         16.4 
      1069.0         0.50         16.6 
      1070.0         0.60         16.9 
      1071.0         7.88        116.0 
      1072.0         0.67         30.2 
      1073.0         0.37         23.9 
      1074.0         0.30         23.6 
      1075.0         0.20         24.3 
      1076.0         0.37         24.5 
      1077.0         0.43         24.4 
      1078.0         0.28         23.4 
      1079.0         0.40         23.3 
      1080.0         0.50         22.2 
      1081.0         0.43         20.5 
      1082.0         0.47         20.8 
      1083.0         0.23         20.7 
      1084.0         0.47         20.5 
      1085.0         0.43         20.3 
      1086.0         0.45         21.3 
      1087.0         0.37         20.5 
      1088.0         0.40         21.0 
      1089.0         0.40         20.7 
      1090.0         0.43         21.1 
      1091.0         0.40         21.8 
      1092.0         0.33         21.4 
      1093.0         0.47         21.0 
      1094.0         0.38         21.8 
      1095.0         0.37         22.1 
      1096.0         0.37         21.8 
      1097.0         0.37         21.9 
      1098.0         0.43         24.5 
      1099.0         0.50         25.2 
      1100.0         0.50         24.9 
      1101.0         3.22         40.7 
      1102.0         1.62         42.3 
      1103.0         0.47         30.2 
      1104.0         0.43         27.8 
      1105.0         0.40         25.2 
      1106.0         0.40         25.0 
      1107.0         0.37         24.8 
      1108.0         0.43         24.9 
      1109.0         0.48         25.0 
      1110.0         0.43         23.7 
      1111.0         0.43         23.8 
      1112.0         0.50         23.0 
      1113.0         0.40         22.8 
      1114.0         0.43         22.0 
      1115.0         0.40         21.8 
      1116.0         0.45         22.7 
      1117.0         0.43         22.8 
      1118.0         0.43         22.9 
      1119.0         0.43         22.7 
      1120.0         0.43         22.8 
      1121.0         0.37         22.8 
      1122.0         0.43         22.9 
      1123.0         0.43         22.8 
      1124.0         0.48         22.7 
      1125.0         0.43         21.9 
      1126.0         0.47         21.7 
      1127.0         0.47         22.2 
      1128.0         0.47         21.6 
      1129.0         0.43         22.8 
      1130.0         0.77         21.6 
      1131.0         3.05         43.4 
      1132.0         0.62         28.8 
      1133.0         0.50         28.7 
      1134.0         0.53         27.1 
      1135.0         0.43         24.6 
      1136.0         0.40         24.4 
      1137.0         0.37         26.4 
      1138.0         0.43         26.8 
      1139.0         0.30         26.7 
      1140.0         0.38         26.6 
      1141.0         0.47         26.3 
      1142.0         0.37         25.9 
      1143.0         0.40         22.6 
      1144.0         0.43         21.2 
      1145.0         1.03         27.6 
      1146.0         0.62         27.3 
      1147.0         0.57         26.5 
      1148.0         0.60         25.2 
      1149.0         0.80         24.3 
      1150.0         0.77         24.6 
      1151.0         0.72         24.0 
      1152.0         0.40         23.9 
      1153.0         0.50         24.0 
      1154.0         0.50         24.7 
      1155.0         0.50         24.4 
      1156.0         0.37         23.0 
      1157.0         0.30         24.0 
      1158.0         0.37         24.5 
      1159.0         0.45         23.9 
      1160.0         0.80         25.0 
      1161.0         5.77         93.6 
      1162.0         0.50         34.5 
      1163.0         0.50         31.1 
      1164.0         0.47         28.0 
      1165.0         0.43         27.4 
      1166.0         0.53         27.5 
      1167.0         0.50         27.0 
      1168.0         0.72         27.1 
      1169.0         0.67         24.8 
      1170.0         0.57         24.8 
      1171.0         0.53         24.2 
      1172.0         0.47         24.0 
      1173.0         0.43         24.2 
      1174.0         0.52         25.5 
