~Version Information
VERS.                      2.0: CWLS Log ASCII Standard - VERSION 2.0
WRAP.                       NO: One line per depth step
~Well Information Block
STRT.FT               784.0000: 
STOP.FT              1033.0000: 
STEP.FT                 0.1000: 
NULL.                -999.2500: 
COMP.          Pioneer Natural Resources: COMPANY
WELL.          Run-Away-Train 43-26: WELL
FLD.           Purgatoire River: FIELD
LOC.           1693' FSL & 1195' FEL: LOCATION
PROV.                 Colorado: PROVINCE
CNTY.               Las Animas: COUNTRY
SRVC.                Patterson: SERVICE COMPANY
DATE.          Wed Apr 06 07:23:28 2005: LOG DATE
UWI.           05 071 08188 00: UNIQUE WELL ID
~Curve Information Block
DEPT.FT            0 000 00 00: Depth
DCAL.in                       : CDL Caliper
RHOB.g/cc                     : CDL Bulk Density
RHOC.g/cc                     : CDL Density Correction
DPOR.pu                       : CDL Density Porosity
GR.GAPI                       : Gamma Ray
NPOR.pu                       : Neutron Porosity
~Parameter Information Block
~A  Depth       DCAL        RHOB        RHOC        DPOR         GR         NPOR    
# ...
   880.0000      7.9010      2.6076      0.0036      2.5673     73.1864     22.4834
   880.1000      7.9010      2.6477      0.0523      0.1393     66.1683     22.0753
   880.2000      7.9010      2.6651      0.0715     -0.9137     62.1675     21.6711
   880.3000      7.9039      2.6485      0.0869      0.0885     59.1807     21.1853
   880.4000      7.9039      2.6192      0.0066      1.8683     55.2218     20.7333
   880.5000      7.9180      2.6041      0.0378      2.7814     51.9496     20.4941
   880.6000      7.9180      2.6013      0.0689      2.9519     50.2662     20.2224
   880.7000      7.9180      2.5886      0.0514      3.7225     49.4861     19.7635
   880.8000      7.8763      2.5607      0.0058      5.4108     51.0752     19.5546
   880.9000      7.8763      2.5342     -0.0012      7.0175     55.9790     19.7978
   881.0000      7.8817      2.5230      0.0164      7.6985     61.0863     20.0973
   881.1000      7.8817      2.5286      0.0628      7.3554     64.1491     20.2336
   881.2000      7.8817      2.5377      0.0769      6.8086     66.4317     20.3827
   881.3000      7.8805      2.5365      0.0883      6.8813     69.4884     20.4961
   881.4000      7.8805      2.5332      0.0751      7.0785     72.8961     20.4739
   881.5000      7.8672      2.5390      0.1054      6.7248     74.3805     20.3784
   881.6000      7.8672      2.5438      0.1188      6.4345     71.6405     20.3381
   881.7000      7.8672      2.5371      0.1155      6.8399     66.5038     20.7874
   881.8000      7.8682      2.5277      0.0741      7.4106     64.6015     21.6253
   881.9000      7.8682      2.5227      0.1016      7.7173     68.0046     22.1371
   882.0000      7.8672      2.5229      0.0970      7.7044     73.0434     22.1194
   882.1000      7.8672      2.5340      0.1069      7.0310     77.0180     21.8116
   882.2000      7.8672      2.5580      0.1009      5.5771     80.8117     21.5533
   882.3000      7.8793      2.5859      0.1709      3.8864     83.4877     21.5274
   882.4000      7.8793      2.5991      0.1675      3.0821     84.7120     21.6515
   882.5000      7.8768      2.5910      0.1125      3.5758     85.4014     21.8117
   882.6000      7.8768      2.5768      0.1421      4.4345     84.7833     21.9432
   882.7000      7.8768      2.5670      0.1152      5.0290     86.0655     22.2344
   882.8000      7.8758      2.5514      0.1241      5.9764     92.0524     22.9504
   882.9000      7.8758      2.5155      0.0869      8.1535     98.8500     24.0098
   883.0000      7.9048      2.4648      0.0357     11.2266    102.4914     25.0215
   883.1000      7.9048      2.4309      0.0049     13.2816    103.4839     25.6270
   883.2000      7.9048      2.4367      0.0098     12.9282    102.7249     25.7598
   883.3000      7.9249      2.4728      0.0564     10.7394     99.2031     25.4797
   883.4000      7.9249      2.5139      0.0428      8.2497     95.5064     24.7827
   883.5000      7.9229      2.5363      0.0699      6.8889     94.7827     23.8482
   883.6000      7.9229      2.5252      0.0910      7.5647     95.4333     22.8384
   883.7000      7.9229      2.4848      0.0450     10.0135     97.2191     21.7933
   883.8000      7.9639      2.4299      0.0245     13.3371    101.3304     20.6302
   883.9000      7.9639      2.3533      0.0193     17.9819    106.3132     19.1348
   884.0000      7.9599      2.2361     -0.0377     25.0834    109.5141     17.5159
   884.1000      7.9599      2.0855     -0.0622     34.2102    109.5325     15.9901
   884.2000      7.9599      1.9318     -0.1795     43.5266    103.9842     14.5871
   884.3000      7.9578      1.7930     -0.1255     51.9403     93.0922     13.4910
   884.4000      7.9578      1.6648     -0.1322     59.7082     83.3736     12.8512
   884.5000      7.9516      1.5492     -0.0946     66.7127     78.6003     12.7023
   884.6000      7.9516      1.4565     -0.1129     72.3346     75.3269     12.8513
   884.7000      7.9516      1.3934     -0.0424     76.1577     68.7055     12.9443
   884.8000      7.9656      1.3575      0.0470     78.3360     59.2897     12.8439
   884.9000      7.9656      1.3314      0.0853     79.9170     53.0001     12.6068
   885.0000      8.0898      1.2991      0.0930     81.8736     52.9216     12.1741
   885.1000      8.0898      1.2579      0.0827     84.3697     54.3188     11.6230
   885.2000      8.0898      1.2100      0.0773     87.2732     52.6442     11.2726
   885.3000      8.1697      1.1585      0.0194     90.3941     49.2178     11.3311
   885.4000      8.1697      1.1140     -0.0165     93.0929     43.3928     11.5481
   885.5000      8.2255      1.0918     -0.0323     94.4376     34.8149     11.4115
   885.6000      8.2255      1.0994      0.0218     93.9782     27.5104     10.9051
   885.7000      8.2255      1.1333      0.0916     91.9216     24.1682     10.6221
   885.8000      8.2967      1.1959      0.1239     88.1291     24.5134     10.9251
   885.9000      8.2967      1.3019      0.1831     81.7029     26.2372     11.6843
   886.0000      8.2441      1.4572      0.2844     72.2918     27.0556     12.5618
   886.1000      8.2441      1.6419      0.3368     61.0971     27.4582     13.5278
   886.2000      8.2441      1.8206      0.4477     50.2694     29.1359     14.7524
   886.3000      8.5082      1.9680      0.4464     41.3337     32.4303     15.8890
   886.4000      8.5082      2.0829      0.4283     34.3714     37.3800     16.8782
   886.5000      8.7379      2.1633      0.4228     29.4995     42.8933     18.4997
   886.6000      8.7379      2.1995      0.3989     27.3009     46.6640     20.9214
   886.7000      8.7379      2.2174      0.1459     26.2186     50.3876     23.1946
   886.8000      8.8796      2.2610      0.1265     23.5748     55.5780     24.6534
   886.9000      8.8796      2.3297      0.0517     19.4127     60.4541     25.7816
   887.0000      8.9685      2.4040      0.0404     14.9111     66.1597     27.1708
   887.1000      8.9685      2.4743      0.1010     10.6504     74.8787     28.3042
   887.2000      8.9685      2.5260      0.1470      7.5164     85.5213     28.5706
   887.3000      8.2218      2.5528      0.1297      5.8930     94.1757     28.4063
   887.4000      8.2218      2.5662      0.1018      5.0788     99.0463     28.1381
   887.5000      8.0096      2.5724      0.1327      4.7030    104.6707     27.7210
   887.6000      8.0096      2.5604      0.1395      5.4332    113.0046     27.2743
   887.7000      8.0096      2.5323      0.0733      7.1345    117.0333     26.6972
   887.8000      7.9494      2.5190      0.0224      7.9408    111.6561     26.0091
   887.9000      7.9494      2.5277      0.0733      7.4149    101.6986     25.5733
   888.0000      7.8885      2.5312      0.0181      7.2024     95.9343     25.6951
   888.1000      7.8885      2.5191      0.0465      7.9307     96.0581     26.0384
   888.2000      7.8885      2.5011      0.0455      9.0223     96.4641     25.9253
   888.3000      7.8988      2.4898      0.0325      9.7064     95.5420     25.5480
   888.4000      7.8988      2.4977     -0.0275      9.2283     93.2417     25.3021
   888.5000      7.9238      2.5230      0.0599      7.6987     89.8522     24.9226
   888.6000      7.9238      2.5399      0.1242      6.6722     89.2217     24.2901
   888.7000      7.9238      2.5320      0.0688      7.1535     91.8596     23.7055
   888.8000      7.9259      2.5140      0.0703      8.2419     95.5201     23.5028
   888.9000      7.9259      2.5038      0.0344      8.8613     99.0133     23.6052
   889.0000      7.8953      2.4932      0.0745      9.5049    102.3683     23.6726
   889.1000      7.8953      2.4715      0.0122     10.8198    106.0269     23.6895
   889.2000      7.8953      2.4576     -0.0187     11.6602    110.9500     23.5070
   889.3000      7.9196      2.4625      0.0288     11.3637    118.6200     22.7181
   889.4000      7.9196      2.4484      0.0861     12.2210    126.2557     21.3290
   889.5000      7.9387      2.3747      0.0032     16.6840    127.1328     19.7163
