~Version Information
VERS.                      2.0: CWLS Log ASCII Standard - VERSION 2.0
WRAP.                       NO: One line per depth step
~Well Information Block
STRT.FT               -12.5000: 
STOP.FT              2284.7500: 
STEP.FT                 0.2500: 
NULL.                -999.2500: 
COMP.          Pioneer Natural Resources: COMPANY
WELL.          Hill Climb 22-2: WELL
FLD.           Purgatorie River: FIELD
LOC.           1820' FNL & 2193' FWL--: LOCATION
PROV.                       CO: PROVINCE
CNTY.               Las Animas: COUNTRY
SRVC.                         : SERVICE COMPANY
DATE.          Fri Oct 22 11:44:16 2004: LOG DATE
UWI.                          : UNIQUE WELL ID
~Curve Information Block
DEPT.FT            0 000 00 00: Depth
GR.GAPI                       : Gamma Ray
CCL.                          : Casing Collar Locator
TT3.usec                      : CBL 3' Travel Time
AMP3.mV                       : CBL 3' Amplitude
~Parameter Information Block
~A  Depth        GR         CCL         TT3         AMP3    
# ...
  1964.0000     97.6079      0.0000    259.2008     70.3699
  1964.2500    101.0303      0.0000    259.2139     70.2685
  1964.5000    104.2618      0.0000    259.2484     70.1013
  1964.7500    107.0196      0.0000    259.2957     69.8696
  1965.0000    110.3712      0.0000    259.3451     69.5066
  1965.2500    114.8159      0.0000    259.4011     68.7944
  1965.5000    119.4583      0.0000    259.5028     67.3654
  1965.7500    122.9541      0.0000    259.7319     64.9257
  1966.0000    124.6987      0.0000    260.1988     61.6066
  1966.2500    124.9599      0.0000    260.9963     58.0454
  1966.5000    124.1468      0.0000    262.1265     54.9968
  1966.7500    122.0293      0.0000    263.4487     52.8916
  1967.0000    117.6447      0.0000    264.7186     51.7725
  1967.2500    110.1279      0.0000    265.7184     51.4461
  1967.5000    100.0165      0.0000    266.3696     51.5820
  1967.7500     89.8212      0.0000    266.7381     51.8088
  1968.0000     82.9259     -2.0000    266.9599     51.8527
  1968.2500     81.4053     -2.0000    267.1685     51.5922
  1968.5000     84.7301      0.0000    267.4344     51.0655
  1968.7500     90.4860      0.0000    267.6842     50.5604
  1969.0000     96.1834      0.0000    267.6537     50.6484
  1969.2500    100.4543      0.0000    267.0244     51.8777
  1969.5000    103.2195      0.0000    265.7212     54.3169
  1969.7500    105.3865      0.0000    264.0511     57.5169
  1970.0000    108.2028      0.0000    262.4808     60.8995
  1970.2500    112.4149      0.0000    261.3097     64.0043
  1970.5000    117.8879      0.0000    260.5760     66.4778
  1970.7500    123.7767      0.0000    260.1757     68.1274
  1971.0000    128.8924      0.0000    259.9838     69.0229
  1971.2500    132.4871      0.0000    259.9037     69.4146
  1971.5000    135.1538      0.0000    259.8735     69.5387
  1971.7500    138.2811      0.0000    259.8602     69.5241
  1972.0000    142.0771      0.0000    259.8480     69.4349
  1972.2500    144.8776      0.0000    259.8315     69.3310
  1972.5000    144.9809      0.0000    259.8126     69.2759
  1972.7500    142.3921      0.0000    259.7970     69.3001
  1973.0000    138.2702      0.0000    259.7902     69.3808
  1973.2500    133.6248      0.0000    259.7938     69.4666
  1973.5000    129.3881      0.0000    259.8041     69.5169
  1973.7500    126.8475      0.0000    259.8128     69.5193
  1974.0000    126.7955      0.0000    259.8094     69.4868
  1974.2500    128.4544      0.0000    259.7874     69.4517
  1974.5000    130.0618      0.0000    259.7510     69.4482
  1974.7500    130.5456      0.0000    259.7138     69.4862
  1975.0000    130.1048      0.0000    259.6889     69.5446
  1975.2500    129.1007      0.0000    259.6807     69.5926
  1975.5000    127.2005      0.0000    259.6843     69.6084
  1975.7500    124.2737      0.0000    259.6907     69.5822
  1976.0000    121.3720      0.0000    259.6911     69.5143
  1976.2500    119.6133      0.0000    259.6824     69.4183
  1976.5000    118.4573      0.0000    259.6688     69.3186
  1976.7500    116.4348      0.0000    259.6586     69.2393
  1977.0000    113.5689      0.0000    259.6561     69.1919
  1977.2500    111.8339      0.0000    259.6577     69.1724
  1977.5000    112.8998      0.0000    259.6567     69.1650
  1977.7500    116.2734      0.0000    259.6508     69.1471
  1978.0000    120.0764      0.0000    259.6440     69.0963
  1978.2500    123.0802      0.0000    259.6419     68.9988
  1978.5000    125.4505      0.0000    259.6469     68.8547
  1978.7500    127.5358      0.0000    259.6567     68.6765
  1979.0000    128.5727      0.0000    259.6673     68.4873
  1979.2500    127.2393      0.0000    259.6755     68.3182
  1979.5000    123.3987      0.0000    259.6807     68.1994
  1979.7500    118.8909      0.0000    259.6863     68.1492
  1980.0000    116.3490      0.0000    259.6949     68.1676
  1980.2500    116.9868      0.0000    259.7040     68.2371
  1980.5000    119.4966      0.0000    259.7067     68.3228
  1980.7500    121.3581      0.0000    259.6982     68.3809
  1981.0000    121.0853      0.0000    259.6797     68.3780
  1981.2500    118.8732      0.0000    259.6578     68.3105
  1981.5000    115.4266      0.0000    259.6409     68.2045
  1981.7500    111.0093      0.0000    259.6347     68.0969
  1982.0000    105.8928      0.0000    259.6390     68.0173
  1982.2500    101.1902      0.0000    259.6488     67.9837
  1982.5000     98.5286      0.0000    259.6580     68.0087
  1982.7500     98.4097      0.0000    259.6620     68.1054
  1983.0000     99.1131      0.0000    259.6578     68.2838
  1983.2500     97.8621      0.0000    259.6448     68.5285
  1983.5000     93.2982      0.0000    259.6257     68.7801
  1983.7500     86.7314      0.0000    259.6072     68.9500
  1984.0000     81.1701      0.0000    259.5978     68.9731
  1984.2500     79.1898      0.0000    259.6014     68.8592
  1984.5000     81.2032      0.0000    259.6140     68.6962
  1984.7500     85.3140      0.0000    259.6261     68.5951
  1985.0000     88.7039      0.0000    259.6321     68.6183
  1985.2500     89.2154      0.0000    259.6344     68.7494
  1985.5000     86.0345      0.0000    259.6390     68.9263
  1985.7500     79.7555      0.0000    259.6478     69.0955
  1986.0000     72.2306      0.0000    259.6583     69.2353
  1986.2500     65.8562      0.0000    259.6667     69.3393
  1986.5000     62.3068      0.0000    259.6685     69.3940
  1986.7500     61.7437      0.0000    259.6595     69.3814
  1987.0000     63.2697      0.0000    259.6459     69.3014
  1987.2500     65.8257      0.0000    259.6566     69.1850
  1987.5000     68.3653      0.0000    259.7936     69.0463
  1987.7500     69.7011      0.0000    260.3335     68.7882
  1988.0000     69.1700      0.0000    261.8329     68.1313
  1988.2500     67.7000      0.0000    264.9470     66.7321
  1988.5000     67.6609      0.0000    269.6893     64.5345
  1988.7500     71.2786      0.0000    274.6649     62.0170
  1989.0000     79.1766      0.0000    277.5693     59.8938
  1989.2500     90.1297      0.0000    277.0747     58.5108
  1989.5000    101.6433      0.0000    274.0429     57.7128
  1989.7500    110.8542      0.0000    270.5491     57.2512
  1990.0000    115.7708      0.0000    268.0637     57.0388
  1990.2500    116.4741      0.0000    266.8558     57.0015
  1990.5000    115.0941      0.0000    266.6454     56.9021
  1990.7500    113.9812      0.0000    267.3127     56.3598
  1991.0000    113.4436      0.0000    268.9567     55.1065
  1991.2500    111.3380      0.0000    271.3506     53.4616
  1991.5000    105.1912      0.0000    273.4183     52.5883
  1991.7500     94.7429      0.0000    273.6303     53.8514
  1992.0000     82.4094      0.0000    271.3207     57.5319
  1992.2500     71.6351      0.0000    267.4282     62.3732
  1992.5000     64.9122      0.0000    263.6549     66.6288
  1992.7500     62.8417      0.0000    261.0867     69.3855
  1993.0000     64.5761      0.0000    259.7709     70.7971
  1993.2500     69.1257      0.0000    259.2369     71.4365
  1993.5000     76.1855      0.0000    259.0539     71.7333
  1993.7500     85.5527      0.0000    258.9995     71.8688
  1994.0000     96.0436      0.0000    258.9929     71.8931
  1994.2500    105.5443      0.0000    259.0096     71.8247
  1994.5000    112.3691      0.0000    259.0358     71.6945
  1994.7500    116.7470      0.0000    259.0630     71.5508
  1995.0000    120.8725      0.0000    259.0863     71.4412
  1995.2500    126.8383      0.0000    259.1060     71.3870
  1995.5000    134.1782      0.0000    259.1261     71.3795
  1995.7500    139.9354      0.0000    259.1490     71.4013
  1996.0000    141.4486      0.0000    259.1699     71.4479
  1996.2500    138.5672      0.0000    259.1785     71.5288
  1996.5000    133.1686      0.0000    259.1685     71.6518
  1996.7500    127.3303      0.0000    259.1439     71.8003
  1997.0000    122.1942      0.0000    259.1159     71.9285
  1997.2500    117.9065      0.0000    259.0933     71.9854
