~Version Information
VERS.                      2.0: CWLS Log ASCII Standard - VERSION 2.0
WRAP.                       NO: One line per depth step
~Well Information Block
STRT.FT               548.0000: 
STOP.FT              1916.0000: 
STEP.FT                 0.2500: 
NULL.                -999.2500: 
COMP.          Pioneer Natural Resources: COMPANY
WELL.          Blackjack 32-11 Tr: WELL
FLD.           Purgatorie River: FIELD
LOC.           2066' FNL & 1453' FEL: LOCATION
PROV.                 Colorado: PROVINCE
CNTY.               Las Animas: COUNTRY
SRVC.                Patterson: SERVICE COMPANY
DATE.          Tue Aug 16 12:08:23 2005: LOG DATE
UWI.                          : UNIQUE WELL ID
~Curve Information Block
DEPT.FT            0 000 00 00: Depth
SN.Ohm-m                      : IEL Short Normal
SP.mV                         : IEL Spontaneous Potential
DIR.Ohm-m                     : IEL Induction Resistivity
GR.GAPI                       : Gamma Ray
~Parameter Information Block
~A  Depth        SN          SP         DIR          GR     
# ...
  1787.5000     15.6721     45.8806     11.6389    160.8270
  1787.7500     15.7912     44.9906     12.1567    158.6684
  1788.0000     15.7294     44.9664     12.2069    162.3411
  1788.2500     15.5695     44.6937     12.1097    167.7150
  1788.5000     15.6435     44.3879     12.7463    167.6296
  1788.7500     16.0651     44.0458     13.2313    158.7850
  1789.0000     16.2660     43.8249     13.6346    151.2481
  1789.2500     17.2317     43.1760     14.3910    147.8145
  1789.5000     17.8245     43.0078     14.5610    147.5789
  1789.7500     19.3792     43.0305     14.0546    130.1445
  1790.0000     20.8166     43.0846     15.1124    111.8252
  1790.2500     24.9003     42.6387     14.7199    118.0387
  1790.5000     27.0321     42.5669     16.9847     99.1625
  1790.7500     30.1386     42.0163     18.5036     95.8416
  1791.0000     30.8711     41.9295     20.5425     99.4802
  1791.2500     31.8703     41.9415     21.0926    113.9371
  1791.5000     31.5868     41.6635     21.9967    133.4601
  1791.7500     32.3719     41.8110     25.9979    145.0605
  1792.0000     33.0196     41.6117     28.1628    134.7184
  1792.2500     33.3672     41.9615     27.5126    124.8468
  1792.5000     33.9831     41.1779     29.5617    116.2490
  1792.7500     35.2581     40.6082     28.9337    113.6865
  1793.0000     37.2261     39.4021     27.0927     96.3391
  1793.2500     38.7599     37.5431     29.7109     93.5449
  1793.5000     40.9032     33.8803     27.3060    102.0258
  1793.7500     41.9253     33.3769     26.1051    104.4736
  1794.0000     43.7578     38.9666     27.6928     97.6636
  1794.2500     44.6843     38.7428     36.6688     97.9134
  1794.5000     46.3158     38.4300     40.9637     94.9137
  1794.7500     47.1605     38.5431     40.6070     98.7760
  1795.0000     49.3422     39.9531     41.5514     99.0181
  1795.2500     50.0029     42.9937     47.8274     93.2614
  1795.5000     51.4451     39.1247     47.8103     88.2861
  1795.7500     52.4311     36.4760     33.6383     85.7423
  1796.0000     53.3386     34.6763     48.0620     87.5574
  1796.2500     54.1783     33.7344     46.4237     83.2725
  1796.5000     55.2950     33.0269     47.2887     81.5002
  1796.7500     55.9830     32.2351     40.2322     80.4211
  1797.0000     56.4911     31.1774     48.4845     88.2071
  1797.2500     57.3125     31.5969     51.4739     93.8043
  1797.5000     57.5767     31.6681     41.9191     94.8335
  1797.7500     58.3089     31.9328     30.4863     98.4009
  1798.0000     58.1957     32.4700     34.0629    105.9312
  1798.2500     57.9094     30.8910     45.7921    109.9982
  1798.5000     57.8555     28.8269     46.6953    110.1670
  1798.7500     56.8381     26.8902     43.7296    100.4214
  1799.0000     55.1810     25.2569     39.4453     91.1109
  1799.2500     53.4033     24.4812     33.0228     88.3080
  1799.5000     51.0760     23.5100     32.7357     74.7689
  1799.7500     47.5424     23.6823     28.5778     78.0261
  1800.0000     44.7121     23.2202     23.6273     90.3792
  1800.2500     40.7438     23.8807     25.4867     99.5470
  1800.5000     36.9535     24.4614     20.7987    110.7623
  1800.7500     32.1214     24.3483     19.8636    139.1716
  1801.0000     30.1023     24.1958     18.3961    155.3739
  1801.2500     27.1454     21.6999     21.4388    157.1530
  1801.5000     25.1104     20.8760     21.4536    180.1975
  1801.7500     23.9195     19.7046     22.4307    184.7360
  1802.0000     23.4609     19.0543     22.7999    173.3071
  1802.2500     22.9897     18.8598     22.5355    166.7652
  1802.5000     23.8713     18.3039     21.1902    163.2055
  1802.7500     25.0808     17.9421     21.4178    153.1897
  1803.0000     27.4746     17.9806     18.7153    130.7309
  1803.2500     29.4441     19.0228     22.5998    122.2862
  1803.5000     33.7653     20.7911     23.2176     89.7559
  1803.7500     37.7676     22.8102     23.4583     73.4768
  1804.0000     46.4413     24.1134     24.5996     72.1567
  1804.2500     49.0720     26.0129     26.7074     67.6445
  1804.5000     48.4693     28.3395     26.4598     65.9743
  1804.7500     47.8288     30.8742     24.9690     69.7411
  1805.0000     46.9191     35.2222     31.3375     83.5699
  1805.2500     45.9463     37.3449     34.0863    103.8461
  1805.5000     43.9007     39.3850     34.8875     99.5611
  1805.7500     43.1686     40.5302     31.5447     98.6897
  1806.0000     42.5293     41.7623     36.1361    103.4998
  1806.2500     42.4221     44.4901     34.7993    102.9709
  1806.5000     41.9698     47.4743     35.8094     98.7366
  1806.7500     42.1593     48.6120     33.0293     99.0429
  1807.0000     42.2762     49.7157     27.6647    103.9980
  1807.2500     42.8253     48.5680     34.9452    111.2347
  1807.5000     42.5166     48.6819     35.1872    116.4367
  1807.7500     42.9592     49.1347     34.8744    112.7984
  1808.0000     43.5355     49.9313     33.9984    110.6938
  1808.2500     44.6319     51.0532     35.2737    109.9155
  1808.5000     44.6889     51.6056     34.5982    107.4684
  1808.7500     43.8894     53.1064     23.1956    103.4773
  1809.0000     43.4387     53.6653     31.8667    107.7011
  1809.2500     42.5743     54.8055     29.1287    104.2129
  1809.5000     41.1342     55.4970     31.8505    100.1361
  1809.7500     39.4990     56.7558     27.6672    108.3668
  1810.0000     37.2971     57.4691     22.6141    103.2437
  1810.2500     34.6455     58.3366     25.1136     99.9188
  1810.5000     32.6336     59.1287     24.0555    105.0857
  1810.7500     30.2298     59.7917     22.7892     96.4042
  1811.0000     29.2869     60.3248     22.0460    111.2262
  1811.2500     26.7393     60.6205     20.9994    112.6599
  1811.5000     24.9328     61.3714     21.1751    115.8998
  1811.7500     23.4154     62.4778     21.0018    117.7644
  1812.0000     22.7662     63.3926     21.2760    130.1224
  1812.2500     22.4136     63.7819     20.5827    133.2948
  1812.5000     22.5604     64.2563     19.9439    133.7534
  1812.7500     22.8742     64.5786     19.3644    133.2886
  1813.0000     23.4956     64.9837     19.8178    125.9067
  1813.2500     24.9606     65.3356     19.1201    109.2662
  1813.5000     26.1974     65.5352     18.2519     82.6943
  1813.7500     28.4628     65.7650     17.3565     67.0689
  1814.0000     31.1392     65.9287     17.2346     54.2735
  1814.2500     33.7347     65.9574     17.1453     53.8429
  1814.5000     33.6079     66.3877     16.7103     55.1885
  1814.7500     31.8361     66.5428     17.1344     61.6277
  1815.0000     30.0559     66.5229     17.4470     80.3972
  1815.2500     29.0955     66.6607     18.3779     91.7593
  1815.5000     26.3617     66.4720     16.9803    114.8202
  1815.7500     24.5872     66.3705     16.4688    120.9873
  1816.0000     22.2878     66.3596     17.4406    115.5921
  1816.2500     20.8343     66.1336     16.7174    115.3293
  1816.5000     19.2011     65.4759     16.1315    117.0507
  1816.7500     18.6300     65.3767     14.7691    115.7585
  1817.0000     18.1061     65.9927     14.4048    120.4237
  1817.2500     17.7864     65.7710     13.5519    123.3320
  1817.5000     18.4353     65.6367     12.4235    123.1611
  1817.7500     18.6327     65.2230     11.8688    108.6198
  1818.0000     18.9702     65.1573     10.6443     94.2500
  1818.2500     18.9360     65.3508     10.6194     87.6472
  1818.5000     18.5818     65.2927     10.4561     64.1944
  1818.7500     17.9802     64.8285      9.3999     62.1685
  1819.0000     16.6039     64.7518      9.2668     81.2906
  1819.2500     15.7188     62.8376      9.3729     84.3053
  1819.5000     14.6778     60.4233      9.3083    118.0232
  1819.7500     13.2657     60.8455      9.2643    131.9869
  1820.0000     12.6138     61.3540      9.7822    142.7293
  1820.2500     11.4829     65.2414      9.1558    153.5173
  1820.5000     11.3646     65.4913      9.0514    151.4560
  1820.7500     11.7268     65.1710      9.4359    156.1244
