~Version Information
VERS.                      2.0: CWLS Log ASCII Standard - VERSION 2.0
WRAP.                       NO: One line per depth step
~Well Information Block
STRT.FT               964.2000: 
STOP.FT              2596.7000: 
STEP.FT                 0.1000: 
NULL.                -999.2500: 
COMP.          Petrogulf Corporation: COMPANY
WELL.             Valejo 8-12V: WELL
FLD.           Purgatorie River: FIELD
LOC.           1510' FNL & 1460' FWL: LOCATION
CNTY.               Las Animas: COUNTY
SRVC.                         : SERVICE COMPANY
DATE.          Sat Nov 15 12:30:37 2003: LOG DATE
UWI.                          : UNIQUE WELL ID
STAT.                 Colorado: STATE
~Curve Information Block
DEPT.FT            0 000 00 00: Depth
DCAL.in                       : CDL Caliper
RHOB.g/cc                     : CDL Bulk Density
RHOC.g/cc                     : CDL Density Correction
DPOR.pu                       : CDL Density Porosity
GR.GAPI                       : Gamma Ray
NPOR.pu                       : Neutron Porosity
~Parameter Information Block
~A  Depth       DCAL        RHOB        RHOC        DPOR         GR         NPOR    
# ...
  2375.4000      8.1314      2.2204     -0.0101     26.0352    130.1908     30.5672
  2375.5000      8.1304      2.1958     -0.0418     27.5261    134.6851     31.4750
  2375.6000      8.1304      2.1666     -0.0421     29.2941    135.6516     31.8211
  2375.7000      8.1304      2.1376     -0.0169     31.0559    133.4152     31.5295
  2375.8000      8.1293      2.1130     -0.0054     32.5451    132.3557     31.0135
  2375.9000      8.1293      2.1037     -0.0096     33.1082    135.6012     30.4430
  2376.0000      8.1290      2.1231      0.0069     31.9312    137.0045     29.7838
  2376.1000      8.1290      2.1725      0.0492     28.9418    133.4425     29.2001
  2376.2000      8.1290      2.2351      0.1160     25.1470    131.2388     28.9127
  2376.3000      8.1298      2.2893      0.1162     21.8631    134.4945     28.8551
  2376.4000      8.1298      2.3246      0.1494     19.7235    140.6757     28.9428
  2376.5000      8.1309      2.3423      0.1447     18.6466    141.4657     28.7798
  2376.6000      8.1309      2.3557      0.0917     17.8357    132.5311     28.1400
  2376.7000      8.1309      2.3762      0.1074     16.5924    119.5007     27.6875
  2376.8000      8.1312      2.3973      0.0897     15.3165    109.3595     27.7797
  2376.9000      8.1312      2.4076      0.0744     14.6915    108.0763     28.1441
  2377.0000      8.1294      2.4074      0.0464     14.7035    112.4205     28.8659
  2377.1000      8.1294      2.4099      0.0415     14.5535    112.0356     29.7839
  2377.2000      8.1294      2.4263      0.0384     13.5547    106.8226     29.9965
  2377.3000      8.1261      2.4471      0.0797     12.2972    104.7124     29.0818
  2377.4000      8.1261      2.4517      0.0704     12.0181    108.0183     27.6138
  2377.5000      8.1245      2.4375      0.0374     12.8776    114.5562     26.8019
  2377.6000      8.1245      2.4179      0.0708     14.0653    121.0632     26.9537
  2377.7000      8.1245      2.4033      0.0525     14.9510    124.4977     26.6953
  2377.8000      8.1284      2.4029      0.0200     14.9742    126.9788     25.6182
  2377.9000      8.1284      2.4234      0.0558     13.7332    126.5353     25.0634
  2378.0000      8.1388      2.4552      0.0886     11.8066    117.0532     25.9132
  2378.1000      8.1388      2.4802      0.0872     10.2933    105.0796     27.5804
  2378.2000      8.1388      2.4918      0.0819      9.5893     97.4156     28.6131
  2378.3000      8.1513      2.4960      0.0728      9.3309     93.6000     28.1561
  2378.4000      8.1513      2.4991      0.0537      9.1477     93.8736     26.7072
  2378.5000      8.1592      2.5015      0.0340      9.0007     96.0453     25.0004
  2378.6000      8.1592      2.5043      0.0221      8.8307     95.3615     23.4592
  2378.7000      8.1592      2.5119      0.0297      8.3673     92.2774     22.3945
  2378.8000      8.1592      2.5248      0.0312      7.5866     94.4969     22.1354
  2378.9000      8.1592      2.5344      0.0555      7.0034    100.5554     22.4343
  2379.0000      8.1534      2.5338      0.0406      7.0408    100.1123     22.2995
  2379.1000      8.1534      2.5297      0.0265      7.2937     92.4224     21.4838
  2379.2000      8.1534      2.5322      0.0389      7.1383     84.0468     20.6816
  2379.3000      8.1468      2.5453      0.0083      6.3449     79.2238     20.3386
  2379.4000      8.1468      2.5664      0.0700      5.0696     77.6093     20.2529
  2379.5000      8.1418      2.5863      0.0514      3.8602     77.9176     19.8912
  2379.6000      8.1418      2.5985      0.0752      3.1197     78.2720     19.2077
  2379.7000      8.1418      2.6018      0.0774      2.9195     74.7784     18.5358
  2379.8000      8.1386      2.5979      0.0849      3.1584     68.8394     18.1149
  2379.9000      8.1386      2.5904      0.0387      3.6106     65.0466     18.2636
  2380.0000      8.1365      2.5902      0.0112      3.6234     64.4930     19.0576
  2380.1000      8.1365      2.6055      0.0489      2.6944     66.7436     20.2451
  2380.2000      8.1365      2.6255      0.0796      1.4829     71.2208     21.3694
  2380.3000      8.1360      2.6318      0.0983      1.1019     78.8958     22.1476
  2380.4000      8.1360      2.6231      0.0566      1.6274     88.4766     22.6878
  2380.5000      8.1373      2.6110      0.0778      2.3662     92.8932     23.1504
  2380.6000      8.1373      2.5967      0.0637      3.2305     88.2321     23.7406
  2380.7000      8.1373      2.5764      0.0579      4.4626     82.1186     24.6232
  2380.8000      8.1396      2.5525      0.0630      5.9072     83.3719     25.5559
  2380.9000      8.1396      2.5307      0.0403      7.2329     91.8033     26.0943
  2381.0000      8.1416      2.5151      0.0234      8.1780     99.8570     26.2476
  2381.1000      8.1416      2.5132      0.0195      8.2898    100.9961     26.6596
  2381.2000      8.1416      2.5246      0.0224      7.6025     97.8226     27.3031
  2381.3000      8.1423      2.5322      0.0701      7.1385     97.7032     27.3479
  2381.4000      8.1423      2.5260      0.0581      7.5146     98.5839     26.7637
  2381.5000      8.1419      2.5139      0.0418      8.2455     97.1837     26.0942
  2381.6000      8.1419      2.5019      0.0606      8.9749    100.3303     25.7951
  2381.7000      8.1419      2.4875      0.0412      9.8486    112.5961     26.1395
  2381.8000      8.1408      2.4713      0.0516     10.8319    127.6242     26.8875
  2381.9000      8.1408      2.4563      0.0289     11.7414    138.5464     27.1030
  2382.0000      8.1396      2.4420      0.0239     12.6065    142.6019     26.9218
  2382.1000      8.1396      2.4213      0.0343     13.8626    139.4257     27.3509
  2382.2000      8.1396      2.3820      0.0175     16.2426    132.4927     28.1121
  2382.3000      8.1382      2.3135      0.0400     20.3962    121.3480     28.5708
  2382.4000      8.1382      2.2254     -0.0456     25.7347    104.0570     29.0017
  2382.5000      8.1363      2.1590     -0.0805     29.7603     87.1767     29.7628
  2382.6000      8.1363      2.1438     -0.0417     30.6796     79.9717     30.9735
  2382.7000      8.1363      2.1670     -0.0314     29.2717     82.8727     32.1040
  2382.8000      8.1333      2.2033     -0.0060     27.0699     86.9859     32.1589
  2382.9000      8.1333      2.2405      0.0495     24.8210     85.0459     31.3498
  2383.0000      8.1285      2.2750      0.1091     22.7278     77.5637     30.8181
  2383.1000      8.1285      2.3050      0.1583     20.9082     72.4804     30.8558
  2383.2000      8.1285      2.3334      0.1637     19.1862     76.2629     30.6571
  2383.3000      8.1218      2.3689      0.1534     17.0338     86.9876     29.8793
  2383.4000      8.1218      2.4109      0.1222     14.4909    101.2518     29.2281
  2383.5000      8.1153      2.4486      0.0605     12.2053    116.4785     28.9740
  2383.6000      8.1153      2.4775      0.0510     10.4523    124.8086     28.7525
  2383.7000      8.1153      2.4879      0.0817      9.8267    123.7759     28.4487
  2383.8000      8.1121      2.4697      0.0255     10.9262    120.8921     28.5322
  2383.9000      8.1121      2.4404      0.0170     12.7034    118.5219     28.9772
  2384.0000      8.1140      2.4251     -0.0063     13.6277    113.1782     29.0647
  2384.1000      8.1140      2.4290      0.0216     13.3937    105.7717     28.5823
  2384.2000      8.1140      2.4404      0.0083     12.7059     99.6826     27.8993
  2384.3000      8.1192      2.4526      0.0262     11.9612     95.6053     27.8271
  2384.4000      8.1192      2.4682      0.0217     11.0164     93.2935     28.7377
  2384.5000      8.1247      2.4858      0.0525      9.9545     94.1404     29.9387
  2384.6000      8.1247      2.4974      0.0994      9.2504    100.3568     30.7035
  2384.7000      8.1247      2.4989      0.0707      9.1548    111.9141     30.8232
  2384.8000      8.1292      2.4918      0.0919      9.5895    124.1715     30.2452
  2384.9000      8.1292      2.4771      0.0705     10.4762    132.6482     29.3718
