~Version Information
 VERS.                                  2.0 : CWLS LAS VERSION
 WRAP.                                   NO : WRAPING MODE
 SWARE .                 MController 2.5.0J : SOFTWARE VERSION
~Well Information
 WELL.                         Leier 17-24V : WELL
 COMP.                Petrogulf Corporation : COMPANY
 FLD.                      Purgatoire River : FIELD
 LOC.                SE/NE Sec 17 T33S R67W : LOCATION
 DATE.                             09/21/05 : DATE(S) LOGGED
 SRVC.       BLANCO Geological Services LLC : SERVICE COMPANY
 STAT.                                   CO : STATE
 CNTY.                           Las Animas : COUNTY
 CTRY.                                  USA : COUNTRY
 API.                       05-071-08409-00 : API NUMBER
 STRT.FT                             1.00 : START DEPTH
 STOP.FT                            2455.00 : STOP DEPTH
 STEP.FT                               1.00 : DEPTH INCREMENT
 NULL.                                -9999 : NULL VALUE
~Curve information
 DEPTH.FT                                   :
 ROP.MIN/FT                                 :
 GAS.UNITS                                  :
~ASCII Log data
# ...
       201.0         0.27         19.9 
       202.0         0.37         20.0 
       203.0         0.23         20.2 
       204.0         0.23         20.4 
       205.0         0.23         20.1 
       206.0         1.62         20.9 
       207.0         0.30         20.9 
       208.0         0.27         20.8 
       209.0         0.27         20.6 
       210.0         0.27         20.4 
       211.0         0.27         20.6 
       212.0         0.27         20.4 
       213.0         0.27         20.5 
       214.0         0.30         20.4 
       215.0         0.27         20.1 
       216.0         0.23         20.2 
       217.0         0.28         20.1 
       218.0         0.27         20.4 
       219.0         0.30         20.4 
       220.0         0.33         20.3 
       221.0         0.33         20.5 
       222.0         0.27         20.3 
       223.0         0.27         20.3 
       224.0         0.27         20.4 
       225.0         0.27         20.4 
       226.0         0.23         20.5 
       227.0         0.27         20.4 
       228.0         0.30         20.4 
       229.0         0.28         20.2 
       230.0         0.27         20.6 
       231.0         0.23         20.5 
       232.0         0.23         20.6 
       233.0         0.20         20.3 
       234.0         0.20         20.5 
       235.0         0.20         20.6 
       236.0         1.95         21.1 
       237.0         0.30         21.2 
       238.0         0.30         21.2 
       239.0         0.27         21.2 
       240.0         0.27         21.2 
       241.0         0.30         21.0 
       242.0         0.30         21.1 
       243.0         0.27         20.8 
       244.0         0.27         21.1 
       245.0         0.32         21.3 
       246.0         0.27         21.2 
       247.0         0.23         21.0 
       248.0         0.20         21.4 
       249.0         0.20         21.1 
       250.0         0.17         21.0 
       251.0         0.33         21.2 
       252.0         0.57         21.1 
       253.0         0.33         21.1 
       254.0         0.27         21.0 
       255.0         0.32         21.3 
       256.0         0.27         21.1 
       257.0         0.23         20.6 
       258.0         0.17         21.2 
       259.0         0.13         21.2 
       260.0         0.23         21.0 
       261.0         0.23         21.0 
       262.0         0.27         21.0 
       263.0         0.27         21.1 
       264.0         0.27         20.9 
       265.0         0.27         21.2 
       266.0         2.58         21.7 
       267.0         0.27         21.7 
       268.0         0.23         21.7 
       269.0         0.42         21.7 
       270.0         0.50         21.6 
       271.0         0.33         21.5 
       272.0         0.40         21.7 
       273.0         0.33         21.6 
       274.0         0.40         21.7 
       275.0         0.37         21.7 
       276.0         0.33         21.4 
       277.0         0.35         21.5 
       278.0         0.30         21.4 
       279.0         0.33         21.7 
       280.0         0.40         21.4 
       281.0         0.27         21.5 
       282.0         0.23         21.1 
       283.0         0.23         21.3 
       284.0         0.23         21.4 
       285.0         0.27         21.2 
       286.0         0.27         21.3 
       287.0         0.25         21.4 
       288.0         0.27         21.3 
       289.0         0.23         21.2 
       290.0         0.33         21.4 
       291.0         0.30         21.3 
       292.0         0.27         21.5 
       293.0         0.27         21.2 
       294.0         0.27         21.1 
       295.0         0.30         21.0 
       296.0         1.55         21.2 
       297.0         0.33         21.0 
       298.0         0.30         20.9 
       299.0         0.27         21.0 
       300.0         0.30         21.1 
       301.0         0.30         20.9 
       302.0         0.23         20.9 
       303.0         0.27         21.0 
       304.0         0.28         20.7 
       305.0         0.27         20.9 
       306.0         0.27         20.8 
       307.0         0.40         20.7 
       308.0         0.43         20.7 
       309.0         0.43         20.9 
       310.0         0.47         20.8 
       311.0         0.47         21.0 
       312.0         0.37         21.7 
       313.0         0.32         21.9 
       314.0         0.23         21.9 
       315.0         0.23         21.9 
       316.0         0.20         21.8 
       317.0         0.20         21.7 
       318.0         0.20         21.8 
       319.0         0.20         21.5 
       320.0         0.23         21.3 
       321.0         0.20         21.4 
       322.0         0.17         21.6 
       323.0         0.17         21.4 
       324.0         0.13         21.5 
       325.0         0.20         21.5 
       326.0         1.92         22.4 
       327.0         0.27         23.0 
       328.0         0.33         23.1 
       329.0         0.47         23.0 
       330.0         0.27         22.3 
       331.0         0.30         22.0 
       332.0         0.58         21.5 
       333.0         0.47         21.3 
       334.0         0.23         21.2 
       335.0         0.17         21.1 
       336.0         0.20         21.5 
       337.0         0.20         22.0 
       338.0         0.30         21.6 
       339.0         0.23         22.7 
       340.0         0.17         23.1 
       341.0         0.17         24.0 
       342.0         0.23         26.0 
       343.0         0.30         28.0 
       344.0         0.27         30.4 
       345.0         0.27         31.8 
       346.0         0.25         32.8 
       347.0         0.23         33.4 
       348.0         0.23         33.8 
       349.0         0.23         34.0 
       350.0         0.27         33.9 
       351.0         0.27         33.6 
       352.0         0.23         33.5 
       353.0         0.20         33.4 
       354.0         0.30         32.9 
       355.0         0.30         32.0 
       356.0         1.82         31.7 
       357.0         0.30         36.2 
       358.0         0.23         36.7 
       359.0         0.23         36.8 
       360.0         0.23         36.5 
       361.0         0.17         35.5 
       362.0         0.27         43.4 
       363.0         0.30         44.6 
       364.0         0.10         28.1 
       365.0         0.20         23.6 
       366.0         0.28         20.1 
       367.0         0.23         40.1 
       368.0         0.13         77.7 
       369.0         0.13        103.0 
       370.0         0.10        113.8 
       371.0         0.13        121.6 
       372.0         0.23        127.6 
       373.0         0.30        129.2 
       374.0         0.37        129.6 
       375.0         0.30        129.4 
       376.0         0.27        129.1 
       377.0         0.33        128.7 
       378.0         0.27        128.5 
       379.0         0.27        127.7 
       380.0         0.28        126.8 
       381.0         0.23        125.5 
       382.0         0.17        124.0 
       383.0         0.17        123.6 
       384.0         0.17        111.3 
       385.0         0.17        100.0 
       386.0         1.90        302.5 
       387.0         0.30        178.6 
       388.0         0.15        147.0 
       389.0         0.13        139.8 
       390.0         0.17        134.8 
       391.0         0.17        131.0 
       392.0         0.13        128.8 
       393.0         0.17        128.2 
       394.0         0.13        127.2 
       395.0         0.17        126.0 
       396.0         0.13        125.6 
       397.0         0.13        125.7 
       398.0         0.13        125.3 
       399.0         0.13        124.9 
       400.0         0.13        124.5 
