~Version Information
VERS.                      2.0: CWLS Log ASCII Standard - VERSION 2.0
WRAP.                       NO: One line per depth step
~Well Information Block
STRT.FT               780.0000: 
STOP.FT              3152.2500: 
STEP.FT                 0.2500: 
NULL.                -999.2500: 
COMP.          Pioneer Natural Resources: COMPANY
WELL.            Paradise 13-8: WELL
FLD.           Purgatoire River: FIELD
LOC.           1896' FSL & 1120' FWL: LOCATION
PROV.                 Colorado: PROVINCE
CNTY.               Las Animas: COUNTRY
SRVC.                Patterson: SERVICE COMPANY
DATE.          Sat Jan 22 20:39:47 2005: LOG DATE
UWI.           05 071 07946 00: UNIQUE WELL ID
~Curve Information Block
DEPT.FT            0 000 00 00: Depth
SN.Ohm-m                      : IEL Short Normal
SP.mV                         : IEL Spontaneous Potential
DIR.Ohm-m                     : IEL Induction Resistivity
GR.GAPI                       : Gamma Ray
~Parameter Information Block
~A  Depth        SN          SP         DIR          GR     
# ...
  2019.5000     19.8064   -303.7751     16.4906    130.1640
  2019.7500     19.5850   -304.0853     16.2655    127.7511
  2020.0000     19.4634   -304.5220     16.1541    122.8633
  2020.2500     19.3863   -304.9924     16.1266    120.0204
  2020.5000     19.3330   -305.4275     16.1632    118.1600
  2020.7500     19.3056   -305.7781     16.2538    118.8813
  2021.0000     19.2948   -306.0077     16.3912    121.9911
  2021.2500     19.2657   -306.0882     16.5650    124.3029
  2021.5000     19.1791   -305.9971     16.7577    126.2217
  2021.7500     19.0235   -305.7162     16.9426    125.8152
  2022.0000     18.8218   -305.2319     17.0830    122.8411
  2022.2500     18.6114   -304.5395     17.1387    120.0150
  2022.5000     18.4227   -303.6496     17.0809    115.9890
  2022.7500     18.2711   -302.5951     16.9073    114.0096
  2023.0000     18.1599   -301.4342     16.6433    112.3380
  2023.2500     18.0821   -300.2454     16.3279    111.8392
  2023.5000     18.0192   -299.1149     15.9971    111.1266
  2023.7500     17.9460   -298.1222     15.6750    110.2285
  2024.0000     17.8451   -297.3270     15.3748    108.4308
  2024.2500     17.7178   -296.7636     15.1036    107.6573
  2024.5000     17.5813   -296.4419     14.8658    108.2801
  2024.7500     17.4549   -296.3550     14.6644    109.7063
  2025.0000     17.3493   -296.4878     14.5019    111.6077
  2025.2500     17.2663   -296.8226     14.3839    111.8010
  2025.5000     17.2029   -297.3375     14.3225    110.6975
  2025.7500     17.1532   -297.9969     14.3338    109.9544
  2026.0000     17.1077   -298.7412     14.4269    109.8057
  2026.2500     17.0503   -299.4829     14.5878    110.0176
  2026.5000     16.9530   -300.1170     14.7715    109.8144
  2026.7500     16.7740   -300.5418     14.9093    109.4712
  2027.0000     16.4688   -300.6840     14.9342    110.2649
  2027.2500     16.0130   -300.5166     14.8099    112.5492
  2027.5000     15.4179   -300.0660     14.5424    118.4964
  2027.7500     14.7273   -299.4073     14.1668    123.1497
  2028.0000     14.0007   -298.6510     13.7250    129.2709
  2028.2500     13.3009   -297.9226     13.2485    132.2735
  2028.5000     12.6909   -297.3401     12.7534    135.2145
  2028.7500     12.2308   -296.9967     12.2430    136.1231
  2029.0000     11.9620   -296.9539     11.7161    135.5268
  2029.2500     11.8873   -297.2519     11.1748    133.8797
  2029.5000     11.9646   -297.9203     10.6325    130.6730
  2029.7500     12.1285   -298.9928     10.1185    128.9032
  2030.0000     12.3266   -300.5086      9.6749    127.5662
  2030.2500     12.5392   -302.5000      9.3466    127.4808
  2030.5000     12.7673   -304.9786      9.1671    128.0231
  2030.7500     13.0071   -307.9109      9.1456    128.4837
  2031.0000     13.2363   -311.1980      9.2552    128.7974
  2031.2500     13.4176   -314.6794      9.4189    128.5129
  2031.5000     13.5053   -318.1772      9.4992    127.1220
  2031.7500     13.4460   -321.5829      9.3206    125.5886
  2032.0000     13.1778   -324.9787      8.7569    122.8565
  2032.2500     12.6433   -328.7286      7.8391    121.1479
  2032.5000     11.8276   -333.4644      6.7546    119.0210
  2032.7500     10.8013   -339.9209      5.7180    117.6315
  2033.0000      9.7162   -348.6589      4.8616    114.9643
  2033.2500      8.7352   -359.7851      4.2234    112.7313
  2033.5000      7.9463   -372.8260      3.7860    108.9162
  2033.7500      7.3379   -386.8193      3.5118    105.9632
  2034.0000      6.8529   -400.5882      3.3606    100.4534
  2034.2500      6.4677   -413.0355      3.2977     96.3074
  2034.5000      6.2323   -423.3574      3.2977     91.3401
  2034.7500      6.2587   -431.1035      3.3496     90.1458
  2035.0000      6.6869   -436.1283      3.4587     91.8759
  2035.2500      7.6517   -438.4785      3.6464     94.2371
  2035.5000      9.2454   -438.2477      3.9469     96.6268
  2035.7500     11.4686   -435.4516      4.4044     96.0569
  2036.0000     14.1854   -429.9808      5.0703     91.1458
  2036.2500     17.1134   -421.6995      5.9955     85.6407
  2036.5000     19.8830   -410.6571      7.2105     75.7287
  2036.7500     22.1709   -397.2892      8.6825     69.1432
  2037.0000     23.8422   -382.4729     10.2649     61.3706
  2037.2500     24.9927   -367.3551     11.6994     58.8067
  2037.5000     25.8419   -353.0353     12.7385     60.3560
  2037.7500     26.5606   -340.2790     13.3106     65.1060
  2038.0000     27.1743   -329.4114     13.5448     76.4552
  2038.2500     27.6018   -320.4061     13.6476     85.1646
  2038.5000     27.7661   -313.0798     13.7881     96.1886
  2038.7500     27.6764   -307.2516     14.0642    100.2669
  2039.0000     27.4378   -302.7951     14.5175    100.2597
  2039.2500     27.2161   -299.5992     15.1561     96.8879
  2039.5000     27.1878   -297.5107     15.9726     89.4814
  2039.7500     27.4788   -296.3029     16.9543     84.6851
  2040.0000     28.1038   -295.6974     18.0853     79.8989
  2040.2500     28.9443   -295.4059     19.3414     78.8380
  2040.5000     29.7951   -295.1835     20.6855     79.8319
  2040.7500     30.4521   -294.8487     22.0641     81.2810
  2041.0000     30.7889   -294.2961     23.4001     83.1526
  2041.2500     30.7828   -293.4832     24.5760     83.9195
  2041.5000     30.4901   -292.4113     25.4288     85.1709
  2041.7500     29.9972   -291.1058     25.7956     87.0125
  2042.0000     29.3768   -289.6025     25.6070     92.3393
  2042.2500     28.6698   -287.9398     24.9481     97.2734
  2042.5000     27.8913   -286.1584     24.0097    104.9650
  2042.7500     27.0447   -284.3058     22.9802    109.3923
  2043.0000     26.1362   -282.4401     21.9784    114.6864
  2043.2500     25.1866   -280.6288     21.0583    117.5916
  2043.5000     24.2389   -278.9431     20.2454    121.2474
  2043.7500     23.3473   -277.4477     19.5570    123.1048
  2044.0000     22.5525   -276.1941     18.9999    124.8917
  2044.2500     21.8628   -275.2188     18.5608    125.4405
  2044.5000     21.2606   -274.5461     18.2096    125.1841
  2044.7500     20.7274   -274.1921     17.9144    124.2350
  2045.0000     20.2634   -274.1638     17.6537    122.1852
  2045.2500     19.8842   -274.4544     17.4176    121.0296
  2045.5000     19.6018   -275.0365     17.1984    120.2031
  2045.7500     19.4061   -275.8584     16.9832    119.9725
  2046.0000     19.2630   -276.8441     16.7573    119.0810
  2046.2500     19.1253   -277.8965     16.5167    117.7850
  2046.5000     18.9477   -278.9020     16.2784    115.1570
  2046.7500     18.6947   -279.7392     16.0726    113.5461
  2047.0000     18.3416   -280.2934     15.9189    112.2857
  2047.2500     17.8722   -280.4780     15.8008    112.3581
  2047.5000     17.2853   -280.2579     15.6644    113.1801
  2047.7500     16.6038   -279.6632     15.4440    113.6490
  2048.0000     15.8764   -278.7853     15.1001    114.0826
  2048.2500     15.1645   -277.7551     14.6374    114.7069
  2048.5000     14.5236   -276.7113     14.0946    117.0131
  2048.7500     13.9914   -275.7701     13.5234    119.4093
  2049.0000     13.5836   -275.0078     12.9752    123.6404
  2049.2500     13.2922   -274.4551     12.4959    126.7940
  2049.5000     13.0889   -274.1036     12.1214    132.4186
  2049.7500     12.9323   -273.9182     11.8690    136.6414
  2050.0000     12.7827   -273.8530     11.7328    142.0521
  2050.2500     12.6167   -273.8669     11.6865    143.7745
  2050.5000     12.4355   -273.9352     11.6955    142.6964
  2050.7500     12.2622   -274.0563     11.7324    140.2825
  2051.0000     12.1337   -274.2474     11.7849    136.5038
  2051.2500     12.0904   -274.5346     11.8498    135.0217
  2051.5000     12.1661   -274.9380     11.9199    135.0514
  2051.7500     12.3749   -275.4595     11.9734    136.2659
  2052.0000     12.6979   -276.0793     11.9712    138.5841
  2052.2500     13.0808   -276.7627     11.8624    139.7107
  2052.5000     13.4548   -277.4742     11.5999    140.3739
  2052.7500     13.7692   -278.1918     11.1702    140.3948
