~Version Information
VERS.                      2.0: CWLS Log ASCII Standard - VERSION 2.0
WRAP.                       NO: One line per depth step
~Well Information Block
STRT.FT               806.0000: 
STOP.FT              1814.0000: 
STEP.FT                 0.2500: 
NULL.                -999.2500: 
COMP.          Pioneer Natural Resources: COMPANY
WELL.            Hill 33-22 Tr: WELL
FLD.           Purgatoire River: FIELD
LOC.           1573' FSL & 1585' FEL: LOCATION
PROV.                 Colorado: PROVINCE
CNTY.               Las Animas: COUNTRY
SRVC.                Patterson: SERVICE COMPANY
DATE.          Thu Apr 14 09:13:17 2005: LOG DATE
UWI.           05 071 08316 00: UNIQUE WELL ID
~Curve Information Block
DEPT.FT            0 000 00 00: Depth
SN.Ohm-m                      : IEL Short Normal
SP.mV                         : IEL Spontaneous Potential
DIR.Ohm-m                     : IEL Induction Resistivity
GR.GAPI                       : Gamma Ray
~Parameter Information Block
~A  Depth        SN          SP         DIR          GR     
# ...
   940.0000   2000.0000   2000.0000     22.7675    101.3292
   940.2500   2000.0000   2000.0000     22.3635     99.2086
   940.5000   2000.0000   2000.0000     21.9579     97.0838
   940.7500   2000.0000   2000.0000     21.6001     96.6968
   941.0000   2000.0000   2000.0000     21.3386     99.0038
   941.2500   2000.0000   2000.0000     21.2134    103.1803
   941.5000   2000.0000   2000.0000     21.2476    113.1792
   941.7500   2000.0000   2000.0000     21.4354    121.1376
   942.0000   2000.0000   2000.0000     21.7301    132.0873
   942.2500   2000.0000   2000.0000     22.0426    137.2663
   942.5000   2000.0000   2000.0000     22.2652    140.5740
   942.7500   2000.0000   2000.0000     22.3154    139.7813
   943.0000   2000.0000   2000.0000     22.1728    134.8505
   943.2500   2000.0000   2000.0000     21.8763    129.6553
   943.5000   2000.0000   2000.0000     21.4891    119.9413
   943.7500   2000.0000   2000.0000     21.0650    112.8301
   944.0000   2000.0000   2000.0000     20.6406    102.9698
   944.2500   2000.0000   2000.0000     20.2452     98.2970
   944.5000   2000.0000   2000.0000     19.9078     96.0857
   944.7500   2000.0000   2000.0000     19.6551     98.1570
   945.0000   2000.0000   2000.0000     19.5034    105.8200
   945.2500   2000.0000   2000.0000     19.4533    113.2341
   945.5000     19.5488     64.8079     19.4832    126.6924
   945.7500     20.6388     66.1590     19.5455    136.5188
   946.0000     21.1869     67.0151     19.5740    150.7121
   946.2500     20.9211     67.4150     19.5082    158.4613
   946.5000     20.1138     67.5020     19.3253    165.7526
   946.7500     19.3219     67.4533     19.0556    167.5280
   947.0000     18.9705     67.4237     18.7641    166.3042
   947.2500     19.1057     67.5069     18.5142    163.3873
   947.5000     19.4783     67.7201     18.3395    156.5856
   947.7500     19.7909     68.0191     18.2418    151.0846
   948.0000     19.9270     68.3363     18.2109    142.8876
   948.2500     20.0164     68.6110     18.2490    138.2093
   948.5000     20.2381     68.7934     18.3827    133.0268
   948.7500     20.6235     68.8417     18.6569    130.7812
   949.0000     21.0671     68.7386     19.1160    128.4782
   949.2500     21.4578     68.5108     19.7833    126.9419
   949.5000     21.8123     68.2180     20.6482    123.9413
   949.7500     22.2211     67.9159     21.6662    121.8473
   950.0000     22.6675     67.6303     22.7759    119.9109
   950.2500     22.9885     67.3575     23.9205    119.6642
   950.5000     22.9918     67.0765     25.0568    119.5723
   950.7500     22.7002     66.7655     26.1447    118.6385
   951.0000     22.3925     66.4178     27.1369    115.3867
   951.2500     22.3019     66.0448     27.9930    112.5725
   951.5000     22.5493     65.6591     28.7069    108.7349
   951.7500     23.2347     65.2549     29.3168    106.8428
   952.0000     24.2541     64.8101     29.8873    105.0926
   952.2500     25.2384     64.3108     30.4868    104.6290
   952.5000     25.8632     63.7754     31.1772    104.8829
   952.7500     26.1669     63.2552     32.0077    105.3805
   953.0000     26.5231     62.8110     32.9928    105.5226
   953.2500     27.2446     62.4929     34.0885    104.3713
   953.5000     28.2083     62.3399     35.1937     99.5281
   953.7500     29.0490     62.3840     36.1891     94.0386
   954.0000     29.7413     62.6367     36.9927     83.5916
   954.2500     30.6479     63.0652     37.5898     76.4702
   954.5000     31.9940     63.5859     38.0207     67.5506
   954.7500     33.6304     64.0866     38.3529     63.2400
   955.0000     35.1940     64.4656     38.6645     58.9077
   955.2500     36.2877     64.6640     39.0443     57.0251
   955.5000     36.7191     64.6765     39.5781     55.2042
   955.7500     36.6599     64.5448     40.3088     54.5341
   956.0000     36.4604     64.3400     41.1901     54.1472
   956.2500     36.3677     64.1398     42.0772     54.0360
   956.5000     36.4102     64.0066     42.7858     53.4665
   956.7500     36.4350     63.9741     43.1942     52.6718
   957.0000     36.2923     64.0438     43.2994     51.4363
   957.2500     35.9991     64.1932     43.1863     51.1815
   957.5000     35.6628     64.3892     42.9557     52.1049
   957.7500     35.3582     64.6011     42.6912     53.2722
   958.0000     35.0822     64.7997     42.4600     54.8976
   958.2500     34.7376     64.9500     42.3055     55.5492
   958.5000     34.3113     65.0124     42.2203     55.8118
   958.7500     33.9906     64.9556     42.1440     55.5778
   959.0000     33.8881     64.7714     42.0132     54.7291
   959.2500     33.8730     64.4770     41.8241     54.0325
   959.5000     33.7495     64.1056     41.6442     53.4574
   959.7500     33.4172     63.6928     41.5512     53.7122
   960.0000     32.9018     63.2666     41.5580     55.0398
   960.2500     32.3148     62.8445     41.6013     56.2780
   960.5000     31.7624     62.4413     41.6018     58.1114
   960.7500     31.3456     62.0803     41.5435     59.0612
   961.0000     31.1976     61.7924     41.4933     59.8132
   961.2500     31.3773     61.5976     41.5492     59.8396
   961.5000     31.8136     61.4912     41.7651     59.2684
   961.7500     32.3575     61.4466     42.1077     58.5535
   962.0000     32.8045     61.4263     42.4708     57.1576
   962.2500     33.0319     61.3880     42.7332     56.2159
   962.5000     33.1707     61.2926     42.8131     55.2182
   962.7500     33.4461     61.1142     42.6694     54.9530
   963.0000     33.8709     60.8443     42.2616     54.9938
   963.2500     34.2475     60.4844     41.5639     55.0916
   963.5000     34.4417     60.0341     40.6542     54.9247
   963.7500     34.5543     59.4881     39.7732     54.3781
   964.0000     34.7968     58.8521     39.2472     52.7280
   964.2500     35.2821     58.1627     39.3344     51.2609
   964.5000     35.9825     57.4918     40.1064     49.3925
   964.7500     36.8405     56.9264     41.4050     48.9221
   965.0000     37.8751     56.5383     42.8790     49.5777
   965.2500     39.0993     56.3609     44.1194     50.4987
   965.5000     40.3345     56.3821     44.8489     51.7386
   965.7500     41.2397     56.5529     45.0310     52.3310
   966.0000     41.5506     56.8078     44.8106     53.0639
   966.2500     41.2368     57.0892     44.3800     53.4049
   966.5000     40.5192     57.3582     43.8893     53.2241
   966.7500     39.7808     57.5909     43.4221     52.4989
   967.0000     39.3353     57.7695     43.0063     51.0643
   967.2500     39.1412     57.8823     42.6371     50.6164
   967.5000     38.7267     57.9281     42.3060     52.1060
   967.7500     37.5610     57.9208     42.0165     55.0957
   968.0000     35.5737     57.8914     41.7782     62.4619
   968.2500     33.2568     57.8794     41.5859     68.3166
   968.5000     31.3827     57.9148     41.4041     75.5039
   968.7500     30.5753     58.0048     41.1745     77.5465
   969.0000     30.8796     58.1416     40.8490     75.6108
   969.2500     31.7320     58.3141     40.4290     71.8671
   969.5000     32.4270     58.5066     39.9825     65.0229
   969.7500     32.6815     58.6881     39.6203     60.7202
   970.0000     32.7470     58.8113     39.4380     55.4789
   970.2500     32.9543     58.8290     39.4550     52.9747
   970.5000     33.3435     58.7148     39.5893     50.9583
   970.7500     33.7843     58.4697     39.6940     50.8459
   971.0000     34.1813     58.1142     39.6538     52.1890
   971.2500     34.4768     57.6791     39.4687     53.6211
   971.5000     34.6637     57.1910     39.2477     55.6803
   971.7500     34.8055     56.6555     39.1196     56.6074
   972.0000     34.9303     56.0673     39.1497     56.9277
   972.2500     34.9883     55.4504     39.3180     56.3363
   972.5000     34.9375     54.8819     39.5514     54.4834
   972.7500     34.7677     54.4641     39.7763     53.0484
   973.0000     34.4527     54.2703     39.9631     51.7130
   973.2500     33.9734     54.3133     40.1395     51.8938
