~Version Information
VERS.                      2.0: CWLS Log ASCII Standard - VERSION 2.0
WRAP.                       NO: One line per depth step
~Well Information Block
STRT.FT                 3.5000: 
STOP.FT              1971.5000: 
STEP.FT                 0.2500: 
NULL.                -999.2500: 
COMP.          Evergreen Operating Corporation: COMPANY
WELL.          McCullough 34-32 Tr: WELL
FLD.           Purgatorie River: FIELD
LOC.           394' FSL & 2077' FEL: LOCATION
PROV.                 Colorado: PROVINCE
CNTY.               Las Animas: COUNTRY
SRVC.                         : SERVICE COMPANY
DATE.          Fri Sep 24 11:00:22 2004: LOG DATE
UWI.           05 071 08157 00: UNIQUE WELL ID
~Curve Information Block
DEPT.FT            0 000 00 00: Depth
GR.GAPI                       : Gamma Ray
CCL.                          : Casing Collar Locator
TT3.usec                      : CBL 3' Travel Time
AMP3.mV                       : CBL 3' Amplitude
~Parameter Information Block
~A  Depth        GR         CCL         TT3         AMP3    
# ...
   774.0000     99.8658      0.0000    767.7997      7.4231
   774.2500     91.9198      0.0000    767.1454      7.3236
   774.5000     85.1784      0.0000    765.1100      7.2766
   774.7500     79.2062      0.0000    760.1116      7.2266
   775.0000     73.3707      0.0000    750.3542      7.1477
   775.2500     67.7595      0.0000    735.0272      7.0729
   775.5000     63.3909      0.0000    715.5039      7.0584
   775.7500     61.3160      0.0000    695.7075      7.1187
   776.0000     61.6761      0.0000    681.4219      7.2113
   776.2500     63.7439      0.0000    678.1478      7.2836
   776.5000     66.5870      0.0000    687.5827      7.3140
   776.7500     69.6788      0.0000    705.3294      7.3067
   777.0000     73.2105      0.0000    722.8708      7.2796
   777.2500     77.8048      0.0000    732.8571      7.2725
   777.5000     83.7501      0.0000    733.2618      7.3373
   777.7500     90.5047      0.0000    726.9940      7.4839
   778.0000     96.7632      0.0000    717.9431      7.6360
   778.2500    100.7701      0.0000    708.1202      7.6720
   778.5000    100.9599      0.0000    698.7590      7.5295
   778.7500     96.9926      0.0000    692.4316      7.2776
   779.0000     90.1949      0.0000    692.2048      7.0867
   779.2500     82.6700      0.0000    698.8024      7.1098
   779.5000     76.0777      0.0000    709.4450      7.3629
   779.7500     71.3840      0.0000    719.4073      7.7147
   780.0000     69.2858      0.0000    724.9376      8.0055
   780.2500     70.1658     -3.0000    725.2070      8.1717
   780.5000     73.3556      0.0000    721.7565      8.2537
   780.7500     76.9154      0.0000    716.4077      8.3263
   781.0000     78.8478      0.0000    710.1313      8.4615
   781.2500     78.7047      0.0000    703.4575      8.7295
   781.5000     77.7118      0.0000    697.0860      9.1488
   781.7500     77.3417      0.0000    691.6725      9.6145
   782.0000     78.2608      0.0000    687.4486      9.9451
   782.2500     80.7112      0.0000    684.6700     10.0362
   782.5000     85.1095      0.0000    684.0971      9.9397
   782.7500     91.5099      0.0000    686.0820      9.7865
   783.0000     98.6546      0.0000    689.3839      9.6651
   783.2500    104.3779      0.0000    691.9004      9.5752
   783.5000    107.3151      0.0000    692.6023      9.4657
   783.7500    107.7937      0.0000    692.0707      9.3000
   784.0000    106.9875      0.0000    691.3692      9.0921
   784.2500    105.9517      0.0000    691.0198      8.8814
   784.5000    105.6594      0.0000    691.0039      8.6790
   784.7500    106.9579      0.0000    691.2113      8.4483
   785.0000    109.7925      0.0000    691.8613      8.1390
   785.2500    112.8619      0.0000    693.8091      7.7339
   785.5000    114.3783      0.0000    698.6135      7.2684
   785.7500    113.0727      0.0000    707.8027      6.8173
   786.0000    108.7912      0.0000    721.3586      6.4663
   786.2500    102.8116      0.0000    736.8043      6.2760
   786.5000     97.6530      0.0000    750.3393      6.2570
   786.7500     95.9466      0.0000    759.1045      6.3774
   787.0000     98.8254      0.0000    762.1453      6.5954
   787.2500    104.9771      0.0000    759.5369      6.8876
   787.5000    111.0421      0.0000    751.6439      7.2570
   787.7500    113.1941      0.0000    739.7007      7.7172
   788.0000    109.1006      0.0000    726.3380      8.2595
   788.2500     99.0506      0.0000    714.5560      8.8294
   788.5000     85.4010      0.0000    706.2858      9.3412
   788.7500     70.9296      0.0000    702.2789      9.7201
   789.0000     57.6818      0.0000    702.4421      9.9370
   789.2500     46.9076      0.0000    705.1992     10.0056
   789.5000     39.3909      0.0000    707.2749      9.9515
   789.7500     35.5863      0.0000    705.7413      9.7921
   790.0000     35.5522      0.0000    700.6255      9.5531
   790.2500     38.6881      0.0000    694.7662      9.2934
   790.5000     43.4341      0.0000    690.9619      9.0811
   790.7500     47.7017      0.0000    689.8523      8.9299
   791.0000     50.3561      0.0000    690.4805      8.7778
   791.2500     52.3812      0.0000    691.9915      8.5525
   791.5000     56.1606      0.0000    694.3192      8.2551
   791.7500     63.4423      0.0000    697.5543      7.9666
   792.0000     74.0562      0.0000    701.1754      7.7798
   792.2500     86.5200      0.0000    704.1724      7.7257
   792.5000     99.6102      0.0000    705.8592      7.7498
   792.7500    112.9692      0.0000    706.2825      7.7535
   793.0000    126.1654      0.0000    706.0410      7.6721
   793.2500    137.8174      0.0000    706.2709      7.5286
   793.5000    146.1760      0.0000    708.3320      7.4082
   793.7500    150.3757      0.0000    712.2897      7.3762
   794.0000    150.8683      0.0000    715.7626      7.4264
   794.2500    148.8378      0.0000    715.5337      7.5165
   794.5000    145.3472      0.0000    710.7219      7.6398
   794.7500    140.7511      0.0000    703.6943      7.8377
   795.0000    134.8088      0.0000    697.8321      8.1381
   795.2500    127.6014      0.0000    695.1918      8.5045
   795.5000    120.2143      0.0000    696.2002      8.8592
   795.7500    114.1675      0.0000    700.2259      9.1383
   796.0000    110.3744      0.0000    705.5411      9.3146
   796.2500    108.8899      0.0000    709.3930      9.3921
   796.5000    109.3316      0.0000    709.4655      9.3995
   796.7500    111.1718      0.0000    705.7225      9.3696
   797.0000    113.7190      0.0000    700.3488      9.3025
   797.2500    116.0842      0.0000    695.7526      9.1703
   797.5000    117.5599      0.0000    692.9387      8.9738
   797.7500    118.3197      0.0000    691.6018      8.7719
   798.0000    119.4764      0.0000    691.0664      8.6425
   798.2500    122.0285      0.0000    690.8699      8.6261
   798.5000    125.7628      0.0000    690.7967      8.7068
   798.7500    129.2099      0.0000    690.7464      8.8231
   799.0000    130.6021      0.0000    690.6762      8.8930
   799.2500    129.2768      0.0000    690.6131      8.8526
   799.5000    126.6073      0.0000    690.6796      8.6873
   799.7500    125.1750      0.0000    691.1458      8.4343
   800.0000    126.5116      0.0000    692.5624      8.1550
   800.2500    129.6574      0.0000    695.8248      7.8991
   800.5000    132.0428      0.0000    701.7875      7.6927
   800.7500    131.7915      0.0000    710.4031      7.5508
   801.0000    129.2600      0.0000    720.1945      7.4848
   801.2500    126.4852      0.0000    728.9046      7.4901
   801.5000    125.3851      0.0000    734.7740      7.5387
   801.7500    126.5032      0.0000    737.1231      7.6008
   802.0000    129.1149      0.0000    736.2751      7.6710
   802.2500    132.0465      0.0000    733.8586      7.7658
   802.5000    134.2004      0.0000    732.9473      7.8999
   802.7500    134.5621      0.0000    736.3828      8.0672
   803.0000    132.3385      0.0000    744.2092      8.2412
   803.2500    127.6110      0.0000    753.4747      8.3925
   803.5000    121.6682      0.0000    760.9069      8.5104
   803.7500    116.1859      0.0000    765.2509      8.6055
   804.0000    112.1616      0.0000    767.1582      8.6888
   804.2500    109.7570      0.0000    767.7971      8.7559
   804.5000    108.5808      0.0000    767.9615      8.7956
   804.7500    107.6301      0.0000    767.9949      8.8033
   805.0000    105.3662      0.0000    767.9979      8.7870
   805.2500    100.4726      0.0000    767.9807      8.7628
   805.5000     92.7357      0.0000    767.8885      8.7422
   805.7500     83.3089      0.0000    767.5005      8.7266
   806.0000     74.2089      0.0000    766.2119      8.7170
   806.2500     67.2505      0.0000    762.8359      8.7229
   806.5000     63.1854      0.0000    755.8521      8.7508
   806.7500     61.7419      0.0000    744.4720      8.7836
   807.0000     62.1918      0.0000    729.9863      8.7840
   807.2500     63.7235      0.0000    715.9711      8.7249
