~Version Information
VERS.                      2.0: CWLS Log ASCII Standard - VERSION 2.0
WRAP.                       NO: One line per depth step
~Well Information Block
STRT.FT               430.0000: 
STOP.FT              1910.2000: 
STEP.FT                 0.1000: 
NULL.                -999.2500: 
COMP.          Pioneer Natural Resources: COMPANY
WELL.          Formula 23-11 Tr: WELL
FLD.           Purgatoire River: FIELD
LOC.           1976' FSL & 1935' FWL--: LOCATION
PROV.                 Colorado: PROVINCE
CNTY.               Las Animas: COUNTRY
SRVC.                Patterson: SERVICE COMPANY
DATE.          Mon Jun 13 07:32:15 2005: LOG DATE
UWI.           05 071 08399 00: UNIQUE WELL ID
~Curve Information Block
DEPT.FT            0 000 00 00: Depth
DCAL.in                       : CDL Caliper
RHOB.g/cc                     : CDL Bulk Density
RHOC.g/cc                     : CDL Density Correction
DPOR.pu                       : CDL Density Porosity
NPOR.pu                       : Neutron Porosity
GR.GAPI                       : Gamma Ray
~Parameter Information Block
~A  Depth       DCAL        RHOB        RHOC        DPOR        NPOR         GR     
# ...
   814.0000      8.0823      2.6107      0.0894      2.3815     24.1615     90.4904
   814.1000      8.0823      2.5952      0.0272      3.3194     25.7037     95.8934
   814.2000      8.0823      2.5850      0.0058      3.9376     26.7402     97.6304
   814.3000      8.0812      2.5836      0.0003      4.0224     27.5177     93.1068
   814.4000      8.0812      2.5887      0.0348      3.7169     27.7934     87.1969
   814.5000      8.0835      2.5941      0.0411      3.3891     27.5973     83.2729
   814.6000      8.0835      2.5949      0.0245      3.3414     27.7204     83.9451
   814.7000      8.0835      2.5857      0.0402      3.8999     28.5012     90.3288
   814.8000      8.0854      2.5623      0.0336      5.3154     29.0819     95.1164
   814.9000      8.0854      2.5360      0.0017      6.9119     28.9983     93.2241
   815.0000      8.0879      2.5236      0.0235      7.6610     28.6835     91.6148
   815.1000      8.0879      2.5310      0.0411      7.2113     28.2896     94.7505
   815.2000      8.0879      2.5548      0.0670      5.7719     27.9873     99.6325
   815.3000      8.0938      2.5832      0.1242      4.0476     28.0189    105.1209
   815.4000      8.0938      2.6074      0.1025      2.5824     28.1893    110.0902
   815.5000      8.1008      2.6288      0.1098      1.2831     28.2993    111.5749
   815.6000      8.1008      2.6417      0.1343      0.5010     28.6204    110.8886
   815.7000      8.1008      2.6336      0.0955      0.9926     29.3220    110.6604
   815.8000      8.1055      2.6053      0.0908      2.7079     29.7831    108.8186
   815.9000      8.1055      2.5707      0.0547      4.8077     29.7729    104.6270
   816.0000      8.1103      2.5428      0.0593      6.4985     29.7267    101.5858
   816.1000      8.1103      2.5261      0.0177      7.5094     29.7402    104.5951
   816.2000      8.1103      2.5212      0.0569      7.8035     29.8612    112.2752
   816.3000      8.1188      2.5254      0.0402      7.5486     30.0852    117.5869
   816.4000      8.1188      2.5318      0.0567      7.1627     30.2320    119.7181
   816.5000      8.1284      2.5364      0.0023      6.8868     30.3108    122.4563
   816.6000      8.1284      2.5457      0.0145      6.3210     30.3152    126.7774
   816.7000      8.1284      2.5623      0.0446      5.3164     30.1192    131.8091
   816.8000      8.1333      2.5764      0.0537      4.4613     29.9100    134.6228
   816.9000      8.1333      2.5849      0.0453      3.9473     29.9255    132.2217
   817.0000      8.1338      2.5877      0.1111      3.7750     30.1329    127.2597
   817.1000      8.1338      2.5817      0.0491      4.1387     30.3496    124.8923
   817.2000      8.1338      2.5764      0.0213      4.4582     30.5184    125.8551
   817.3000      8.1336      2.5797      0.0078      4.2576     30.8180    128.9060
   817.4000      8.1336      2.5846      0.0423      3.9610     31.2162    132.6342
   817.5000      8.1350      2.5851      0.0237      3.9335     31.6630    133.3868
   817.6000      8.1350      2.5823      0.0267      4.1046     32.2540    130.6815
   817.7000      8.1350      2.5773      0.0115      4.4066     32.8299    128.0995
   817.8000      8.1361      2.5744     -0.0259      4.5819     33.2068    125.9043
   817.9000      8.1361      2.5786      0.0150      4.3293     33.4377    123.9987
   818.0000      8.1359      2.5847      0.0256      3.9584     33.6741    124.4240
   818.1000      8.1359      2.5863      0.0225      3.8601     33.9904    125.1166
   818.2000      8.1359      2.5858      0.0195      3.8903     34.2681    124.4201
   818.3000      8.1355      2.5863      0.0516      3.8618     34.3249    126.0288
   818.4000      8.1355      2.5813      0.0534      4.1661     34.0272    134.0227
   818.5000      8.1403      2.5656      0.0246      5.1125     33.4173    144.6267
   818.6000      8.1403      2.5450      0.0327      6.3638     33.0382    148.3483
   818.7000      8.1403      2.5269      0.0315      7.4620     32.8776    144.6816
   818.8000      8.1503      2.5136      0.0377      8.2683     32.1772    143.5644
   818.9000      8.1503      2.5043     -0.0042      8.8294     31.0165    148.3743
   819.0000      8.1591      2.4954      0.0272      9.3701     30.1201    152.7087
   819.1000      8.1591      2.4788      0.0044     10.3781     29.5264    152.3014
   819.2000      8.1591      2.4592      0.0174     11.5667     28.8980    149.0815
   819.3000      8.1633      2.4485      0.0455     12.2151     28.3687    148.6803
   819.4000      8.1633      2.4453      0.0187     12.4068     28.1191    152.7800
   819.5000      8.1658      2.4456      0.0185     12.3881     28.1931    154.4624
   819.6000      8.1658      2.4541      0.0260     11.8753     28.5084    147.1714
   819.7000      8.1658      2.4727      0.0695     10.7431     28.5946    136.2903
   819.8000      8.1679      2.4911      0.0845      9.6291     28.0312    131.9200
   819.9000      8.1679      2.4973      0.0947      9.2559     27.2944    133.7747
   820.0000      8.1679      2.4942      0.1033      9.4436     27.2932    136.4289
   820.1000      8.1679      2.4919      0.1048      9.5837     27.7058    136.6252
   820.2000      8.1679      2.4916      0.1122      9.5986     27.6506    133.2444
   820.3000      8.1660      2.4911      0.1476      9.6325     27.4124    131.0079
   820.4000      8.1660      2.4972      0.1044      9.2604     27.5934    133.4249
   820.5000      8.1668      2.5164      0.1191      8.0971     28.0085    134.7031
   820.6000      8.1668      2.5407      0.1046      6.6272     28.1754    132.6383
   820.7000      8.1668      2.5627      0.0842      5.2893     27.9123    131.6905
   820.8000      8.1715      2.5789      0.1566      4.3062     27.5250    131.7439
   820.9000      8.1715      2.5860      0.1234      3.8787     27.4101    130.0504
   821.0000      8.1756      2.5848      0.1597      3.9486     27.4422    127.6522
   821.1000      8.1756      2.5737      0.1317      4.6222     27.5135    128.4172
   821.2000      8.1756      2.5646      0.0805      5.1768     27.6240    133.1974
   821.3000      8.1768      2.5782      0.1533      4.3497     27.5804    136.3328
   821.4000      8.1768      2.6035      0.1973      2.8181     27.5913    133.4689
   821.5000      8.1661      2.6138      0.1438      2.1961     27.9808    129.9790
   821.6000      8.1661      2.6076      0.0821      2.5725     28.4059    130.2403
   821.7000      8.1661      2.5981      0.0704      3.1427     28.4609    130.1845
   821.8000      8.1398      2.5929      0.0567      3.4583     28.2376    126.1441
   821.9000      8.1398      2.5910      0.0477      3.5741     27.9529    119.9606
   822.0000      8.1151      2.5934      0.0119      3.4286     28.1218    114.5323
   822.1000      8.1151      2.6077      0.0337      2.5626     29.0692    111.2553
   822.2000      8.1151      2.6345      0.0654      0.9372     30.0229    109.2167
   822.3000      8.1054      2.6671      0.0817     -1.0363     30.3046    107.4465
   822.4000      8.1054      2.6942      0.0767     -2.6772     30.2151    108.0519
   822.5000      8.1060      2.7025      0.0898     -3.1838     30.1905    109.9210
   822.6000      8.1060      2.6901      0.0834     -2.4309     30.4982    110.5138
   822.7000      8.1060      2.6672      0.0358     -1.0430     31.1627    112.4162
   822.8000      8.1086      2.6396      0.0477      0.6317     31.9210    115.7599
   822.9000      8.1086      2.6045      0.0051      2.7549     32.4913    115.8522
   823.0000      8.1099      2.5724     -0.0583      4.7032     32.6531    111.9845
   823.1000      8.1099      2.5649     -0.0165      5.1581     32.3481    108.7587
   823.2000      8.1099      2.5814      0.0017      4.1594     31.8398    111.3335
   823.3000      8.1093      2.5979      0.0212      3.1566     31.3958    118.2279
   823.4000      8.1093      2.5968     -0.0153      3.2241     31.0198    122.2399
   823.5000      8.1061      2.5767      0.0126      4.4397     30.6816    122.9659
