~Version Information
VERS.                      2.0: CWLS Log ASCII Standard - VERSION 2.0
WRAP.                       NO: One line per depth step
~Well Information Block
STRT.FT               440.0000: 
STOP.FT              1001.5000: 
STEP.FT                 0.1000: 
NULL.                -999.2500: 
COMP.          Pioneer Natural Resources: COMPANY
WELL.              Dylan 42-25: WELL
FLD.           Purgatoire River: FIELD
LOC.           2160' FNL & 855' FEL: LOCATION
PROV.                 Colorado: PROVINCE
CNTY.               Las Animas: COUNTRY
SRVC.                Patterson: SERVICE COMPANY
DATE.          Mon Apr 25 09:31:16 2005: LOG DATE
UWI.           05 071 08229 00: UNIQUE WELL ID
~Curve Information Block
DEPT.FT            0 000 00 00: Depth
DCAL.in                       : CDL Caliper
RHOB.g/cc                     : CDL Bulk Density
RHOC.g/cc                     : CDL Density Correction
DPOR.pu                       : CDL Density Porosity
GR.GAPI                       : Gamma Ray
NPOR.pu                       : Neutron Porosity
~Parameter Information Block
~A  Depth       DCAL        RHOB        RHOC        DPOR         GR         NPOR    
# ...
   766.4000      7.9201      2.4647     -0.0110     11.2311     97.4629     21.6415
   766.5000      7.9194      2.4656      0.0373     11.1764     95.0055     21.6516
   766.6000      7.9194      2.4890      0.0701      9.7563     89.4376     21.6941
   766.7000      7.9194      2.5167      0.0185      8.0793     85.0280     21.1155
   766.8000      7.9243      2.5420      0.0772      6.5438     83.4840     20.2538
   766.9000      7.9243      2.5603      0.1093      5.4355     78.7838     19.7643
   767.0000      7.9150      2.5649      0.1221      5.1584     68.7097     19.8893
   767.1000      7.9150      2.5581      0.0905      5.5689     60.5466     20.3202
   767.2000      7.9150      2.5554      0.0572      5.7344     58.6645     20.5543
   767.3000      7.9230      2.5654      0.0500      5.1262     59.7429     20.5294
   767.4000      7.9230      2.5710      0.0824      4.7899     60.4011     20.1538
   767.5000      7.8940      2.5506      0.1087      6.0236     60.5138     19.3468
   767.6000      7.8940      2.5213     -0.0237      7.8011     58.4894     18.6408
   767.7000      7.8940      2.5215     -0.0213      7.7890     51.4092     18.5080
   767.8000      7.8790      2.5443      0.0667      6.4088     42.1710     18.5613
   767.9000      7.8790      2.5542      0.0255      5.8032     36.2222     18.3112
   768.0000      7.9191      2.5505      0.0475      6.0297     36.2799     18.1487
   768.1000      7.9191      2.5548      0.0771      5.7669     40.6886     18.6814
   768.2000      7.9191      2.5776     -0.0016      4.3866     43.5500     19.4310
   768.3000      7.9199      2.6126      0.1247      2.2641     41.6419     19.3054
   768.4000      7.9199      2.6406      0.1376      0.5714     37.5816     18.4711
   768.5000      7.8952      2.6502      0.1312     -0.0142     35.1920     18.1151
   768.6000      7.8952      2.6463      0.1248      0.2226     34.8598     18.5838
   768.7000      7.8952      2.6387      0.1516      0.6833     35.2718     18.7290
   768.8000      7.8854      2.6368      0.1025      0.7980     36.2582     18.1604
   768.9000      7.8854      2.6331      0.1317      1.0244     38.2494     18.0433
   769.0000      7.8884      2.6108      0.0724      2.3782     41.0085     18.3922
   769.1000      7.8884      2.5830      0.0153      4.0598     42.9616     18.4979
   769.2000      7.8884      2.5744      0.0336      4.5806     42.5425     18.5242
   769.3000      7.8918      2.5736      0.0716      4.6331     41.1654     18.5238
   769.4000      7.8918      2.5553      0.0522      5.7420     42.5619     18.2676
   769.5000      7.8826      2.5247     -0.0114      7.5951     47.8600     18.1936
   769.6000      7.8826      2.5019      0.0228      8.9735     52.9936     18.5316
   769.7000      7.8826      2.4925     -0.0020      9.5482     53.6561     18.9566
   769.8000      7.9007      2.4936      0.0161      9.4791     49.9316     19.3643
   769.9000      7.9007      2.5051     -0.0123      8.7842     44.0477     19.6572
   770.0000      7.8976      2.5199      0.0407      7.8866     40.3277     19.8172
   770.1000      7.8976      2.5170      0.0601      8.0633     42.4651     20.1039
   770.2000      7.8976      2.4952     -0.0087      9.3791     48.4529     20.5364
   770.3000      7.8990      2.4806     -0.0039     10.2650     55.7161     20.9505
   770.4000      7.8990      2.4791      0.0528     10.3560     63.1664     21.3340
   770.5000      7.9027      2.4742      0.0709     10.6534     68.0644     21.8369
   770.6000      7.9027      2.4710      0.0178     10.8511     68.9414     22.6042
   770.7000      7.9027      2.4866      0.0615      9.9058     67.9501     23.3631
   770.8000      7.9092      2.5071      0.1032      8.6579     70.1234     23.2101
   770.9000      7.9092      2.5155      0.0611      8.1542     77.0732     22.2634
   771.0000      7.8968      2.5237      0.0782      7.6555     85.8115     21.8519
   771.1000      7.8968      2.5375      0.1227      6.8210     92.5794     22.3442
   771.2000      7.8968      2.5400      0.1099      6.6666     92.1283     22.8934
   771.3000      7.8926      2.5257      0.0803      7.5350     84.5742     23.3058
   771.4000      7.8926      2.5108      0.0241      8.4377     77.7427     23.6545
   771.5000      7.8909      2.5086      0.0368      8.5692     75.6445     23.3625
   771.6000      7.8909      2.5198      0.0158      7.8931     75.6880     22.1865
   771.7000      7.8909      2.5448      0.0853      6.3748     75.9564     20.8342
   771.8000      7.8868      2.5745      0.0878      4.5768     75.8043     20.1609
   771.9000      7.8868      2.5859      0.0985      3.8852     74.0791     20.3059
   772.0000      7.8801      2.5674      0.1280      5.0075     69.6895     20.7432
   772.1000      7.8801      2.5369      0.0381      6.8575     63.2047     20.4846
   772.2000      7.8801      2.5215      0.0207      7.7880     57.0265     19.3017
   772.3000      7.8684      2.5190      0.0749      7.9390     53.7226     18.1244
   772.4000      7.8684      2.5220     -0.0149      7.7566     53.3742     17.8099
   772.5000      7.8736      2.5406      0.0730      6.6285     53.6445     18.1543
   772.6000      7.8736      2.5648      0.1007      5.1654     54.1278     18.1077
   772.7000      7.8736      2.5774      0.0330      4.3977     56.5395     17.5468
   772.8000      7.8924      2.5825      0.0503      4.0916     59.6241     17.2809
   772.9000      7.8924      2.5866     -0.0056      3.8433     59.9384     17.6097
   773.0000      7.9105      2.5821      0.0782      4.1133     56.7593     18.1964
   773.1000      7.9105      2.5583      0.0351      5.5591     51.9055     18.5237
   773.2000      7.9105      2.5298      0.0033      7.2856     46.6508     18.3684
   773.3000      7.9110      2.5216      0.0024      7.7819     43.0113     18.2102
   773.4000      7.9110      2.5316      0.0230      7.1779     40.9467     18.2994
   773.5000      7.8949      2.5435      0.0416      6.4538     38.6664     17.9328
   773.6000      7.8949      2.5545      0.0235      5.7895     38.5235     16.9288
   773.7000      7.8949      2.5567      0.0582      5.6567     42.0590     16.4427
   773.8000      7.8924      2.5389      0.0255      6.7344     47.5707     16.8938
   773.9000      7.8924      2.5208      0.0246      7.8276     52.4880     17.6647
   774.0000      7.8992      2.5236      0.0215      7.6626     54.2395     18.2687
   774.1000      7.8992      2.5295      0.0567      7.3047     53.0171     18.9055
   774.2000      7.8992      2.5187      0.0019      7.9567     51.1070     19.7137
   774.3000      7.8966      2.5026     -0.0085      8.9303     50.7392     20.0247
   774.4000      7.8966      2.4975      0.0153      9.2447     52.3588     19.8499
   774.5000      7.8983      2.5096      0.0255      8.5067     55.3080     19.6343
   774.6000      7.8983      2.5354      0.0520      6.9448     58.5646     19.0512
   774.7000      7.8983      2.5581      0.0795      5.5714     62.2275     18.5114
   774.8000      7.9072      2.5679      0.0295      4.9778     66.0586     18.9111
   774.9000      7.9072      2.5675      0.0615      5.0002     65.4881     19.7669
   775.0000      7.9070      2.5516      0.0722      5.9620     60.0138     20.3220
   775.1000      7.9070      2.5205      0.0256      7.8509     56.3972     20.6910
   775.2000      7.9070      2.4862      0.0198      9.9292     55.7255     20.9210
   775.3000      7.9229      2.4589      0.0179     11.5815     56.1244     20.7781
   775.4000      7.9229      2.4513     -0.0025     12.0417     61.1813     20.5833
   775.5000      7.8987      2.4596      0.0315     11.5405     70.4578     21.0251
   775.6000      7.8987      2.4572      0.0224     11.6859     76.6693     22.0353
   775.7000      7.8987      2.4339      0.0088     13.0979     76.8717     23.1083
   775.8000      7.9024      2.4053     -0.0142     14.8303     76.6051     23.9628
   775.9000      7.9024      2.3906      0.0323     15.7225     79.1201     24.2317
