~Version Information
VERS.                      2.0: CWLS Log ASCII Standard - VERSION 2.0
WRAP.                       NO: One line per depth step
~Well Information Block
STRT.FT                 0.5000: 
STOP.FT              2744.2500: 
STEP.FT                 0.2500: 
NULL.                -999.2500: 
COMP.          Petrogulf Corporation: COMPANY
WELL.              Silva 1-43V: WELL
FLD.           Purgatoire River: FIELD
LOC.           2010' FSL & 614' FEL--: LOCATION
PROV.                 Colorado: PROVINCE
CNTY.               Las Animas: COUNTRY
SRVC.                Patterson: SERVICE COMPANY
DATE.          Mon Sep 12 10:37:12 2005: LOG DATE
UWI.           05 071 08371 00: UNIQUE WELL ID
~Curve Information Block
DEPT.FT            0 000 00 00: Depth
CCL.                          : Casing Collar Locator
TT3.usec                      : CBL 3' Travel Time
AMP3.mV                       : CBL 3' Amplitude
GR.GAPI                       : Gamma Ray
~Parameter Information Block
~A  Depth       CCL         TT3         AMP3         GR     
# ...
  1809.5000      0.0000    620.3179      7.2826     90.1477
  1809.7500      0.0000    610.4279      7.1365     89.1260
  1810.0000      0.0000    610.2068      6.9046     88.1532
  1810.2500      0.0000    616.0494      6.7054     87.2504
  1810.5000      0.0000    622.8643      6.6265     86.5400
  1810.7500      0.0000    627.0786      6.6300     86.0111
  1811.0000      0.0000    629.3682      6.6069     85.6036
  1811.2500      0.0000    633.2361      6.5120     85.5296
  1811.5000      0.0000    640.2682      6.3926     86.3687
  1811.7500      2.0000    646.9824      6.3038     88.5583
  1812.0000     -2.0000    646.7416      6.2511     91.7511
  1812.2500      0.0000    635.8270      6.2140     94.8725
  1812.5000      0.0000    618.4615      6.1951     97.0461
  1812.7500      0.0000    604.7202      6.2387     98.6694
  1813.0000      0.0000    602.1712      6.3901    101.7018
  1813.2500      0.0000    609.8312      6.6214    108.8814
  1813.5000      0.0000    620.5775      6.8163    122.4293
  1813.7500      0.0000    628.5637      6.8709    142.7834
  1814.0000      0.0000    633.3446      6.7941    167.8517
  1814.2500      0.0000    637.5975      6.6786    193.5608
  1814.5000      0.0000    643.0783      6.5989    215.5194
  1814.7500      0.0000    649.3723      6.5684    230.0418
  1815.0000      0.0000    655.0910      6.5670    233.9855
  1815.2500      0.0000    659.2400      6.5741    225.5451
  1815.5000      0.0000    661.7788      6.5766    206.5003
  1815.7500      0.0000    663.4305      6.5677    182.6159
  1816.0000      0.0000    665.2482      6.5480    160.3260
  1816.2500      0.0000    668.2180      6.5262    143.0102
  1816.5000      0.0000    672.7505      6.5150    130.6907
  1816.7500      0.0000    677.9399      6.5207    122.3604
  1817.0000      0.0000    681.5533      6.5391    117.4246
  1817.2500      0.0000    681.5501      6.5641    115.1949
  1817.5000      0.0000    677.9213      6.5949    114.1867
  1817.7500      0.0000    672.7089      6.6328    112.4469
  1818.0000      0.0000    668.1904      6.6732    108.4672
  1818.2500      0.0000    665.3707      6.7084    101.9742
  1818.5000      0.0000    664.0130      6.7356     94.2450
  1818.7500      0.0000    663.4518      6.7581     87.4314
  1819.0000      0.0000    663.1154      6.7798     83.0649
  1819.2500      0.0000    662.5322      6.8018     81.2754
  1819.5000      0.0000    661.0795      6.8221     81.5478
  1819.7500      0.0000    657.8281      6.8359     83.6129
  1820.0000      0.0000    651.8959      6.8385     87.0353
  1820.2500      0.0000    643.3146      6.8303     90.4473
  1820.5000      0.0000    633.5186      6.8179     92.0735
  1820.7500      0.0000    624.5199      6.8076     91.1860
  1821.0000      0.0000    617.2715      6.8006     88.5895
  1821.2500      0.0000    610.8929      6.7951     85.5731
  1821.5000      0.0000    603.6008      6.7908     82.7054
  1821.7500      0.0000    594.4351      6.7880     79.8735
  1822.0000      0.0000    584.1135      6.7842     77.1669
  1822.2500      0.0000    574.1735      6.7743     75.1185
  1822.5000      0.0000    565.3969      6.7555     73.9842
  1822.7500      0.0000    557.5359      6.7309     73.3267
  1823.0000      0.0000    550.9599      6.7083     72.6706
  1823.2500      0.0000    548.5026      6.6954     72.1408
  1823.5000      0.0000    555.0620      6.6965     72.0465
  1823.7500      0.0000    574.2932      6.7079     72.2382
  1824.0000      0.0000    604.6954      6.7172     72.4328
  1824.2500      0.0000    638.9946      6.7103     72.8269
  1824.5000      0.0000    668.3202      6.6834     73.7138
  1824.7500      0.0000    687.6378      6.6462     74.7082
  1825.0000      0.0000    697.4935      6.6099     75.0346
  1825.2500      0.0000    701.5833      6.5749     74.4866
  1825.5000      0.0000    703.6425      6.5311     73.5481
  1825.7500      0.0000    706.0531      6.4680     72.6232
  1826.0000      0.0000    709.6190      6.3827     71.5823
  1826.2500      0.0000    713.4537      6.2799     70.1649
  1826.5000      0.0000    715.3087      6.1622     68.6676
  1826.7500      0.0000    713.1119      6.0210     68.1255
  1827.0000      0.0000    706.9258      5.8398     69.7317
  1827.2500      0.0000    699.3361      5.6118     73.9141
  1827.5000      0.0000    693.5850      5.3505     79.8511
  1827.7500      0.0000    691.2438      5.0841     85.9018
  1828.0000      0.0000    691.6342      4.8389     90.7483
  1828.2500      0.0000    693.1492      4.6265     94.4157
  1828.5000      0.0000    694.7054      4.4483     98.0587
  1828.7500      0.0000    696.0820      4.3073    102.4050
  1829.0000      0.0000    697.5582      4.2156    106.4618
  1829.2500      0.0000    699.7336      4.1882    108.1280
  1829.5000      0.0000    703.4183      4.2332    106.2525
  1829.7500      0.0000    708.9713      4.3489    101.9230
  1830.0000      0.0000    715.5284      4.5294     97.6742
  1830.2500      0.0000    721.7960      4.7718     95.6706
  1830.5000      0.0000    728.4285      5.0707     96.5920
  1830.7500      0.0000    738.8738      5.4066     99.6361
  1831.0000      0.0000    756.1514      5.7472    103.3398
  1831.2500      0.0000    778.2202      6.0673    106.7963
  1831.5000      0.0000    797.3047      6.3646    110.2299
  1831.7500      0.0000    804.7907      6.6478    114.2569
  1832.0000      0.0000    797.2618      6.9111    118.9844
  1832.2500      0.0000    778.0576      7.1239    124.2213
  1832.5000      0.0000    753.7777      7.2495    129.9908
  1832.7500      0.0000    730.0577      7.2773    136.2074
  1833.0000      0.0000    709.9034      7.2328    142.1183
  1833.2500      0.0000    694.1840      7.1538    146.5248
  1833.5000      0.0000    682.7068      7.0640    148.5157
  1833.7500      0.0000    675.0292      6.9755    148.0331
  1834.0000      0.0000    670.7469      6.9028    146.0220
  1834.2500      0.0000    669.6318      6.8593    143.9764
  1834.5000      0.0000    672.1516      6.8399    143.0222
  1834.7500      0.0000    679.8699      6.8223    143.4159
  1835.0000      0.0000    694.3928      6.7868    144.8614
  1835.2500      0.0000    714.8810      6.7315    146.8976
  1835.5000      0.0000    736.6059      6.6681    148.9923
  1835.7500      0.0000    753.1559      6.6085    150.6550
  1836.0000      0.0000    760.8066      6.5577    151.5826
  1836.2500      0.0000    760.5133      6.5168    151.6747
  1836.5000      0.0000    755.7791      6.4906    151.0278
  1836.7500      0.0000    749.5394      6.4872    149.9085
  1837.0000      0.0000    742.9960      6.5107    148.6767
  1837.2500      0.0000    735.9030      6.5539    147.8675
  1837.5000      0.0000    727.2362      6.5994    148.2323
  1837.7500      0.0000    716.4458      6.6289    150.1804
  1838.0000      0.0000    704.6339      6.6327    153.1298
  1838.2500      0.0000    694.1037      6.6126    155.9428
  1838.5000      0.0000    686.6198      6.5810    158.0079
  1838.7500      0.0000    682.2885      6.5552    159.4576
  1839.0000      0.0000    680.1337      6.5499    160.4262
  1839.2500      0.0000    679.6268      6.5714    160.5234
  1839.5000      0.0000    681.3553      6.6187    159.0766
  1839.7500      0.0000    685.9210      6.6902    155.7404
  1840.0000      0.0000    692.5037      6.7923    150.9252
  1840.2500      0.0000    699.0706      6.9432    145.7880
  1840.5000      0.0000    703.8801      7.1625    141.7251
  1840.7500      0.0000    706.3989      7.4475    139.5150
  1841.0000      0.0000    706.8600      7.7589    138.7668
  1841.2500      0.0000    705.3950      8.0379    138.3859
  1841.5000      0.0000    701.9114      8.2403    137.4941
  1841.7500      0.0000    696.8189      8.3574    135.7292
  1842.0000      0.0000    691.5291      8.4107    133.3351
  1842.2500      0.0000    687.7458      8.4308    131.5693
  1842.5000      0.0000    686.2703      8.4393    132.2087
  1842.7500      0.0000    686.8670      8.4425    135.7176
