~Version Information
 VERS.                                  2.0 : CWLS LAS VERSION
 WRAP.                                   NO : WRAPING MODE
 SWARE .                 MController 2.5.0I : SOFTWARE VERSION
~Well Information
 WELL.                        Tomahawk 44-9 : WELL
 COMP.             Evergreen Operating Corp : COMPANY
 FLD.                      Purgatorie River : FIELD
 LOC.                 SE/SE Sec 9 T33S R65W : LOCATION
 DATE.                              9/11/04 : DATE(S) LOGGED
 SRVC.       Blanco Geological Services LLC : SERVICE COMPANY
 STAT.                                   CO : STATE
 CNTY.                           Las Animas : COUNTY
 CTRY.                                  USA : COUNTRY
 API.                       05-071-08133-00 : API NUMBER
 STRT.FT                             696.00 : START DEPTH
 STOP.FT                            1585.00 : STOP DEPTH
 STEP.FT                               1.00 : DEPTH INCREMENT
 NULL.                                -9999 : NULL VALUE
~Curve information
 DEPTH.FT                                   :
 ROP.MIN/FT                                 :
 GAS.UNITS                                  :
~ASCII Log data
# ...
       896.0          1.6          2.2 
       897.0          0.1          1.9 
       898.0          0.1          1.8 
       899.0          0.2          1.8 
       900.0          0.2          1.6 
       901.0          0.1          1.8 
       902.0          0.1          1.8 
       903.0          0.2          1.9 
       904.0          0.1          1.8 
       905.0          0.1          1.9 
       906.0          0.1          1.8 
       907.0          0.1          2.0 
       908.0          0.1          2.0 
       909.0          0.1          1.7 
       910.0          0.1          2.0 
       911.0          0.1          2.0 
       912.0          0.1          2.1 
       913.0          0.2          2.2 
       914.0          0.1          1.9 
       915.0          0.1          2.2 
       916.0          0.1          2.1 
       917.0          0.1          2.2 
       918.0          0.1          2.4 
       919.0          0.1          2.3 
       920.0          0.1          2.1 
       921.0          0.2          2.3 
       922.0          0.2          2.4 
       923.0          0.1          2.3 
       924.0          0.1          2.4 
       925.0          0.2          2.4 
       926.0          3.7          2.8 
       927.0          0.3          2.8 
       928.0          0.3          3.1 
       929.0          0.2          2.7 
       930.0          0.2          2.7 
       931.0          0.2          2.6 
       932.0          0.3          2.4 
       933.0          0.2          2.4 
       934.0          0.3          2.4 
       935.0          0.2          2.2 
       936.0          0.2          2.2 
       937.0          0.3          2.2 
       938.0          0.2          2.2 
       939.0          0.2          2.3 
       940.0          0.2          2.2 
       941.0          0.2          2.1 
       942.0          0.2          2.1 
       943.0          0.2          2.3 
       944.0          0.2          1.9 
       945.0          0.2          1.8 
       946.0          0.2          1.7 
       947.0          0.2          2.0 
       948.0          0.2          1.8 
       949.0          0.2          2.1 
       950.0          0.3          4.8 
       951.0          0.3          9.6 
       952.0          0.2         12.3 
       953.0          0.2         13.9 
       954.0          0.1         14.3 
       955.0          0.2         14.2 
       956.0          1.6         49.3 
       957.0          0.2         42.5 
       958.0          0.2         35.1 
       959.0          0.2         29.2 
       960.0          0.1         23.0 
       961.0          0.2         20.6 
       962.0          0.2         17.8 
       963.0          0.3         16.0 
       964.0          0.2         13.4 
       965.0          0.3         11.9 
       966.0          0.2         10.6 
       967.0          0.2         10.2 
       968.0          0.1          9.9 
       969.0          0.2          9.7 
       970.0          0.2          9.5 
       971.0          0.2          9.4 
       972.0          0.2          9.9 
       973.0          0.2         10.1 
       974.0          0.2          9.9 
       975.0          0.2          9.5 
       976.0          0.2          9.6 
       977.0          0.2          9.7 
       978.0          0.1          9.4 
       979.0          0.2          9.3 
       980.0          0.1          9.6 
       981.0          0.2          9.0 
       982.0          0.2          8.9 
       983.0          0.2          8.4 
       984.0          0.3          8.5 
       985.0          0.3          8.5 
       986.0         22.6        970.1 
       987.0          0.2         72.9 
       988.0          0.2         45.8 
       989.0          0.2         30.0 
       990.0          0.1         20.5 
       991.0          0.1         17.3 
       992.0          0.2         14.8 
       993.0          0.2         11.4 
       994.0          0.2          9.5 
       995.0          0.2          7.8 
       996.0          0.2          6.7 
       997.0          0.2          6.2 
       998.0          0.2          5.5 
       999.0          0.2          5.2 
      1000.0          0.2          4.9 
      1001.0          0.2          4.9 
      1002.0          0.2          4.6 
      1003.0          0.2          4.5 
      1004.0          0.2          4.1 
      1005.0          0.2          4.0 
      1006.0          0.2          4.1 
      1007.0          0.2          3.8 
      1008.0          0.2          3.8 
      1009.0          0.2          4.0 
      1010.0          0.2          4.6 
      1011.0          0.2          4.7 
      1012.0          0.2          4.1 
      1013.0          0.2          3.5 
      1014.0          0.2          2.8 
      1015.0          0.2          2.3 
      1016.0          2.0         20.2 
      1017.0          0.1         12.8 
      1018.0          0.1         11.0 
      1019.0          0.2          9.7 
      1020.0          0.2          8.1 
      1021.0          0.2          6.7 
      1022.0          0.2          5.8 
      1023.0          0.2          4.7 
      1024.0          0.2          4.3 
      1025.0          0.1          4.0 
      1026.0          0.1          3.5 
      1027.0          0.1          3.7 
      1028.0          0.1          3.0 
      1029.0          0.3          2.9 
      1030.0          0.2          2.9 
      1031.0          0.3          3.1 
      1032.0          0.3          3.0 
      1033.0          0.3          2.7 
      1034.0          0.2          2.6 
      1035.0          0.2          2.7 
      1036.0          0.2          2.7 
      1037.0          0.2          2.9 
      1038.0          0.2          2.9 
      1039.0          0.2          2.8 
      1040.0          0.2          3.0 
      1041.0          0.2          3.1 
      1042.0          0.2          3.7 
      1043.0          0.2          3.3 
      1044.0          0.2          2.9 
      1045.0          0.2          2.5 
      1046.0          1.8         16.2 
      1047.0          0.0         12.7 
      1048.0          0.3         12.2 
      1049.0          0.3          9.4 
      1050.0          0.4          7.5 
      1051.0          0.3          5.3 
      1052.0          0.2          4.7 
      1053.0          0.2          4.5 
      1054.0          0.2          3.6 
      1055.0          0.2          3.5 
      1056.0          0.2          3.6 
      1057.0          0.2          3.1 
      1058.0          0.2          3.2 
      1059.0          0.2          2.9 
      1060.0          0.1          1.8 
      1061.0          0.1          1.9 
      1062.0          0.2          1.6 
      1063.0          0.1          1.1 
      1064.0          0.2          0.1 
      1065.0          0.1         -0.1 
      1066.0          0.1         -0.7 
      1067.0          0.1         -1.0 
      1068.0          0.2         -1.1 
      1069.0          0.2         -1.4 
      1070.0          0.2         -0.5 
      1071.0          0.2          0.9 
      1072.0          0.2          1.5 
      1073.0          0.2          1.7 
      1074.0          0.2          2.0 
      1075.0          0.2          1.5 
      1076.0          1.5         20.4 
      1077.0          0.2         19.7 
      1078.0          0.2         17.2 
      1079.0          0.3         13.4 
      1080.0          0.2          8.7 
      1081.0          0.2          6.7 
      1082.0          0.2          5.6 
      1083.0          0.2          4.7 
      1084.0          0.3          4.4 
      1085.0          0.4          3.5 
      1086.0          0.2          3.2 
      1087.0          0.3          2.9 
      1088.0          0.2          2.4 
      1089.0          0.2          2.5 
      1090.0          0.2          2.0 
      1091.0          0.1          1.9 
      1092.0          0.2          1.8 
      1093.0          0.2          1.9 
      1094.0          0.2          2.4 
      1095.0          0.2          2.2 
