~Version Information
VERS.                      2.0: CWLS Log ASCII Standard - VERSION 2.0
WRAP.                       NO: One line per depth step
~Well Information Block
STRT.FT               494.2500: 
STOP.FT              1992.0000: 
STEP.FT                 0.2500: 
NULL.                -999.2500: 
COMP.          Petrogulf Corporation: COMPANY
WELL.               Furu 6-23R: WELL
FLD.           Purgatoire River: FIELD
LOC.           2211' FSL & 1780' FWL--: LOCATION
CNTY.               Las Animas: COUNTY
SRVC.                Patterson: SERVICE COMPANY
DATE.          Wed Jun 21 14:57:59 2006: LOG DATE
UWI.           05 071 08266 00: UNIQUE WELL ID
STAT.                 Colorado: STATE
~Curve Information Block
DEPT.FT            0 000 00 00: Depth
GR.GAPI                       : Gamma Ray
RILD.Ohm-m                    : DIL Deep Resistivity
RILM.Ohm-m                    : DIL Medium Resistivity
RLL3.Ohm-m                    : DIL Shallow Resistivity
SP.mV                         : DIL Spontaneous Potential
~Parameter Information Block
~A  Depth        GR         RILD        RILM        RLL3         SP     
# ...
   998.2500    106.2486     38.2109     42.9134   2000.0000   2020.0000
   998.5000    106.8637     38.0528     42.3763   2000.0000   2020.0000
   998.7500    107.0823     37.9863     41.6356   2000.0000   2020.0000
   999.0000    107.4177     38.0342     40.8141   2000.0000   2020.0000
   999.2500    107.9237     38.2057     40.0298   2000.0000   2020.0000
   999.5000    109.3087     38.4822     39.3874   2000.0000   2020.0000
   999.7500    110.4006     38.8165     38.9631   2000.0000   2020.0000
  1000.0000    111.4269     39.1612     38.7907   2000.0000   2020.0000
  1000.2500    111.3525     39.5080     38.8589   2000.0000   2020.0000
  1000.5000    110.4033     39.9020     39.1309   2000.0000   2020.0000
  1000.7500    109.8314     40.4119     39.5737   2000.0000   2020.0000
  1001.0000    109.9156     41.0828     40.1857   2000.0000   2020.0000
  1001.2500    110.4140     41.9063     41.0117   2000.0000   2020.0000
  1001.5000    110.3864     42.8268     42.1414   2000.0000   2020.0000
  1001.7500    109.0727     43.7769     43.6883   2000.0000   2020.0000
  1002.0000    105.1064     44.7209     45.7505   2000.0000   2020.0000
  1002.2500    101.7495     45.6758     48.3638   2000.0000   2020.0000
  1002.5000     96.7357     46.6953     51.4648   2000.0000   2020.0000
  1002.7500     93.6888     47.8260     54.8808   2000.0000   2020.0000
  1003.0000     89.4666     49.0732     58.3528   2000.0000   2020.0000
  1003.2500     86.6758     50.4036     61.5873   2000.0000   2020.0000
  1003.5000     82.2729     51.7792     64.3350   2000.0000   2020.0000
  1003.7500     79.2893     53.1767     66.4785   2000.0000   2020.0000
  1004.0000     75.3448     54.5679     68.0733   2000.0000   2020.0000
  1004.2500     73.3863     55.8883     69.2875   2000.0000   2020.0000
  1004.5000     71.2721     57.0550     70.2841   2000.0000   2020.0000
  1004.7500     69.9133     58.0344     71.1517   2000.0000   2020.0000
  1005.0000     67.3306     58.8898     71.9173   2000.0000   2020.0000
  1005.2500     65.4377     59.7475     72.5793   2000.0000   2020.0000
  1005.5000     63.3445     60.7149     73.1098   2000.0000   2020.0000
  1005.7500     62.9091     61.8234     73.4510   2000.0000   2020.0000
  1006.0000     63.6709     63.0314     73.5551   2000.0000   2020.0000
  1006.2500     64.7392     64.2562     73.4364   2000.0000   2020.0000
  1006.5000     66.4379     65.4023     73.1740   2000.0000   2020.0000
  1006.7500     67.3159     66.3788     72.8583   2000.0000   2020.0000
  1007.0000     67.9133     67.1215     72.5476   2000.0000   2020.0000
  1007.2500     67.7471     67.6146     72.2711   2000.0000   2020.0000
  1007.5000     66.7647     67.8873     72.0555   2000.0000   2020.0000
  1007.7500     65.8531     67.9847     71.9359   2000.0000   2020.0000
  1008.0000     64.6201     67.9501     71.9532   2000.0000   2020.0000
  1008.2500     64.0858     67.8411     72.1554   2000.0000   2020.0000
  1008.5000     63.6797     67.7535     72.6049   2000.0000   2020.0000
  1008.7500     63.5515     67.7985     73.3688   2000.0000   2020.0000
  1009.0000     63.5474     68.0298     74.4841   2000.0000   2020.0000
  1009.2500     63.7352     68.3830     75.9194   2000.0000   2020.0000
  1009.5000     64.1928     68.6914     77.5633   2000.0000   2020.0000
  1009.7500     64.4214     68.7745     79.2407   2000.0000   2020.0000
  1010.0000     64.5499     68.5238     80.7421   2000.0000   2020.0000
  1010.2500     64.6943     67.9106     81.8514   2000.0000   2020.0000
  1010.5000     65.3837     66.9295     82.3717   2000.0000   2020.0000
  1010.7500     66.1282     65.5652     82.1470   2000.0000   2020.0000
  1011.0000     67.2859     63.8272     81.0648   2000.0000   2020.0000
  1011.2500     67.9773     61.7979     79.0425   2000.0000   2020.0000
  1011.5000     69.2737     59.6219     76.0393   2000.0000   2020.0000
  1011.7500     70.7644     57.4377     72.1270   2000.0000   2020.0000
  1012.0000     74.6186     55.3217     67.5591   2000.0000   2020.0000
  1012.2500     78.4138     53.2906     62.7350   2000.0000   2020.0000
  1012.5000     85.8469     51.3457     58.0584   2000.0000   2020.0000
  1012.7500     91.8471     49.5082     53.8041   2000.0000   2020.0000
  1013.0000    102.0793     47.8175     50.0888   2000.0000   2020.0000
  1013.2500    109.2558     46.3017     46.9250   2000.0000   2020.0000
  1013.5000    119.2406     44.9563     44.2852   2000.0000   2020.0000
  1013.7500    124.5832     43.7520     42.1326   2000.0000   2020.0000
  1014.0000    129.8003     42.6659     40.4238   2000.0000   2020.0000
  1014.2500    131.3432     41.7076     39.1103   2000.0000   2020.0000
  1014.5000    131.2338     40.9191     38.1522   2000.0000   2020.0000
  1014.7500    130.0368     40.3513     37.5362   2000.0000   2020.0000
  1015.0000    127.3065     40.0362     37.2808   2000.0000   2020.0000
  1015.2500    125.0170     39.9729     37.4191   2000.0000   2020.0000
  1015.5000    120.6235     40.1287     37.9709   2000.0000   2020.0000
  1015.7500    116.7997     40.4545     38.9179   2000.0000   2020.0000
  1016.0000    109.5268     40.9058     40.1935   2000.0000   2020.0000
  1016.2500    103.8138     41.4611     41.6912   2000.0000   2020.0000
  1016.5000     94.6648     42.1254     43.2907   2000.0000   2020.0000
  1016.7500     88.6921     42.9146     44.8925   2000.0000   2020.0000
  1017.0000     80.7309     43.8322     46.4411   2000.0000   2020.0000
  1017.2500     76.4958     44.8521     47.9233   2000.0000   2020.0000
  1017.5000     90.2527     45.9169     49.3482   2000.0000   2020.0000
  1017.7500     88.3380     46.9502     50.7264   2000.0000   2020.0000
  1018.0000     87.1040     47.8760     52.0528   2000.0000   2020.0000
  1018.2500     86.6076     48.6390     53.2895   2000.0000   2020.0000
  1018.5000    102.2984     49.2187     54.3489   2000.0000   2020.0000
  1018.7500    100.6245     49.6281     55.1063   2000.0000   2020.0000
  1019.0000     98.4901     49.8988     55.4555   2000.0000   2020.0000
  1019.2500     98.1933     50.0643     55.3823   2000.0000   2020.0000
  1019.5000     99.4373     50.1513     54.9902   2000.0000   2020.0000
  1019.7500    100.5011     50.1797     54.4561   2000.0000   2020.0000
  1020.0000    101.2284     50.1667     53.9501   2000.0000   2020.0000
  1020.2500    101.2814     50.1271     53.5783   2000.0000   2020.0000
  1020.5000    101.6108     50.0743     53.3751   2000.0000   2020.0000
  1020.7500    102.1130     50.0223     53.3255   2000.0000   2020.0000
  1021.0000    102.6707     49.9884     53.3933   2000.0000   2020.0000
  1021.2500    102.5330     49.9859     53.5397   2000.0000   2020.0000
  1021.5000    101.1798     50.0111     53.7321   2000.0000   2020.0000
  1021.7500     99.3839     50.0391     53.9503   2000.0000   2020.0000
  1022.0000     95.6362     50.0379     54.1952   2000.0000   2020.0000
  1022.2500     93.0392     49.9861     54.4944   2000.0000   2020.0000
  1022.5000     89.9652     49.8700     54.9018   2000.0000   2020.0000
  1022.7500     88.4579     49.6596     55.4781   2000.0000   2020.0000
  1023.0000     86.3074     49.2919     56.2565   2000.0000   2020.0000
  1023.2500     84.6972     48.6888     57.2036   2000.0000   2020.0000
  1023.5000     82.1814     47.8016     58.1982   2000.0000   2020.0000
  1023.7500     80.5400     46.6498     59.0408   2000.0000   2020.0000
  1024.0000     77.7474     45.3248     59.4864   2000.0000   2020.0000
  1024.2500     75.3240     43.9600     59.2963   2000.0000   2020.0000
  1024.5000     71.1938     42.6843     58.3049   2000.0000   2020.0000
  1024.7500     69.1307     41.5874     56.4933   2000.0000   2020.0000
  1025.0000     69.1295     40.7087     54.0212   2000.0000   2020.0000
  1025.2500     71.7044     40.0519     51.1805   2000.0000   2020.0000
  1025.5000     78.8056     39.6064     48.2918   2000.0000   2020.0000
  1025.7500     84.9741     39.3553     45.6127   2000.0000   2020.0000
  1026.0000     95.2205     39.2642     43.3037   2000.0000   2020.0000
