~Version Information
 VERS.                                  2.0 : CWLS LAS VERSION
 WRAP.                                   NO : WRAPING MODE
 SWARE .                 MController 2.5.0J : SOFTWARE VERSION
~Well Information
 WELL.                      Warrior 33-1 Tr : WELL
 COMP.    Pioneer Natural Resources USA Inc : COMPANY
 FLD.                      Purgatoire River : FIELD
 LOC.                 NW/SE Sec 1 T33S R67W : LOCATION
 DATE.                            6/17/2005 : DATE(S) LOGGED
 SRVC.      Blanco Geological Services LLC  : SERVICE COMPANY
 STAT.                                   CO : STATE
 CNTY.                           Las Animas : COUNTY
 CTRY.                                  USA : COUNTRY
 API.                       05-071-08412-00 : API NUMBER
 STRT.FT                             383.00 : START DEPTH
 STOP.FT                            1751.00 : STOP DEPTH
 STEP.FT                               1.00 : DEPTH INCREMENT
 NULL.                                -9999 : NULL VALUE
~Curve information
 DEPTH.FT                                   :
 ROP.MIN/FT                                 :
 GAS.UNITS                                  :
~ASCII Log data
# ...
       583.0         0.17          6.3 
       584.0         0.17          6.1 
       585.0         0.17          6.3 
       586.0         0.17          5.9 
       587.0         0.17          5.5 
       588.0         0.13          4.6 
       589.0         0.20          4.1 
       590.0         0.17          3.4 
       591.0         0.17          2.9 
       592.0         0.22          2.2 
       593.0         0.17          2.1 
       594.0         0.20          1.9 
       595.0         0.10          1.8 
       596.0         0.10          1.5 
       597.0         0.20          1.5 
       598.0         0.20          3.5 
       599.0         0.20          6.6 
       600.0         1.67         94.0 
       601.0         0.33         62.2 
       602.0         0.32         36.5 
       603.0         0.33         25.5 
       604.0         0.23         12.6 
       605.0         0.17          9.7 
       606.0         0.20          6.9 
       607.0         0.20          4.8 
       608.0         0.20          3.5 
       609.0         0.17          2.1 
       610.0         0.17          2.6 
       611.0         0.37          3.6 
       612.0         0.13          4.0 
       613.0         0.30          5.2 
       614.0         0.30          5.8 
       615.0         0.27          5.4 
       616.0         0.32          4.0 
       617.0         0.20          2.7 
       618.0         0.20          1.8 
       619.0         0.23          1.5 
       620.0         0.23          1.1 
       621.0         0.20          1.2 
       622.0         0.20          1.2 
       623.0         0.20          1.4 
       624.0         0.20          1.4 
       625.0         0.17          1.4 
       626.0         0.23          1.4 
       627.0         0.20          1.3 
       628.0         0.20          1.6 
       629.0         0.23          3.0 
       630.0         1.82         63.1 
       631.0         0.30         55.2 
       632.0         0.30         42.8 
       633.0         0.20         30.1 
       634.0         0.23         20.4 
       635.0         0.33         13.5 
       636.0         0.20          7.7 
       637.0         0.20          5.4 
       638.0         0.22          3.3 
       639.0         0.20          2.3 
       640.0         0.27          1.7 
       641.0         0.13          1.3 
       642.0         0.17          1.3 
       643.0         0.20          1.6 
       644.0         0.20          1.1 
       645.0         0.23          1.8 
       646.0         0.17          3.3 
       647.0         0.17          5.6 
       648.0         0.17          8.5 
       649.0         0.13          9.6 
       650.0         0.13         12.6 
       651.0         0.13         13.4 
       652.0         0.17         14.6 
       653.0         0.13         14.1 
       654.0         0.17         13.9 
       655.0         0.23         12.9 
       656.0         0.17         10.8 
       657.0         0.18          9.2 
       658.0         0.23          6.7 
       659.0         0.13          5.0 
       660.0         1.83          3.4 
       661.0         0.40          1.6 
       662.0         0.23          2.4 
       663.0         0.33          5.7 
       664.0         0.35          7.6 
       665.0         0.23          8.6 
       666.0         0.10          8.4 
       667.0         0.23          8.0 
       668.0         0.23          7.9 
       669.0         0.20          7.6 
       670.0         0.17          7.7 
       671.0         0.20          7.8 
       672.0         0.23          8.0 
       673.0         0.20          8.5 
       674.0         0.20          8.1 
       675.0         0.20          8.1 
       676.0         0.17          8.3 
       677.0         0.13          7.9 
       678.0         0.20          7.6 
       679.0         0.17          7.5 
       680.0         0.20          7.6 
       681.0         0.25          6.9 
       682.0         0.13          5.7 
       683.0         0.17          5.2 
       684.0         0.17          4.1 
       685.0         0.17          3.1 
       686.0         0.17          3.2 
       687.0         0.23          2.5 
       688.0         0.17          2.3 
       689.0         0.23          6.7 
       690.0         2.28        103.4 
       691.0         0.27         28.5 
       692.0         0.33         19.0 
       693.0         0.27         12.0 
       694.0         0.23         10.0 
       695.0         0.27          8.3 
       696.0         0.17          7.6 
       697.0         0.20          7.3 
       698.0         0.17          7.8 
       699.0         0.17          7.6 
       700.0         0.27          8.1 
       701.0         0.30          8.4 
       702.0         0.25          8.4 
       703.0         0.20          7.6 
       704.0         0.20          7.8 
       705.0         0.20          8.0 
       706.0         0.23         10.3 
       707.0         0.23         11.8 
       708.0         0.20         12.3 
       709.0         0.17         12.5 
       710.0         0.23         12.3 
       711.0         0.23         11.7 
       712.0         0.20         13.0 
       713.0         0.23         16.0 
       714.0         0.20         16.2 
       715.0         0.17         16.1 
       716.0         0.17         15.1 
       717.0         0.13         15.7 
       718.0         0.10         18.5 
       719.0         0.13         26.1 
       720.0         1.68        136.4 
       721.0         0.40         83.5 
       722.0         0.20         44.0 
       723.0         0.23         34.5 
       724.0         0.13         24.0 
       725.0         0.27         21.0 
       726.0         0.20         18.0 
       727.0         0.17         15.2 
       728.0         0.18         14.3 
       729.0         0.13         13.5 
       730.0         0.20         13.1 
       731.0         0.20         12.9 
       732.0         0.20         12.0 
       733.0         0.20         11.6 
       734.0         0.17         11.8 
       735.0         0.17         12.0 
       736.0         0.17         12.2 
       737.0         0.20         11.9 
       738.0         0.20         12.1 
       739.0         0.20         12.4 
       740.0         0.13         12.4 
       741.0         0.17         12.0 
       742.0         0.17         11.7 
       743.0         0.20         11.6 
       744.0         0.17         11.1 
       745.0         0.17         10.1 
       746.0         0.13          9.3 
       747.0         0.18          9.6 
       748.0         0.17         12.8 
       749.0         0.13         16.5 
       750.0         1.93        104.7 
       751.0         0.20         45.0 
       752.0         0.27         33.0 
       753.0         0.20         21.7 
       754.0         0.23         16.6 
       755.0         0.22         12.9 
       756.0         0.17         11.4 
       757.0         0.20         10.5 
       758.0         0.13          9.5 
       759.0         0.17          9.0 
       760.0         0.17          9.3 
       761.0         0.13          9.2 
       762.0         0.13          9.2 
       763.0         0.33          9.1 
       764.0         0.53          7.0 
       765.0         0.37          3.5 
       766.0         0.23          2.0 
       767.0         0.23          1.4 
       768.0         0.43          1.2 
       769.0         0.22          0.8 
       770.0         0.20          0.7 
       771.0         0.30          0.6 
       772.0         0.10          0.6 
       773.0         0.13          0.9 
       774.0         0.17          0.7 
       775.0         0.17          0.8 
       776.0         0.13          0.8 
       777.0         0.17          1.0 
       778.0         0.20          0.7 
       779.0         0.13          0.6 
       780.0         2.18          1.3 
       781.0         0.27          1.0 
       782.0         0.33          1.1 
