~Version Information
 VERS.                                  2.0 : CWLS LAS VERSION
 WRAP.                                   NO : WRAPING MODE
 SWARE .                 MController 2.5.0N : SOFTWARE VERSION
~Well Information
 WELL.                    Santisteven 13-22 : WELL
 COMP.    Pioneer Natural Resources USA Inc : COMPANY
 FLD.                      Purgatoire River : FIELD
 LOC.                NW/SW Sec 22 T33S R65W : LOCATION
 DATE.                               4/2/05 : DATE(S) LOGGED
 SRVC.       Blanco Geological Services LLC : SERVICE COMPANY
 STAT.                                   CO : STATE
 CNTY.                           Las Animas : COUNTY
 CTRY.                                  USA : COUNTRY
 API.                       05-071-08337-00 : API NUMBER
 STRT.FT                             254.00 : START DEPTH
 STOP.FT                             894.00 : STOP DEPTH
 STEP.FT                               1.00 : DEPTH INCREMENT
 NULL.                                -9999 : NULL VALUE
~Curve information
 DEPTH.FT                                   :
 ROP.MIN/FT                                 :
 GAS.UNITS                                  :
~ASCII Log data
# ...
       454.0         0.17         47.2 
       455.0         0.17         47.9 
       456.0         0.28         48.6 
       457.0         0.27         58.7 
       458.0         0.30         98.0 
       459.0         0.23         98.0 
       460.0         0.33        114.8 
       461.0         0.27        117.0 
       462.0         0.23        117.9 
       463.0         0.20        117.8 
       464.0         0.20        116.6 
       465.0         0.20        116.1 
       466.0         0.23        115.3 
       467.0         0.23        115.8 
       468.0         0.23        115.8 
       469.0         0.20        114.9 
       470.0         0.22        114.0 
       471.0         3.38        386.2 
       472.0         0.37        417.9 
       473.0         0.30        367.3 
       474.0         0.20        271.2 
       475.0         0.23        199.1 
       476.0         0.23        187.5 
       477.0         0.27        177.3 
       478.0         0.13        159.1 
       479.0         0.20        156.9 
       480.0         0.23        139.3 
       481.0         0.30        128.5 
       482.0         0.33        119.5 
       483.0         0.33        118.7 
       484.0         0.42        117.6 
       485.0         0.30        115.4 
       486.0         0.27        114.1 
       487.0         0.30        113.0 
       488.0         0.30        110.5 
       489.0         0.37        107.7 
       490.0         0.30        107.3 
       491.0         0.30        108.6 
       492.0         0.30        108.8 
       493.0         0.30        108.5 
       494.0         0.27        108.4 
       495.0         0.32        109.6 
       496.0         0.37        110.6 
       497.0         0.40        110.8 
       498.0         0.33        111.8 
       499.0         0.40        112.4 
       500.0         0.37        111.8 
       501.0       129.78       9846.1 
       502.0         2.52        966.8 
       503.0         0.43        143.9 
       504.0         0.43        106.1 
       505.0         0.47         98.8 
       506.0         0.60         95.3 
       507.0         0.53         78.5 
       508.0         0.48         74.3 
       509.0         0.53        125.9 
       510.0         0.37        152.6 
       511.0         0.43        157.3 
       512.0         0.40        155.7 
       513.0         0.43        156.6 
       514.0         0.37        157.0 
       515.0         0.37        157.5 
       516.0         0.42        137.4 
       517.0         0.33        121.1 
       518.0         0.27         60.4 
       519.0         0.23         59.5 
       520.0         0.37         58.6 
       521.0         0.37         58.1 
       522.0         0.30         58.0 
       523.0         0.33         57.9 
       524.0         0.37         57.8 
       525.0         0.33         57.6 
       526.0         0.25         57.2 
       527.0         0.10         57.5 
       528.0         0.23         57.2 
       529.0         0.30         57.4 
       530.0         0.33         57.4 
       531.0         3.02         57.4 
       532.0         1.20         16.7 
       533.0         0.40          1.7 
       534.0         0.33          2.8 
       535.0         0.43        176.2 
       536.0         0.48        181.2 
       537.0         0.40        174.9 
       538.0         0.40        169.6 
       539.0         0.30        163.8 
       540.0         0.33        160.9 
       541.0         0.20        155.2 
       542.0         0.27        153.7 
       543.0         0.37        151.8 
       544.0         0.40        154.4 
       545.0         0.38        157.5 
       546.0         0.43        156.9 
       547.0         0.47        154.3 
       548.0         0.47        152.4 
       549.0         0.40        151.4 
       550.0         0.40        150.1 
       551.0         0.40        146.5 
       552.0         0.43        145.3 
       553.0         0.48        145.2 
       554.0         0.40        144.5 
       555.0         0.43        142.4 
       556.0         0.37        137.3 
       557.0         0.40        135.9 
       558.0         0.33        134.4 
       559.0         0.23        134.4 
       560.0         0.40        122.1 
       561.0         2.65         10.9 
       562.0         0.93        354.5 
       563.0         0.42        331.8 
       564.0         0.33        270.0 
       565.0         0.40        242.2 
       566.0         0.33        214.3 
       567.0         0.40        174.5 
       568.0         0.40        158.2 
       569.0         0.40        146.7 
       570.0         0.43        139.7 
       571.0         0.40        133.7 
       572.0         0.35        130.9 
       573.0         0.33        128.9 
       574.0         0.33        126.9 
       575.0         0.40        127.1 
       576.0         0.43        128.1 
       577.0         0.40        129.2 
       578.0         0.40        129.8 
       579.0         0.40        129.2 
       580.0         0.40        129.0 
       581.0         0.42        128.8 
       582.0         0.37        128.0 
       583.0         0.40        128.0 
       584.0         0.40        126.6 
       585.0         0.37        125.3 
       586.0         0.40        125.6 
       587.0         0.37        125.5 
       588.0         0.33        125.3 
       589.0         0.37        124.9 
       590.0         0.42        123.9 
       591.0         3.72        429.1 
       592.0         0.50        225.5 
       593.0         0.40        228.1 
       594.0         0.40        225.6 
       595.0         0.37        173.4 
       596.0         0.37        155.1 
       597.0         0.37        142.3 
       598.0         0.35        139.5 
       599.0         0.33        133.6 
       600.0         0.33        132.6 
       601.0         0.40        129.1 
       602.0         0.33        127.1 
       603.0         0.27        125.7 
       604.0         0.33        125.4 
       605.0         0.37        125.5 
       606.0         0.37        125.6 
       607.0         0.40        126.9 
       608.0         0.22        129.3 
       609.0         0.27        129.3 
       610.0         0.30        129.5 
       611.0         0.33        126.3 
       612.0         0.40        128.5 
       613.0         0.40        129.7 
       614.0         0.40        130.2 
       615.0         0.33        131.1 
       616.0         0.40        129.9 
       617.0         0.30        128.7 
       618.0         0.22        129.6 
       619.0         0.27        129.4 
       620.0         0.33        128.5 
       621.0         2.62        273.2 
       622.0         0.23        379.2 
       623.0         0.33        398.3 
       624.0         0.23        282.2 
       625.0         0.27        217.7 
       626.0         0.43        237.5 
       627.0         0.37        231.1 
       628.0         0.40        208.4 
       629.0         0.40        168.4 
       630.0         0.40        162.2 
       631.0         0.32        148.6 
       632.0         0.20        145.3 
       633.0         0.13        140.9 
       634.0         0.13        139.0 
       635.0         0.13        139.0 
       636.0         0.13        138.4 
       637.0         0.30        171.4 
       638.0         0.43        320.1 
       639.0         0.40        381.6 
       640.0         0.33        385.3 
       641.0         0.37        367.5 
       642.0         0.33        351.2 
       643.0         0.35        343.5 
       644.0         0.27        340.1 
       645.0         0.17        335.8 
       646.0         1.10        333.0 
       647.0         0.30        328.0 
       648.0         0.30        326.5 
       649.0         0.30        318.4 
       650.0         0.42        311.6 
       651.0         3.05       1573.9 
       652.0         0.40       1227.2 
       653.0         0.43       1019.0 
