~Version Information
VERS.                      2.0: CWLS Log ASCII Standard - VERSION 2.0
WRAP.                       NO: One line per depth step
~Well Information Block
STRT.FT               665.0000: 
STOP.FT              1972.5000: 
STEP.FT                 0.1000: 
NULL.                -999.2500: 
COMP.          Petrogulf Corporation: COMPANY
WELL.          Great Plains 22-21V: WELL
FLD.           Purgatorie River: FIELD
LOC.           63' FNL & 1895' FWL: LOCATION
PROV.                 Colorado: PROVINCE
CNTY.               Las Animas: COUNTRY
SRVC.                Patterson: SERVICE COMPANY
DATE.          Thu Sep 01 07:39:43 2005: LOG DATE
UWI.                          : UNIQUE WELL ID
~Curve Information Block
DEPT.FT            0 000 00 00: Depth
DCAL.in                       : CDL Caliper
RHOB.g/cc                     : CDL Bulk Density
RHOC.g/cc                     : CDL Density Correction
DPOR.pu                       : CDL Density Porosity
GR.GAPI                       : Gamma Ray
NPOR.pu                       : Neutron Porosity
~Parameter Information Block
~A  Depth       DCAL        RHOB        RHOC        DPOR         GR         NPOR    
# ...
  1010.6000      8.0813      2.7079      0.1556     -3.5105    120.4399     28.5117
  1010.7000      8.0813      2.7253      0.1340     -4.5608    113.6873     29.4189
  1010.8000      8.0887      2.7334      0.1014     -5.0517    106.1540     30.1429
  1010.9000      8.0887      2.7346      0.0884     -5.1289     98.1821     29.9340
  1011.0000      8.0929      2.7264      0.0522     -4.6290     89.9554     28.9783
  1011.1000      8.0929      2.7089      0.0274     -3.5678     84.1752     28.3990
  1011.2000      8.0929      2.6855      0.0265     -2.1488     81.4197     29.0363
  1011.3000      8.1163      2.6663      0.0016     -0.9860     79.2636     29.9885
  1011.4000      8.1163      2.6579      0.0111     -0.4777     78.8357     29.5239
  1011.5000      8.1440      2.6489      0.0419      0.0696     82.2650     27.6337
  1011.6000      8.1440      2.6280      0.0459      1.3315     87.1373     25.7519
  1011.7000      8.1440      2.5991      0.0411      3.0873     89.1094     24.7628
  1011.8000      8.1243      2.5703      0.0071      4.8310     87.6003     24.6525
  1011.9000      8.1243      2.5479      0.0113      6.1902     84.6022     24.6677
  1012.0000      8.0875      2.5338      0.0116      7.0394     81.6645     24.2089
  1012.1000      8.0875      2.5301     -0.0060      7.2637     79.8990     23.8817
  1012.2000      8.0875      2.5378      0.0447      6.8030     78.3509     24.4328
  1012.3000      8.1097      2.5512      0.0582      5.9901     76.2574     25.5432
  1012.4000      8.1097      2.5670      0.0144      5.0315     76.5032     25.8908
  1012.5000      8.1137      2.5783      0.1340      4.3478     79.5792     24.9709
  1012.6000      8.1137      2.5763      0.0821      4.4657     81.7600     23.9844
  1012.7000      8.1137      2.5716      0.0712      4.7506     83.5203     23.4377
  1012.8000      8.1307      2.5703      0.1358      4.8286     88.6210     22.8987
  1012.9000      8.1307      2.5646      0.1294      5.1740     95.6184     22.5230
  1013.0000      8.1763      2.5589      0.1185      5.5232    100.2791     22.6667
  1013.1000      8.1763      2.5599      0.1286      5.4616    102.2976     23.0845
  1013.2000      8.1763      2.5591      0.1303      5.5101    103.4403     23.1571
  1013.3000      8.2217      2.5484      0.1553      6.1564    105.8481     22.8587
  1013.4000      8.2217      2.5352      0.0953      6.9546    111.2608     22.5157
  1013.5000      8.2779      2.5289      0.1220      7.3376    118.1595     22.2330
  1013.6000      8.2779      2.5277      0.1388      7.4097    122.6877     22.3295
  1013.7000      8.2779      2.5306      0.0743      7.2389    123.9552     23.3119
  1013.8000      8.3342      2.5326      0.1114      7.1156    125.7836     25.2154
  1013.9000      8.3342      2.5235      0.0509      7.6642    129.0706     27.1538
  1014.0000      8.3381      2.5095      0.0895      8.5130    130.7697     28.2507
  1014.1000      8.3381      2.5056      0.0861      8.7509    130.2406     28.5169
  1014.2000      8.3381      2.5158      0.1213      8.1304    128.5240     28.3216
  1014.3000      8.3597      2.5293      0.1424      7.3161    127.3964     28.1645
  1014.4000      8.3597      2.5357      0.1306      6.9272    128.3782     28.0504
  1014.5000      8.3375      2.5405      0.1234      6.6387    129.0588     27.4769
  1014.6000      8.3375      2.5542      0.1464      5.8036    128.3888     26.6003
  1014.7000      8.3375      2.5758      0.1362      4.4947    128.8423     25.9972
  1014.8000      8.3474      2.5983      0.1181      3.1363    130.9547     26.0604
  1014.9000      8.3474      2.6170      0.1428      1.9984    135.0423     27.0956
  1015.0000      8.3523      2.6227      0.1830      1.6527    141.5101     28.6258
  1015.1000      8.3523      2.6081      0.1755      2.5385    147.4515     29.1852
  1015.2000      8.3523      2.5832      0.1136      4.0512    149.4855     28.3517
  1015.3000      8.3478      2.5652      0.0839      5.1402    147.4707     27.8434
  1015.4000      8.3478      2.5554      0.0781      5.7305    143.4002     29.0002
  1015.5000      8.3573      2.5396      0.0703      6.6925    139.0332     30.7224
  1015.6000      8.3573      2.5163      0.0058      8.1027    135.9294     31.2137
  1015.7000      8.3573      2.5065      0.0396      8.6955    137.3053     30.3784
  1015.8000      8.3493      2.5200      0.1165      7.8761    142.3022     29.4922
  1015.9000      8.3493      2.5393      0.0990      6.7121    143.0847     29.1655
  1016.0000      8.3543      2.5445      0.1319      6.3932    137.8589     29.0170
  1016.1000      8.3543      2.5330      0.0942      7.0924    133.1550     29.2207
  1016.2000      8.3543      2.5137      0.1080      8.2608    132.1832     29.9410
  1016.3000      8.3526      2.4923      0.0763      9.5569    133.7548     30.4182
  1016.4000      8.3526      2.4733      0.0518     10.7078    138.0873     30.1615
  1016.5000      8.3425      2.4660      0.0236     11.1519    144.0306     29.7771
  1016.6000      8.3425      2.4702      0.0569     10.8974    146.8772     30.0297
  1016.7000      8.3425      2.4713      0.0501     10.8305    144.7466     30.9777
  1016.8000      8.3389      2.4705      0.0138     10.8782    141.2625     31.7402
  1016.9000      8.3389      2.4863      0.0408      9.9227    140.2651     31.2284
  1017.0000      8.3581      2.5139      0.1095      8.2513    141.6171     29.5231
  1017.1000      8.3581      2.5291      0.1367      7.3296    143.2710     27.3208
  1017.2000      8.3581      2.5265      0.1048      7.4823    142.6774     25.4261
  1017.3000      8.3561      2.5249      0.0764      7.5798    139.8641     24.7486
  1017.4000      8.3561      2.5364      0.1401      6.8874    139.0226     25.2967
  1017.5000      8.3747      2.5509      0.1196      6.0035    141.7410     25.9235
  1017.6000      8.3747      2.5550      0.1368      5.7599    145.6871     25.6885
  1017.7000      8.3747      2.5472      0.0709      6.2305    147.6026     25.0652
  1017.8000      8.3609      2.5394      0.0614      6.7008    144.1112     25.0449
  1017.9000      8.3609      2.5392      0.0912      6.7163    136.9087     25.4849
  1018.0000      8.3820      2.5444      0.0603      6.4020    132.1804     25.5058
  1018.1000      8.3820      2.5523      0.0829      5.9185    132.5965     25.2833
  1018.2000      8.3820      2.5572      0.1004      5.6251    135.6418     26.1089
  1018.3000      8.4062      2.5543      0.0563      5.7982    138.4867     28.6873
  1018.4000      8.4062      2.5466      0.0360      6.2692    139.8987     31.8299
  1018.5000      8.4102      2.5360      0.0440      6.9066    140.2484     32.9062
  1018.6000      8.4102      2.5235      0.0827      7.6638    140.2278     31.3511
  1018.7000      8.4102      2.5124      0.0810      8.3404    139.9331     29.8839
  1018.8000      8.4008      2.5052      0.0636      8.7745    141.6587     29.9238
  1018.9000      8.4008      2.5011      0.0440      9.0258    146.0155     29.9815
  1019.0000      8.4052      2.5014      0.0732      9.0079    147.6698     28.9949
  1019.1000      8.4052      2.5080      0.1035      8.6070    143.1394     27.6929
  1019.2000      8.4052      2.5180      0.1304      7.9989    136.2327     27.2079
  1019.3000      8.4105      2.5307      0.1356      7.2298    131.8510     28.0409
  1019.4000      8.4105      2.5413      0.2301      6.5888    130.1666     29.8164
  1019.5000      8.4179      2.5276      0.2544      7.4207    129.5976     31.3400
  1019.6000      8.4179      2.4744      0.2163     10.6406    129.3919     31.6003
  1019.7000      8.4179      2.4014      0.0591     15.0694    129.7236     30.7137
  1019.8000      8.4360      2.3384     -0.0027     18.8878    130.2398     28.9192
  1019.9000      8.4360      2.2916     -0.0058     21.7201    130.8881     26.5670
  1020.0000      8.4928      2.2531     -0.0059     24.0567    132.9836     25.2979
  1020.1000      8.4928      2.2215      0.0029     25.9669    136.1796     26.3074
