~Version Information
VERS.                      2.0: CWLS Log ASCII Standard - VERSION 2.0
WRAP.                       NO: One line per depth step
~Well Information Block
STRT.FT               472.0000: 
STOP.FT              2428.5000: 
STEP.FT                 0.1000: 
NULL.                -999.2500: 
COMP.          Pioneer Natural Resources: COMPANY
WELL.          Flying Horse 12-11: WELL
FLD.           Purgatoire River: FIELD
LOC.           2428' FNL & 308' FWL: LOCATION
PROV.                 Colorado: PROVINCE
CNTY.               Las Animas: COUNTRY
SRVC.                Patterson: SERVICE COMPANY
DATE.          Mon May 30 06:06:20 2005: LOG DATE
UWI.           05 071 08378 00: UNIQUE WELL ID
~Curve Information Block
DEPT.FT            0 000 00 00: Depth
DCAL.in                       : CDL Caliper
RHOB.g/cc                     : CDL Bulk Density
RHOC.g/cc                     : CDL Density Correction
DPOR.pu                       : CDL Density Porosity
GR.GAPI                       : Gamma Ray
NPOR.pu                       : Neutron Porosity
~Parameter Information Block
~A  Depth       DCAL        RHOB        RHOC        DPOR         GR         NPOR    
# ...
   731.2000      8.3701      2.3784      0.0890     16.4587     69.9529     17.5697
   731.3000      8.3368      2.4058      0.1231     14.8003     75.3015     17.7622
   731.4000      8.3368      2.4129      0.0716     14.3698     77.6091     17.5475
   731.5000      8.3362      2.4108      0.0723     14.4961     74.0098     17.0199
   731.6000      8.3362      2.4133      0.0942     14.3445     68.4307     16.6391
   731.7000      8.3362      2.4129      0.1084     14.3680     63.7574     16.5667
   731.8000      8.3244      2.4019      0.1081     15.0382     60.4635     16.4525
   731.9000      8.3244      2.3878      0.0777     15.8927     58.6543     16.4125
   732.0000      8.3139      2.3756      0.0678     16.6322     59.6500     16.7078
   732.1000      8.3139      2.3615      0.0616     17.4858     63.6210     16.9550
   732.2000      8.3139      2.3510      0.0054     18.1233     65.2833     16.8034
   732.3000      8.2910      2.3573      0.0479     17.7393     61.0312     16.4374
   732.4000      8.2910      2.3785      0.0354     16.4549     56.2863     16.3532
   732.5000      8.2815      2.4010      0.0797     15.0914     56.9205     16.6846
   732.6000      8.2815      2.4088      0.1043     14.6194     62.1176     16.9441
   732.7000      8.2815      2.3889      0.0624     15.8256     66.7151     16.8262
   732.8000      8.2799      2.3432      0.0617     18.5968     65.9431     16.5806
   732.9000      8.2799      2.2905     -0.0206     21.7883     61.6230     16.4496
   733.0000      8.2777      2.2624     -0.0631     23.4904     58.7527     16.4387
   733.1000      8.2777      2.2770     -0.0549     22.6074     57.2289     16.4646
   733.2000      8.2777      2.3153      0.0129     20.2870     56.0965     16.5757
   733.3000      8.2803      2.3440      0.0023     18.5427     55.1482     16.7421
   733.4000      8.2803      2.3545      0.0572     17.9083     53.4398     16.6907
   733.5000      8.3199      2.3622      0.0357     17.4418     52.8922     16.3308
   733.6000      8.3199      2.3771      0.0827     16.5395     54.5656     15.9773
   733.7000      8.3199      2.3862      0.0573     15.9891     56.0656     16.1065
   733.8000      8.3343      2.3789      0.0173     16.4288     55.7231     16.6823
   733.9000      8.3343      2.3619      0.0457     17.4615     55.3388     17.0639
   734.0000      8.3507      2.3430      0.0099     18.6069     57.5181     16.8908
   734.1000      8.3507      2.3269      0.0262     19.5804     61.4704     16.5809
   734.2000      8.3507      2.3123      0.0178     20.4678     63.9177     16.6412
   734.3000      8.3530      2.2973     -0.0112     21.3783     63.1208     16.9480
   734.4000      8.3530      2.2914     -0.0406     21.7316     61.8676     16.8272
   734.5000      8.3568      2.2985      0.0496     21.3020     63.1350     16.2515
   734.6000      8.3568      2.3090     -0.0297     20.6661     65.3662     16.0464
   734.7000      8.3568      2.3223      0.0021     19.8600     65.3671     16.4901
   734.8000      8.3471      2.3398     -0.0145     18.8023     62.4872     16.9586
   734.9000      8.3471      2.3509      0.0238     18.1280     60.0816     16.9116
   735.0000      8.3454      2.3396      0.0681     18.8125     61.0430     16.5109
   735.1000      8.3454      2.3118     -0.0079     20.4954     62.7242     16.3225
   735.2000      8.3454      2.2903     -0.0007     21.8025     64.0742     16.5971
   735.3000      8.3656      2.2801      0.0135     22.4179     67.0699     16.9301
   735.4000      8.3656      2.2751      0.0293     22.7239     68.9725     16.8800
   735.5000      8.3427      2.2713      0.0488     22.9526     67.2032     16.5983
   735.6000      8.3427      2.2686      0.0348     23.1140     65.8027     16.5464
   735.7000      8.3427      2.2707      0.0365     22.9871     67.1118     16.9309
   735.8000      8.3346      2.2895      0.0035     21.8481     67.0199     17.5714
   735.9000      8.3346      2.3351      0.0648     19.0836     65.8349     18.0314
   736.0000      8.2696      2.3910      0.1287     15.6948     67.0471     18.1094
   736.1000      8.2696      2.4427      0.0761     12.5647     68.3645     17.9915
   736.2000      8.2696      2.5015      0.1212      8.9980     68.3963     17.9637
   736.3000      8.2509      2.5575      0.2207      5.6067     66.0284     18.2576
   736.4000      8.2509      2.5815      0.1953      4.1520     60.5280     18.6360
   736.5000      8.2480      2.5790      0.1794      4.3003     57.9814     18.6568
   736.6000      8.2480      2.5645      0.2408      5.1799     60.7182     18.6533
   736.7000      8.2480      2.5335      0.1269      7.0608     64.0558     19.0182
   736.8000      8.2436      2.4984      0.0271      9.1898     67.2928     19.6761
   736.9000      8.2436      2.4844      0.0281     10.0376     73.0393     20.3813
   737.0000      8.2454      2.4902      0.0561      9.6849     80.6053     20.8662
   737.1000      8.2454      2.4894      0.0942      9.7351     86.9690     21.1267
   737.2000      8.2454      2.4725      0.0131     10.7576     88.0820     21.2366
   737.3000      8.2401      2.4665     -0.0029     11.1205     81.9737     21.3703
   737.4000      8.2401      2.4866      0.0784      9.9001     74.3869     21.8092
   737.5000      8.2413      2.5066      0.1148      8.6906     71.1286     22.3211
   737.6000      8.2413      2.5054      0.0975      8.7615     69.6859     22.6049
   737.7000      8.2413      2.5014      0.0394      9.0049     67.9543     22.7476
   737.8000      8.2353      2.5151      0.0898      8.1744     70.4365     22.7182
   737.9000      8.2353      2.5352      0.0930      6.9601     77.7109     22.5455
   738.0000      8.2322      2.5465      0.0322      6.2714     81.8443     22.2852
   738.1000      8.2322      2.5533      0.0710      5.8619     78.6614     21.7061
   738.2000      8.2322      2.5569      0.0397      5.6435     73.9867     21.0074
   738.3000      8.2292      2.5479      0.1106      6.1865     72.4647     20.6048
   738.4000      8.2292      2.5269      0.0423      7.4633     71.7900     20.4802
   738.5000      8.2317      2.5120      0.0154      8.3650     70.6469     20.5038
   738.6000      8.2317      2.5062      0.0478      8.7135     69.6768     20.6951
   738.7000      8.2317      2.4976      0.0094      9.2342     69.0963     20.9120
   738.8000      8.2306      2.4838      0.0257     10.0717     69.2566     20.9293
   738.9000      8.2306      2.4649     -0.0191     11.2164     69.1024     20.9370
   739.0000      8.2717      2.4451     -0.0047     12.4193     68.1627     21.1494
   739.1000      8.2717      2.4414     -0.0400     12.6448     68.1435     21.5434
   739.2000      8.2717      2.4607     -0.0036     11.4706     69.2747     21.8326
   739.3000      8.3747      2.4823      0.0396     10.1628     70.0874     21.6964
   739.4000      8.3747      2.4873      0.0284      9.8587     70.1168     21.3573
   739.5000      8.4148      2.4801      0.0118     10.2941     69.8143     21.2284
   739.6000      8.4148      2.4767      0.0014     10.5052     70.4228     21.2957
   739.7000      8.4148      2.4894     -0.0499      9.7360     72.7649     21.3892
   739.8000      8.3784      2.5120      0.0483      8.3606     75.2273     21.5750
   739.9000      8.3784      2.5252      0.0616      7.5663     76.7982     21.9457
   740.0000      8.3271      2.5292     -0.0110      7.3215     77.9760     22.3182
   740.1000      8.3271      2.5374     -0.0140      6.8256     77.3283     22.4318
   740.2000      8.3271      2.5423      0.0378      6.5245     73.9770     22.3382
   740.3000      8.2981      2.5353      0.0104      6.9500     70.8657     22.4058
   740.4000      8.2981      2.5310      0.0209      7.2133     70.6230     22.7834
   740.5000      8.2577      2.5429      0.0443      6.4887     71.0530     23.2916
   740.6000      8.2577      2.5584      0.0819      5.5502     70.4577     23.7965
   740.7000      8.2577      2.5624      0.0666      5.3077     70.9866     24.1876
