~Version Information
VERS.                      2.0: CWLS Log ASCII Standard - VERSION 2.0
WRAP.                       NO: One line per depth step
~Well Information Block
STRT.FT                -1.5000: 
STOP.FT              1317.0000: 
STEP.FT                 0.2500: 
NULL.                -999.2500: 
COMP.          Pioneer Natural Resources: COMPANY
WELL.              Border 21-3: WELL
FLD.           Purgatoire River: FIELD
LOC.           865' FNL & 1415' FWL: LOCATION
PROV.                 Colorado: PROVINCE
CNTY.               Las Animas: COUNTRY
SRVC.                Patterson: SERVICE COMPANY
DATE.          Tue Dec 14 14:08:05 2004: LOG DATE
UWI.           05 071 08169 00: UNIQUE WELL ID
~Curve Information Block
DEPT.FT            0 000 00 00: Depth
GR.GAPI                       : Gamma Ray
CCL.                          : Casing Collar Locator
TT3.usec                      : CBL 3' Travel Time
AMP3.mV                       : CBL 3' Amplitude
~Parameter Information Block
~A  Depth        GR         CCL         TT3         AMP3    
# ...
   333.5000     80.3190      0.0000    871.4482      9.6453
   333.7500     80.2501      0.0000    868.3350      9.6737
   334.0000     79.0818      0.0000    863.1752      9.7031
   334.2500     76.8175      0.0000    855.9047      9.7205
   334.5000     73.7090      0.0000    847.5892      9.7157
   334.7500     70.2632      0.0000    839.9681      9.6831
   335.0000     67.1998      0.0000    834.3312      9.6225
   335.2500     65.3887      0.0000    830.8870      9.5405
   335.5000     65.4733      0.0000    829.0885      9.4493
   335.7500     67.3502      0.0000    828.2767      9.3586
   336.0000     70.1169      0.0000    827.9927      9.2702
   336.2500     72.5876      0.0000    827.9481      9.1805
   336.5000     73.8827      0.0000    827.9404      9.0888
   336.7500     73.6945      0.0000    827.8527      9.0036
   337.0000     72.3203      0.0000    827.6863      8.9405
   337.2500     70.6215      0.0000    827.5278      8.9148
   337.5000     69.6160      0.0000    827.4453      8.9367
   337.7500     69.6156      0.0000    827.4644      9.0132
   338.0000     69.7117      0.0000    827.6290      9.1465
   338.2500     68.5500      0.0000    828.0363      9.3263
   338.5000     65.9486      0.0000    828.6106      9.5264
   338.7500     63.5980      0.0000    828.7020      9.7146
   339.0000     63.7468      0.0000    826.9837      9.8673
   339.2500     67.0765      0.0000    822.0197      9.9773
   339.5000     72.0430      0.0000    813.0922     10.0532
   339.7500     76.3144      0.0000    800.6951     10.1164
   340.0000     78.5813      0.0000    786.6638     10.1956
   340.2500     78.8993      0.0000    773.7186     10.3110
   340.5000     77.7944      0.0000    764.0946     10.4544
   340.7500     75.6788      0.0000    758.2858     10.5878
   341.0000     73.1727      0.0000    755.2744     10.6671
   341.2500     71.3703      0.0000    753.7631     10.6656
   341.5000     71.2379      0.0000    752.9907     10.5828
   341.7500     72.7126      0.0000    752.7803     10.4375
   342.0000     74.6377      0.0000    753.3943     10.2569
   342.2500     75.7779      0.0000    755.5080     10.0642
   342.5000     75.8591      0.0000    759.9573      9.8735
   342.7500     75.4928      0.0000    767.1727      9.6914
   343.0000     75.3300      0.0000    776.7640      9.5205
   343.2500     75.6336      0.0000    787.7210      9.3568
   343.5000     76.4427      0.0000    798.8420      9.1890
   343.7500     77.6814      0.0000    808.8929      9.0063
   344.0000     79.0317      0.0000    816.7710      8.8130
   344.2500     79.8618      0.0000    821.8884      8.6280
   344.5000     79.5146      0.0000    824.2295      8.4699
   344.7500     77.8996      0.0000    823.7564      8.3433
   345.0000     75.9430      0.0000    819.9296      8.2405
   345.2500     75.3753      0.0000    812.3182      8.1502
   345.5000     77.7861      0.0000    802.0464      8.0647
   345.7500     83.5811      0.0000    792.1345      7.9829
   346.0000     91.6405      0.0000    785.3444      7.9083
   346.2500     99.9461      0.0000    781.5418      7.8453
   346.5000    106.6976      0.0000    778.2607      7.7978
   346.7500    111.0956      0.0000    774.1791      7.7688
   347.0000    113.3314      0.0000    771.0531      7.7604
   347.2500    114.1268      0.0000    771.9170      7.7697
   347.5000    114.3893      0.0000    778.2186      7.7860
   347.7500    114.9323      0.0000    788.7198      7.7964
   348.0000    116.0531      0.0000    800.2619      7.7958
   348.2500    117.3471      0.0000    809.6177      7.7902
   348.5000    118.2158      0.0000    815.4356      7.7895
   348.7500    118.5621      0.0000    818.4679      7.8001
   349.0000    118.7182      0.0000    819.5660      7.8233
   349.2500    118.6591      0.0000    817.8962      7.8598
   349.5000    117.6463      0.0000    811.8729      7.9138
   349.7500    114.9259      0.0000    801.9625      7.9904
   350.0000    110.6643      0.0000    792.0714      8.0872
   350.2500    106.0745      0.0000    787.3981      8.1885
   350.5000    102.6079      0.0000    790.3301      8.2727
   350.7500    100.9174      0.0000    798.4277      8.3290
   351.0000    100.4452      0.0000    806.7091      8.3679
   351.2500    100.0179      0.0000    811.7070      8.4154
   351.5000     99.0357      0.0000    813.2308      8.4974
   351.7500     98.1413      0.0000    813.0137      8.6241
   352.0000     98.5422      0.0000    812.7851      8.7811
   352.2500    100.7167      0.0000    813.4918      8.9386
   352.5000    103.9893      0.0000    815.4173      9.0738
   352.7500    107.3221      0.0000    818.7577      9.1860
   353.0000    110.2460      0.0000    823.9586      9.2879
   353.2500    112.8745      0.0000    830.8868      9.3872
   353.5000    115.1948      0.0000    837.8375      9.4810
   353.7500    116.7060      0.0000    842.5004      9.5641
   354.0000    116.9457      0.0000    844.0852      9.6364
   354.2500    116.1986      0.0000    843.7050      9.7029
   354.5000    115.4263      0.0000    842.7744      9.7685
   354.7500    115.5637      0.0000    841.8298      9.8310
   355.0000    116.9565      0.0000    840.6099      9.8819
   355.2500    119.1075      0.0000    838.5127      9.9182
   355.5000    120.7019      0.0000    835.2302      9.9530
   355.7500    120.2955      0.0000    831.2700     10.0092
   356.0000    117.5320      0.0000    827.6498     10.0991
   356.2500    113.6115      0.0000    825.0497     10.2135
   356.5000    110.1258      0.0000    823.4967     10.3298
   356.7500    107.4870      0.0000    822.6840     10.4274
   357.0000    104.9636      0.0000    822.3146     10.4932
   357.2500    102.2234      0.0000    822.2151     10.5219
   357.5000    100.1628      0.0000    822.3207     10.5173
   357.7500     99.8688      0.0000    822.6149     10.4933
   358.0000    101.0762      0.0000    823.1509     10.4675
   358.2500    102.0590      0.0000    824.2302     10.4466
   358.5000    101.2887      0.0000    826.4642     10.4162
   358.7500     99.0388      0.0000    830.2592     10.3503
   359.0000     96.9724      0.0000    834.9175     10.2375
   359.2500     96.2921      0.0000    838.5271     10.0965
   359.5000     96.7973      0.0000    839.4459      9.9638
   359.7500     97.6949      0.0000    837.9796      9.8661
   360.0000     98.7485      0.0000    835.9627      9.8034
   360.2500    100.3546      0.0000    834.5744      9.7575
   360.5000    102.7883      0.0000    833.2787      9.7079
   360.7500    105.7982      0.0000    831.1005      9.6395
   361.0000    109.0252      0.0000    828.1271      9.5437
   361.2500    112.4359      0.0000    825.2934      9.4249
   361.5000    115.9948      0.0000    823.2552      9.3067
   361.7500    119.1053      0.0000    821.9692      9.2227
   362.0000    120.9496      0.0000    821.0670      9.1969
   362.2500    121.4255      0.0000    820.1896      9.2300
   362.5000    121.1159      0.0000    818.8935      9.3005
   362.7500    120.1677      0.0000    816.4395      9.3776
   363.0000    117.9844      0.0000    812.0154      9.4401
   363.2500    114.4184      0.0000    805.4817      9.4855
   363.5000    110.7576      0.0000    797.9027      9.5226
   363.7500    109.1091      0.0000    791.0253      9.5563
   364.0000    110.8846      0.0000    786.0884      9.5823
   364.2500    115.8897      0.0000    783.2108      9.5948
   364.5000    122.5498      0.0000    781.7588      9.5907
   364.7500    128.7373      0.0000    780.9450      9.5603
   365.0000    132.6612      0.0000    780.0386      9.4796
   365.2500    133.5698      0.0000    778.4863      9.3327
   365.5000    131.9568      0.0000    776.5533      9.1605
   365.7500    129.0578      0.0000    776.2924      9.0631
   366.0000    126.0604      0.0000    781.3445      9.1097
   366.2500    123.6878      0.0000    794.0974      9.2516
   366.5000    122.2332      0.0000    811.8079      9.3700
   366.7500    121.5630      0.0000    826.5698      9.4001
