~Version Information
VERS.                      2.0: CWLS Log ASCII Standard - VERSION 2.0
WRAP.                       NO: One line per depth step
~Well Information Block
STRT.FT               640.0000: 
STOP.FT               927.0000: 
STEP.FT                 0.1000: 
NULL.                -999.2500: 
COMP.          Pioneer Natural Resources: COMPANY
WELL.          Claim Jumper 41-22: WELL
FLD.           Purgatoire River: FIELD
LOC.           1120' FNL & 977' FEL: LOCATION
PROV.                 Colorado: PROVINCE
CNTY.               Las Animas: COUNTRY
SRVC.                Patterson: SERVICE COMPANY
DATE.          Thu Jun 23 08:35:14 2005: LOG DATE
UWI.           05-071-08405-00: UNIQUE WELL ID
~Curve Information Block
DEPT.FT            0 000 00 00: Depth
DCAL.in                       : CDL Caliper
RHOB.g/cc                     : CDL Bulk Density
RHOC.g/cc                     : CDL Density Correction
DPOR.pu                       : CDL Density Porosity
GR.GAPI                       : Gamma Ray
NPOR.pu                       : Neutron Porosity
~Parameter Information Block
~A  Depth       DCAL        RHOB        RHOC        DPOR         GR         NPOR    
# ...
   726.4000      7.9674      2.5496      0.0337      6.0830     72.5485     20.6878
   726.5000      7.9762      2.5666     -0.0040      5.0561     78.9165     20.7383
   726.6000      7.9762      2.5909      0.0434      3.5846     80.2408     20.3370
   726.7000      7.9762      2.6112      0.0264      2.3487     73.8768     19.8568
   726.8000      7.9849      2.6174      0.0428      1.9781     60.0508     19.5715
   726.9000      7.9849      2.6029      0.0228      2.8547     49.4578     19.4997
   727.0000      7.9875      2.5730     -0.0012      4.6680     50.6151     19.5920
   727.1000      7.9875      2.5409      0.0317      6.6132     59.2504     19.7364
   727.2000      7.9875      2.5117      0.0318      8.3794     65.8447     19.7346
   727.3000      7.9882      2.4913     -0.0085      9.6178     66.5425     19.6230
   727.4000      7.9882      2.4898     -0.0423      9.7111     62.5873     19.6777
   727.5000      7.9935      2.5039      0.0585      8.8543     57.7689     19.9646
   727.6000      7.9935      2.5237     -0.0123      7.6523     54.6443     20.1807
   727.7000      7.9935      2.5508      0.0107      6.0114     52.8549     19.8971
   727.8000      7.9922      2.5835      0.0293      4.0279     55.0584     19.3145
   727.9000      7.9922      2.6115      0.0489      2.3359     61.7575     19.0972
   728.0000      7.9824      2.6246      0.0727      1.5383     67.3514     19.2362
   728.1000      7.9824      2.6202      0.0932      1.8041     70.8549     19.2613
   728.2000      7.9824      2.6048      0.0438      2.7408     74.0476     19.0602
   728.3000      7.9728      2.5888      0.0151      3.7103     76.4993     18.9391
   728.4000      7.9728      2.5818      0.0697      4.1330     78.1566     18.9701
   728.5000      7.9662      2.5836      0.0747      4.0253     77.5817     18.9878
   728.6000      7.9662      2.5822      0.0864      4.1094     76.3094     19.0016
   728.7000      7.9662      2.5693      0.0827      4.8917     77.1350     18.9469
   728.8000      7.9651      2.5547      0.0443      5.7751     75.8369     18.8662
   728.9000      7.9651      2.5553      0.0147      5.7419     69.9184     19.0965
   729.0000      7.9698      2.5710      0.0849      4.7855     63.3659     19.7858
   729.1000      7.9698      2.5885      0.0480      3.7263     60.3475     20.6825
   729.2000      7.9698      2.6065      0.0321      2.6357     61.3250     21.2592
   729.3000      7.9796      2.6248      0.0988      1.5266     62.0942     21.0300
   729.4000      7.9796      2.6312      0.0642      1.1411     61.0440     20.3744
   729.5000      7.9924      2.6214      0.0391      1.7354     61.1534     20.0236
   729.6000      7.9924      2.5997      0.0331      3.0470     62.4165     20.0477
   729.7000      7.9924      2.5702      0.0266      4.8349     62.9414     20.1913
   729.8000      8.0018      2.5504      0.0167      6.0349     60.5215     20.3280
   729.9000      8.0018      2.5571      0.0247      5.6330     56.2559     20.4275
   730.0000      8.0017      2.5776      0.0687      4.3856     53.3311     20.4191
   730.1000      8.0017      2.5917      0.0467      3.5306     52.8424     20.3199
   730.2000      8.0017      2.5928      0.0680      3.4675     56.1827     20.3750
   730.3000      7.9979      2.5842      0.0612      3.9851     60.1548     20.7350
   730.4000      7.9979      2.5757      0.0751      4.5055     60.6300     21.1207
   730.5000      7.9961      2.5667      0.0361      5.0493     62.6732     21.2009
   730.6000      7.9961      2.5534      0.0282      5.8562     68.7811     21.0894
   730.7000      7.9961      2.5433      0.0549      6.4657     72.3372     20.9036
   730.8000      7.9887      2.5463      0.0414      6.2848     70.6399     20.5393
   730.9000      7.9887      2.5557      0.0860      5.7145     68.0934     20.1907
   731.0000      7.9752      2.5576      0.0746      5.5996     66.0947     20.0196
   731.1000      7.9752      2.5517      0.1047      5.9553     62.7002     19.7100
   731.2000      7.9752      2.5429      0.1157      6.4882     59.3087     19.1606
   731.3000      7.9617      2.5429      0.0446      6.4920     58.0020     18.7895
   731.4000      7.9617      2.5662      0.0663      5.0759     57.1467     18.9577
   731.5000      7.9539      2.6015      0.0970      2.9399     57.0068     19.5642
   731.6000      7.9539      2.6225      0.1458      1.6654     59.5844     20.0307
   731.7000      7.9539      2.6172      0.1238      1.9863     62.3290     19.9497
   731.8000      7.9519      2.5917      0.1128      3.5341     60.9619     19.6590
   731.9000      7.9519      2.5638      0.1040      5.2213     57.9755     19.3815
   732.0000      7.9522      2.5452      0.1086      6.3538     61.7163     19.0845
   732.1000      7.9522      2.5300      0.0839      7.2715     68.8841     19.1980
   732.2000      7.9522      2.5208      0.0331      7.8289     69.5162     19.8362
   732.3000      7.9549      2.5237      0.0073      7.6551     67.4892     20.3422
   732.4000      7.9549      2.5332      0.0148      7.0816     69.8629     20.4348
   732.5000      7.9619      2.5490      0.0428      6.1233     73.1156     20.3576
   732.6000      7.9619      2.5757      0.0467      4.5032     71.4639     20.1722
   732.7000      7.9619      2.6044      0.0705      2.7663     64.6046     20.0387
   732.8000      7.9688      2.6135      0.1014      2.2099     56.3985     20.2505
   732.9000      7.9688      2.5992      0.0855      3.0769     54.1797     20.5505
   733.0000      7.9682      2.5868      0.0703      3.8298     60.7739     20.7185
   733.1000      7.9682      2.5948      0.0772      3.3435     67.3258     20.8077
   733.2000      7.9682      2.6125      0.0838      2.2749     65.4208     20.6585
   733.3000      7.9630      2.6223      0.0954      1.6800     58.4200     20.3385
   733.4000      7.9630      2.6201      0.0959      1.8126     56.0652     20.2533
   733.5000      7.9601      2.6095      0.0452      2.4562     61.3073     20.6172
   733.6000      7.9601      2.5961      0.0677      3.2661     65.4266     21.1427
   733.7000      7.9601      2.5879      0.0430      3.7639     64.5847     21.4485
   733.8000      7.9614      2.5895      0.0459      3.6667     65.6453     21.4464
   733.9000      7.9614      2.5970      0.0811      3.2094     69.8002     21.3631
   734.0000      7.9633      2.6065      0.0597      2.6380     69.1187     21.4761
   734.1000      7.9633      2.6145      0.0857      2.1526     60.6796     21.9593
   734.2000      7.9633      2.6169      0.0355      2.0069     52.1839     22.5904
   734.3000      7.9673      2.6142      0.0665      2.1716     49.0086     22.7402
   734.4000      7.9673      2.6097      0.0502      2.4401     49.9046     22.2593
   734.5000      7.9781      2.6028      0.0502      2.8585     55.1077     21.5384
   734.6000      7.9781      2.5870      0.0999      3.8160     59.9823     20.8954
   734.7000      7.9781      2.5685      0.0378      4.9401     58.2145     20.4981
   734.8000      7.9920      2.5595      0.0399      5.4843     53.2046     20.3939
   734.9000      7.9920      2.5550      0.0214      5.7599     51.2292     20.2960
   735.0000      7.9992      2.5452      0.0475      6.3519     53.5421     19.8273
   735.1000      7.9992      2.5336     -0.0420      7.0575     55.6526     18.9723
   735.2000      7.9992      2.5275      0.0566      7.4259     54.8455     18.2701
   735.3000      7.9947      2.5268      0.0596      7.4674     54.7417     18.2248
   735.4000      7.9947      2.5346      0.0700      6.9965     57.4467     18.7289
   735.5000      7.9808      2.5500      0.0727      6.0617     58.9753     19.1918
   735.6000      7.9808      2.5655      0.1058      5.1212     57.3035     19.1953
   735.7000      7.9808      2.5808      0.1005      4.1915     56.3010     18.9683
   735.8000      7.9664      2.6029      0.0968      2.8555     57.1191     18.9572
   735.9000      7.9664      2.6300      0.0916      1.2147     59.1839     19.2372
