~Version Information
VERS.                      2.0: CWLS Log ASCII Standard - VERSION 2.0
WRAP.                       NO: One line per depth step
~Well Information Block
STRT.FT                -2.7500: 
STOP.FT              2139.2500: 
STEP.FT                 0.2500: 
NULL.                -999.2500: 
COMP.          Petrogulf Corporation: COMPANY
WELL.             State 16-34V: WELL
FLD.           Purgatorie River: FIELD
LOC.           1146' FSL & 1393' FEL: LOCATION
PROV.                 Colorado: PROVINCE
CNTY.               Las Animas: COUNTRY
SRVC.          Patterson Wireline: SERVICE COMPANY
DATE.          Wed Jun 25 13:16:42 2003: LOG DATE
UWI.           05 071 07724 00: UNIQUE WELL ID
~Curve Information Block
DEPT.FT            0 000 00 00: Depth
CCL.                          : Casing Collar Locator
TT3.usec                      : CBL 3' Travel Time
AMP3.mV                       : CBL 3' Amplitude
GR.GAPI                       : Gamma Ray
~Parameter Information Block
~A  Depth       CCL         TT3         AMP3         GR     
# ...
   968.7500      0.0000    687.3322      4.3135     63.3546
   969.0000      0.0000    696.1721      4.1748     61.5712
   969.2500      0.0000    712.5219      4.1415     61.1004
   969.5000      0.0000    736.1783      4.2287     61.8594
   969.7500      0.0000    762.8492      4.4180     62.9134
   970.0000      0.0000    786.0504      4.6633     63.6724
   970.2500      0.0000    800.8655      4.8900     64.6613
   970.5000      0.0000    805.5022      5.0097     67.2435
   970.7500      0.0000    799.8994      4.9610     72.5176
   971.0000      0.0000    784.8885      4.7622     80.2275
   971.2500      0.0000    763.8922      4.5233     88.7451
   971.5000      0.0000    743.8521      4.3744     96.1471
   971.7500      0.0000    731.8464      4.3470    101.2841
   972.0000      0.0000    729.9122      4.3415    104.0006
   972.2500      0.0000    734.2167      4.2365    104.7134
   972.5000      0.0000    739.5822      4.0232    103.9963
   972.7500      0.0000    744.2194      3.8164    102.4205
   973.0000      0.0000    749.9854      3.7459    100.4906
   973.2500      0.0000    758.6555      3.8591     98.5571
   973.5000      0.0000    768.9110      4.1242     96.8574
   973.7500      0.0000    777.6904      4.4917     95.6704
   974.0000      0.0000    783.9365      4.9258     95.3038
   974.2500      0.0000    789.5944      5.3702     95.9396
   974.5000      0.0000    796.5654      5.7068     97.6019
   974.7500      0.0000    803.9204      5.8006    100.0398
   975.0000      0.0000    808.7338      5.6137    102.2385
   975.2500      0.0000    808.5598      5.2596    102.2764
   975.5000      0.0000    802.8305      4.9275     98.4968
   975.7500      0.0000    793.5349      4.7513     91.2386
   976.0000      0.0000    785.3090      4.7415     83.0617
   976.2500      0.0000    783.2256      4.8146     76.9830
   976.5000      0.0000    788.8027      4.8680     74.5844
   976.7500      0.0000    798.6710      4.8521     75.5485
   977.0000      0.0000    807.8207      4.8124     78.4194
   977.2500      0.0000    813.4616      4.8487     81.8064
   977.5000      0.0000    815.5887      5.0045     85.3587
   977.7500      0.0000    815.1118      5.2094     89.7400
   978.0000      0.0000    812.5115      5.3539     95.5468
   978.2500      0.0000    808.1304      5.4040    102.3662
   978.5000      0.0000    803.0128      5.4307    108.9316
   978.7500      0.0000    798.5290      5.5508    113.9092
   979.0000      0.0000    794.4890      5.8456    116.2465
   979.2500      0.0000    787.8696      6.3156    114.9859
   979.5000      0.0000    774.5913      6.9080    109.3771
   979.7500      0.0000    753.2353      7.5963     99.7153
   980.0000      0.0000    725.5187      8.4177     88.1934
   980.2500      0.0000    691.0299      9.4151     78.5502
   980.5000      0.0000    643.4681     10.5632     74.3586
   980.7500      0.0000    577.3384     11.7873     77.1513
   981.0000      0.0000    498.8010     13.0574     85.6497
   981.2500      0.0000    424.7093     14.4442     96.4187
   981.5000      0.0000    369.3654     16.0830    105.6140
   981.7500      0.0000    335.3083     18.0829    111.0422
   982.0000      0.0000    316.4529     20.4436    113.1130
   982.2500      0.0000    305.5985     23.0249    113.8088
   982.5000      0.0000    297.8528     25.6103    114.6042
   982.7500      0.0000    290.4049     28.0386    115.2785
   983.0000      0.0000    282.1196     30.2878    114.5034
   983.2500      0.0000    273.5208     32.4384    111.5168
   983.5000      0.0000    266.0764     34.5766    107.2847
   983.7500      0.0000    260.8931     36.7497    103.8556
   984.0000      0.0000    257.9887     38.9754    102.4502
   984.2500      0.0000    256.6375     41.2176    102.5825
   984.5000      0.0000    256.0619     43.3331    103.2260
   984.7500      0.0000    255.7816     45.1095    104.1844
   985.0000      0.0000    255.5910     46.3998    105.8430
   985.2500      0.0000    255.4301     47.1930    108.1093
   985.5000      0.0000    255.3051     47.5317    110.2289
   985.7500      0.0000    255.2901     47.3986    111.5613
   986.0000      0.0000    255.6119     46.6816    112.1147
   986.2500      0.0000    256.7901     45.1894    112.3224
   986.5000      0.0000    259.7245     42.6953    112.5496
   986.7500      0.0000    265.4632     39.0711    112.8668
   987.0000      0.0000    274.9020     34.4672    113.1274
   987.2500      0.0000    289.2657     29.3449    113.0997
   987.5000      0.0000    311.8911     24.2728    112.4558
   987.7500      0.0000    349.4037     19.6778    110.7509
   988.0000      0.0000    408.7048     15.7633    107.6089
   988.2500      0.0000    489.6439     12.5824    102.9735
   988.5000      0.0000    580.2007     10.1363     96.9382
   988.7500      0.0000    661.3749      8.4261     89.4058
   989.0000      0.0000    718.8133      7.4265     80.4937
   989.2500      0.0000    750.3044      7.0006     71.4497
   989.5000      0.0000    763.3107      6.8838     64.6113
   989.7500      0.0000    766.8384      6.8276     62.3053
   990.0000      0.0000    764.8203      6.7906     65.9180
   990.2500      0.0000    755.0599      6.9692     75.4522
   990.5000      0.0000    733.7572      7.6131     89.1627
   990.7500      0.0000    700.8223      8.8051    103.8440
   991.0000      0.0000    658.9504     10.4389    116.3888
   991.2500      0.0000    607.4829     12.3937    125.3270
   991.5000      0.0000    542.8477     14.6504    130.6839
   991.7500      0.0000    468.3329     17.1865    132.6844
   992.0000      0.0000    397.9374     19.8220    131.3066
   992.2500      0.0000    346.0964     22.2525    127.0897
   992.5000      0.0000    316.6983     24.2280    121.5793
   992.7500      0.0000    303.8379     25.6570    116.5419
   993.0000      0.0000    299.4536     26.5594    112.8772
   993.2500      0.0000    298.2254     26.9774    110.2308
   993.5000      0.0000    297.8399     26.9446    107.4654
   993.7500      0.0000    297.6360     26.5037    103.8542
   994.0000      0.0000    297.5374     25.7288    100.3025
   994.2500      0.0000    297.5818     24.7353     99.0322
   994.5000      0.0000    297.7850     23.6678    101.2416
   994.7500      0.0000    298.0974     22.6593    105.1375
   995.0000      0.0000    298.4341     21.7914    107.0300
   995.2500      0.0000    298.7231     21.1022    104.4298
   995.5000      0.0000    298.9411     20.6200     97.8517
   995.7500      0.0000    299.1091     20.3712     89.9992
   996.0000      0.0000    299.2567     20.3601     83.6035
   996.2500      0.0000    299.3935     20.5555     79.7132
   996.5000      0.0000    299.5105     20.9026     77.6687
   996.7500      0.0000    299.5974     21.3349     76.5781
   997.0000      0.0000    299.6557     21.7786     76.4898
   997.2500      0.0000    299.6970     22.1711     77.9358
   997.5000      0.0000    299.7276     22.4949     80.8360
   997.7500      0.0000    299.7415     22.7820     84.4092
   998.0000      0.0000    299.7340     23.0709     87.9018
   998.2500      0.0000    299.7349     23.3621     90.7957
   998.5000      0.0000    299.8579     23.6023     92.3236
   998.7500      0.0000    300.4106     23.6628     91.5133
   999.0000      0.0000    301.9382     23.3396     88.1754
   999.2500      0.0000    304.9519     22.4599     83.5156
   999.5000      0.0000    309.3944     21.0634     79.4141
   999.7500      0.0000    314.4764     19.4596     77.2257
  1000.0000      0.0000    319.2925     18.0599     77.2604
  1000.2500      0.0000    323.5742     17.1368     78.8305
  1000.5000      0.0000    327.6430     16.6994     80.4511
  1000.7500      2.0000    331.6822     16.5306     80.5763
  1001.0000      0.0000    335.3541     16.3438     78.7852
  1001.2500      0.0000    338.2021     15.9740     76.2148
  1001.5000      0.0000    340.1562     15.4654     74.5798
  1001.7500      0.0000    341.3279     15.0109     74.5740
  1002.0000      0.0000    341.2588     14.8333     75.0834
