~Version Information
VERS.                      2.0: CWLS Log ASCII Standard - VERSION 2.0
WRAP.                       NO: One line per depth step
~Well Information Block
STRT.FT               259.0000: 
STOP.FT              2379.0000: 
STEP.FT                 0.2500: 
NULL.                -999.2500: 
COMP.          Pioneer Natural Resources: COMPANY
WELL.          Foothills 12-36: WELL
FLD.           Purgatoire River: FIELD
LOC.           2450' FNL & 201' FWL: LOCATION
PROV.                 Colorado: PROVINCE
CNTY.               Las Animas: COUNTRY
SRVC.                Patterson: SERVICE COMPANY
DATE.          Thu Apr 21 09:19:57 2005: LOG DATE
UWI.           05 071 08339 00: UNIQUE WELL ID
~Curve Information Block
DEPT.FT            0 000 00 00: Depth
DCAL.in                       : CDL Caliper
RHOB.g/cc                     : CDL Bulk Density
RHOC.g/cc                     : CDL Density Correction
DPOR.pu                       : CDL Density Porosity
GR.GAPI                       : Gamma Ray
NPOR.pu                       : Neutron Porosity
~Parameter Information Block
~A  Depth       DCAL        RHOB        RHOC        DPOR         GR         NPOR    
# ...
  1363.0000      8.2040      1.9343      0.1859     43.3760     60.5577     31.5594
  1363.2500      8.0690      2.0557      0.1319     36.0193     70.9574     32.3690
  1363.5000      8.0261      2.2594      0.1417     23.6727     73.2679     31.2128
  1363.7500      7.9967      2.3660      0.0425     17.2149     77.8227     29.7168
  1364.0000      7.8895      2.5244      0.0849      7.6100     93.0898     28.8859
  1364.2500      7.8126      2.5559      0.1412      5.7029     97.5187     28.3099
  1364.5000      7.8019      2.5733      0.1379      4.6500     89.3148     27.6259
  1364.7500      7.8157      2.5400      0.0096      6.6640    101.2838     27.3365
  1365.0000      7.8310      2.5512      0.0446      5.9889    103.7577     28.1538
  1365.2500      7.8375      2.5313      0.0249      7.1941    103.7507     29.0784
  1365.5000      7.8426      2.5449      0.0599      6.3692     95.3967     27.2093
  1365.7500      7.8549      2.5142     -0.0265      8.2317     91.6711     23.7965
  1366.0000      7.8694      2.5503      0.0715      6.0397     94.8444     24.7686
  1366.2500      7.8724      2.5734      0.0440      4.6421    100.6564     26.5303
  1366.5000      7.8656      2.5505      0.0174      6.0316     99.0932     26.4210
  1366.7500      7.8627      2.5162     -0.0568      8.1079     97.6346     26.0664
  1367.0000      7.8613      2.5321      0.0325      7.1431    107.7577     26.8395
  1367.2500      7.8531      2.5110      0.0295      8.4249    108.7273     26.5270
  1367.5000      7.8406      2.4982      0.0285      9.2011    106.1464     27.3672
  1367.7500      7.8353      2.5283      0.0055      7.3754     86.3550     28.4434
  1368.0000      7.8320      2.5600      0.0827      5.4545     87.0258     26.5815
  1368.2500      7.8212      2.5203     -0.0022      7.8586     96.8718     25.8878
  1368.5000      7.8062      2.5778      0.0326      4.3768     82.1610     25.7018
  1368.7500      7.7942      2.6194      0.0935      1.8553     80.6956     24.6834
  1369.0000      7.7869      2.5428      0.0205      6.4963     81.8879     23.0295
  1369.2500      7.7857      2.5392      0.0644      6.7134     81.6054     23.1520
  1369.5000      7.7877      2.5463      0.0903      6.2876     74.7773     25.4209
  1369.7500      7.7899      2.5689      0.0469      4.9137     72.8411     23.7168
  1370.0000      7.7917      2.5393      0.0608      6.7064     73.6466     23.0030
  1370.2500      7.7915      2.5352      0.0198      6.9565     72.2948     22.8715
  1370.5000      7.7916      2.5499      0.0362      6.0653     88.2206     24.1847
  1370.7500      7.7935      2.5362      0.0420      6.8991     95.7722     26.6714
  1371.0000      7.7907      2.5625      0.0695      5.3009     89.8398     25.7438
  1371.2500      7.7880      2.5350      0.0658      6.9681     96.0990     25.6636
  1371.5000      7.8046      2.4858     -0.0107      9.9496    104.6241     27.8608
  1371.7500      7.8336      2.4982     -0.0011      9.1973    100.8388     27.5921
  1372.0000      7.8397      2.5794      0.0632      4.2809     96.7484     28.7328
  1372.2500      7.8269      2.5968      0.0439      3.2251     93.7827     26.3539
  1372.5000      7.8168      2.6334      0.0956      1.0089     94.9055     26.8642
  1372.7500      7.8076      2.6286      0.0247      1.2985     99.2979     29.5848
  1373.0000      7.7987      2.5711      0.0307      4.7802    103.9158     28.6159
  1373.2500      7.8051      2.5500      0.0498      6.0588    108.5375     27.9156
  1373.5000      7.8270      2.5919      0.0951      3.5230    102.2635     27.4055
  1373.7500      7.8489      2.5961      0.0844      3.2657     96.9686     26.4412
  1374.0000      7.8573      2.5692      0.0168      4.8972     82.7572     26.3185
  1374.2500      7.8449      2.6041      0.1123      2.7830     72.5890     24.3058
  1374.5000      7.8243      2.5891      0.0934      3.6909     66.3313     23.2448
  1374.7500      7.8037      2.5891      0.0736      3.6890     67.3654     24.2385
  1375.0000      7.7858      2.6506      0.1343     -0.0381     61.3639     23.0458
  1375.2500      7.7753      2.6473      0.0705      0.1609     62.4501     23.7826
  1375.5000      7.7673      2.5923      0.0707      3.4961     72.0410     25.2458
  1375.7500      7.7658      2.5460      0.0687      6.3060     87.5172     26.7049
  1376.0000      7.7730      2.4679     -0.0153     11.0352     99.1587     27.5228
  1376.2500      7.7821      2.5262      0.0943      7.5050    113.6539     29.8460
  1376.5000      7.7906      2.5254      0.0535      7.5539    120.5163     29.4689
  1376.7500      7.7999      2.5361      0.0963      6.9011    111.1156     31.1740
  1377.0000      7.8156      2.5287      0.1295      7.3497     92.1411     28.8757
  1377.2500      7.8319      2.5621      0.0819      5.3250     75.7093     26.8895
  1377.5000      7.8325      2.5543      0.0926      5.8026     63.7389     26.2558
  1377.7500      7.8169      2.5515      0.1148      5.9697     50.4638     25.7716
  1378.0000      7.8016      2.5028      0.0400      8.9210     49.3455     25.0335
  1378.2500      7.7918      2.4774      0.0319     10.4585     50.0922     22.7936
  1378.5000      7.7837      2.5511      0.0673      5.9954     50.0671     22.1439
  1378.7500      7.7740      2.5457      0.0246      6.3226     47.9447     23.3184
  1379.0000      7.7699      2.5015      0.0382      9.0004     44.8827     22.5167
  1379.2500      7.7742      2.4575     -0.0268     11.6646     45.1435     23.6741
  1379.5000      7.7810      2.4901      0.0182      9.6895     47.0587     21.1323
  1379.7500      7.7871      2.4752      0.0454     10.5944     52.4461     21.7009
  1380.0000      7.7905      2.4503      0.0225     12.1008     56.6307     21.2961
  1380.2500      7.7923      2.4354      0.0272     13.0031     59.1083     20.2602
  1380.5000      7.7951      2.4455      0.0381     12.3934     67.6970     22.1958
  1380.7500      7.7970      2.4578      0.0507     11.6507     65.9254     23.0277
  1381.0000      7.7910      2.3949     -0.0009     15.4583     66.4572     20.5913
  1381.2500      7.7770      2.4014      0.0672     15.0670     72.1621     19.6513
  1381.5000      7.7597      2.4529      0.0666     11.9426     71.9199     21.6270
  1381.7500      7.7445      2.4870      0.0346      9.8760     64.3201     21.6235
  1382.0000      7.7375      2.5108      0.1049      8.4370     66.3180     23.7218
  1382.2500      7.7410      2.5571      0.0970      5.6297     64.7561     21.8095
  1382.5000      7.7519      2.6295      0.1443      1.2439     56.4261     18.4333
  1382.7500      7.7626      2.5668      0.0337      5.0418     45.7510     18.2132
  1383.0000      7.7684      2.5932      0.0883      3.4452     37.5680     16.1395
  1383.2500      7.7695      2.5849      0.0557      3.9473     38.6490     16.9866
  1383.5000      7.7686      2.6291      0.1391      1.2694     39.2840     17.6722
  1383.7500      7.7688      2.6248      0.0861      1.5297     37.3560     17.9120
  1384.0000      7.7698      2.6092      0.0684      2.4746     42.2742     18.3841
  1384.2500      7.7717      2.6379      0.0795      0.7356     37.6324     18.2108
  1384.5000      7.7739      2.6431      0.1286      0.4172     40.2855     18.7521
  1384.7500      7.7723      2.6396      0.0652      0.6291     38.9154     19.6060
  1385.0000      7.7654      2.6048      0.0162      2.7386     39.6642     17.6562
  1385.2500      7.7584      2.5935      0.0550      3.4252     40.8239     18.1727
  1385.5000      7.7554      2.5771      0.0465      4.4165     42.4247     18.5952
  1385.7500      7.7569      2.5782      0.0335      4.3524     44.7196     19.3575
  1386.0000      7.7616      2.5868      0.0608      3.8323     45.2053     18.8220
  1386.2500      7.7662      2.5634      0.0411      5.2476     56.1247     19.8308
  1386.5000      7.7661      2.5606      0.0796      5.4211     60.4406     21.3439
  1386.7500      7.7630      2.5660      0.0241      5.0936     71.8560     22.0604
