~Version Information
VERS.                      2.0: CWLS Log ASCII Standard - VERSION 2.0
WRAP.                       NO: One line per depth step
~Well Information Block
STRT.FT               260.0000: 
STOP.FT              2269.5000: 
STEP.FT                 0.1000: 
NULL.                -999.2500: 
COMP.          Pioneer Natural Resources: COMPANY
WELL.            Moo Moo 31-36: WELL
FLD.           Purgatoire River: FIELD
LOC.           612' FNL & 2326' FEL: LOCATION
PROV.                 Colorado: PROVINCE
CNTY.               Las Animas: COUNTRY
SRVC.                Patterson: SERVICE COMPANY
DATE.          Fri Jun 17 07:04:43 2005: LOG DATE
UWI.           05 071 08395 00: UNIQUE WELL ID
~Curve Information Block
DEPT.FT            0 000 00 00: Depth
DCAL.in                       : CDL Caliper
RHOB.g/cc                     : CDL Bulk Density
RHOC.g/cc                     : CDL Density Correction
DPOR.pu                       : CDL Density Porosity
GR.GAPI                       : Gamma Ray
NPOR.pu                       : Neutron Porosity
~Parameter Information Block
~A  Depth       DCAL        RHOB        RHOC        DPOR         GR         NPOR    
# ...
   788.0000      8.1516      2.4502      0.0682     12.1065    121.3434     24.3646
   788.1000      8.1516      2.4666      0.0527     11.1145    120.3815     24.4603
   788.2000      8.1516      2.5138      0.0023      8.2539    123.5898     24.8522
   788.3000      8.1505      2.5720      0.1076      4.7301    124.5229     25.0296
   788.4000      8.1505      2.5982      0.1299      3.1397    123.8260     25.1438
   788.5000      8.1478      2.5977      0.0571      3.1712    123.0784     25.3352
   788.6000      8.1478      2.6045      0.1172      2.7598    124.8966     25.1905
   788.7000      8.1478      2.6140      0.1156      2.1818    130.5104     24.8329
   788.8000      8.1512      2.6070      0.1071      2.6066    133.8620     24.8763
   788.9000      8.1512      2.5900      0.0877      3.6362    131.5736     25.3567
   789.0000      8.1579      2.5790      0.0843      4.3031    126.8429     25.8733
   789.1000      8.1579      2.5724      0.1050      4.7032    122.8188     26.0533
   789.2000      8.1579      2.5622      0.0772      5.3197    121.1393     25.9813
   789.3000      8.1528      2.5518      0.0339      5.9525    120.8514     25.9368
   789.4000      8.1528      2.5417      0.0602      6.5623    119.1128     25.8059
   789.5000      8.1491      2.5327      0.0008      7.1109    117.1563     25.6124
   789.6000      8.1491      2.5356      0.0574      6.9350    117.8778     25.6135
   789.7000      8.1491      2.5420      0.0369      6.5452    120.7323     25.8168
   789.8000      8.1467      2.5220      0.0878      7.7550    123.3210     26.1783
   789.9000      8.1467      2.4788     -0.0332     10.3779    123.7871     26.6838
   790.0000      8.1413      2.4569     -0.0181     11.7002    121.8094     27.1269
   790.1000      8.1413      2.4711      0.0568     10.8450    119.4633     27.0276
   790.2000      8.1413      2.4959      0.0161      9.3421    119.3816     26.3692
   790.3000      8.1338      2.5219      0.0442      7.7629    120.3894     25.7056
   790.4000      8.1338      2.5526      0.0894      5.9020    120.7001     25.2746
   790.5000      8.1330      2.5804      0.1251      4.2182    121.4408     25.1057
   790.6000      8.1330      2.5905      0.1401      3.6047    120.6947     25.4327
   790.7000      8.1330      2.5734      0.0898      4.6441    116.3381     26.0759
   790.8000      8.1303      2.5439      0.1032      6.4305    114.2086     26.2588
   790.9000      8.1303      2.5333      0.0836      7.0737    118.3370     25.7438
   791.0000      8.1266      2.5538      0.0916      5.8290    123.3891     25.1543
   791.1000      8.1266      2.5806      0.1592      4.2035    124.6654     24.8578
   791.2000      8.1266      2.5800      0.1454      4.2413    124.1337     24.5908
   791.3000      8.1260      2.5523      0.0943      5.9211    123.4128     24.0803
   791.4000      8.1260      2.5249      0.0825      7.5810    122.7301     23.6671
   791.5000      8.1271      2.5179      0.0307      8.0041    124.0912     23.9725
   791.6000      8.1271      2.5266      0.0399      7.4816    126.5107     24.7057
   791.7000      8.1271      2.5307      0.0352      7.2332    126.7560     25.1462
   791.8000      8.1155      2.5274      0.0280      7.4318    124.6355     25.3100
   791.9000      8.1155      2.5277      0.0878      7.4111    123.2602     25.5374
   792.0000      8.1158      2.5295      0.0352      7.3028    124.6551     25.7277
   792.1000      8.1158      2.5233      0.0275      7.6758    125.9853     25.4924
   792.2000      8.1158      2.5059      0.0343      8.7330    125.9749     25.0868
   792.3000      8.1247      2.4851      0.0351      9.9913    126.7796     24.8970
   792.4000      8.1247      2.4703      0.0151     10.8886    129.3173     24.7077
   792.5000      8.1306      2.4623      0.0434     11.3729    132.8195     24.3581
   792.6000      8.1306      2.4579      0.0570     11.6411    133.9742     24.2326
   792.7000      8.1306      2.4596      0.0440     11.5373    130.1758     24.7139
   792.8000      8.1254      2.4741      0.0813     10.6614    123.6129     25.1269
   792.9000      8.1254      2.4969      0.1509      9.2762    117.8352     24.7991
   793.0000      8.1257      2.5203      0.1461      7.8604    114.0377     24.3079
   793.1000      8.1257      2.5493      0.1342      6.1014    112.7731     24.3252
   793.2000      8.1257      2.5878      0.1761      3.7726    113.9740     24.8242
   793.3000      8.1275      2.6217      0.2057      1.7163    112.6807     25.4284
   793.4000      8.1275      2.6371      0.1636      0.7842    106.5382     25.8032
   793.5000      8.1263      2.6307      0.1730      1.1711    101.0777     25.5635
   793.6000      8.1263      2.6016      0.1268      2.9352    103.7641     24.8663
   793.7000      8.1263      2.5612      0.1068      5.3804    114.2189     24.3562
   793.8000      8.1271      2.5340      0.0789      7.0276    124.0232     24.3840
   793.9000      8.1271      2.5318      0.0979      7.1640    129.1118     24.9180
   794.0000      8.1075      2.5445      0.1217      6.3926    132.6718     25.5308
   794.1000      8.1075      2.5559      0.1057      5.7037    137.4209     25.6839
   794.2000      8.1075      2.5623      0.0585      5.3165    138.9299     25.2479
   794.3000      8.0804      2.5665      0.0786      5.0624    132.9984     24.6311
   794.4000      8.0804      2.5626      0.0878      5.2942    123.3687     24.1163
   794.5000      8.0894      2.5441      0.0802      6.4189    116.6734     23.9398
   794.6000      8.0894      2.5136      0.0224      8.2674    116.0464     24.4783
   794.7000      8.0894      2.4861      0.0505      9.9316    119.0349     25.2102
   794.8000      8.0829      2.4752     -0.0018     10.5914    120.5328     25.1212
   794.9000      8.0829      2.4848      0.0296     10.0104    118.7323     24.3485
   795.0000      8.0960      2.5035      0.0676      8.8812    115.4619     23.9645
   795.1000      8.0960      2.5179      0.0151      8.0047    112.1852     24.3155
   795.2000      8.0960      2.5325      0.0841      7.1198    112.5766     24.7293
   795.3000      8.0752      2.5496      0.0595      6.0850    118.3127     24.9907
   795.4000      8.0752      2.5629      0.0768      5.2767    124.8615     25.2452
   795.5000      8.0795      2.5656      0.0777      5.1141    126.7337     25.1509
   795.6000      8.0795      2.5588      0.0628      5.5246    123.0091     24.5403
   795.7000      8.0795      2.5525      0.1278      5.9104    119.2707     23.8403
   795.8000      8.0720      2.5439      0.0665      6.4282    119.2169     23.5897
   795.9000      8.0720      2.5267      0.0519      7.4719    120.8440     23.9269
   796.0000      8.0543      2.5111      0.0341      8.4197    121.4802     24.4375
   796.1000      8.0543      2.5097      0.0186      8.5022    120.3036     24.6641
   796.2000      8.0543      2.5168      0.0627      8.0748    117.3344     24.5602
   796.3000      8.0719      2.5258     -0.0210      7.5246    115.1173     24.2005
   796.4000      8.0719      2.5448      0.0074      6.3734    116.6071     23.6168
   796.5000      8.1172      2.5656      0.0517      5.1128    118.8673     23.1357
   796.6000      8.1172      2.5672      0.0511      5.0182    117.8996     23.1341
   796.7000      8.1172      2.5427      0.0863      6.5060    116.7702     23.5552
   796.8000      8.1145      2.5031      0.0194      8.9050    120.2816     23.9429
   796.9000      8.1145      2.4740     -0.0139     10.6652    124.2094     24.0631
   797.0000      8.1073      2.4701     -0.0202     10.9051    123.0805     24.2042
   797.1000      8.1073      2.4809     -0.0255     10.2489    120.0108     24.5403
   797.2000      8.1073      2.4937      0.0054      9.4736    118.3222     24.8858
   797.3000      8.0849      2.4994      0.1174      9.1288    117.5203     25.2280
   797.4000      8.0849      2.4956      0.0916      9.3606    116.9141     25.6720
   797.5000      8.1137      2.4962      0.1041      9.3220    118.6807     26.0532
