~Version Information
VERS.                      2.0: CWLS Log ASCII Standard - VERSION 2.0
WRAP.                       NO: One line per depth step
~Well Information Block
STRT.FT               550.0000: 
STOP.FT              2042.5000: 
STEP.FT                 0.1000: 
NULL.                -999.2500: 
COMP.          Petrogulf Corporation: COMPANY
WELL.          Robinson 15-12V: WELL
FLD.           Purgatorie River: FIELD
LOC.           1788' FNL & 466' FWL: LOCATION
PROV.                 Colorado: PROVINCE
CNTY.               Las Animas: COUNTRY
SRVC.                Patterson: SERVICE COMPANY
DATE.          Mon Sep 12 10:04:59 2005: LOG DATE
UWI.                          : UNIQUE WELL ID
~Curve Information Block
DEPT.FT            0 000 00 00: Depth
DCAL.in                       : CDL Caliper
RHOB.g/cc                     : CDL Bulk Density
RHOC.g/cc                     : CDL Density Correction
DPOR.pu                       : CDL Density Porosity
GR.GAPI                       : Gamma Ray
NPOR.pu                       : Neutron Porosity
~Parameter Information Block
~A  Depth       DCAL        RHOB        RHOC        DPOR         GR         NPOR    
# ...
   742.0000      8.9260      1.0696      0.0022     95.7826     77.1004     12.5629
   742.1000      8.9260      0.9931     -0.1007    100.4196     78.0567     11.6763
   742.2000      8.9260      1.0119      0.0225     99.2773     80.5083     10.6215
   742.3000      9.0339      1.1473      0.1093     91.0699     84.2378      9.7203
   742.4000      9.0339      1.3630      0.3131     78.0010     87.5691      9.1234
   742.5000      9.4958      1.5888      0.4131     64.3150     91.3451      8.9285
   742.6000      9.4958      1.7735      0.4324     53.1182     98.2487      9.4263
   742.7000      9.4958      1.9220      0.4546     44.1232    109.5409     10.9041
   742.8000      9.9444      2.0615      0.4543     35.6657    122.4190     13.2243
   742.9000      9.9444      2.1916      0.4761     27.7825    132.1577     15.9245
   743.0000      9.4228      2.2934      0.4120     21.6109    138.4391     18.7439
   743.1000      9.4228      2.3712      0.3213     16.8989    142.6494     21.5938
   743.2000      9.4228      2.4368      0.2994     12.9205    144.1245     24.0595
   743.3000      8.4306      2.4785      0.2502     10.3940    144.0940     25.8910
   743.4000      8.4306      2.4842      0.1714     10.0503    145.1329     27.1993
   743.5000      8.1896      2.4692      0.0557     10.9593    147.0537     28.0160
   743.6000      8.1896      2.4559      0.0576     11.7627    149.2431     28.2497
   743.7000      8.1896      2.4471      0.0530     12.2986    154.3315     27.7786
   743.8000      8.2198      2.4374      0.0897     12.8832    159.8559     26.8578
   743.9000      8.2198      2.4277      0.1163     13.4705    159.2692     25.9848
   744.0000      8.2584      2.4266      0.1111     13.5391    154.7233     25.3057
   744.1000      8.2584      2.4412      0.1572     12.6527    152.1328     24.8260
   744.2000      8.2584      2.4606      0.2157     11.4797    152.6087     24.7486
   744.3000      8.2962      2.4727      0.1915     10.7440    154.3214     25.0591
   744.4000      8.2962      2.4873      0.1828      9.8605    154.4054     25.4203
   744.5000      8.2969      2.5116      0.2273      8.3908    151.8157     25.6484
   744.6000      8.2969      2.5332      0.2410      7.0799    147.4017     25.9897
   744.7000      8.2969      2.5445      0.1883      6.3935    142.3043     26.7930
   744.8000      8.3245      2.5431      0.2121      6.4762    137.9584     27.9034
   744.9000      8.3245      2.5163      0.1827      8.1024    134.7638     28.9959
   745.0000      8.3076      2.4689      0.1179     10.9767    133.4189     29.9911
   745.1000      8.3076      2.4423      0.0126     12.5891    134.4584     30.8607
   745.2000      8.3076      2.4619      0.1036     11.4019    134.8469     31.5208
   745.3000      8.2555      2.5010      0.1355      9.0283    132.4283     31.8656
   745.4000      8.2555      2.5344      0.1461      7.0041    129.5516     31.8925
   745.5000      8.0613      2.5695      0.1471      4.8803    129.2642     31.7114
   745.6000      8.0613      2.6074      0.2274      2.5813    132.0160     31.4879
   745.7000      8.0613      2.6268      0.2487      1.4064    134.1887     31.3053
   745.8000      7.9867      2.6173      0.2090      1.9823    134.3342     31.1106
   745.9000      7.9867      2.5949      0.1401      3.3373    134.4795     30.7371
   746.0000      7.9801      2.5784      0.1652      4.3384    134.4517     30.1378
   746.1000      7.9801      2.5767      0.1364      4.4420    133.3454     29.6104
   746.2000      7.9801      2.5912      0.1059      3.5615    132.3038     29.3881
   746.3000      7.9801      2.6204      0.0890      1.7933    132.8898     29.4297
   746.4000      7.9801      2.6662      0.0977     -0.9811    133.4130     29.6696
   746.5000      7.9719      2.7259      0.1316     -4.5998    132.2955     30.0278
   746.6000      7.9719      2.7868      0.1453     -8.2937    130.9586     30.3436
   746.7000      7.9719      2.8326      0.1702    -11.0683    130.0895     30.5579
   746.8000      7.9635      2.8508      0.1349    -12.1699    129.1641     30.7296
   746.9000      7.9635      2.8439      0.1185    -11.7499    127.2474     30.8856
   747.0000      7.9693      2.8189      0.0789    -10.2382    124.1803     31.0382
   747.1000      7.9693      2.7764      0.0219     -7.6634    121.7017     31.1732
   747.2000      7.9693      2.7248     -0.0587     -4.5307    121.1646     31.0969
   747.3000      7.9775      2.6779     -0.0240     -1.6919    121.7211     30.5777
   747.4000      7.9775      2.6369     -0.0059      0.7923    122.4830     29.8299
   747.5000      7.9955      2.5993     -0.0292      3.0753    125.0458     29.2160
   747.6000      7.9955      2.5715     -0.0429      4.7591    128.6216     28.7840
   747.7000      7.9955      2.5581     -0.0191      5.5701    129.0972     28.5881
   747.8000      8.0022      2.5526      0.0286      5.9023    126.3965     28.6753
   747.9000      8.0022      2.5481      0.0211      6.1757    123.5974     28.9486
   748.0000      7.9980      2.5480     -0.0082      6.1788    122.9027     29.1810
   748.1000      7.9980      2.5629      0.0182      5.2818    124.1443     29.1747
   748.2000      7.9980      2.5968      0.0355      3.2266    124.4951     29.0190
   748.3000      7.9994      2.6315      0.0821      1.1228    121.9029     28.9466
   748.4000      7.9994      2.6418      0.0711      0.4994    117.8139     28.9976
   748.5000      7.9991      2.6339      0.0009      0.9783    113.9663     29.0932
   748.6000      7.9991      2.6363      0.0116      0.8296    109.7615     29.1276
   748.7000      7.9991      2.6557      0.0248     -0.3450    105.5708     29.0101
   748.8000      7.9942      2.6696      0.0608     -1.1857    103.4833     28.8574
   748.9000      7.9942      2.6551      0.0457     -0.3097    103.2789     28.8906
   749.0000      7.9886      2.6151     -0.0133      2.1146    102.3167     29.0857
   749.1000      7.9886      2.5749     -0.0666      4.5526    100.1976     29.2180
   749.2000      7.9886      2.5524     -0.0383      5.9142     99.7154     29.1988
   749.3000      7.9890      2.5402      0.0112      6.6575    102.9191     29.1106
   749.4000      7.9890      2.5275      0.0323      7.4223    108.3669     29.0469
   749.5000      7.9900      2.5219      0.0489      7.7626    113.4575     28.9804
   749.6000      7.9900      2.5344     -0.0002      7.0052    117.7932     28.8028
   749.7000      7.9900      2.5578      0.0895      5.5889    122.1917     28.5365
   749.8000      7.9938      2.5721      0.1021      4.7193    127.2141     28.2443
   749.9000      7.9938      2.5729      0.1189      4.6737    131.8331     27.8378
   750.0000      7.9793      2.5652      0.1516      5.1395    135.6803     27.2849
   750.1000      7.9793      2.5469      0.1333      6.2510    140.5102     26.7624
   750.2000      7.9793      2.5192      0.1012      7.9276    147.3114     26.4306
   750.3000      7.9996      2.4916      0.0791      9.5983    153.7677     26.2027
   750.4000      7.9996      2.4676      0.1064     11.0535    155.9294     25.9057
   750.5000      8.0543      2.4416      0.0580     12.6325    154.0144     25.6077
   750.6000      8.0543      2.4119      0.0633     14.4275    151.0457     25.4895
   750.7000      8.0543      2.3849      0.0625     16.0660    148.4247     25.4988
   750.8000      8.1208      2.3621      0.1051     17.4461    148.6680     25.4603
   750.9000      8.1208      2.3409      0.0412     18.7334    153.2573     25.2573
   751.0000      8.2045      2.3252      0.0708     19.6859    157.7323     24.9120
   751.1000      8.2045      2.3147      0.1049     20.3229    158.7896     24.5683
   751.2000      8.2045      2.3034      0.1213     21.0087    158.1537     24.2220
   751.3000      8.2554      2.2977      0.0943     21.3530    157.1597     23.8110
   751.4000      8.2554      2.3132      0.1325     20.4100    156.3621     23.4502
   751.5000      8.2724      2.3532      0.1028     17.9890    155.1130     23.2259
