~Version Information
VERS.                      2.0: CWLS Log ASCII Standard - VERSION 2.0
WRAP.                       NO: One line per depth step
~Well Information Block
STRT.FT               240.0000: 
STOP.FT              1709.2000: 
STEP.FT                 0.1000: 
NULL.                -999.2500: 
COMP.          Pioneer Natural Resources: COMPANY
WELL.              Patten 22-2: WELL
FLD.           Purgatoire River: FIELD
LOC.           2157' FNL & 1528' FWL: LOCATION
PROV.                 Colorado: PROVINCE
CNTY.               Las Animas: COUNTRY
SRVC.                Patterson: SERVICE COMPANY
DATE.          Fri Dec 10 09:15:13 2004: LOG DATE
UWI.           05 071 08168 00: UNIQUE WELL ID
~Curve Information Block
DEPT.FT            0 000 00 00: Depth
DCAL.in                       : CDL Caliper
RHOB.g/cc                     : CDL Bulk Density
RHOC.g/cc                     : CDL Density Correction
DPOR.pu                       : CDL Density Porosity
NPOR.pu                       : Neutron Porosity
GR.GAPI                       : Gamma Ray
~Parameter Information Block
~A  Depth       DCAL        RHOB        RHOC        DPOR        NPOR         GR     
# ...
  1584.0000      7.9128      2.4896      0.0576      9.7215     20.9270     72.8765
  1584.1000      7.9128      2.4967      0.0768      9.2887     20.9881     73.2817
  1584.2000      7.9128      2.4883      0.0713      9.7996     20.7752     76.3407
  1584.3000      7.9141      2.4692      0.0571     10.9565     20.3456     79.7894
  1584.4000      7.9141      2.4519      0.0241     12.0035     19.8519     81.1154
  1584.5000      7.9138      2.4437      0.0152     12.5032     19.6335     82.1043
  1584.6000      7.9138      2.4396      0.0532     12.7496     19.8152     84.0895
  1584.7000      7.9138      2.4348      0.0331     13.0431     20.1827     85.9819
  1584.8000      7.9117      2.4411      0.0123     12.6597     20.5615     85.4509
  1584.9000      7.9117      2.4646      0.0388     11.2342     20.9692     80.3375
  1585.0000      7.9093      2.4893      0.0693      9.7416     21.2906     74.6081
  1585.1000      7.9093      2.5028      0.0712      8.9196     21.4241     74.3696
  1585.2000      7.9093      2.5151      0.0505      8.1745     21.4607     76.7668
  1585.3000      7.9106      2.5365      0.0768      6.8777     21.2062     77.4634
  1585.4000      7.9106      2.5474      0.1350      6.2157     20.7032     78.5985
  1585.5000      7.9131      2.5245      0.0730      7.6088     20.2615     82.1286
  1585.6000      7.9131      2.4874      0.0375      9.8526     19.8404     89.0583
  1585.7000      7.9131      2.4751      0.0201     10.6009     19.5707     97.3293
  1585.8000      7.9142      2.4919      0.0768      9.5838     19.6088    100.5868
  1585.9000      7.9142      2.5086      0.0828      8.5688     19.5464     97.0205
  1586.0000      7.9143      2.5065      0.0693      8.6964     19.0481     90.7626
  1586.1000      7.9143      2.4918      0.0380      9.5876     18.7424     84.8669
  1586.2000      7.9143      2.4837      0.0266     10.0801     19.3537     78.8191
  1586.3000      7.9135      2.4950      0.0439      9.3931     20.4654     75.1084
  1586.4000      7.9135      2.5093      0.0855      8.5294     21.1653     77.7232
  1586.5000      7.9121      2.5015      0.0513      9.0008     21.1404     83.3786
  1586.6000      7.9121      2.4813      0.0287     10.2264     20.7086     88.6746
  1586.7000      7.9121      2.4690      0.0524     10.9716     20.5463     93.3599
  1586.8000      7.9098      2.4619      0.0313     11.4024     20.9368     96.2234
  1586.9000      7.9098      2.4561      0.0444     11.7520     21.4698     96.4131
  1587.0000      7.9069      2.4549      0.0676     11.8219     22.0262     93.0144
  1587.1000      7.9069      2.4544      0.0465     11.8560     22.3624     86.4747
  1587.2000      7.9069      2.4522      0.0547     11.9849     21.8733     81.4555
  1587.3000      7.9017      2.4552      0.0033     11.8040     21.0331     80.4255
  1587.4000      7.9017      2.4621      0.0850     11.3898     20.4647     78.2516
  1587.5000      7.8964      2.4614      0.0170     11.4275     20.1925     76.7813
  1587.6000      7.8964      2.4555      0.0351     11.7893     20.2907     81.0814
  1587.7000      7.8964      2.4523      0.0476     11.9794     20.6600     86.6596
  1587.8000      7.8979      2.4510      0.0447     12.0577     20.9537     91.3637
  1587.9000      7.8979      2.4516      0.0117     12.0229     20.8738     96.1130
  1588.0000      7.9036      2.4592      0.0064     11.5628     20.6213     95.5919
  1588.1000      7.9036      2.4688      0.0794     10.9791     20.5367     88.9715
  1588.2000      7.9036      2.4730      0.0342     10.7247     20.3966     85.6104
  1588.3000      7.9005      2.4793      0.0431     10.3468     20.0841     86.8349
  1588.4000      7.9005      2.4867      0.0899      9.8982     19.8925     84.4567
  1588.5000      7.8900      2.4883      0.0633      9.7976     19.8655     77.3594
  1588.6000      7.8900      2.4895      0.0659      9.7261     19.7092     70.1152
  1588.7000      7.8900      2.4884      0.0558      9.7924     19.1827     66.9504
  1588.8000      7.8851      2.4756      0.0530     10.5722     18.6245     68.3389
  1588.9000      7.8851      2.4557      0.0242     11.7767     18.4085     72.4404
  1589.0000      7.8854      2.4422      0.0514     12.5924     18.3601     76.3934
  1589.1000      7.8854      2.4355      0.0332     12.9981     18.2755     77.8570
  1589.2000      7.8854      2.4288      0.0267     13.4040     18.1351     77.6654
  1589.3000      7.8859      2.4239      0.0279     13.7034     17.7208     75.8062
  1589.4000      7.8859      2.4256      0.0429     13.6008     17.2025     72.6436
  1589.5000      7.8884      2.4337      0.0106     13.1101     17.0870     69.9793
  1589.6000      7.8884      2.4354      0.0891     13.0035     17.2210     70.2583
  1589.7000      7.8884      2.4158      0.0160     14.1953     17.3027     75.9530
  1589.8000      7.8928      2.3848      0.0055     16.0741     17.4065     82.2518
  1589.9000      7.8928      2.3623      0.0099     17.4364     17.6192     83.2217
  1590.0000      7.8987      2.3537     -0.0002     17.9595     18.0790     82.2373
  1590.1000      7.8987      2.3545      0.0424     17.9083     18.6104     83.1523
  1590.2000      7.8987      2.3622      0.0059     17.4397     18.6201     84.9729
  1590.3000      7.9055      2.3727      0.0520     16.8045     18.4318     86.2879
  1590.4000      7.9055      2.3736      0.0384     16.7504     18.9587     86.8004
  1590.5000      7.9106      2.3600      0.0482     17.5757     19.6652     87.2975
  1590.6000      7.9106      2.3472      0.0151     18.3498     19.4176     86.0511
  1590.7000      7.9106      2.3538      0.0270     17.9523     18.7163     80.3935
  1590.8000      7.9120      2.3734      0.0466     16.7620     18.7874     73.7233
  1590.9000      7.9120      2.3859      0.0677     16.0053     19.3970     72.2297
  1591.0000      7.9067      2.3922      0.0488     15.6245     19.7208     77.2670
  1591.1000      7.9067      2.4078      0.0825     14.6775     20.0504     85.8305
  1591.2000      7.9067      2.4287      0.0946     13.4147     20.2800     91.7697
  1591.3000      7.8963      2.4412      0.0757     12.6522     19.3200     87.1006
  1591.4000      7.8963      2.4516      0.0601     12.0243     17.4677     74.6071
  1591.5000      7.8878      2.4700      0.0864     10.9062     16.3075     68.7834
  1591.6000      7.8878      2.4851      0.0922      9.9916     16.3582     75.8398
  1591.7000      7.8878      2.4821      0.1104     10.1763     16.9366     85.6827
  1591.8000      7.8834      2.4700      0.0893     10.9074     17.0818     88.0491
  1591.9000      7.8834      2.4652      0.0873     11.1981     16.3454     83.7104
  1592.0000      7.8833      2.4727      0.0258     10.7437     15.4442     78.4110
  1592.1000      7.8833      2.4894      0.0459      9.7309     15.1387     74.8827
  1592.2000      7.8833      2.5040      0.0528      8.8462     15.2925     72.9436
  1592.3000      7.8855      2.5107      0.0426      8.4401     15.3664     74.9036
  1592.4000      7.8855      2.5164      0.0147      8.0950     14.9342     80.7297
  1592.5000      7.8881      2.5226      0.0663      7.7230     14.1719     83.1931
  1592.6000      7.8881      2.5204      0.0501      7.8527     13.5354     79.3912
  1592.7000      7.8881      2.5078      0.0658      8.6208     13.3749     74.7903
  1592.8000      7.8881      2.4954      0.0099      9.3716     13.8758     71.1994
  1592.9000      7.8881      2.4949      0.0360      9.4006     14.7379     67.7587
  1593.0000      7.8847      2.5028      0.0714      8.9213     15.2137     66.2769
  1593.1000      7.8847      2.5071      0.0712      8.6615     15.0886     68.3326
  1593.2000      7.8847      2.4987      0.0640      9.1667     15.0211     74.7335
  1593.3000      7.8835      2.4790      0.0590     10.3638     15.3081     83.2828
  1593.4000      7.8835      2.4618      0.0152     11.4084     15.7893     88.1184
  1593.5000      7.8896      2.4578      0.0250     11.6490     16.4626     86.6312
