~Version Information
VERS.                      2.0: CWLS Log ASCII Standard - VERSION 2.0
WRAP.                       NO: One line per depth step
~Well Information Block
STRT.FT                15.0000: 
STOP.FT              2265.2500: 
STEP.FT                 0.2500: 
NULL.                -999.2500: 
COMP.          Pioneer Natural Resources: COMPANY
WELL.             Vector 33-23: WELL
FLD.           Purgatoire River: FIELD
LOC.           1988' FSL & 1560' FEL: LOCATION
PROV.                 Colorado: PROVINCE
CNTY.               Las Animas: COUNTRY
SRVC.                Patterson: SERVICE COMPANY
DATE.          Fri Apr 01 13:14:24 2005: LOG DATE
UWI.           05 071 08336 00: UNIQUE WELL ID
~Curve Information Block
DEPT.FT            0 000 00 00: Depth
GR.GAPI                       : Gamma Ray
CCL.                          : Casing Collar Locator
TT3.usec                      : CBL 3' Travel Time
AMP3.mV                       : CBL 3' Amplitude
AMP5.mV                       : CBL 5' Amplitude
~Parameter Information Block
~A  Depth        GR         CCL         TT3         AMP3        AMP5    
# ...
  1499.0000    114.9316      0.0000    833.4799     10.8538      1.2441
  1499.2500    117.1714      0.0000    833.5316     10.7834      1.2450
  1499.5000    116.4872      0.0000    833.5204     10.6510      1.2410
  1499.7500    113.3656      0.0000    833.4285     10.4809      1.2362
  1500.0000    109.2588      0.0000    833.2440     10.3039      1.2331
  1500.2500    104.9156      0.0000    832.9633     10.1540      1.2321
  1500.5000    100.6568      0.0000    832.5960     10.0608      1.2331
  1500.7500     97.2339      0.0000    832.1708     10.0393      1.2365
  1501.0000     95.2431      0.0000    831.7371     10.0864      1.2424
  1501.2500     94.1450      0.0000    831.3622     10.1873      1.2505
  1501.5000     93.0348      0.0000    831.0933     10.3277      1.2616
  1501.7500     92.3167      0.0000    830.8409     10.5023      1.2783
  1502.0000     93.5858      0.0000    830.1854     10.7102      1.3032
  1502.2500     97.4948      0.0000    828.3026     10.9398      1.3357
  1502.5000    102.2873      0.0000    824.3353     11.1583      1.3703
  1502.7500    104.9280      0.0000    818.1816     11.3184      1.4007
  1503.0000    103.6301      0.0000    810.9633     11.3859      1.4248
  1503.2500     99.0910      0.0000    804.4502     11.3661      1.4445
  1503.5000     93.4751      0.0000    799.8715     11.3019      1.4616
  1503.7500     88.5415      0.0000    797.3312     11.2431      1.4736
  1504.0000     84.7186      0.0000    796.2253     11.2153      1.4761
  1504.2500     81.5705      0.0000    795.9450     11.2179      1.4673
  1504.5000     78.9039      0.0000    796.2175     11.2377      1.4490
  1504.7500     77.3401      0.0000    797.1298     11.2602      1.4236
  1505.0000     77.6577      0.0000    799.0027     11.2708      1.3914
  1505.2500     79.6770      0.0000    802.1163     11.2536      1.3529
  1505.5000     82.2157      0.0000    806.7455     11.1859      1.3131
  1505.7500     84.1262      0.0000    814.0908     11.0289      1.2756
  1506.0000     85.0372      0.0000    827.3893     10.7415      1.2319
  1506.2500     85.3051      0.0000    850.5485     10.3299      1.1634
  1506.5000     85.7458      0.0000    883.7036      9.8738      1.0649
  1506.7500     87.1604      0.0000    920.3829      9.4519      0.9604
  1507.0000     89.5536      0.0000    952.3315      9.0366      0.8830
  1507.2500     91.7921      0.0000    978.6624      8.5365      0.8448
  1507.5000     92.4669      0.0000   1007.6188      7.9645      0.8307
  1507.7500     91.3174      0.0000   1047.1349      7.4771      0.8195
  1508.0000     89.6629      0.0000   1095.4178      7.2086      0.8028
  1508.2500     89.2016      0.0000   1141.0636      7.1348      0.7870
  1508.5000     90.5924     -3.0000   1169.6107      7.1258      0.7817
  1508.7500     93.5646     -2.5623   1171.3121      7.0847      0.7895
  1509.0000     98.0849      0.0000   1147.3972      7.0357      0.8038
  1509.2500    104.6678      0.0000   1108.6769      7.1190      0.8149
  1509.5000    113.3543      0.0000   1065.6364      7.4805      0.8161
  1509.7500    122.8924      0.0000   1022.0605      8.1109      0.8092
  1510.0000    131.3002      0.0000    979.4844      8.8089      0.8055
  1510.2500    137.1039      0.0000    942.4544      9.3620      0.8246
  1510.5000    140.0280      0.0000    915.1030      9.7267      0.8796
  1510.7500    140.7853      0.0000    895.7045      9.9771      0.9596
  1511.0000    140.3738      0.0000    879.2194     10.1343      1.0294
  1511.2500    139.4816      0.0000    863.6691     10.1325      1.0588
  1511.5000    138.4475      0.0000    850.9721      9.9255      1.0487
  1511.7500    137.3776      0.0000    842.8071      9.5557      1.0212
  1512.0000    135.8369      0.0000    838.3057      9.1136      0.9923
  1512.2500    132.5983      0.0000    835.3322      8.6663      0.9618
  1512.5000    126.3187      0.0000    832.5500      8.2367      0.9236
  1512.7500    116.6129      0.0000    830.3562      7.8304      0.8761
  1513.0000    104.3176      0.0000    830.5921      7.4625      0.8224
  1513.2500     90.9371      0.0000    835.6828      7.1523      0.7665
  1513.5000     78.0618      0.0000    848.0064      6.8985      0.7135
  1513.7500     67.0960      0.0000    869.7587      6.6690      0.6709
  1514.0000     59.0519      0.0000    902.8641      6.4193      0.6467
  1514.2500     54.1478      0.0000    948.3447      6.1286      0.6448
  1514.5000     51.5550      0.0000   1002.9927      5.8257      0.6619
  1514.7500     49.9893      0.0000   1053.7816      5.5836      0.6899
  1515.0000     48.8821      0.0000   1079.1272      5.4898      0.7221
  1515.2500     48.7764      0.0000   1064.7437      5.6097      0.7563
  1515.5000     50.4738      0.0000   1020.6325      5.9589      0.7921
  1515.7500     54.1290      0.0000    976.8173      6.4980      0.8282
  1516.0000     59.3298      0.0000    959.5185      7.1495      0.8638
  1516.2500     65.6281      0.0000    972.5461      7.8264      0.9010
  1516.5000     72.6076      0.0000    998.4226      8.4640      0.9426
  1516.7500     79.6550      0.0000   1012.8335      9.0520      0.9873
  1517.0000     86.0415      0.0000   1000.6021      9.6501      1.0288
  1517.2500     91.2228      0.0000    964.0519     10.3564      1.0622
  1517.5000     94.9375      0.0000    918.5837     11.2251      1.0916
  1517.7500     97.1391      0.0000    880.2933     12.1964      1.1295
  1518.0000     97.9718      0.0000    857.3242     13.0998      1.1908
  1518.2500     97.8028      0.0000    850.6886     13.7359      1.2855
  1518.5000     97.2357      0.0000    860.2136     13.9806      1.4134
  1518.7500     96.9058      0.0000    888.3570     13.8412      1.5592
  1519.0000     96.9529      0.0000    938.0218     13.4305      1.6918
  1519.2500     96.7509      0.0000   1006.0524     12.8918      1.7765
  1519.5000     95.5975      0.0000   1077.7972     12.3388      1.7936
  1519.7500     93.8440      0.0000   1128.9569     11.8392      1.7488
  1520.0000     93.0700      0.0000   1136.6711     11.4256      1.6652
  1520.2500     94.9963      0.0000   1094.5826     11.1033      1.5664
  1520.5000    100.2405      0.0000   1019.5123     10.8571      1.4683
  1520.7500    107.9506      0.0000    940.9461     10.6653      1.3815
  1521.0000    116.4002      0.0000    881.5655     10.5164      1.3143
  1521.2500    124.0030      0.0000    847.0605     10.4114      1.2693
  1521.5000    130.1083      0.0000    831.0004     10.3532      1.2423
  1521.7500    135.0934      0.0000    824.5555     10.3329      1.2260
  1522.0000    139.6461      0.0000    821.8511     10.3276      1.2168
  1522.2500    143.6727      0.0000    820.5820     10.3094      1.2138
  1522.5000    145.7203      0.0000    820.6617     10.2628      1.2142
  1522.7500    143.6956      0.0000    822.4746     10.1945      1.2115
  1523.0000    136.5920      0.0000    825.7180     10.1225      1.2015
  1523.2500    125.8203      0.0000    829.5595     10.0565      1.1867
  1523.5000    114.8513      0.0000    833.6830      9.9941      1.1735
  1523.7500    107.1359      0.0000    839.1440      9.9356      1.1651
  1524.0000    103.8197      0.0000    847.7365      9.8931      1.1591
  1524.2500    103.2689      0.0000    859.6178      9.8778      1.1513
  1524.5000    102.8174      0.0000    871.3429      9.8843      1.1406
  1524.7500    101.0477      0.0000    877.9268      9.8941      1.1284
  1525.0000     98.6772      0.0000    878.8043      9.8927      1.1163
  1525.2500     97.5995      0.0000    881.0488      9.8787      1.1047
  1525.5000     99.0729      0.0000    894.5745      9.8605      1.0956
  1525.7500    102.3988      0.0000    923.4597      9.8470      1.0934
  1526.0000    105.0445      0.0000    962.4724      9.8422      1.1017
  1526.2500    104.2363      0.0000   1001.5131      9.8470      1.1178
  1526.5000     98.8758      0.0000   1031.8235      9.8679      1.1333
  1526.7500     90.2220      0.0000   1047.6407      9.9219      1.1421
