~Version Information
VERS.                      2.0: CWLS Log ASCII Standard - VERSION 2.0
WRAP.                       NO: One line per depth step
~Well Information Block
STRT.FT               898.0000: 
STOP.FT              2359.2000: 
STEP.FT                 0.1000: 
NULL.                -999.2500: 
COMP.          Pioneer Natural Resources: COMPANY
WELL.             Trimax 44-23: WELL
FLD.           Purgatoire River: FIELD
LOC.           527' FSL & 1064' FEL: LOCATION
PROV.                 Colorado: PROVINCE
CNTY.               Las Animas: COUNTRY
SRVC.                Patterson: SERVICE COMPANY
DATE.          Mon Mar 14 07:28:19 2005: LOG DATE
UWI.           05 071 08326 00: UNIQUE WELL ID
~Curve Information Block
DEPT.FT            0 000 00 00: Depth
DCAL.in                       : CDL Caliper
RHOB.g/cc                     : CDL Bulk Density
RHOC.g/cc                     : CDL Density Correction
DPOR.pu                       : CDL Density Porosity
GR.GAPI                       : Gamma Ray
NPOR.pu                       : Neutron Porosity
~Parameter Information Block
~A  Depth       DCAL        RHOB        RHOC        DPOR         GR         NPOR    
# ...
  1378.0000      7.9368      2.5490      0.1576      6.1240    154.8105     25.7967
  1378.1000      7.9368      2.5223      0.0974      7.7368    160.0670     26.1685
  1378.2000      7.9368      2.5113      0.1278      8.4073    161.3050     26.7680
  1378.3000      7.9434      2.5124      0.1001      8.3422    158.3777     26.6937
  1378.4000      7.9434      2.5135      0.1112      8.2699    156.5720     25.6540
  1378.5000      7.9405      2.5147      0.0453      8.1993    157.8800     25.0822
  1378.6000      7.9405      2.5234      0.0923      7.6750    159.0385     25.4936
  1378.7000      7.9405      2.5370      0.0881      6.8500    155.7380     25.4140
  1378.8000      7.9352      2.5513      0.1279      5.9835    148.4030     24.5729
  1378.9000      7.9352      2.5654      0.1566      5.1299    146.4081     23.9611
  1379.0000      7.9389      2.5726      0.1916      4.6884    155.8957     23.9497
  1379.1000      7.9389      2.5639      0.1392      5.2178    165.4978     24.3784
  1379.2000      7.9389      2.5430      0.0944      6.4844    163.6272     24.8245
  1379.3000      7.9467      2.5260      0.0915      7.5156    154.8963     25.1480
  1379.4000      7.9467      2.5265      0.0564      7.4872    149.3262     25.5213
  1379.5000      7.9493      2.5394      0.1444      6.7007    148.3703     26.0664
  1379.6000      7.9493      2.5389      0.1588      6.7316    148.5437     26.3731
  1379.7000      7.9493      2.5121      0.1263      8.3566    150.2120     26.1260
  1379.8000      7.9482      2.4766      0.1132     10.5085    152.3889     25.5941
  1379.9000      7.9482      2.4530      0.1065     11.9390    152.1700     24.7977
  1380.0000      7.9489      2.4484      0.0984     12.2166    151.9372     24.0828
  1380.1000      7.9489      2.4663      0.0890     11.1341    154.0652     24.3300
  1380.2000      7.9489      2.5082      0.0958      8.5926    157.1867     25.2090
  1380.3000      7.9535      2.5646      0.1740      5.1736    158.5728     25.7119
  1380.4000      7.9535      2.6231      0.2126      1.6274    156.9478     25.8256
  1380.5000      7.9567      2.6815      0.2405     -1.9067    154.0969     25.9988
  1380.6000      7.9567      2.7325      0.2651     -5.0029    154.3341     26.2627
  1380.7000      7.9567      2.7580      0.2684     -6.5442    159.5310     26.6943
  1380.8000      7.9552      2.7595      0.1609     -6.6378    164.7170     27.2742
  1380.9000      7.9552      2.7591      0.1981     -6.6137    164.0183     27.1786
  1381.0000      7.9515      2.7629      0.1543     -6.8428    158.8238     26.3129
  1381.1000      7.9515      2.7575      0.1606     -6.5180    153.7320     25.7218
  1381.2000      7.9515      2.7323      0.1039     -4.9886    149.4901     25.5122
  1381.3000      7.9488      2.6985      0.0598     -2.9395    145.0760     25.3555
  1381.4000      7.9488      2.6701      0.0304     -1.2206    139.9186     25.5352
  1381.5000      7.9468      2.6469      0.0033      0.1864    136.0793     25.9866
  1381.6000      7.9468      2.6297      0.0152      1.2288    136.9388     26.2707
  1381.7000      7.9468      2.6213      0.0092      1.7379    140.7799     26.0693
  1381.8000      7.9462      2.6124      0.0505      2.2817    143.3847     25.2981
  1381.9000      7.9462      2.5864      0.0420      3.8556    144.1263     24.3919
  1382.0000      7.9467      2.5487      0.0178      6.1422    143.6871     24.0576
  1382.1000      7.9467      2.5268     -0.0116      7.4641    141.9061     24.4092
  1382.2000      7.9467      2.5354      0.0236      6.9453    142.1645     24.7315
  1382.3000      7.9462      2.5590      0.0870      5.5142    146.4244     24.3304
  1382.4000      7.9462      2.5743      0.1081      4.5902    150.8177     23.3316
  1382.5000      7.9443      2.5795      0.0658      4.2719    153.9138     22.6131
  1382.6000      7.9443      2.5868      0.1313      3.8320    158.0469     23.1201
  1382.7000      7.9443      2.5917      0.1551      3.5355    161.9630     24.6246
  1382.8000      7.9433      2.5822      0.1292      4.1085    161.8682     25.7547
  1382.9000      7.9433      2.5615      0.0860      5.3615    156.6885     25.5429
  1383.0000      7.9447      2.5423      0.0773      6.5299    149.9357     24.6044
  1383.1000      7.9447      2.5311      0.0317      7.2070    149.5871     24.3417
  1383.2000      7.9447      2.5224      0.0742      7.7322    158.8387     25.0963
  1383.3000      7.9459      2.5101      0.0050      8.4774    170.0486     25.9032
  1383.4000      7.9459      2.5005      0.0209      9.0630    173.6547     25.9320
  1383.5000      7.9462      2.4994      0.0142      9.1291    167.7016     25.4726
  1383.6000      7.9462      2.5095      0.0101      8.5136    158.5206     24.9591
  1383.7000      7.9462      2.5272      0.0456      7.4421    150.9936     24.3898
  1383.8000      7.9466      2.5436      0.0356      6.4496    144.9611     23.8736
  1383.9000      7.9466      2.5533      0.0637      5.8576    139.0263     23.4108
  1384.0000      7.9469      2.5502      0.0657      6.0508    134.0633     23.0724
  1384.1000      7.9469      2.5330      0.0576      7.0910    130.1860     23.3642
  1384.2000      7.9469      2.5111      0.0025      8.4172    126.5061     23.9211
  1384.3000      7.9465      2.4957     -0.0139      9.3514    125.1818     23.4857
  1384.4000      7.9465      2.4942      0.0093      9.4447    126.1696     22.3657
  1384.5000      7.9456      2.5071     -0.0024      8.6600    124.9886     22.0495
  1384.6000      7.9456      2.5276      0.0629      7.4184    122.2433     22.7032
  1384.7000      7.9456      2.5450      0.0206      6.3617    121.5640     23.4755
  1384.8000      7.9431      2.5557      0.0332      5.7168    121.4423     23.6655
  1384.9000      7.9431      2.5622      0.0388      5.3210    120.8747     22.8676
  1385.0000      7.9408      2.5641      0.0354      5.2055    118.9911     21.1690
  1385.1000      7.9408      2.5613      0.0175      5.3754    113.6322     19.2733
  1385.2000      7.9408      2.5664      0.0077      5.0642    106.7274     18.1449
  1385.3000      7.9425      2.5852      0.0406      3.9250    103.1546     17.8333
  1385.4000      7.9425      2.6005      0.0852      2.9999    103.4722     17.6219
  1385.5000      7.9441      2.6052      0.0513      2.7180    105.2368     17.6445
  1385.6000      7.9441      2.6091      0.0515      2.4793    104.2536     18.0752
  1385.7000      7.9441      2.6080      0.0527      2.5454     98.1566     18.0907
  1385.8000      7.9442      2.5926      0.0207      3.4763     93.8850     17.4346
  1385.9000      7.9442      2.5737      0.0265      4.6272     94.7940     17.0024
  1386.0000      7.9442      2.5659      0.0114      5.0940     94.0882     17.2057
  1386.1000      7.9442      2.5648      0.0395      5.1667     88.9432     17.6021
  1386.2000      7.9442      2.5592      0.0088      5.5013     85.7208     17.9192
  1386.3000      7.9435      2.5547     -0.0136      5.7787     88.7011     18.1149
  1386.4000      7.9435      2.5532      0.0425      5.8669     94.6001     18.0359
  1386.5000      7.9419      2.5476      0.0328      6.2074    100.5105     17.4076
  1386.6000      7.9419      2.5442      0.0017      6.4141    105.6403     16.7550
  1386.7000      7.9419      2.5522      0.0337      5.9261    107.8415     17.0072
  1386.8000      7.9414      2.5642      0.0548      5.1983    106.6589     17.8251
  1386.9000      7.9414      2.5695      0.0361      4.8797    105.1178     18.4570
  1387.0000      7.9388      2.5658      0.0484      5.1059    105.4693     19.0239
  1387.1000      7.9388      2.5495      0.0621      6.0926    108.0777     19.8119
  1387.2000      7.9388      2.5248      0.0382      7.5861    112.8412     20.6117
  1387.3000      7.9272      2.5074      0.0463      8.6434    117.8081     21.4055
  1387.4000      7.9272      2.5029      0.0228      8.9158    120.1194     22.3792
  1387.5000      7.9111      2.5004      0.0633      9.0645    121.2823     23.2979
