~Version Information
VERS.                      2.0: CWLS Log ASCII Standard - VERSION 2.0
WRAP.                       NO: One line per depth step
~Well Information Block
STRT.FT               430.0000: 
STOP.FT              2417.0000: 
STEP.FT                 0.2500: 
NULL.                -999.2500: 
COMP.          Evergreen Operating Corporation: COMPANY
WELL.          McCullough 34-32: WELL
FLD.           Purgatorie River: FIELD
LOC.           261' FSL & 2098' FEL: LOCATION
PROV.                 Colorado: PROVINCE
CNTY.               Las Animas: COUNTRY
SRVC.                Patterson: SERVICE COMPANY
DATE.          Sun May 16 02:33:07 2004: LOG DATE
UWI.           05 071 07953 00: UNIQUE WELL ID
~Curve Information Block
DEPT.FT            0 000 00 00: Depth
SN.Ohm-m                      : IEL Short Normal
SP.mV                         : IEL Spontaneous Potential
DIR.Ohm-m                     : IEL Induction Resistivity
GR.GAPI                       : Gamma Ray
~Parameter Information Block
~A  Depth        SN          SP         DIR          GR     
   430.0000   2000.0000   2000.0000      7.2905    143.2429
   430.2500   2000.0000   2000.0000      7.3005    143.4119
   430.5000   2000.0000   2000.0000      7.3073    141.9920
   430.7500   2000.0000   2000.0000      7.3106    140.0031
   431.0000   2000.0000   2000.0000      7.3111    136.6853
   431.2500   2000.0000   2000.0000      7.3097    135.1465
   431.5000   2000.0000   2000.0000      7.3077    134.3562
   431.7500   2000.0000   2000.0000      7.3057    134.2934
   432.0000   2000.0000   2000.0000      7.3026    133.3898
   432.2500   2000.0000   2000.0000      7.2955    131.6797
   432.5000   2000.0000   2000.0000      7.2790    127.4428
   432.7500   2000.0000   2000.0000      7.2478    124.0259
   433.0000   2000.0000   2000.0000      7.1990    119.5147
   433.2500   2000.0000   2000.0000      7.1361    117.7888
   433.5000   2000.0000   2000.0000      7.0720    117.7705
   433.7500   2000.0000   2000.0000      7.0269    119.2015
   434.0000   2000.0000   2000.0000      7.0195    122.4391
   434.2500   2000.0000   2000.0000      7.0553    124.7601
   434.5000   2000.0000   2000.0000      7.1183    128.0051
   434.7500   2000.0000   2000.0000      7.1755    129.8286
   435.0000   2000.0000   2000.0000      7.1941    131.3444
   435.2500   2000.0000   2000.0000      7.1594    130.9568
   435.5000   2000.0000   2000.0000      7.0818    127.8910
   435.7500   2000.0000   2000.0000      6.9902    124.7393
   436.0000   2000.0000   2000.0000      6.9225    120.2569
   436.2500   2000.0000   2000.0000      6.9184    118.4221
   436.5000   2000.0000   2000.0000      7.0111    117.8994
   436.7500   2000.0000   2000.0000      7.2106    118.7643
   437.0000   2000.0000   2000.0000      7.4815    121.5379
   437.2500   2000.0000   2000.0000      7.7275    124.5187
   437.5000   2000.0000   2000.0000      7.8201    130.8213
   437.7500   2000.0000   2000.0000      7.6863    135.7982
   438.0000   2000.0000   2000.0000      7.3758     95.4465
   438.2500   2000.0000   2000.0000      7.0190     98.3855
   438.5000   2000.0000   2000.0000      6.7350    102.1613
   438.7500   2000.0000   2000.0000      6.5942    104.0638
   439.0000   2000.0000   2000.0000      6.6418    105.1619
   439.2500   2000.0000   2000.0000      6.9470    104.2331
   439.5000   2000.0000   2000.0000      7.6526    100.2372
   439.7500   2000.0000   2000.0000      9.0168     96.3424
   440.0000   2000.0000   2000.0000     11.3702     90.2381
   440.2500   2000.0000   2000.0000     14.5380     87.0935
   440.5000   2000.0000   2000.0000     16.2533     85.5217
   440.7500   2000.0000   2000.0000     14.0958     87.2999
   441.0000   2000.0000   2000.0000     10.5375     94.5717
   441.2500   2000.0000   2000.0000      8.0606    102.0047
   441.5000   2000.0000   2000.0000      6.8380    114.8339
   441.7500   2000.0000   2000.0000      6.5278    122.6304
   442.0000   2000.0000   2000.0000      6.9077    130.2137
   442.2500   2000.0000   2000.0000      7.8007    131.7108
   442.5000   2000.0000   2000.0000      8.7193    129.2098
   442.7500   2000.0000   2000.0000      8.6150    125.4910
   443.0000   2000.0000   2000.0000      7.0647    119.0660
   443.2500   2000.0000   2000.0000      5.1771    115.3180
   443.5000   2000.0000   2000.0000      3.8386    111.6356
   443.7500   2000.0000   2000.0000      3.1249    110.5806
   444.0000   2000.0000   2000.0000      2.9035    110.1942
   444.2500   2000.0000   2000.0000      3.1322    109.6727
   444.5000   2000.0000   2000.0000      3.9677    106.7391
   444.7500   2000.0000   2000.0000      6.0419    103.1301
   445.0000   2000.0000   2000.0000     12.1145     96.7076
   445.2500   2000.0000   2000.0000     62.6469     93.0854
   445.5000   2000.0000   2000.0000 100000.0000     90.2065
   445.7500   2000.0000   2000.0000 100000.0000     90.1891
   446.0000   2000.0000   2000.0000 100000.0000     92.4376
   446.2500   2000.0000   2000.0000 100000.0000     94.7256
   446.5000   2000.0000   2000.0000 100000.0000     97.5819
   446.7500   2000.0000   2000.0000 100000.0000     98.1558
   447.0000   2000.0000   2000.0000 100000.0000     96.6700
   447.2500   2000.0000   2000.0000 100000.0000     94.8499
   447.5000   2000.0000   2000.0000 100000.0000     92.6204
   447.7500   2000.0000   2000.0000    954.2969     91.9570
   448.0000   2000.0000   2000.0000    200.0053     91.9700
   448.2500   2000.0000   2000.0000    172.8268     92.4389
   448.5000   2000.0000   2000.0000    188.5627     93.9670
   448.7500   2000.0000   2000.0000    225.0978     95.7077
   449.0000   2000.0000   2000.0000    291.4896     99.3319
   449.2500   2000.0000   2000.0000    445.9019    102.2131
   449.5000   2000.0000   2000.0000   1221.9863    107.2275
   449.7500   2000.0000   2000.0000 100000.0000    111.4931
   450.0000   2000.0000   2000.0000 100000.0000    120.3749
   450.2500   2000.0000   2000.0000 100000.0000    127.9881
   450.5000   2000.0000   2000.0000 100000.0000    140.0087
   450.7500   2000.0000   2000.0000 100000.0000    146.5770
   451.0000   2000.0000   2000.0000    418.6764    152.0008
   451.2500   2000.0000   2000.0000    154.9237    152.6085
   451.5000   2000.0000   2000.0000     95.1966    150.2476
   451.7500   2000.0000   2000.0000     71.6072    146.9625
   452.0000   2000.0000   2000.0000     60.2566    139.2528
   452.2500   2000.0000   2000.0000     54.3735    132.2331
   452.5000   2000.0000   2000.0000     51.5501    120.1277
   452.7500   2000.0000   2000.0000     50.9858    112.1540
   453.0000   2000.0000   2000.0000     52.5406    101.6375
   453.2500   2000.0000   2000.0000     56.1978     95.6844
   453.5000   2000.0000   2000.0000     61.6281     87.9567
   453.7500   2000.0000   2000.0000     67.8616     83.5374
   454.0000   2000.0000   2000.0000     73.4321     78.4637
   454.2500   2000.0000   2000.0000     77.1876     76.3760
   454.5000   2000.0000   2000.0000     78.9257     74.7657
   454.7500   2000.0000   2000.0000     79.0648     74.0092
   455.0000   2000.0000   2000.0000     78.0150     72.3670
   455.2500   2000.0000   2000.0000     76.0708     70.8014
   455.5000   2000.0000   2000.0000     73.6142     67.9885
   455.7500   2000.0000   2000.0000     71.1619     65.9687
   456.0000   2000.0000   2000.0000     69.1963     62.9456
   456.2500   2000.0000   2000.0000     68.0153     61.0788
   456.5000   2000.0000   2000.0000     67.6966     58.7903
   456.7500   2000.0000   2000.0000     68.1447     57.7540
   457.0000   2000.0000   2000.0000     69.1579     56.9936
   457.2500   2000.0000   2000.0000     70.4984     56.8941
   457.5000   2000.0000   2000.0000     71.9488     57.0289
   457.7500   2000.0000   2000.0000     73.3231     57.1921
   458.0000   2000.0000   2000.0000     74.4332     57.6043
   458.2500   2000.0000   2000.0000     75.0662     58.1149
   458.5000   2000.0000   2000.0000     75.0863     59.3396
   458.7500   2000.0000   2000.0000     74.6255     60.3883
   459.0000   2000.0000   2000.0000     74.1605     62.0572
   459.2500   2000.0000   2000.0000     74.3307     63.0880
   459.5000   2000.0000   2000.0000     75.6219     64.2232
   459.7500   2000.0000   2000.0000     78.1553     64.5325
   460.0000   2000.0000   2000.0000     81.6841     64.2833
   460.2500   2000.0000   2000.0000     85.7882     63.8372
   460.5000   2000.0000   2000.0000     90.1400     63.2060
   460.7500   2000.0000   2000.0000     94.5884     62.9932
   461.0000   2000.0000   2000.0000     98.9769     63.0987
   461.2500   2000.0000   2000.0000    102.8496     63.3780
   461.5000   2000.0000   2000.0000    105.3422     63.7344
   461.7500   2000.0000   2000.0000    105.3699     63.7308
   462.0000   2000.0000   2000.0000    102.1712     63.4409
   462.2500   2000.0000   2000.0000     95.9093     63.3424
   462.5000   2000.0000   2000.0000     87.7762     63.9327
   462.7500   2000.0000   2000.0000     79.3308     65.1049
   463.0000   2000.0000   2000.0000     71.7343     68.3909
   463.2500   2000.0000   2000.0000     65.4942     71.7763
