~Version Information
VERS.                      2.0: CWLS Log ASCII Standard - VERSION 2.0
WRAP.                       NO: One line per depth step
~Well Information Block
STRT.FT                15.0000: 
STOP.FT              2565.5000: 
STEP.FT                 0.2500: 
NULL.                -999.2500: 
COMP.          Pioneer Natural Resources: COMPANY
WELL.           Costello 44-24: WELL
FLD.           Purgatoire River: FIELD
LOC.           327' FSL & 378' FEL: LOCATION
PROV.                 Colorado: PROVINCE
CNTY.               Las Animas: COUNTRY
SRVC.                Patterson: SERVICE COMPANY
DATE.          Mon Jul 25 10:15:19 2005: LOG DATE
UWI.           05 071 08413 00: UNIQUE WELL ID
~Curve Information Block
DEPT.FT            0 000 00 00: Depth
GR.GAPI                       : Gamma Ray
CCL.                          : Casing Collar Locator
TT3.usec                      : CBL 3' Travel Time
AMP3.mV                       : CBL 3' Amplitude
~Parameter Information Block
~A  Depth        GR         CCL         TT3         AMP3    
# ...
   182.5000     91.4594      0.0000    685.7732      7.2459
   182.7500     90.3264      0.0000    673.9419      7.2595
   183.0000     87.3585      0.0000    667.2346      7.2458
   183.2500     82.9471      0.0000    663.9700      7.2229
   183.5000     78.0009      0.0000    663.3663      7.2205
   183.7500     73.6258      0.0000    665.7173      7.2577
   184.0000     70.6703      0.0000    672.1516      7.3310
   184.2500     69.6246      0.0000    683.4031      7.4236
   184.5000     70.7145      0.0000    697.6754      7.5183
   184.7500     73.6711      0.0000    710.0746      7.6012
   185.0000     77.3723      0.0000    715.6198      7.6611
   185.2500     80.0255      0.0000    713.3661      7.6894
   185.5000     80.0444      0.0000    706.8411      7.6805
   185.7500     77.0592      0.0000    700.4629      7.6334
   186.0000     72.1882      0.0000    696.3705      7.5556
   186.2500     67.3188      0.0000    694.3796      7.4631
   186.5000     64.0913      0.0000    693.5787      7.3734
   186.7500     63.3139      0.0000    693.4150      7.3010
   187.0000     64.8828      0.0000    693.9427      7.2578
   187.2500     67.9081      0.0000    695.7991      7.2496
   187.5000     71.1013      0.0000    699.9114      7.2708
   187.7500     73.4760      0.0000    706.3991      7.3051
   188.0000     74.8195      0.0000    713.0176      7.3348
   188.2500     75.4710      0.0000    715.2606      7.3492
   188.5000     75.8033      0.0000    709.5626      7.3462
   188.7500     76.0368      0.0000    696.9131      7.3297
   189.0000     76.3512      0.0000    682.5212      7.3092
   189.2500     76.9212      0.0000    671.8796      7.3030
   189.5000     77.7344      0.0000    667.9229      7.3345
   189.7500     78.4274      0.0000    671.3664      7.4148
   190.0000     78.4135      0.0000    681.4460      7.5275
   190.2500     77.2657      0.0000    694.9639      7.6388
   190.5000     74.9922      0.0000    706.0586      7.7191
   190.7500     71.9812      0.0000    709.7949      7.7564
   191.0000     68.8822      0.0000    706.6951      7.7580
   191.2500     66.5515      0.0000    701.8222      7.7437
   191.5000     65.7355      0.0000    698.7259      7.7310
   191.7500     66.5109      0.0000    696.4360      7.7252
   192.0000     68.1542      0.0000    693.3820      7.7262
   192.2500     69.6219      0.0000    691.8093      7.7384
   192.5000     70.1083      0.0000    696.2466      7.7648
   192.7500     69.4016      0.0000    708.6091      7.7955
   193.0000     67.9739      0.0000    726.1658      7.8150
   193.2500     66.5918      0.0000    743.7961      7.8204
   193.5000     65.7094      0.0000    757.4557      7.8233
   193.7500     65.3585      0.0000    765.9048      7.8320
   194.0000     65.4000      0.0000    770.1680      7.8413
   194.2500     65.5273      0.0000    772.0754      7.8438
   194.5000     65.2644      0.0000    773.2607      7.8401
   194.7500     64.4606      0.0000    774.8911      7.8378
   195.0000     63.6866      0.0000    777.5032      7.8446
   195.2500     63.7176      0.0000    780.6799      7.8649
   195.5000     64.6720      0.0000    782.8144      7.8954
   195.7500     66.0472      0.0000    781.3781      7.9248
   196.0000     67.5322      0.0000    773.9857      7.9416
   196.2500     69.3384      0.0000    760.1154      7.9411
   196.5000     71.7059      0.0000    742.1570      7.9268
   196.7500     74.5068      0.0000    724.2791      7.9067
   197.0000     77.4552      0.0000    709.9171      7.8865
   197.2500     80.4819      0.0000    700.3153      7.8647
   197.5000     83.8370      0.0000    694.9145      7.8340
   197.7500     87.9606      0.0000    692.4210      7.7870
   198.0000     93.2023      0.0000    691.5689      7.7183
   198.2500     99.3777      0.0000    691.4378      7.6260
   198.5000    105.3998      0.0000    691.5003      7.5207
   198.7500    109.5556      0.0000    691.5366      7.4291
   199.0000    110.5366      0.0000    691.5045      7.3783
   199.2500    108.3813      0.0000    691.4212      7.3737
   199.5000    104.4280      0.0000    691.2974      7.3971
   199.7500    100.3560      0.0000    691.1693      7.4225
   200.0000     97.0608      0.0000    691.1392      7.4329
   200.2500     94.2228      0.0000    691.3810      7.4283
   200.5000     90.9967      0.0000    692.1859      7.4211
   200.7500     87.0919      0.0000    693.9346      7.4293
   201.0000     82.9244      0.0000    696.6757      7.4736
   201.2500     78.8676      0.0000    699.0637      7.5759
   201.5000     74.8684      0.0000    698.0590      7.7391
   201.7500     70.8573      0.0000    691.6762      7.9132
   202.0000     67.1832      0.0000    683.3144      7.9922
   202.2500     64.5187      0.0000    680.9543      7.8806
   202.5000     63.3610      0.0000    689.4688      7.5877
   202.7500     63.5370      0.0000    705.6493      7.2440
   203.0000     64.2548      0.0000    723.4131      7.0025
   203.2500     64.8204      1.7596    741.3441      6.9243
   203.5000     65.3271      1.9748    761.6608      6.9624
   203.7500     66.5852     -2.4303    783.2661      7.0364
   204.0000     69.3272      0.0000    799.3562      7.1118
   204.2500     73.3299      0.0000    802.7650      7.2317
   204.5000     77.2618      0.0000    792.2428      7.4846
   204.7500     79.5833      0.0000    772.6435      7.9172
   205.0000     79.6708      0.0000    750.0246      8.4477
   205.2500     78.1390      0.0000    728.0248      8.8838
   205.5000     76.3908      0.0000    708.7336      9.0648
   205.7500     76.0381      0.0000    694.7949      8.9814
   206.0000     78.3776      0.0000    689.1975      8.7438
   206.2500     83.7959      0.0000    693.7596      8.4634
   206.5000     91.3395      0.0000    708.9310      8.1863
   206.7500     98.8667      0.0000    734.1849      7.9064
   207.0000    103.9824      0.0000    766.8704      7.6074
   207.2500    105.3712      0.0000    800.1904      7.2890
   207.5000    103.5286      0.0000    823.7858      6.9612
   207.7500    100.2143      0.0000    828.4608      6.6242
   208.0000     97.2651      0.0000    811.4466      6.2671
   208.2500     95.7998      0.0000    777.1567      5.8946
   208.5000     96.0597      0.0000    733.8728      5.5416
   208.7500     97.5242      0.0000    690.6516      5.2473
   209.0000     99.2353      0.0000    655.2227      5.0110
   209.2500    100.4478      0.0000    631.3124      4.7862
   209.5000    101.1155      0.0000    617.9824      4.5246
   209.7500    101.6868      0.0000    613.5087      4.2224
   210.0000    102.5772      0.0000    618.8549      3.9207
   210.2500    103.7906      0.0000    635.0539      3.6715
   210.5000    104.6617      0.0000    658.4639      3.5044
   210.7500    103.9563      0.0000    681.4314      3.4160
   211.0000    100.8045      0.0000    697.6431      3.3785
   211.2500     95.8199      0.0000    705.3857      3.3608
   211.5000     90.9483      0.0000    706.2315      3.3522
   211.7500     87.9696      0.0000    702.6373      3.3640
   212.0000     87.3125      0.0000    697.3873      3.4074
   212.2500     88.2023      0.0000    693.7911      3.4765
   212.5000     89.4717      0.0000    694.5786      3.5585
   212.7500     90.1103      0.0000    699.9509      3.6566
   213.0000     89.5448      0.0000    707.0046      3.7943
   213.2500     87.8057      0.0000    711.2283      3.9922
   213.5000     85.4267      0.0000    709.0326      4.2452
   213.7500     83.0367      0.0000    699.9554      4.5252
   214.0000     81.0587      0.0000    687.0749      4.8015
   214.2500     79.7868      0.0000    674.8788      5.0592
   214.5000     79.5670      0.0000    666.3152      5.3045
   214.7500     80.5783      0.0000    661.6800      5.5609
   215.0000     82.4122      0.0000    659.6881      5.8566
   215.2500     84.1353      0.0000    658.9534      6.2025
   215.5000     84.9167      0.0000    658.6286      6.5792
   215.7500     84.4952      0.0000    658.3520      6.9538
