~Version Information
VERS.                      2.0: CWLS Log ASCII Standard - VERSION 2.0
WRAP.                       NO: One line per depth step
~Well Information Block
STRT.FT               866.0000: 
STOP.FT              2029.0000: 
STEP.FT                 0.2500: 
NULL.                -999.2500: 
COMP.          Petrogulf Corporation: COMPANY
WELL.             State 16-21R: WELL
FLD.           Purgatorie River: FIELD
LOC.           203' FNL & 1560' FWL: LOCATION
PROV.                 Colorado: PROVINCE
CNTY.               Las Animas: COUNTRY
SRVC.                Patterson: SERVICE COMPANY
DATE.          Tue Aug 16 12:55:36 2005: LOG DATE
UWI.                071 08313 : UNIQUE WELL ID
~Curve Information Block
DEPT.FT            0 000 00 00: Depth
SP.mV                         : DIL Spontaneous Potential
RILD.Ohm-m                    : DIL Deep Resistivity
RILM.Ohm-m                    : DIL Medium Resistivity
RLL3.Ohm-m                    : DIL Shallow Resistivity
GR.GAPI                       : Gamma Ray
~Parameter Information Block
~A  Depth        SP         RILD        RILM        RLL3         GR     
# ...
  1930.0000    -96.9051     12.2780     13.1239     15.4322    141.8118
  1930.2500    -96.8732     12.6917     13.8910     16.9125    139.1648
  1930.5000    -96.8763     13.0481     14.5920     18.9391    135.6138
  1930.7500    -95.7008     13.3798     15.2385     20.1596    133.2542
  1931.0000    -93.4468     13.3176     15.4510     19.4810    133.1260
  1931.2500    -90.9142     13.3359     15.5375     18.5763    138.5137
  1931.5000    -88.6456     13.2756     15.1528     20.1495    133.8629
  1931.7500    -88.1447     13.4163     14.5060     23.0925    131.3832
  1932.0000    -88.3339     13.6752     14.0031     23.3767    143.7292
  1932.2500    -88.1826     13.7364     13.7158     20.1220    145.5010
  1932.5000    -87.8589     14.2852     13.5733     16.2535    143.5081
  1932.7500    -85.9575     14.6502     13.6175     14.3453    140.9697
  1933.0000    -83.1989     15.1901     14.0355     14.3121    139.3102
  1933.2500    -81.3645     15.5781     15.0603     15.5420    139.6695
  1933.5000    -82.1870     16.1559     16.2504     18.5732    126.0893
  1933.7500    -83.3827     16.8073     17.3509     23.9683    120.6671
  1934.0000    -83.5302     17.1987     18.3399     31.8338    112.7266
  1934.2500    -82.4896     17.7367     19.4488     40.4481    101.5414
  1934.5000    -81.5793     18.0710     20.0640     39.8301     99.2974
  1934.7500    -81.0748     18.7879     20.3241     34.3584     99.8787
  1935.0000    -80.9052     19.5824     20.8880     32.4627    100.5451
  1935.2500    -81.7061     20.4405     21.9294     34.4714     98.3181
  1935.5000    -81.8386     21.3251     23.0543     36.1471     99.3997
  1935.7500    -81.6942     21.2018     24.2634     34.3433     90.1133
  1936.0000    -81.9500     22.6463     24.6784     31.8601     87.2806
  1936.2500    -81.1529     23.3149     25.2443     31.4087     85.9904
  1936.5000    -79.7140     23.5461     25.4219     32.8219     73.5336
  1936.7500    -79.1986     24.5263     25.6064     33.1869     74.0613
  1937.0000    -79.5392     24.3981     26.3650     32.8204     74.3154
  1937.2500    -80.1978     25.1998     26.4240     34.7340     73.6014
  1937.5000    -81.2275     25.9300     27.1135     36.1274     74.8269
  1937.7500    -81.6284     26.4329     28.2096     34.2882     71.5711
  1938.0000    -81.4254     27.2303     29.3558     31.6993     69.4585
  1938.2500    -81.2024     26.7527     30.6336     30.3246     70.6103
  1938.5000    -80.3318     27.5465     31.2875     30.8110     63.2326
  1938.7500    -78.4840     27.3335     33.6785     33.4874     59.4892
  1939.0000    -77.1462     27.0274     35.9656     37.9886     61.1658
  1939.2500    -75.0474     26.5358     37.3764     45.4177     57.8390
  1939.5000    -72.5855     25.3485     39.1574     57.9968     48.4178
  1939.7500    -70.0951     23.6179     38.9372     69.0772     47.3605
  1940.0000    -66.2982     21.6713     37.0951     71.4133     47.5324
  1940.2500    -63.0316     20.1390     33.6155     71.7131     52.3181
  1940.5000    -60.4546     18.6221     28.6190     74.8360     60.9755
  1940.7500    -58.2118     17.7956     22.9449     73.3161     91.4178
  1941.0000    -56.9575     17.2660     18.8157     48.6684    117.8655
  1941.2500    -55.7548     17.0945     16.1059     23.2051    132.9729
  1941.5000    -53.4125     16.9888     14.4337     13.4269    157.1819
  1941.7500    -51.4995     16.8773     13.4365     11.0406    173.2913
  1942.0000    -50.4049     16.7391     13.1224     10.4275    171.0931
  1942.2500    -49.6458     16.7203     13.4816     10.2406    162.5037
  1942.5000    -47.9139     16.6268     14.1292     10.9750    152.9158
  1942.7500    -45.8824     16.6034     14.7641     12.6164    147.4526
  1943.0000    -44.4314     16.4985     15.7509     16.1858    132.1991
  1943.2500    -42.5198     16.3382     17.1387     21.1019    121.5454
  1943.5000    -40.6366     16.7002     18.2322     27.9222    116.1861
  1943.7500    -39.3359     16.7817     19.5728     36.7107     96.3382
  1944.0000    -37.8577     17.3946     21.0372     43.3434     84.0983
  1944.2500    -36.6129     17.9087     22.4079     43.9602     82.8855
  1944.5000    -33.9349     18.6484     24.1041     44.3353     76.2330
  1944.7500    -30.9933     19.8446     25.0554     49.3319     75.1176
  1945.0000    -27.5705     20.8149     25.4131     56.6623     81.9221
  1945.2500    -24.0804     22.4574     25.8331     59.1520     80.6581
  1945.5000    -22.2577     24.5031     25.7114     51.7304     82.4682
  1945.7500    -21.4769     25.5924     25.5276     38.3106     86.7320
  1946.0000    -20.7743     26.0157     25.7577     27.1129     76.0594
  1946.2500    -20.2716     27.4159     26.0844     23.2097     65.2281
  1946.5000    -20.1433     27.8132     26.6960     23.8513     56.9829
  1946.7500    -20.2004     27.3695     27.6632     24.9828     51.9653
  1947.0000    -19.8103     26.7897     29.9470     27.1462     49.2277
  1947.2500    -18.6324     24.8386     31.5984     33.3604     51.5558
  1947.5000    -17.4121     23.1668     32.1379     42.8472     53.7607
  1947.7500    -16.9599     21.3883     31.7534     49.4462     55.7166
  1948.0000    -16.1326     20.0919     30.2978     52.5968     65.8296
  1948.2500    -15.3482     19.5142     27.2890     50.6466     74.9240
  1948.5000    -14.3013     18.6748     23.7613     41.6151    102.3805
  1948.7500    -12.8664     18.6416     20.9300     26.8527    117.1307
  1949.0000    -10.9595     17.7575     18.9889     16.8233    131.8360
  1949.2500     -8.5190     17.4177     17.5779     14.0580    127.8987
  1949.5000     -6.5481     17.1338     17.1574     13.9628    128.6790
  1949.7500     -4.8617     16.6902     16.8592     14.0701    131.0022
  1950.0000     -3.8114     16.2252     16.5791     14.5506    133.9375
  1950.2500     -2.5701     15.5234     16.3759     15.6535    133.0056
  1950.5000     -1.1329     14.9742     16.0314     16.6593    128.3943
  1950.7500     -0.1136     14.1963     15.4790     17.4643    127.6783
  1951.0000      0.6734     13.4803     14.9512     17.2930    125.3530
  1951.2500      0.9376     13.3103     14.5162     17.1831    123.6685
  1951.5000      0.6967     13.0180     14.0437     17.0935    133.5205
  1951.7500      1.1953     12.9301     13.7550     15.7197    131.4285
  1952.0000      1.8182     12.8632     13.3991     14.1719    118.0328
  1952.2500      2.7218     12.7828     13.3320     13.2777    119.3344
  1952.5000      4.3412     12.8199     13.3223     12.6478    115.6302
  1952.7500      5.3184     12.9331     13.3242     12.4339    112.6749
  1953.0000      6.8845     13.1126     13.5680     12.6734    115.6023
  1953.2500      8.6097     13.3708     13.7087     13.1478    111.6872
  1953.5000     10.2551     13.3879     13.9687     13.9998    115.8356
  1953.7500     12.1615     13.2845     14.3468     14.7644    111.8248
  1954.0000     12.9207     13.5046     14.6879     16.1085    109.8796
  1954.2500     14.2683     13.6419     14.9655     17.8622     99.2621
  1954.5000     15.0813     13.8174     15.3202     19.4766     98.3708
  1954.7500     15.8100     14.1882     15.5155     20.2042     93.1092
  1955.0000     16.8113     14.5361     15.5993     19.6025    104.1507
  1955.2500     17.0702     14.6602     16.1381     17.4877    109.4055
  1955.5000     16.5774     15.1013     16.5565     15.8735    106.7838
  1955.7500     16.2018     15.4876     16.9887     16.9035    100.9883
  1956.0000     16.0576     15.8271     17.6635     20.9318    100.4156
  1956.2500     15.9829     16.1267     18.1390     25.8292    103.3023
  1956.5000     15.9230     16.1456     18.7532     26.2378    100.5926
  1956.7500     15.7917     16.0332     18.5830     22.5515    104.2959
  1957.0000     16.0942     16.1974     18.8264     21.3842     97.2801
  1957.2500     16.1437     16.2798     18.5146     21.6505     95.1548
  1957.5000     16.8627     16.4332     18.3726     20.9115    100.8204
  1957.7500     18.0105     16.6280     18.0631     18.3132    109.0478
