~Version Information
VERS.                      2.0: CWLS Log ASCII Standard - VERSION 2.0
WRAP.                       NO: One line per depth step
~Well Information Block
STRT.FT               742.0000: 
STOP.FT              2582.0000: 
STEP.FT                 0.2500: 
NULL.                -999.2500: 
COMP.          Petrogulf Corporation: COMPANY
WELL.            Montoya 7-12V: WELL
FLD.           Purgatorie River: FIELD
LOC.           728' FWL & 1764' FNL: LOCATION
CNTY.               Las Animas: COUNTY
SRVC.                         : SERVICE COMPANY
DATE.          Thu Feb 19 20:58:32 2004: LOG DATE
UWI.           05-071-07887-00: UNIQUE WELL ID
STAT.                 Colorado: STATE
~Curve Information Block
DEPT.FT            0 000 00 00: Depth
SP.mV                         : DIL Spontaneous Potential
RILD.Ohm-m                    : DIL Deep Resistivity
RILM.Ohm-m                    : DIL Medium Resistivity
RLL3.Ohm-m                    : DIL Shallow Resistivity
GR.GAPI                       : Gamma Ray
~Parameter Information Block
~A  Depth        SP         RILD        RILM        RLL3         GR     
# ...
  1722.0000    -94.9797      6.9234      7.1448      7.3255    161.0631
  1722.2500    -94.9049      6.9310      7.1614      7.2779    161.2168
  1722.5000    -94.7856      6.9193      7.1578      7.4395    160.3122
  1722.7500    -94.6385      6.8959      7.1241      7.7317    159.8145
  1723.0000    -94.4957      6.8717      7.0579      7.9595    160.7922
  1723.2500    -94.3977      6.8585      6.9676      7.9226    162.5368
  1723.5000    -94.3793      6.8667      6.8715      7.5560    165.0139
  1723.7500    -94.4555      6.9033      6.7923      6.9741    165.6964
  1724.0000    -94.6183      6.9711      6.7510      6.3899    165.8788
  1724.2500    -94.8450      7.0691      6.7632      6.0011    166.6801
  1724.5000    -95.1107      7.1942      6.8370      5.9318    170.1366
  1724.7500    -95.3967      7.3433      6.9742      6.2299    173.3270
  1725.0000    -95.6908      7.5144      7.1722      6.8762    176.9518
  1725.2500    -95.9840      7.7076      7.4264      7.7897    177.3622
  1725.5000    -96.2677      7.9246      7.7325      8.8439    174.2954
  1725.7500    -96.5361      8.1690      8.0871      9.9038    170.1073
  1726.0000    -96.7881      8.4456      8.4886     10.8747    161.7973
  1726.2500    -97.0264      8.7599      8.9361     11.7357    155.9009
  1726.5000    -97.2534      9.1160      9.4283     12.5325    148.6120
  1726.7500    -97.4676      9.5140      9.9602     13.3210    145.8661
  1727.0000    -97.6631      9.9474     10.5202     14.0994    145.5254
  1727.2500    -97.8340     10.4031     11.0886     14.8002    147.1946
  1727.5000    -97.9779     10.8634     11.6395     15.3587    150.2554
  1727.7500    -98.0979     11.3113     12.1449     15.7787    151.3748
  1728.0000    -98.2026     11.7361     12.5792     16.1135    151.0785
  1728.2500    -98.3045     12.1370     12.9234     16.3847    150.2614
  1728.5000    -98.4185     12.5224     13.1700     16.5349    149.5240
  1728.7500    -98.5607     12.9063     13.3283     16.4595    149.5766
  1729.0000    -98.7450     13.3033     13.4279     16.0868    150.2112
  1729.2500    -98.9799     13.7235     13.5164     15.4376    151.0231
  1729.5000    -99.2634     14.1701     13.6529     14.6245    153.1348
  1729.7500    -99.5824     14.6353     13.9001     13.8255    155.1707
  1730.0000    -99.9154     15.0974     14.3201     13.3108    158.7324
  1730.2500   -100.2356     15.5197     14.9727     13.5591    160.8707
  1730.5000   -100.5098     15.8550     15.9118     15.3911    162.1329
  1730.7500   -100.6928     16.0548     17.1708     19.9346    160.5341
  1731.0000   -100.7244     16.0798     18.7307     28.2116    152.9645
  1731.2500   -100.5340     15.9074     20.4628     40.3592    144.3615
  1731.5000   -100.0580     15.5383     22.0682     54.9569    127.8515
  1731.7500    -99.2629     15.0018     23.0853     69.1299    116.3828
  1732.0000    -98.1619     14.3533     23.0670     79.5691    102.0479
  1732.2500    -96.8104     13.6594     21.8754     83.7852     95.8498
  1732.5000    -95.2883     12.9780     19.8038     80.8170     92.7339
  1732.7500    -93.6827     12.3441     17.3702     71.3029     95.0687
  1733.0000    -92.0836     11.7685     15.0202     57.2737    105.4630
  1733.2500    -90.5859     11.2448     12.9983     41.7161    116.7870
  1733.5000    -89.2807     10.7599     11.3798     27.6859    138.7526
  1733.7500    -88.2302     10.3031     10.1446     17.2105    154.8428
  1734.0000    -87.4421      9.8693      9.2342     10.7336    176.6985
  1734.2500    -86.8726      9.4582      8.5804      7.4810    187.3173
  1734.5000    -86.4574      9.0732      8.1190      6.2870    195.6396
  1734.7500    -86.1452      8.7206      7.7951      6.1914    196.9598
  1735.0000    -85.9108      8.4094      7.5657      6.5814    195.5693
  1735.2500    -85.7462      8.1504      7.4014      7.0922    193.8331
  1735.5000    -85.6443      7.9547      7.2852      7.5079    190.8556
  1735.7500    -85.5891      7.8315      7.2108      7.7251    188.3119
  1736.0000    -85.5572      7.7861      7.1794      7.7350    182.9913
  1736.2500    -85.5238      7.8193      7.1962      7.5964    178.6359
  1736.5000    -85.4688      7.9266      7.2673      7.4026    172.2952
  1736.7500    -85.3814      8.0978      7.3982      7.2479    169.0834
  1737.0000    -85.2628      8.3171      7.5916      7.1989    166.5956
  1737.2500    -85.1278      8.5646      7.8467      7.2928    166.4691
  1737.5000    -85.0047      8.8189      8.1568      7.5594    167.7216
  1737.7500    -84.9299      9.0606      8.5085      8.0272    168.5707
  1738.0000    -84.9386      9.2754      8.8806      8.6788    168.0744
  1738.2500    -85.0555      9.4551      9.2457      9.3946    166.0440
  1738.5000    -85.2919      9.5969      9.5740      9.9776    161.1802
  1738.7500    -85.6475      9.7025      9.8380     10.2772    157.7598
  1739.0000    -86.1116      9.7783     10.0182     10.2955    153.6181
  1739.2500    -86.6602      9.8332     10.1049     10.1565    151.4374
  1739.5000    -87.2545      9.8760     10.0991      9.9727    148.2716
  1739.7500    -87.8476      9.9105     10.0112      9.7494    146.1928
  1740.0000    -88.3963      9.9351      9.8606      9.4108    143.9520
  1740.2500    -88.8709      9.9445      9.6746      8.9018    143.4445
  1740.5000    -89.2610      9.9333      9.4847      8.2746    143.9517
  1740.7500    -89.5765      9.8983      9.3188      7.6944    144.7743
  1741.0000    -89.8434      9.8395      9.1947      7.3605    146.4822
  1741.2500    -90.0945      9.7602      9.1146      7.3909    148.0100
  1741.5000    -90.3597      9.6674      9.0670      7.7493    150.8444
  1741.7500    -90.6607      9.5725      9.0329      8.2643    152.8174
  1742.0000    -91.0130      9.4902      8.9959      8.7221    155.0841
  1742.2500    -91.4274      9.4364      8.9503      8.9653    155.6164
  1742.5000    -91.9071      9.4251      8.9039      8.9465    154.5527
  1742.7500    -92.4427      9.4648      8.8732      8.7283    153.0577
  1743.0000    -93.0107      9.5572      8.8774      8.4433    151.4564
  1743.2500    -93.5794      9.6974      8.9329      8.2373    151.6702
  1743.5000    -94.1191      9.8765      9.0518      8.2265    153.4277
  1743.7500    -94.6085     10.0846      9.2399      8.4800    154.3439
  1744.0000    -95.0331     10.3141      9.4967      9.0120    153.8185
  1744.2500    -95.3820     10.5620      9.8150      9.7742    152.4009
  1744.5000    -95.6472     10.8303     10.1829     10.6769    150.0812
  1744.7500    -95.8270     11.1267     10.5892     11.6328    148.9778
  1745.0000    -95.9284     11.4618     11.0288     12.5709    147.8521
  1745.2500    -95.9649     11.8463     11.5068     13.4037    146.9332
  1745.5000    -95.9534     12.2857     12.0386     14.0493    144.5486
  1745.7500    -95.9092     12.7777     12.6431     14.5840    142.3783
  1746.0000    -95.8418     13.3116     13.3313     15.3881    139.3852
  1746.2500    -95.7500     13.8734     14.0928     17.0220    138.3069
  1746.5000    -95.6208     14.4524     14.8851     19.7705    138.1649
  1746.7500    -95.4350     15.0469     15.6390     23.1734    138.2094
  1747.0000    -95.1780     15.6629     16.2851     26.0407    136.9552
  1747.2500    -94.8500     16.3086     16.7925     27.1327    135.5891
  1747.5000    -94.4701     16.9871     17.1906     26.0588    135.8061
  1747.7500    -94.0716     17.6930     17.5537     23.6406    139.0616
  1748.0000    -93.6886     18.4129     17.9644     21.4094    147.5435
  1748.2500    -93.3428     19.1259     18.4797     20.6481    152.7237
  1748.5000    -93.0354     19.8063     19.1141     21.6759    154.9306
  1748.7500    -92.7499     20.4269     19.8387     23.7975    152.1564
  1749.0000    -92.4624     20.9698     20.5950     25.8776    144.8157
  1749.2500    -92.1521     21.4348     21.3220     27.1086    140.0162
  1749.5000    -91.8054     21.8388     21.9887     27.4012    134.0930
  1749.7500    -91.4148     22.1966     22.6121     27.2086    130.4413
