~Version Information
VERS.                      2.0: CWLS Log ASCII Standard - VERSION 2.0
WRAP.                       NO: One line per depth step
~Well Information Block
STRT.FT                -2.7500: 
STOP.FT              2139.2500: 
STEP.FT                 0.2500: 
NULL.                -999.2500: 
COMP.          Petrogulf Corporation: COMPANY
WELL.             State 16-34V: WELL
FLD.           Purgatorie River: FIELD
LOC.           1146' FSL & 1393' FEL: LOCATION
PROV.                 Colorado: PROVINCE
CNTY.               Las Animas: COUNTRY
SRVC.          Patterson Wireline: SERVICE COMPANY
DATE.          Wed Jun 25 13:16:42 2003: LOG DATE
UWI.           05 071 07724 00: UNIQUE WELL ID
~Curve Information Block
DEPT.FT            0 000 00 00: Depth
CCL.                          : Casing Collar Locator
TT3.usec                      : CBL 3' Travel Time
AMP3.mV                       : CBL 3' Amplitude
GR.GAPI                       : Gamma Ray
~Parameter Information Block
~A  Depth       CCL         TT3         AMP3         GR     
# ...
  1136.2500      0.0000    727.4996      3.8553     38.3859
  1136.5000      0.0000    716.2800      3.3201     39.2159
  1136.7500      0.0000    706.7186      2.8902     39.0422
  1137.0000      0.0000    703.0263      2.5365     39.9264
  1137.2500      0.0000    704.4821      2.2431     44.0413
  1137.5000      0.0000    706.8970      2.0128     51.7007
  1137.7500      0.0000    706.6163      1.8461     60.8369
  1138.0000      0.0000    703.5092      1.7254     68.4415
  1138.2500      0.0000    700.9002      1.6213     72.4160
  1138.5000      0.0000    703.3173      1.5182     72.4155
  1138.7500      0.0000    713.8834      1.4341     69.7503
  1139.0000      0.0000    732.6681      1.4068     66.8120
  1139.2500      0.0000    756.7555      1.4542     65.9737
  1139.5000      0.0000    781.9289      1.5638     68.3146
  1139.7500      0.0000    804.5233      1.7309     73.2056
  1140.0000      0.0000    822.0046      1.9920     79.1476
  1140.2500      0.0000    832.5696      2.3953     84.9537
  1140.5000      0.0000    835.0847      2.9334     90.2623
  1140.7500      0.0000    829.7208      3.5207     95.4137
  1141.0000      0.0000    818.5844      4.0435    101.2575
  1141.2500      0.0000    805.6851      4.4199    108.7497
  1141.5000      0.0000    795.8312      4.6167    117.8139
  1141.7500      0.0000    792.3030      4.6440    126.3658
  1142.0000      0.0000    794.8214      4.5638    131.2950
  1142.2500      0.0000    800.1567      4.4754    131.0323
  1142.5000      0.0000    804.8602      4.4372    126.9245
  1142.7500      0.0000    807.0703      4.4067    121.9160
  1143.0000      0.0000    806.0052      4.2955    118.2444
  1143.2500      0.0000    800.9176      4.0844    116.4466
  1143.5000      0.0000    791.5068      3.8593    115.8012
  1143.7500      0.0000    779.4937      3.7283    115.0929
  1144.0000      0.0000    769.0757      3.7283    113.2931
  1144.2500      0.0000    764.9125      3.8150    110.1879
  1144.5000      0.0000    769.0553      3.9167    106.4602
  1144.7500      0.0000    779.3702      3.9795    103.0058
  1145.0000      0.0000    790.5812      3.9756    100.3605
  1145.2500      0.0000    796.8433      3.8986     99.0936
  1145.5000      0.0000    793.7939      3.7580    100.4156
  1145.7500      0.0000    779.4804      3.5720    105.6229
  1146.0000      0.0000    755.4241      3.3696    114.5969
  1146.2500      0.0000    727.5297      3.1942    125.1283
  1146.5000      0.0000    704.6107      3.0903    134.0066
  1146.7500      0.0000    694.1806      3.0828    138.9641
  1147.0000      0.0000    698.5992      3.1700    139.8343
  1147.2500      0.0000    714.6116      3.3250    138.0313
  1147.5000      0.0000    736.0040      3.5068    134.9936
  1147.7500      0.0000    756.4371      3.6813    131.2500
  1148.0000      0.0000    770.6755      3.8297    126.9725
  1148.2500     -2.0000    775.6846      3.9353    123.1122
  1148.5000      0.0000    772.5974      3.9773    121.4639
  1148.7500      0.0000    766.4160      3.9599    123.2329
  1149.0000      0.0000    761.7078      3.9382    127.6933
  1149.2500      0.0000    758.7081      3.9873    132.6700
  1149.5000      0.0000    754.3288      4.1348    136.2810
  1149.7500      0.0000    745.8922      4.3326    137.7872
  1150.0000      0.0000    732.9018      4.5003    137.0630
  1150.2500      0.0000    716.4406      4.5929    134.2076
  1150.5000      0.0000    698.5804      4.6211    129.8855
  1150.7500      0.0000    681.9742      4.6134    125.3770
  1151.0000      0.0000    668.8634      4.5777    121.9094
  1151.2500      0.0000    660.2034      4.5096    120.1350
  1151.5000      0.0000    655.9847      4.4365    120.2741
  1151.7500      0.0000    656.1426      4.4272    122.3825
  1152.0000      0.0000    661.2523      4.5289    126.2890
  1152.2500      0.0000    672.6301      4.7051    131.4227
  1152.5000      0.0000    691.0305      4.8633    136.7842
  1152.7500      0.0000    714.0178      4.9351    141.2071
  1153.0000      0.0000    735.3651      4.9046    143.8550
  1153.2500      0.0000    749.1016      4.7736    144.3622
  1153.5000      0.0000    754.4861      4.5355    142.4314
  1153.7500      0.0000    756.1547      4.1858    137.7830
  1154.0000      0.0000    760.0788      3.7443    130.8061
  1154.2500      0.0000    770.0587      3.2733    122.7487
  1154.5000      0.0000    786.3456      2.8657    114.9838
  1154.7500      0.0000    805.6959      2.5860    108.3889
  1155.0000      0.0000    823.0940      2.4155    103.2593
  1155.2500      0.0000    834.5626      2.2754     99.3343
  1155.5000      0.0000    838.9096      2.1095     96.0293
  1155.7500      0.0000    837.2388      1.9329     92.8988
  1156.0000      0.0000    831.3465      1.7987     89.7194
  1156.2500      0.0000    822.3001      1.7358     86.1691
  1156.5000      0.0000    809.7996      1.7258     81.8349
  1156.7500      0.0000    792.8828      1.7228     76.7393
  1157.0000      0.0000    771.7281      1.6894     71.8281
  1157.2500      0.0000    749.0775      1.6177     68.8385
  1157.5000      0.0000    729.9200      1.5172     69.4503
  1157.7500      0.0000    719.8004      1.4044     74.2978
  1158.0000      0.0000    722.7993      1.3155     82.5713
  1158.2500      0.0000    739.6358      1.3025     92.4195
  1158.5000      0.0000    766.2620      1.3920    101.8837
  1158.7500      0.0000    794.5281      1.5636    109.8985
  1159.0000      0.0000    816.1427      1.7704    116.6065
  1159.2500      0.0000    827.5806      1.9723    122.5949
  1159.5000      0.0000    831.3174      2.1764    127.8087
  1159.7500      0.0000    832.3307      2.4547    131.4511
  1160.0000      0.0000    833.7462      2.8893    133.1730
  1160.2500      0.0000    835.2604      3.4834    134.1886
  1160.5000      0.0000    834.6062      4.1442    136.5310
  1160.7500      0.0000    830.2318      4.7455    140.7735
  1161.0000      0.0000    822.9507      5.1984    144.9410
  1161.2500      0.0000    815.2996      5.4969    146.2948
  1161.5000      0.0000    809.4763      5.7202    144.1214
  1161.7500      0.0000    806.0299      5.9724    140.4373
  1162.0000      0.0000    804.1825      6.2991    138.1343
  1162.2500      0.0000    803.0871      6.6586    138.7859
  1162.5000      0.0000    802.9686      6.9638    141.9422
  1162.7500      0.0000    805.2966      7.1482    145.8674
  1163.0000      0.0000    811.3869      7.2073    148.6685
  1163.2500      0.0000    820.3762      7.1896    148.9605
  1163.5000      0.0000    828.8349      7.1485    145.9466
  1163.7500      0.0000    832.9837      7.1049    139.5845
  1164.0000      0.0000    831.6895      7.0493    130.9871
  1164.2500      0.0000    827.5589      6.9661    122.1527
  1164.5000      0.0000    824.7845      6.8652    114.8579
  1164.7500      0.0000    825.2604      6.8074    109.9853
  1165.0000      0.0000    826.9863      6.8733    107.9383
  1165.2500      0.0000    826.7783      7.0767    109.0887
  1165.5000      0.0000    824.0131      7.3338    113.4254
  1165.7500      0.0000    821.0168      7.5620    120.1028
  1166.0000      0.0000    820.1625      7.7784    127.5680
  1166.2500      0.0000    821.2784      8.0458    133.9980
  1166.5000      0.0000    821.6166      8.3549    137.7645
  1166.7500      0.0000    817.5024      8.6415    138.1160
  1167.0000      0.0000    805.0977      8.9093    135.8205
  1167.2500      0.0000    779.7544      9.2516    132.9724
  1167.5000      0.0000    737.1180      9.7354    131.6744
  1167.7500      0.0000    678.0605     10.3206    132.5351
  1168.0000      0.0000    612.5058     10.9098    134.3908
  1168.2500      0.0000    555.5328     11.4365    135.6045
  1168.5000      0.0000    518.5187     11.8959    135.5415
  1168.7500      0.0000    504.9647     12.3222    134.5309
  1169.0000      0.0000    513.1873     12.7450    132.6961
  1169.2500      0.0000    537.8573     13.1460    129.6181
  1169.5000      0.0000    566.4922     13.4613    125.3826
