~Version Information
VERS.                      2.0: CWLS Log ASCII Standard - VERSION 2.0
WRAP.                       NO: One line per depth step
~Well Information Block
STRT.FT               870.0000: 
STOP.FT              2519.5000: 
STEP.FT                 0.2500: 
NULL.                -999.2500: 
COMP.          Pioneer Natural Resources: COMPANY
WELL.              Tiaga 23-14: WELL
FLD.           Purgatoire River: FIELD
LOC.           2168' FSL & 2030' FWL: LOCATION
PROV.                 Colorado: PROVINCE
CNTY.               Las Animas: COUNTRY
SRVC.                         : SERVICE COMPANY
DATE.          Sat May 07 08:44:43 2005: LOG DATE
UWI.           05 071 08329 00: UNIQUE WELL ID
~Curve Information Block
DEPT.FT            0 000 00 00: Depth
LTEN.lb                       : Surface Line Tension
SN.Ohm-m                      : IEL Short Normal
SP.mV                         : IEL Spontaneous Potential
DIR.Ohm-m                     : IEL Induction Resistivity
GR.GAPI                       : Gamma Ray
~Parameter Information Block
~A  Depth       LTEN         SN          SP         DIR          GR     
# ...
  2494.0000    943.1427     25.4306     15.3272     20.4084    136.1357
  2494.2500    945.4933     26.6688     15.3641     21.3128    138.8265
  2494.5000    947.2201     28.0296     15.4041     22.1332    139.7702
  2494.7500    947.8177     29.3577     15.4246     22.7654    137.5587
  2495.0000    947.1010     30.6367     15.4136     23.1859    130.4198
  2495.2500    945.2327     31.9335     15.3776     23.4600    123.9909
  2495.5000    942.5463     33.2394     15.3415     23.6913    113.4715
  2495.7500    939.3627     34.4479     15.3406     23.9708    106.8157
  2496.0000    935.9822     35.4622     15.4072     24.3571     99.2537
  2496.2500    932.7914     36.2576     15.5541     24.8814     96.9575
  2496.5000    930.3945     36.8385     15.7653     25.5539     98.5931
  2496.7500    929.6292     37.1993     16.0010     26.3665    102.5649
  2497.0000    931.1213     37.3494     16.2151     27.2909    110.3183
  2497.2500    934.5222     37.3615     16.3719     28.2810    114.9246
  2497.5000    938.4673     37.4159     16.4494     29.2819    118.8644
  2497.7500    941.7004     37.7846     16.4365     30.2388    119.1565
  2498.0000    944.0457     38.7484     16.3330     31.1013    116.7165
  2498.2500    946.0331     40.4905     16.1552     31.8195    113.7632
  2498.5000    947.9279     42.9787     15.9364     32.3479    107.9884
  2498.7500    949.4070     45.9633     15.7180     32.6690    103.3229
  2499.0000    949.8796     49.1082     15.5357     32.8133     94.9035
  2499.2500    948.9167     52.0629     15.4056     32.8468     88.0627
  2499.5000    946.6190     54.5072     15.3207     32.8296     75.1879
  2499.7500    943.6950     56.1746     15.2578     32.7842     64.4844
  2500.0000    941.0286     56.7772     15.1936     32.6998     45.7930
  2500.2500    939.1697     56.0866     15.1188     32.5615     32.9979
  2500.5000    938.3020     54.2004     15.0376     32.3696     16.7290
  2500.7500    938.3452     51.5356     14.9569     32.1255      9.2155
  2501.0000    938.7562     48.4997     14.8780     31.7990      2.9681
  2501.2500    938.5990     45.3090     14.7975     31.3127      1.1770
  2501.5000    937.3328     42.1097     14.7143     30.5752      0.2244
  2501.7500    935.4096     39.1458     14.6293     29.5512      0.0611
  2502.0000    933.8675     36.7176     14.5406     28.3081      0.0056
  2502.2500    933.5779     34.9465     14.4399     26.9914      0.0000
  2502.5000    934.9396     33.6444     14.3172     25.7520   -999.2500
  2502.7500    937.8281     32.4888     14.1734     24.6872   -999.2500
  2503.0000    941.5853     31.3161     14.0267     23.8293   -999.2500
  2503.2500    945.3297     30.1999     13.9042     23.1656   -999.2500
  2503.5000    948.4523     29.2689     13.8255     22.6660   -999.2500
  2503.7500    950.7006     28.5445     13.7903     22.2974   -999.2500
  2504.0000    951.8621     27.9464     13.7829     22.0217   -999.2500
  2504.2500    951.6659     27.3687     13.7836     21.7885   -999.2500
  2504.5000    950.0738     26.7744     13.7769     21.5442   -999.2500
  2504.7500    947.5367     26.3030     13.7517     21.2585   -999.2500
  2505.0000    944.9337     26.2088     13.6972     20.9449   -999.2500
  2505.2500    943.1372     26.6020     13.6042     20.6458   -999.2500
  2505.5000    942.3395     27.3238     13.4719     20.3943   -999.2500
  2505.7500    941.7164     28.0865     13.3155     20.1892   -999.2500
  2506.0000    940.1230     28.6889     13.1645     20.0081   -999.2500
  2506.2500    937.3688     29.0932     13.0511     19.8383   -999.2500
  2506.5000    934.5836     29.2810     12.9957     19.9688   -999.2500
  2506.7500    933.2045     29.1237     13.0021     19.8898   -999.2500
  2507.0000    933.8150     28.4831     13.0597     19.9087   -999.2500
  2507.2500    935.9285     27.3687     13.1504     20.0255   -999.2500
  2507.5000    938.5203     25.9688     13.2529     20.1995   -999.2500
  2507.7500    940.7350     24.5503     13.3480     20.3600   -999.2500
  2508.0000    942.4192     23.2938     13.4201     20.4369   -999.2500
  2508.2500    944.0471     22.2282     13.4605     20.3917   -999.2500
  2508.5000    946.0048     21.3523     13.4703     20.2372   -999.2500
  2508.7500    948.1235     20.7506     13.4618     20.0414   -999.2500
  2509.0000    950.0647     20.5352     13.4535     19.9374   -999.2500
  2509.2500    951.7337     20.7141     13.4614     20.1538   -999.2500
  2509.5000    952.9614     21.1647     13.4941     21.0693   -999.2500
  2509.7500    953.1300     21.7417     13.5537     23.3348   -999.2500
  2510.0000    951.6199     22.3696     13.6363     27.6012   -999.2500
  2510.2500    948.5485     22.9874     13.7307     37.7751   -999.2500
  2510.5000    944.7647     23.4609     13.8187     63.1448   -999.2500
  2510.7500    941.1713     23.6365     13.8815    164.2553   -999.2500
  2511.0000    938.2791     23.4790     13.9065 100000.0000   -999.2500
  2511.2500    936.3185     23.1208     13.8874 100000.0000   -999.2500
  2511.5000    935.4838     22.7603     13.8223 100000.0000   -999.2500
  2511.7500    935.9962     22.5282     13.7208 100000.0000   -999.2500
  2512.0000    938.0106     22.4580     13.6139 100000.0000   -999.2500
  2512.2500    941.4075     22.5329     13.5443 100000.0000   -999.2500
  2512.5000    945.6316     22.7145     13.5397 100000.0000   -999.2500
  2512.7500    949.8309     22.9476     13.5940 100000.0000   -999.2500
  2513.0000    953.2241     23.1656     13.6757 100000.0000   -999.2500
  2513.2500    955.3561     23.3044     13.7535 100000.0000   -999.2500
  2513.5000    956.1259     23.3272     13.8130 100000.0000   -999.2500
  2513.7500    955.7433     23.2471     13.8586 100000.0000   -999.2500
  2514.0000    954.6589     23.1395     13.9090 100000.0000   -999.2500
  2514.2500    953.3516     23.1262     13.9896 100000.0000   -999.2500
  2514.5000    952.0856     23.3060     14.1146 100000.0000   -999.2500
  2514.7500    950.8787     23.6602     14.2533 100000.0000   -999.2500
  2515.0000    949.7167     24.0203     14.2958 100000.0000   -999.2500
  2515.2500    948.6681     24.1757     14.0293 100000.0000   -999.2500
  2515.5000    947.7079     24.0423     13.1541 100000.0000   -999.2500
  2515.7500    946.5098     23.6319     11.4134 100000.0000   -999.2500
  2516.0000    944.5252     22.6132      8.8423 100000.0000   -999.2500
  2516.2500    940.5388     19.8876      5.9135 100000.0000   -999.2500
  2516.5000    930.6733     14.5142      3.3199 100000.0000   -999.2500
  2516.7500    904.7351      7.6540      1.5318 100000.0000   -999.2500
  2517.0000    844.6996      2.0778      0.5720 100000.0000   -999.2500
  2517.2500    732.6177     -0.8114      0.1710 100000.0000   -999.2500
  2517.5000    568.3697     -1.7676      0.0406   9078.0947   -999.2500
  2517.7500    380.7961     -1.9701      0.0075   2720.3748   -999.2500
  2518.0000    214.1309     -1.9976      0.0010   1940.9375   -999.2500
  2518.2500     98.9336   -999.2500   -999.2500   1702.9287   -999.2500
  2518.5000     36.9874   -999.2500   -999.2500   1620.4069   -999.2500
  2518.7500     11.0671   -999.2500   -999.2500   1593.0958   -999.2500
  2519.0000      2.6267   -999.2500   -999.2500   1585.0486   -999.2500
  2519.2500      0.4871   -999.2500   -999.2500   1582.9930   -999.2500
  2519.5000      0.0652   -999.2500   -999.2500 100000.0000   -999.2500
