~Version Information
VERS.                      2.0: CWLS Log ASCII Standard - VERSION 2.0
WRAP.                       NO: One line per depth step
~Well Information Block
STRT.FT               555.5000: 
STOP.FT              2179.0000: 
STEP.FT                 0.2500: 
NULL.                -999.2500: 
COMP.          Petrogulf Corporation: COMPANY
WELL.            Montoya 6-14R: WELL
FLD.           Purgatorie River: FIELD
LOC.           867' FSL & 751' FWL: LOCATION
CNTY.               Las Animas: COUNTY
SRVC.                         : SERVICE COMPANY
DATE.          Mon Nov 15 07:02:23 2004: LOG DATE
UWI.           05 071 08242 00: UNIQUE WELL ID
STAT.                 Colorado: STATE
~Curve Information Block
DEPT.FT            0 000 00 00: Depth
SP.mV                         : DIL Spontaneous Potential
RILD.Ohm-m                    : DIL Deep Resistivity
RILM.Ohm-m                    : DIL Medium Resistivity
RLL3.Ohm-m                    : DIL Shallow Resistivity
GR.GAPI                       : Gamma Ray
~Parameter Information Block
~A  Depth        SP         RILD        RILM        RLL3         GR     
# ...
  1003.5000   -174.4731     24.3414     21.0377     24.6950    110.5790
  1003.7500   -175.1469     23.9891     20.6850     24.2390    111.1571
  1004.0000   -175.2504     23.6693     20.3906     24.0570    110.5095
  1004.2500   -174.7949     23.3768     20.1508     24.0507    108.9678
  1004.5000   -173.8579     23.1092     19.9652     24.1342    105.8107
  1004.7500   -172.5660     22.8691     19.8371     24.2625    103.8954
  1005.0000   -171.0831     22.6661     19.7727     24.4370    102.2533
  1005.2500   -169.5906     22.5158     19.7804     24.6908    102.1441
  1005.5000   -168.2681     22.4370     19.8695     25.0618    103.1851
  1005.7500   -167.2746     22.4494     20.0493     25.5684    104.2571
  1006.0000   -166.7240     22.5683     20.3276     26.1971    105.3989
  1006.2500   -166.6724     22.8022     20.7109     26.9098    105.3829
  1006.5000   -167.1094     23.1492     21.2027     27.6643    104.3800
  1006.7500   -167.9637     23.5955     21.8030     28.4370    103.6942
  1007.0000   -169.1094     24.1145     22.5081     29.2373    103.4021
  1007.2500   -170.3884     24.6677     23.3099     30.1051    103.3747
  1007.5000   -171.6343     25.2077     24.1955     31.0955    102.2361
  1007.7500   -172.6933     25.6851     25.1466     32.2553    100.3077
  1008.0000   -173.4507     26.0559     26.1372     33.6040     96.2021
  1008.2500   -173.8454     26.2897     27.1317     35.1218     93.4042
  1008.5000   -173.8791     26.3756     28.0804     36.7491     90.1241
  1008.7500   -173.6184     26.3237     28.9177     38.3924     88.6079
  1009.0000   -173.1813     26.1610     29.5649     39.9306     86.5584
  1009.2500   -172.7157     25.9235     29.9406     41.2218     84.8875
  1009.5000   -172.3693     25.6496     29.9791     42.1076     82.1531
  1009.7500   -172.2555     25.3723     29.6528     42.4243     80.7336
  1010.0000   -172.4282     25.1162     28.9861     42.0275     79.6542
  1010.2500   -172.8770     24.8975     28.0550     40.8306     79.4485
  1010.5000   -173.5376     24.7231     26.9682     38.8481     79.8915
  1010.7500   -174.3153     24.5940     25.8430     36.2287     81.2228
  1011.0000   -175.1156     24.5066     24.7839     33.2594     85.8481
  1011.2500   -175.8607     24.4547     23.8717     30.3361     90.6799
  1011.5000   -176.5038     24.4317     23.1611     27.9052     98.9671
  1011.7500   -177.0166     24.4317     22.6844     26.3962    103.7750
  1012.0000   -177.3822     24.4500     22.4566     26.1582    108.1522
  1012.2500   -177.5841     24.4852     22.4792     27.4056    109.0238
  1012.5000   -177.6075     24.5381     22.7418     30.1724    107.9477
  1012.7500   -177.4405     24.6126     23.2215     34.2749    105.9462
  1013.0000   -177.0896     24.7150     23.8800     39.2957    101.0727
  1013.2500   -176.5787     24.8537     24.6611     44.6084     96.7717
  1013.5000   -175.9464     25.0369     25.4911     49.4605     89.9721
  1013.7500   -175.2384     25.2722     26.2826     53.1145     86.1445
  1014.0000   -174.4879     25.5651     26.9462     55.0114     82.3455
  1014.2500   -173.7190     25.9157     27.4076     54.9076     81.0823
  1014.5000   -172.9450     26.3177     27.6233     52.9306     80.9725
  1014.7500   -172.1819     26.7561     27.5905     49.5300     82.2878
  1015.0000   -171.4650     27.2061     27.3446     45.3439     86.5144
  1015.2500   -170.8527     27.6366     26.9480     41.0280     90.3636
  1015.5000   -170.4177     28.0121     26.4745     37.1123     96.1562
  1015.7500   -170.2225     28.3025     25.9966     33.9225     99.2989
  1016.0000   -170.2911     28.4905     25.5773     31.5833    102.5123
  1016.2500   -170.5892     28.5779     25.2676     30.0825    103.6961
  1016.5000   -171.0287     28.5868     25.1068     29.3621    104.0696
  1016.7500   -171.4824     28.5554     25.1252     29.4047    103.3157
  1017.0000   -171.8250     28.5270     25.3457     30.2859    100.7495
  1017.2500   -171.9625     28.5417     25.7865     32.1825     98.4891
  1017.5000   -171.8548     28.6278     26.4600     35.3320     95.2792
  1017.7500   -171.5148     28.7964     27.3711     39.9546     93.3612
  1018.0000   -170.9994     29.0427     28.5134     46.1546     89.6617
  1018.2500   -170.3821     29.3469     29.8643     53.8227     85.8786
  1018.5000   -169.7304     29.6819     31.3779     62.5657     78.3385
  1018.7500   -169.0950     30.0177     32.9810     71.6864     73.0213
  1019.0000   -168.5035     30.3281     34.5725     80.2339     66.6438
  1019.2500   -167.9666     30.5934     36.0317     87.1352     64.3159
  1019.5000   -167.4851     30.7996     37.2316     91.3982     64.2624
  1019.7500   -167.0600     30.9369     38.0605     92.3463     66.3234
  1020.0000   -166.7030     30.9940     38.4388     89.8139     71.4999
  1020.2500   -166.4361     30.9555     38.3286     84.2280     75.5051
  1020.5000   -166.2831     30.8011     37.7374     76.5249     81.1337
  1020.7500   -166.2626     30.5078     36.7122     67.9120     84.2739
  1021.0000   -166.3768     30.0557     35.3311     59.5522     87.8585
  1021.2500   -166.6060     29.4359     33.6918     52.2851     89.3730
  1021.5000   -166.9058     28.6562     31.9026     46.4822     90.2033
  1021.7500   -167.2176     27.7455     30.0653     42.0718     90.0806
  1022.0000   -167.4708     26.7511     28.2689     38.6983     90.0803
  1022.2500   -167.6055     25.7304     26.5802     35.9302     90.9463
  1022.5000   -167.5785     24.7414     25.0439     33.4300     94.1993
  1022.7500   -167.3817     23.8326     23.6842     31.0348     97.5877
  1023.0000   -167.0480     23.0371     22.5097     28.7482    103.6461
  1023.2500   -166.6464     22.3707     21.5185     26.6741    107.5499
  1023.5000   -166.2646     21.8338     20.7026     24.9408    111.8551
  1023.7500   -165.9820     21.4148     20.0518     23.6482    113.2895
  1024.0000   -165.8394     21.0962     19.5559     22.8560    113.6855
  1024.2500   -165.8194     20.8589     19.2063     22.6149    113.4752
  1024.5000   -165.8490     20.6878     18.9968     23.0198    113.5287
  1024.7500   -165.8210     20.5754     18.9237     24.2678    113.9596
  1025.0000   -165.6354     20.5215     18.9851     26.6959    114.5600
  1025.2500   -165.2300     20.5333     19.1798     30.7657    114.3515
  1025.5000   -164.6108     20.6214     19.5052     36.9619    112.4877
  1025.7500   -163.8497     20.7974     19.9548     45.5985    110.1019
  1026.0000   -163.0631     21.0692     20.5149     56.5633    104.4817
  1026.2500   -162.3787     21.4392     21.1633     69.1018     98.9481
  1026.5000   -161.9026     21.9027     21.8686     81.7797     87.6227
  1026.7500   -161.6964     22.4468     22.5930     92.7215     78.6322
  1027.0000   -161.7631     23.0509     23.2999    100.1150     65.3378
  1027.2500   -162.0546     23.6871     23.9613    102.8293     58.2777
  1027.5000   -162.4855     24.3226     24.5648    100.8856     52.6495
  1027.7500   -162.9587     24.9217     25.1151     95.5480     52.6472
  1028.0000   -163.3846     25.4505     25.6289     88.9460     57.0997
  1028.2500   -163.6960     25.8804     26.1233     83.3500     61.4777
  1028.5000   -163.8600     26.1927     26.6039     80.3816     67.0757
  1028.7500   -163.8803     26.3818     27.0553     80.4714     68.7346
  1029.0000   -163.7886     26.4534     27.4375     82.7741     67.1600
  1029.2500   -163.6379     26.4222     27.6909     85.5587     63.9806
  1029.5000   -163.4819     26.3069     27.7494     86.9020     58.7142
  1029.7500   -163.3677     26.1240     27.5600     85.3960     56.7636
  1030.0000   -163.3172     25.8837     27.1006     80.5910     58.3034
  1030.2500   -163.3296     25.5888     26.3882     73.0289     62.3270
  1030.5000   -163.3764     25.2363     25.4729     63.9117     70.9257
  1030.7500   -163.4115     24.8208     24.4236     54.6003     76.7185
  1031.0000   -163.3838     24.3394     23.3104     46.1780     83.3657
  1031.2500   -163.2504     23.7951     22.1910     39.2297     86.1492
