~Version Information
VERS.                      2.0: CWLS Log ASCII Standard - VERSION 2.0
WRAP.                       NO: One line per depth step
~Well Information Block
STRT.FT                -3.5000: 
STOP.FT              1745.0000: 
STEP.FT                 0.2500: 
NULL.                -999.2500: 
COMP.          Pioneer Natural Resources: COMPANY
WELL.           Labrador 34-30: WELL
FLD.           Purgatorie River: FIELD
LOC.           926' FSL & 2080' FEL--: LOCATION
PROV.                       CO: PROVINCE
CNTY.               Las Animas: COUNTRY
SRVC.                         : SERVICE COMPANY
DATE.          Fri Dec 10 09:58:23 2004: LOG DATE
UWI.                071-08202 : UNIQUE WELL ID
~Curve Information Block
DEPT.FT            0 000 00 00: Depth
GR.GAPI                       : Gamma Ray
CCL.                          : Casing Collar Locator
TT3.usec                      : CBL 3' Travel Time
AMP3.mV                       : CBL 3' Amplitude
~Parameter Information Block
~A  Depth        GR         CCL         TT3         AMP3    
# ...
   465.5000    105.9781      0.0000    730.2417     13.1509
   465.7500    116.3356      0.0000    724.2637     13.8606
   466.0000    124.8428      0.0000    701.9046     14.7427
   466.2500    127.4954      0.0000    652.8719     15.8132
   466.5000    123.4244      0.0000    576.4590     17.0021
   466.7500    114.6298      0.0000    487.1029     18.1524
   467.0000    104.2780      0.0000    407.0439     19.0946
   467.2500     95.2852      0.0000    351.6237     19.7333
   467.5000     89.7295      0.0000    322.0231     20.0762
   467.7500     88.4910      0.0000    310.6169     20.1947
   468.0000     90.9469      0.0000    310.6693     20.1656
   468.2500     95.2043      0.0000    322.1580     20.0330
   468.5000     99.0089      0.0000    351.8125     19.8042
   468.7500    100.6256      0.0000    407.4021     19.4745
   469.0000     99.2382      0.0000    488.2032     19.0580
   469.2500     95.0963      0.0000    579.6731     18.5921
   469.5000     89.5274      0.0000    660.3005     18.1081
   469.7500     84.2959      0.0000    715.4668     17.6063
   470.0000     80.3642      0.0000    744.2266     17.0709
   470.2500     77.2899      0.0000    754.3076     16.5068
   470.5000     74.1166      0.0000    753.9609     15.9562
   470.7500     70.7754      0.0000    748.6530     15.4784
   471.0000     68.2713      0.0000    742.0219     15.1176
   471.2500     67.5361      0.0000    736.9634     14.8808
   471.5000     68.4661      0.0000    735.2455     14.7393
   471.7500     69.9465      0.0000    736.8740     14.6529
   472.0000     70.4154      0.0000    740.3544     14.5909
   472.2500     68.6984      0.0000    743.8155     14.5205
   472.5000     64.9771      0.0000    745.9302     14.3831
   472.7500     61.0190      0.0000    746.2287     14.1028
   473.0000     59.1301      0.0000    744.2429     13.6556
   473.2500     60.6010      0.0000    738.2150     13.1436
   473.5000     65.0023      0.0000    726.7495     12.7556
   473.7500     70.7150      0.0000    714.5560     12.5922
   474.0000     75.9115      0.0000    714.3416     12.5561
   474.2500     79.0629      0.0000    737.3350     12.4867
   474.5000     78.9996      0.0000    781.2908     12.3659
   474.7500     75.2699      0.0000    831.3044     12.3146
   475.0000     68.8058      0.0000    871.9810     12.4230
   475.2500     61.8346     -2.0000    895.9485     12.6631
   475.5000     56.6943      2.0000    901.7231     12.9563
   475.7500     54.7659      0.0000    887.1104     13.2887
   476.0000     56.2758      0.0000    847.3169     13.7582
   476.2500     60.3159      0.0000    781.6328     14.4821
   476.5000     64.9475      0.0000    702.2585     15.4150
   476.7500     68.2412      0.0000    632.9212     16.2997
   477.0000     69.8751      0.0000    594.5820     16.8826
   477.2500     71.3042      0.0000    593.0068     17.1434
   477.5000     73.8498      0.0000    619.9229     17.2473
   477.7500     76.9024      0.0000    661.2161     17.3281
   478.0000     78.5121      0.0000    702.7145     17.3928
   478.2500     77.5895      0.0000    734.2476     17.3807
   478.5000     74.9889      0.0000    752.7383     17.2508
   478.7500     72.3974      0.0000    761.1427     17.0241
   479.0000     70.6976      0.0000    764.1364     16.7682
   479.2500     69.6804      0.0000    764.9780     16.5404
   479.5000     68.8283      0.0000    765.1374     16.3463
   479.7500     67.7950      0.0000    765.1045     16.1550
   480.0000     66.3506      0.0000    765.0210     15.9369
   480.2500     64.4251      0.0000    764.9662     15.6785
   480.5000     62.4053      0.0000    764.9669     15.3773
   480.7500     61.2792      0.0000    765.0099     15.0454
   481.0000     62.1143      0.0000    765.0547     14.7214
   481.2500     64.8463      0.0000    765.0560     14.4695
   481.5000     67.6229      0.0000    764.9820     14.3562
   481.7500     68.0955      0.0000    764.8344     14.4197
   482.0000     65.5804      0.0000    764.7003     14.6497
   482.2500     61.5174      0.0000    764.8148     14.9903
   482.5000     57.9269      0.0000    765.5963     15.3586
   482.7500     55.8409      0.0000    767.5549     15.6666
   483.0000     54.9820      0.0000    770.9878     15.8447
   483.2500     54.5323      0.0000    775.6281     15.8700
   483.5000     54.2748      0.0000    780.6024     15.7760
   483.7500     54.9825      0.0000    784.7763     15.6274
   484.0000     57.4456      0.0000    787.1405     15.4846
   484.2500     61.3382      0.0000    787.0732     15.3883
   484.5000     65.4387      0.0000    784.5442     15.3550
   484.7500     68.6747      0.0000    780.1688     15.3671
   485.0000     70.5091      0.0000    775.0400     15.3761
   485.2500     70.7845      0.0000    770.3814     15.3340
   485.5000     69.9515      0.0000    767.0579     15.2209
   485.7500     69.2866      0.0000    765.2295     15.0444
   486.0000     70.1497      0.0000    764.4897     14.8301
   486.2500     72.8105      0.0000    764.3024     14.6192
   486.5000     76.1522      0.0000    764.3046     14.4553
   486.7500     78.5667      0.0000    764.3364     14.3589
   487.0000     79.2162      0.0000    764.3566     14.3222
   487.2500     78.4958      0.0000    764.3733     14.3270
   487.5000     77.2788      0.0000    764.4001     14.3607
   487.7500     76.0979      0.0000    764.4419     14.4182
   488.0000     75.4192      0.0000    764.4897     14.5057
   488.2500     76.1061      0.0000    764.5253     14.6456
   488.5000     78.6884      0.0000    764.5300     14.8643
   488.7500     82.2232      0.0000    764.4978     15.1635
   489.0000     84.4245      0.0000    764.4394     15.5046
   489.2500     83.3453      0.0000    764.3723     15.8227
   489.5000     79.1844      0.0000    764.3026     16.0574
   489.7500     74.3104      0.0000    764.2219     16.1767
   490.0000     71.2265      0.0000    764.1232     16.1853
   490.2500     70.5690      0.0000    764.0157     16.1162
   490.5000     71.0745      0.0000    763.9188     16.0133
   490.7500     71.0953      0.0000    763.8400     15.9213
   491.0000     69.9769      0.0000    763.7657     15.8854
   491.2500     68.2841      0.0000    763.6816     15.9424
   491.5000     67.0247      0.0000    763.6020     16.0937
   491.7500     66.6584      0.0000    763.5806     16.2866
   492.0000     66.6473      0.0000    763.6871     16.4417
   492.2500     65.8540      0.0000    764.0050     16.5135
   492.5000     63.5270      0.0000    764.7115     16.5222
   492.7500     60.1394      0.0000    766.3330     16.5237
   493.0000     57.2406      0.0000    770.0156     16.5530
   493.2500     56.3326      0.0000    777.3541     16.5966
   493.5000     57.7352      0.0000    789.2889     16.6084
   493.7500     60.4171      0.0000    804.4512     16.5427
   494.0000     62.8644      0.0000    818.6352     16.3779
   494.2500     64.1172      0.0000    826.9452     16.1150
   494.5000     64.1178      0.0000    827.4324     15.7693
   494.7500     63.3532      0.0000    822.5070     15.3682
   495.0000     62.4559      0.0000    816.4971     14.9500
   495.2500     62.1590      0.0000    812.2719     14.5507
   495.5000     63.1744      0.0000    810.2677     14.1873
   495.7500     65.6410      0.0000    809.6842     13.8550
   496.0000     68.8014      0.0000    809.7455     13.5396
   496.2500     71.5265      0.0000    810.0782     13.2368
   496.5000     73.0956      0.0000    810.5674     12.9586
   496.7500     73.4194      0.0000    811.2459     12.7220
   497.0000     72.8312      0.0000    812.4147     12.5338
   497.2500     71.9319      0.0000    814.9300     12.3842
   497.5000     71.4468      0.0000    820.1718     12.2480
   497.7500     71.9232      0.0000    828.9846     12.1017
   498.0000     73.4957      0.0000    839.8459     11.9544
   498.2500     75.9445      0.0000    848.4500     11.8527
   498.5000     78.9972      0.0000    850.6071     11.8406
   498.7500     82.8230      0.0000    845.9838     11.9129
