~Version Information
VERS.                      2.0: CWLS Log ASCII Standard - VERSION 2.0
WRAP.                       NO: One line per depth step
~Well Information Block
STRT.FT               580.0000: 
STOP.FT              2729.7000: 
STEP.FT                 0.1000: 
NULL.                -999.2500: 
COMP.          Pioneer Natural Resources: COMPANY
WELL.          Sand Pebbles 13-33: WELL
FLD.           Purgatoire River: FIELD
LOC.           1883' FSL & 63' FWL----: LOCATION
PROV.                 Colorado: PROVINCE
CNTY.               Las Animas: COUNTRY
SRVC.                Patterson: SERVICE COMPANY
DATE.          Mon Mar 14 07:33:33 2005: LOG DATE
UWI.           05 071 08224 00: UNIQUE WELL ID
~Curve Information Block
DEPT.FT            0 000 00 00: Depth
DCAL.in                       : CDL Caliper
RHOB.g/cc                     : CDL Bulk Density
RHOC.g/cc                     : CDL Density Correction
DPOR.pu                       : CDL Density Porosity
NPOR.pu                       : Neutron Porosity
GR.GAPI                       : Gamma Ray
~Parameter Information Block
~A  Depth       DCAL        RHOB        RHOC        DPOR        NPOR         GR     
# ...
  2557.6000      7.9478      2.5491      0.0660      6.1124     14.9061     76.2842
  2557.7000      7.9478      2.5580      0.0512      5.5775     15.5099     70.7150
  2557.8000      7.9452      2.5600      0.0490      5.4552     15.9607     64.4142
  2557.9000      7.9452      2.5642      0.0321      5.1985     16.2903     63.5711
  2558.0000      7.9406      2.5747      0.0448      4.5645     16.5827     68.3338
  2558.1000      7.9406      2.5753      0.1030      4.5282     16.7520     74.0763
  2558.2000      7.9406      2.5633      0.0237      5.2569     17.0137     79.0995
  2558.3000      7.9389      2.5583      0.0502      5.5569     17.7067     85.7272
  2558.4000      7.9389      2.5605      0.0736      5.4244     18.6469     92.4739
  2558.5000      7.9405      2.5500      0.0466      6.0596     19.3242     94.2572
  2558.6000      7.9405      2.5155      0.0155      8.1512     19.7258     89.8445
  2558.7000      7.9405      2.4586      0.0156     11.6008     20.4167     84.3119
  2558.8000      7.9411      2.3943      0.0018     15.4946     21.5669     83.6939
  2558.9000      7.9411      2.3470     -0.0337     18.3613     22.8841     85.8798
  2559.0000      7.9397      2.3325     -0.0232     19.2441     23.9649     85.0762
  2559.1000      7.9397      2.3484     -0.0270     18.2776     24.4679     83.6540
  2559.2000      7.9397      2.3810      0.0289     16.3021     24.3211     87.2291
  2559.3000      7.9388      2.4163      0.0131     14.1648     23.6431     94.3852
  2559.4000      7.9388      2.4498      0.0763     12.1320     22.5909     99.7656
  2559.5000      7.9397      2.4808      0.1132     10.2562     21.6729    101.4879
  2559.6000      7.9397      2.5102      0.1161      8.4748     21.2560    103.6922
  2559.7000      7.9397      2.5371      0.1502      6.8448     21.1118    110.6550
  2559.8000      7.9382      2.5544      0.1019      5.7939     20.9730    117.4066
  2559.9000      7.9382      2.5644      0.0605      5.1851     20.4732    119.2204
  2560.0000      7.9309      2.5740      0.0771      4.6075     19.4873    116.9762
  2560.1000      7.9309      2.5785      0.0467      4.3305     18.4131    111.0689
  2560.2000      7.9309      2.5827      0.0342      4.0813     17.9156    103.7894
  2560.3000      7.9205      2.6020      0.0318      2.9089     18.2829    102.1544
  2560.4000      7.9205      2.6226      0.0851      1.6611     18.9312    106.6843
  2560.5000      7.9143      2.6110      0.0862      2.3636     19.0721    110.4956
  2560.6000      7.9143      2.5724      0.0577      4.7056     18.7497    110.1247
  2560.7000      7.9143      2.5449      0.0379      6.3699     18.5285    107.5872
  2560.8000      7.9140      2.5441      0.0412      6.4178     18.4939    107.2839
  2560.9000      7.9140      2.5511      0.0558      5.9913     18.2496    110.3650
  2561.0000      7.9156      2.5453      0.0842      6.3462     17.7691    113.5498
  2561.1000      7.9156      2.5280      0.0520      7.3962     17.5212    114.8815
  2561.2000      7.9156      2.5169      0.0229      8.0658     17.5945    113.5889
  2561.3000      7.9154      2.5175      0.0640      8.0309     17.5506    108.0925
  2561.4000      7.9154      2.5157      0.0741      8.1414     17.2821     99.9736
  2561.5000      7.9129      2.5109      0.0181      8.4323     17.1364     94.9450
  2561.6000      7.9129      2.5168      0.0452      8.0704     17.3217     94.8970
  2561.7000      7.9129      2.5225      0.1171      7.7259     17.4490     97.0590
  2561.8000      7.9119      2.5053      0.0611      8.7673     17.2659     97.8588
  2561.9000      7.9119      2.4794      0.0155     10.3365     17.2782     93.6933
  2562.0000      7.9126      2.4737     -0.0057     10.6855     17.5720     87.6304
  2562.1000      7.9126      2.4878      0.0501      9.8309     17.7464     86.8962
  2562.2000      7.9126      2.5057      0.0596      8.7453     17.9518     95.1368
  2562.3000      7.9127      2.5218      0.0459      7.7709     18.2786    108.0089
  2562.4000      7.9127      2.5324      0.0619      7.1258     18.5012    113.6793
  2562.5000      7.9120      2.5299      0.0373      7.2814     18.4778    109.6164
  2562.6000      7.9120      2.5157      0.0275      8.1418     18.2734    105.8184
  2562.7000      7.9120      2.5029      0.0472      8.9164     17.9889    106.1141
  2562.8000      7.9105      2.4986      0.0466      9.1784     17.7710    105.1939
  2562.9000      7.9105      2.4921      0.0986      9.5723     17.9525    100.9876
  2563.0000      7.9102      2.4778      0.0114     10.4350     18.2978     96.7726
  2563.1000      7.9102      2.4739     -0.0107     10.6707     18.3849     98.5385
  2563.2000      7.9102      2.4892      0.0509      9.7467     18.3431    106.1584
  2563.3000      7.9113      2.5083      0.0378      8.5851     18.2788    108.6245
  2563.4000      7.9113      2.5202      0.0389      7.8639     18.1276    101.5615
  2563.5000      7.9113      2.5200      0.0676      7.8807     18.2010     93.1929
  2563.6000      7.9113      2.5026      0.0579      8.9344     18.5398     90.6929
  2563.7000      7.9113      2.4813     -0.0189     10.2240     18.6820     94.6707
  2563.8000      7.9093      2.4768      0.0028     10.4990     18.9364    100.4806
  2563.9000      7.9093      2.4880      0.0074      9.8186     19.6649    102.3101
  2564.0000      7.9092      2.4996      0.0558      9.1123     20.0232    100.4984
  2564.1000      7.9092      2.5030      0.0397      8.9101     19.2667     97.6394
  2564.2000      7.9092      2.5015      0.0221      9.0003     18.0744     93.6551
  2564.3000      7.9117      2.4985      0.0673      9.1805     17.5227     91.6037
  2564.4000      7.9117      2.4968      0.0410      9.2846     17.7543     93.2150
  2564.5000      7.9132      2.5001      0.0282      9.0838     18.1509     93.5919
  2564.6000      7.9132      2.4985      0.0569      9.1848     18.3110     93.2013
  2564.7000      7.9132      2.4821      0.0237     10.1755     18.2414     97.2355
  2564.8000      7.9132      2.4699     -0.0221     10.9154     18.0517    101.6338
  2564.9000      7.9132      2.4803      0.0580     10.2830     17.9501    100.5007
  2565.0000      7.9125      2.5024      0.0170      8.9462     17.9302     95.9784
  2565.1000      7.9125      2.5200      0.0654      7.8762     17.7454     91.6064
  2565.2000      7.9125      2.5245      0.0647      7.6084     17.3614     85.5300
  2565.3000      7.9124      2.5182      0.0360      7.9864     16.8173     79.4927
  2565.4000      7.9124      2.5137      0.0457      8.2615     16.4841     80.9040
  2565.5000      7.9065      2.5195      0.0225      7.9067     17.0460     86.3245
  2565.6000      7.9065      2.5379      0.0345      6.7920     18.4053     89.7177
  2565.7000      7.9065      2.5579      0.0811      5.5798     19.5577     91.3512
  2565.8000      7.8947      2.5652      0.0606      5.1380     20.1099     88.5743
  2565.9000      7.8947      2.5554      0.0885      5.7306     20.3278     80.7810
  2566.0000      7.8866      2.5176      0.0743      8.0247     20.7845     73.9403
  2566.1000      7.8866      2.4389      0.0472     12.7931     22.2557     73.1523
  2566.2000      7.8866      2.3326     -0.0508     19.2366     24.5363     79.9743
  2566.3000      7.8820      2.2271     -0.0293     25.6285     26.6755     91.0267
  2566.4000      7.8820      2.1401     -0.1130     30.9010     28.1235    100.8978
  2566.5000      7.8790      2.0860     -0.1203     34.1793     28.8290    108.6378
  2566.6000      7.8790      2.0691     -0.0967     35.2045     28.9696    114.8393
  2566.7000      7.8790      2.0746     -0.0778     34.8755     28.8628    119.0996
  2566.8000      7.8794      2.0880     -0.0668     34.0582     28.7276    121.9532
  2566.9000      7.8794      2.1108     -0.0212     32.6807     28.5277    121.9912
  2567.0000      7.8825      2.1515      0.0401     30.2112     28.1628    116.7834
  2567.1000      7.8825      2.2175      0.1070     26.2091     27.8817    109.8592
