~Version Information
VERS.                      2.0: CWLS Log ASCII Standard - VERSION 2.0
WRAP.                       NO: One line per depth step
~Well Information Block
STRT.FT               563.6000: 
STOP.FT              2133.0000: 
STEP.FT                 0.1000: 
NULL.                -999.2500: 
COMP.          Petrogulf Corporation: COMPANY
WELL.             State 16-43V: WELL
FLD.           Purgatorie River: FIELD
LOC.           2437' FSL & 734' FEL: LOCATION
CNTY.               Las Animas: COUNTY
SRVC.                         : SERVICE COMPANY
DATE.          Mon Dec 06 06:01:26 2004: LOG DATE
UWI.           05 071 08015 00: UNIQUE WELL ID
STAT.                 Colorado: STATE
~Curve Information Block
DEPT.FT            0 000 00 00: Depth
DCAL.in                       : CDL Caliper
RHOB.g/cc                     : CDL Bulk Density
RHOC.g/cc                     : CDL Density Correction
DPOR.pu                       : CDL Density Porosity
GR.GAPI                       : Gamma Ray
NPOR.pu                       : Neutron Porosity
~Parameter Information Block
~A  Depth       DCAL        RHOB        RHOC        DPOR         GR         NPOR    
# ...
  1398.8000      8.0435      2.6280      0.0766      1.3314    118.3452     25.9747
  1398.9000      8.0435      2.6304      0.0259      1.1869    126.1728     25.8963
  1399.0000      7.9869      2.6176      0.1061      1.9657    124.7727     25.8847
  1399.1000      7.9869      2.5973      0.0452      3.1921    119.6110     25.8910
  1399.2000      7.9869      2.5888      0.0939      3.7113    119.0606     26.0334
  1399.3000      8.0100      2.5868      0.1106      3.8282    122.2417     26.3116
  1399.4000      8.0100      2.5656      0.0496      5.1171    125.0972     26.3791
  1399.5000      8.0000      2.5286      0.0046      7.3600    127.4707     26.2846
  1399.6000      8.0000      2.5041     -0.0037      8.8444    129.2859     26.3409
  1399.7000      8.0000      2.4943      0.0464      9.4382    129.6311     26.5033
  1399.8000      8.0038      2.4798      0.0346     10.3151    129.8275     26.5434
  1399.9000      8.0038      2.4613     -0.0082     11.4387    131.6630     26.4170
  1400.0000      8.0563      2.4592      0.0105     11.5631    133.7104     26.2110
  1400.1000      8.0563      2.4788      0.0423     10.3762    135.6233     25.9858
  1400.2000      8.0563      2.4973      0.0545      9.2534    140.3690     25.7423
  1400.3000      8.0842      2.4958      0.0089      9.3464    145.3129     25.6961
  1400.4000      8.0842      2.4891     -0.0082      9.7537    145.8060     26.0880
  1400.5000      8.0813      2.5119     -0.0275      8.3696    142.9762     26.6535
  1400.6000      8.0813      2.5671      0.1372      5.0267    139.8606     26.9698
  1400.7000      8.0813      2.6120      0.1893      2.3050    137.8677     26.7689
  1400.8000      8.0624      2.6173      0.2003      1.9807    137.5655     26.1759
  1400.9000      8.0624      2.5873      0.2066      3.7993    137.5969     25.7045
  1401.0000      8.0129      2.5368      0.1401      6.8626    136.8123     25.5338
  1401.1000      8.0129      2.4797      0.0780     10.3227    137.7068     25.4880
  1401.2000      8.0129      2.4291     -0.0086     13.3871    142.6988     25.4140
  1401.3000      8.0762      2.4009      0.0042     15.0939    149.4934     25.3071
  1401.4000      8.0762      2.4015     -0.0117     15.0611    154.3749     25.2477
  1401.5000      8.0961      2.4188      0.0858     14.0150    156.2711     25.2182
  1401.6000      8.0961      2.4294      0.1776     13.3673    154.9400     25.1836
  1401.7000      8.0961      2.4238      0.1538     13.7082    150.8475     24.9949
  1401.8000      8.0891      2.4109      0.1619     14.4900    148.6641     24.6680
  1401.9000      8.0891      2.3871      0.1640     15.9344    152.5711     24.5683
  1402.0000      8.0865      2.3354      0.2007     19.0663    158.4247     24.7160
  1402.1000      8.0865      2.2607      0.1098     23.5940    158.6087     24.8763
  1402.2000      8.0865      2.1849      0.1287     28.1885    151.5527     25.0434
  1402.3000      8.0996      2.1144      0.1660     32.4603    144.3684     25.2062
  1402.4000      8.0996      2.0519      0.1192     36.2491    141.6333     25.3510
  1402.5000      8.1448      2.0146      0.1198     38.5100    141.7406     25.6984
  1402.6000      8.1448      2.0213      0.1143     38.1030    142.9827     26.4662
  1402.7000      8.1448      2.0837      0.1418     34.3231    144.1270     27.2257
  1402.8000      8.1184      2.2041      0.1831     27.0247    143.9009     27.4524
  1402.9000      8.1184      2.3655      0.2585     17.2452    141.3226     27.4514
  1403.0000      8.1351      2.5225      0.3864      7.7276    135.9859     27.7364
  1403.1000      8.1351      2.6375      0.4039      0.7550    129.8553     28.1934
  1403.2000      8.1351      2.7107      0.4282     -3.6773    126.3037     28.4528
  1403.3000      8.0972      2.7484      0.4187     -5.9632    127.6072     28.7444
  1403.4000      8.0972      2.7486      0.3114     -5.9770    132.4775     29.2822
  1403.5000      8.0505      2.7179      0.2408     -4.1180    136.9095     29.8168
  1403.6000      8.0505      2.6759      0.1651     -1.5681    139.9944     30.2482
  1403.7000      8.0505      2.6439      0.1478      0.3691    142.5376     30.6502
  1403.8000      8.0567      2.6308      0.1511      1.1665    141.3699     30.9948
  1403.9000      8.0567      2.6308      0.0814      1.1607    134.8292     31.2225
  1404.0000      8.0807      2.6324      0.0706      1.0693    128.8594     31.1864
  1404.1000      8.0807      2.6209      0.0924      1.7627    126.8746     30.9099
  1404.2000      8.0807      2.5914      0.0284      3.5514    126.9506     30.7233
  1404.3000      8.0463      2.5624     -0.0231      5.3093    128.9383     30.7407
  1404.4000      8.0463      2.5522     -0.0337      5.9296    131.7163     30.7326
  1404.5000      8.0563      2.5574      0.0144      5.6129    134.2218     30.5870
  1404.6000      8.0563      2.5617      0.0268      5.3532    135.6658     30.2918
  1404.7000      8.0563      2.5528      0.0084      5.8888    131.5467     29.8673
  1404.8000      8.0254      2.5406      0.0150      6.6329    121.6387     29.3483
  1404.9000      8.0254      2.5454     -0.0456      6.3390    114.4816     28.8134
  1405.0000      8.0326      2.5663     -0.0223      5.0710    115.4415     28.4164
  1405.1000      8.0326      2.5790      0.0433      4.3040    121.0725     28.1051
  1405.2000      8.0326      2.5665     -0.0163      5.0629    125.0529     27.5558
  1405.3000      8.0344      2.5332     -0.0120      7.0818    126.9450     26.9562
  1405.4000      8.0344      2.4982     -0.0831      9.1996    129.6245     26.7483
  1405.5000      8.0463      2.4700      0.0010     10.9064    131.6713     26.6058
  1405.6000      8.0463      2.4424     -0.0108     12.5789    132.5065     26.1346
  1405.7000      8.0463      2.4285     -0.0522     13.4250    134.1720     25.6498
  1405.8000      8.0755      2.4399     -0.0179     12.7330    136.9647     25.5324
  1405.9000      8.0755      2.4591      0.0073     11.5712    138.9923     25.5271
  1406.0000      8.0735      2.4771     -0.0011     10.4815    137.5345     25.5222
  1406.1000      8.0735      2.5033      0.1044      8.8896    132.2648     26.0565
  1406.2000      8.0735      2.5372      0.0783      6.8357    126.7090     26.9910
  1406.3000      8.0511      2.5620      0.1578      5.3336    124.6943     27.5487
  1406.4000      8.0511      2.5429      0.2845      6.4926    127.6795     27.4190
  1406.5000      8.0555      2.4615      0.1872     11.4216    134.1445     26.6933
  1406.6000      8.0555      2.3494      0.1092     18.2163    138.8766     25.7510
  1406.7000      8.0555      2.2481      0.0152     24.3587    138.0275     24.8291
  1406.8000      8.1188      2.1639     -0.0528     29.4617    135.5043     23.7585
  1406.9000      8.1188      2.0783     -0.0264     34.6461    136.5520     22.7178
  1407.0000      8.0654      2.0129     -0.0810     38.6135    140.7867     22.2263
  1407.1000      8.0654      2.0312      0.0245     37.5009    144.6457     22.4217
  1407.2000      8.0654      2.1389      0.3637     30.9740    145.5582     23.0906
  1407.3000      8.0481      2.2711      0.4749     22.9626    145.9042     23.6838
  1407.4000      8.0481      2.3835      0.5095     16.1495    150.3338     23.6314
  1407.5000      8.1275      2.4665      0.5940     11.1215    156.4868     23.1253
  1407.6000      8.1275      2.5060      0.6525      8.7271    161.0365     22.7272
  1407.7000      8.1275      2.4979      0.5754      9.2212    164.3117     22.6078
  1407.8000      8.3343      2.4718      0.4550     10.8016    167.1060     22.7555
  1407.9000      8.3343      2.4626      0.4066     11.3571    169.1364     23.2051
  1408.0000      8.4611      2.4689      0.4486     10.9754    167.8938     24.0737
  1408.1000      8.4611      2.4648      0.4013     11.2231    162.7885     25.2417
  1408.2000      8.4611      2.4403      0.3607     12.7078    155.7855     26.2012
  1408.3000      8.4729      2.4129      0.2524     14.3699    150.1314     26.6809
