~Version Information
 VERS.                                  2.0 : CWLS LAS VERSION
 WRAP.                                   NO : WRAPING MODE
 SWARE .                 MController 2.5.0I : SOFTWARE VERSION
~Well Information
 WELL.                       Montoya 13-41v : WELL
 COMP.                        Pertogulf Corp: COMPANY
 FLD.                      Pergatorie River : FIELD
 LOC.                NE/NE Sec 13 T33S R68W : LOCATION
 DATE.                           8/16-17/04 : DATE(S) LOGGED
 SRVC.       Blanco Geological Services LLC : SERVICE COMPANY
 STAT.                                   CO : STATE
 CNTY.                           Las Animas : COUNTY
 CTRY.                                  USA : COUNTRY
 API.                       05-071-08021-00 : API NUMBER
 STRT.FT                             767.00 : START DEPTH
 STOP.FT                            2499.00 : STOP DEPTH
 STEP.FT                               1.00 : DEPTH INCREMENT
 NULL.                                -9999 : NULL VALUE
~Curve information
 DEPTH.FT                                   :
 ROP.MIN/FT                                 :
 GAS.UNITS                                  :
~ASCII Log data
# ...
      1967.0          0.3          8.2 
      1968.0          0.3          8.1 
      1969.0          0.3          8.2 
      1970.0          0.4          8.3 
      1971.0          0.8          8.4 
      1972.0          0.4          8.2 
      1973.0          0.4          8.0 
      1974.0          0.5          8.2 
      1975.0          0.6         13.7 
      1976.0          0.1         14.4 
      1977.0          0.2         14.1 
      1978.0          0.8         12.6 
      1979.0          0.4          5.4 
      1980.0          7.8         16.0 
      1981.0          0.8          7.3 
      1982.0          0.8          8.4 
      1983.0          0.9          9.6 
      1984.0          0.7          9.0 
      1985.0          0.6          9.5 
      1986.0          0.4         10.0 
      1987.0          0.3          9.5 
      1988.0          0.2          9.4 
      1989.0          0.3          9.4 
      1990.0          0.4          9.4 
      1991.0          0.6         10.2 
      1992.0          0.5         10.1 
      1993.0          0.5         10.0 
      1994.0          0.6          9.6 
      1995.0          0.5         10.0 
      1996.0          0.6          9.8 
      1997.0          0.6         10.2 
      1998.0          0.7         10.0 
      1999.0          0.5         10.3 
      2000.0          0.5          9.9 
      2001.0          0.6          9.3 
      2002.0          0.6          8.9 
      2003.0          0.5          8.9 
      2004.0          0.4          9.7 
      2005.0          0.4          9.9 
      2006.0          0.6         10.1 
      2007.0          0.7          9.3 
      2008.0          0.7         14.4 
      2009.0          0.3         16.2 
      2010.0          9.6         26.5 
      2011.0          0.4          9.1 
      2012.0          0.4          9.8 
      2013.0          0.3          9.2 
      2014.0          0.3          8.3 
      2015.0          0.3          8.5 
      2016.0          0.4          8.2 
      2017.0          0.4          9.4 
      2018.0          0.4         10.1 
      2019.0          0.5         10.5 
      2020.0          0.6         10.0 
      2021.0          0.5         10.0 
      2022.0          0.6          9.3 
      2023.0          0.6          9.0 
      2024.0          0.6          9.4 
      2025.0          0.5          9.5 
      2026.0          0.4          9.0 
      2027.0          0.5          9.1 
      2028.0          0.5          8.7 
      2029.0          0.5          8.5 
      2030.0          0.5          8.8 
      2031.0          0.4          9.0 
      2032.0          0.5          9.0 
      2033.0          0.7          9.1 
      2034.0          1.0          9.2 
      2035.0          1.1          9.9 
      2036.0          0.7          9.8 
      2037.0          0.6         19.3 
      2038.0          0.1         18.7 
      2039.0          1.1         16.9 
      2040.0          6.6         44.8 
      2041.0          1.0         18.1 
      2042.0          0.8         12.6 
      2043.0          0.7          8.3 
      2044.0          0.7         10.5 
      2045.0          0.6         10.8 
      2046.0          0.6         10.4 
      2047.0          0.7         10.2 
      2048.0          0.5          9.8 
      2049.0          0.4          9.8 
      2050.0          0.3         10.6 
      2051.0          0.4         10.9 
      2052.0          0.4         10.7 
      2053.0          0.2         10.2 
      2054.0          0.3         10.6 
      2055.0          0.3         10.2 
      2056.0          0.2         10.0 
      2057.0          0.4          9.8 
      2058.0          0.5          9.6 
      2059.0          0.7         10.4 
      2060.0          0.8         11.2 
      2061.0          0.8         10.8 
      2062.0          0.6         10.9 
      2063.0          0.2         10.3 
      2064.0          0.7         10.5 
      2065.0          0.7         10.6 
      2066.0          0.8         10.5 
      2067.0          0.6          9.8 
      2068.0          0.6         17.3 
      2069.0          1.2         17.2 
      2070.0          5.6         55.0 
      2071.0          0.9          8.2 
      2072.0          1.0         14.2 
      2073.0          1.3         14.5 
      2074.0          1.0          8.7 
      2075.0          1.0          9.2 
      2076.0          0.7          9.6 
      2077.0          0.8          8.7 
      2078.0          0.7          9.0 
      2079.0          0.7          9.0 
      2080.0          0.6          8.9 
      2081.0          0.5          8.7 
      2082.0          0.6          8.8 
      2083.0          0.5          8.6 
      2084.0          0.6          8.8 
      2085.0          0.6          9.6 
      2086.0          0.5          9.4 
      2087.0          0.9          9.7 
      2088.0          1.1          9.1 
      2089.0          1.0          8.8 
      2090.0          0.7          8.8 
      2091.0          0.4          8.7 
      2092.0          0.4          8.7 
      2093.0          0.5          8.6 
      2094.0          1.2          8.2 
      2095.0          0.5          8.4 
      2096.0          0.7          8.9 
      2097.0          0.6          9.4 
      2098.0          1.0         14.6 
      2099.0          0.7         19.5 
      2100.0          6.2         32.1 
      2101.0          1.5         18.6 
      2102.0          1.0         19.3 
      2103.0          0.7         10.3 
      2104.0          0.4          6.7 
      2105.0          0.4          7.0 
      2106.0          0.5          7.3 
      2107.0          0.5          7.7 
      2108.0          0.5          8.1 
      2109.0          0.2          7.9 
      2110.0          0.2          8.4 
      2111.0          0.3          8.4 
      2112.0          0.4          8.3 
      2113.0          0.4          8.1 
      2114.0          0.4          8.6 
      2115.0          0.5          8.8 
      2116.0          0.4          8.6 
      2117.0          0.6          8.2 
      2118.0          0.9          8.8 
      2119.0          0.7         20.2 
      2120.0          0.7         21.0 
      2121.0          0.6         16.9 
      2122.0          0.5         14.6 
      2123.0          0.5         12.5 
      2124.0          0.5         12.0 
      2125.0          0.4         11.9 
      2126.0          0.5         12.5 
      2127.0          0.6         12.1 
      2128.0          0.6         12.4 
      2129.0          0.5         19.6 
      2130.0         13.1         23.0 
      2131.0        136.4        130.4 
      2132.0         54.5         36.2 
      2133.0         25.6         33.9 
      2134.0         18.8         25.1 
      2135.0         13.2         18.3 
      2136.0         27.4        284.8 
      2137.0          5.8         47.4 
      2138.0          0.5         24.5 
      2139.0          0.5          7.1 
      2140.0          0.8          4.3 
      2141.0          0.3          2.5 
      2142.0          0.5          2.2 
      2143.0          1.1          2.4 
      2144.0          0.9          2.1 
      2145.0          0.5          1.9 
      2146.0          0.8          1.8 
      2147.0          0.6          1.7 
      2148.0          0.4          1.9 
      2149.0          0.7          1.9 
      2150.0          0.5          2.0 
      2151.0          0.5          2.2 
      2152.0          0.8          3.0 
      2153.0          0.6          3.3 
      2154.0          0.7          3.2 
      2155.0          0.7          3.5 
      2156.0          0.5          3.8 
      2157.0          0.5          3.4 
      2158.0          0.6          4.2 
      2159.0          0.7          4.5 
      2160.0          1.0          5.0 
      2161.0          0.5          4.4 
      2162.0          0.5          5.2 
      2163.0          0.6          5.0 
      2164.0          0.6          5.1 
      2165.0          0.4          4.1 
      2166.0          0.8          3.5 
