~Version Information
VERS.                      2.0: CWLS Log ASCII Standard - VERSION 2.0
WRAP.                       NO: One line per depth step
~Well Information Block
STRT.FT               360.0000: 
STOP.FT              1622.7500: 
STEP.FT                 0.2500: 
NULL.                -999.2500: 
COMP.          Pioneer Natural Resources: COMPANY
WELL.                Eric 42-9: WELL
FLD.           Purgatoire River: FIELD
LOC.           2050' FNL & 850' FEL: LOCATION
PROV.                 Colorado: PROVINCE
CNTY.               Las Animas: COUNTRY
SRVC.                Patterson: SERVICE COMPANY
DATE.          Sun Oct 31 17:26:46 2004: LOG DATE
UWI.           05 071 07999 00: UNIQUE WELL ID
~Curve Information Block
DEPT.FT            0 000 00 00: Depth
SN.Ohm-m                      : IEL Short Normal
SP.mV                         : IEL Spontaneous Potential
DIR.Ohm-m                     : IEL Induction Resistivity
GR.GAPI                       : Gamma Ray
~Parameter Information Block
~A  Depth        SN          SP         DIR          GR     
# ...
   695.0000   2000.0000   2100.0000      7.2381    128.3457
   695.2500   2000.0000   2100.0000      7.2170    126.9316
   695.5000   2000.0000   2100.0000      7.2297    125.2010
   695.7500   2000.0000   2100.0000      7.2743    124.3322
   696.0000   2000.0000   2100.0000      7.3443    123.2915
   696.2500   2000.0000   2100.0000      7.4296    122.6131
   696.5000   2000.0000   2100.0000      7.5186    121.3413
   696.7500   2000.0000   2100.0000      7.6002    120.2959
   697.0000   2000.0000   2100.0000      7.6661    118.7886
   697.2500   2000.0000   2100.0000      7.7114    118.1553
   697.5000   2000.0000   2100.0000      7.7337    118.1316
   697.7500   2000.0000   2100.0000      7.7322    118.7145
   698.0000   2000.0000   2100.0000      7.7074    120.2149
   698.2500   2000.0000   2100.0000      7.6627    121.4965
   698.5000   2000.0000   2100.0000      7.6055    123.6910
   698.7500   2000.0000   2100.0000      7.5457    125.1572
   699.0000   2000.0000   2100.0000      7.4919    126.6989
   699.2500   2000.0000   2100.0000      7.4474    126.8751
   699.5000   2000.0000   2100.0000      7.4095    125.7678
   699.7500   2000.0000   2100.0000      7.3728    124.5681
   700.0000   2000.0000   2100.0000      7.3340    123.1430
   700.2500   2000.0000   2100.0000      7.2954    122.7322
   700.5000   2000.0000   2100.0000      7.2629    122.5005
   700.7500   2000.0000   2100.0000      7.2412    122.1308
   701.0000   2000.0000   2100.0000      7.2300    120.9083
   701.2500   2000.0000   2100.0000      7.2236    119.8555
   701.5000   2000.0000   2100.0000      7.2136    118.5950
   701.7500   2000.0000   2100.0000      7.1922    118.3045
   702.0000   2000.0000   2100.0000      7.1552    118.9119
   702.2500   2000.0000   2100.0000      7.1029    119.8062
   702.5000   2000.0000   2100.0000      7.0396    120.9780
   702.7500   2000.0000   2100.0000      6.9724    121.1854
   703.0000   2000.0000   2100.0000      6.9099    120.8360
   703.2500   2000.0000   2100.0000      6.8617    120.7767
   703.5000   2000.0000   2100.0000      6.8370    121.6524
   703.7500   2000.0000   2100.0000      6.8439    122.6043
   704.0000   2000.0000   2100.0000      6.8873    123.3112
   704.2500   2000.0000   2100.0000      6.9689    122.6993
   704.5000   2000.0000   2100.0000      7.0865    120.0879
   704.7500   2000.0000   2100.0000      7.2342    117.6217
   705.0000   2000.0000   2100.0000      7.4031    113.5787
   705.2500   2000.0000   2100.0000      7.5816    110.9522
   705.5000   2000.0000   2100.0000      7.7576    107.7444
   705.7500   2000.0000   2100.0000      7.9227    106.6570
   706.0000   2000.0000   2100.0000      8.0778    107.4527
   706.2500   2000.0000   2100.0000      8.2352    109.7050
   706.5000   2000.0000   2100.0000      8.4147    115.0551
   706.7500   2000.0000   2100.0000      8.6333    119.1779
   707.0000   2000.0000   2100.0000      8.8976    124.3725
   707.2500   2000.0000   2100.0000      9.2044    126.1093
   707.5000   2000.0000   2100.0000      9.5490    125.0008
   707.7500   2000.0000   2100.0000      9.9360    121.6139
   708.0000   2000.0000   2100.0000     10.3832    112.8725
   708.2500   2000.0000   2100.0000     10.9181    105.1490
   708.5000   2000.0000   2100.0000     11.5733     92.2052
   708.7500   2000.0000   2100.0000     12.3835     83.5330
   709.0000   2000.0000   2100.0000     13.3866     71.4830
   709.2500   2000.0000   2100.0000     14.6197     64.5449
   709.5000   2000.0000   2100.0000     16.1062     56.5494
   709.7500   2000.0000   2100.0000     17.8362     53.0543
   710.0000   2000.0000   2100.0000     19.7456     50.2166
   710.2500   2000.0000   2100.0000     21.7097     49.4198
   710.5000   2000.0000   2100.0000     23.5647     48.8967
   710.7500   2000.0000   2100.0000     25.1549     48.4824
   711.0000   2000.0000   2100.0000     26.3809     47.2278
   711.2500   2000.0000   2100.0000     27.2196     46.0874
   711.5000   2000.0000   2100.0000     27.7035     44.9178
   711.7500   2000.0000   2100.0000     27.8826     45.2128
   712.0000   2000.0000   2100.0000     27.7978     47.9896
   712.2500   2000.0000   2100.0000     27.4749     51.4152
   712.5000   2000.0000   2100.0000     26.9311     58.3860
   712.7500   2000.0000   2100.0000     26.1831     63.6630
   713.0000   2000.0000   2100.0000     25.2579     71.2635
   713.2500   2000.0000   2100.0000     24.2053     75.5925
   713.5000   2000.0000   2100.0000     23.1022     80.9672
   713.7500   2000.0000   2100.0000     22.0356     84.1722
   714.0000   2000.0000   2100.0000     21.0778     88.7719
   714.2500   2000.0000   2100.0000     20.2653     91.3726
   714.5000   2000.0000   2100.0000     19.5949     93.3517
   714.7500   2000.0000   2100.0000     19.0300     92.8886
   715.0000   2000.0000   2100.0000     18.5127     89.9023
   715.2500   2000.0000   2100.0000     17.9833     87.2185
   715.5000   2000.0000   2100.0000     17.4004     83.7642
   715.7500   2000.0000   2100.0000     16.7533     82.5445
   716.0000   2000.0000   2100.0000     16.0546     82.8396
   716.2500   2000.0000   2100.0000     15.3199     84.2800
   716.5000   2000.0000   2100.0000     14.5539     87.6575
   716.7500   2000.0000   2100.0000     13.7555     90.5732
   717.0000   2000.0000   2100.0000     12.9302     96.3371
   717.2500   2000.0000   2100.0000     12.0969    101.4070
   717.5000   2000.0000   2100.0000     11.2828    110.7428
   717.7500   2000.0000   2100.0000     10.5133    117.4542
   718.0000   2000.0000   2100.0000      9.8071    126.1206
   718.2500   2000.0000   2100.0000      9.1759    129.5999
   718.5000   2000.0000   2100.0000      8.6262    130.2887
   718.7500   2000.0000   2100.0000      8.1588    128.3340
   719.0000   2000.0000   2100.0000      7.7700    124.3944
   719.2500   2000.0000   2100.0000      7.4535    122.6538
   719.5000   2000.0000   2100.0000      7.2039    122.5794
   719.7500   2000.0000   2100.0000      7.0191    123.7947
   720.0000   2000.0000   2100.0000      6.8997    125.6455
   720.2500   2000.0000   2100.0000      6.8467    125.9839
   720.5000   2000.0000   2100.0000      6.8594    124.9023
   720.7500   2000.0000   2100.0000      6.9343    123.5946
   721.0000   2000.0000   2100.0000      7.0664    121.6745
   721.2500   2000.0000   2100.0000      7.2513    120.7030
   721.5000   2000.0000   2100.0000      7.4878    119.7071
   721.7500   2000.0000   2100.0000      7.7793    119.1564
   722.0000   2000.0000   2100.0000      8.1309    117.9158
   722.2500   2000.0000   2100.0000      8.5424    116.3859
   722.5000   2000.0000   2100.0000      9.0033    112.6892
   722.7500   2000.0000   2100.0000      9.4905    109.6735
   723.0000   2000.0000   2100.0000      9.9719    105.8191
   723.2500   2000.0000   2100.0000     10.4103    104.4421
   723.5000   2000.0000   2100.0000     10.7700    104.3273
   723.7500   2000.0000   2100.0000     11.0257    105.0779
   724.0000   2000.0000   2100.0000     11.1690    106.3571
   724.2500   2000.0000   2100.0000     11.2073    106.8457
   724.5000   2000.0000   2100.0000     11.1573    107.0193
   724.7500   2000.0000   2100.0000     11.0401    107.2406
   725.0000   2000.0000   2100.0000     10.8775    108.6351
   725.2500   2000.0000   2100.0000     10.6898    110.3863
   725.5000   2000.0000   2100.0000     10.4908    113.8224
   725.7500   2000.0000   2100.0000     10.2832    116.5019
   726.0000   2000.0000   2100.0000     10.0574    121.2933
   726.2500   2000.0000   2100.0000      9.7959    124.9700
   726.5000   2000.0000   2100.0000      9.4850    130.0385
   726.7500   2000.0000   2100.0000      9.1262    131.9234
   727.0000   2000.0000   2100.0000      8.7381    131.2362
   727.2500   2000.0000   2100.0000      8.3486    128.9934
   727.5000   2000.0000   2100.0000      7.9839    125.5037
   727.7500   2000.0000   2100.0000      7.6639    124.1403
   728.0000   2000.0000   2100.0000      7.4010    123.1971
   728.2500   2000.0000   2100.0000      7.2014    122.5858
