~Version Information
VERS.                      2.0: CWLS Log ASCII Standard - VERSION 2.0
WRAP.                       NO: One line per depth step
~Well Information Block
STRT.FT               -11.0000: 
STOP.FT              1896.2500: 
STEP.FT                 0.2500: 
NULL.                -999.2500: 
COMP.          Pioneer Natural Resources: COMPANY
WELL.            Summers 21-19: WELL
FLD.           Purgatoire River: FIELD
LOC.           900' FNL & 1950' FWL--: LOCATION
PROV.                 Colorado: PROVINCE
CNTY.               Las Animas: COUNTRY
SRVC.                Patterson: SERVICE COMPANY
DATE.          Thu Oct 20 15:06:00 2005: LOG DATE
UWI.           05 071 08315 00: UNIQUE WELL ID
~Curve Information Block
DEPT.FT            0 000 00 00: Depth
GR.GAPI                       : Gamma Ray
CCL.                          : Casing Collar Locator
TT3.usec                      : CBL 3' Travel Time
AMP3.mV                       : CBL 3' Amplitude
~Parameter Information Block
~A  Depth        GR         CCL         TT3         AMP3    
# ...
   491.5000     66.6486      0.0000    751.3969      4.6426
   491.7500     66.0332      0.0000    748.3247      4.6594
   492.0000     65.4849      0.0000    743.2566      4.6699
   492.2500     64.7662      0.0000    736.6360      4.6747
   492.5000     64.1148      0.0000    730.2113      4.6758
   492.7500     64.0890      0.0000    726.6770      4.6689
   493.0000     65.0445      0.0000    728.0005      4.6454
   493.2500     66.8028      0.0000    733.6005      4.6024
   493.5000     68.9137      0.0000    740.5299      4.5486
   493.7500     71.1479      0.0000    745.6600      4.4993
   494.0000     73.7173      0.0000    747.4842      4.4671
   494.2500     77.1694      0.0000    746.2840      4.4561
   494.5000     82.0023      0.0000    743.5674      4.4651
   494.7500     88.0250      0.0000    741.3723      4.4911
   495.0000     94.0013      0.0000    741.0375      4.5314
   495.2500     98.2842      0.0000    741.8764      4.5804
   495.5000    100.1648      0.0000    741.2516      4.6298
   495.7500    100.4312      0.0000    736.4667      4.6735
   496.0000    100.2835      0.0000    726.9846      4.7108
   496.2500     99.9316      0.0000    715.0973      4.7452
   496.5000     98.7020      0.0000    704.4692      4.7793
   496.7500     96.3327      0.0000    697.9148      4.8092
   497.0000     93.5838      0.0000    696.2548      4.8239
   497.2500     91.4498      0.0000    698.5516      4.8069
   497.5000     90.2586      0.0000    702.8799      4.7470
   497.7500     89.8490      0.0000    707.3392      4.6492
   498.0000     90.2174      0.0000    710.9901      4.5351
   498.2500     91.3070      0.0000    713.6795      4.4280
   498.5000     92.1662      0.0000    714.8351      4.3382
   498.7500     91.0339      0.0000    713.0518      4.2574
   499.0000     86.8520      0.0000    707.1757      4.1684
   499.2500     80.5604      0.0000    697.7029      4.0640
   499.5000     74.5046      0.0000    687.3956      3.9504
   499.7500     70.6046      0.0000    680.4943      3.8278
   500.0000     69.3447      0.0000    680.6310      3.6800
   500.2500     70.1920      0.0000    688.8923      3.4997
   500.5000     72.3727      0.0000    703.5430      3.3136
   500.7500     75.2518      0.0000    721.2234      3.1673
   501.0000     78.3939      0.0000    738.2719      3.0886
   501.2500     81.3435      2.0000    751.3285      3.0730
   501.5000     83.4365      0.0000    757.4926      3.1004
   501.7500     84.3085      0.0000    754.8486      3.1653
   502.0000     84.7033      0.0000    743.3674      3.2930
   502.2500     86.1258      0.0000    725.7101      3.5196
   502.5000     89.2881      0.0000    707.1021      3.8451
   502.7500     93.3841      0.0000    693.0760      4.2071
   503.0000     97.1047      0.0000    686.1740      4.5147
   503.2500     99.7328      0.0000    685.2177      4.7108
   503.5000    101.0562      0.0000    687.7577      4.7950
   503.7500    100.9908      0.0000    692.2801      4.7998
   504.0000     99.7941      0.0000    698.0905      4.7598
   504.2500     98.2885      0.0000    704.2584      4.6970
   504.5000     97.4543      0.0000    709.5191      4.6213
   504.7500     97.8418      0.0000    713.0286      4.5391
   505.0000     99.4716      0.0000    714.8079      4.4607
   505.2500    101.9749      0.0000    715.4417      4.3990
   505.5000    104.4914      0.0000    715.5209      4.3606
   505.7500    105.6148      0.0000    715.3894      4.3421
   506.0000    104.0724      0.0000    715.1696      4.3332
   506.2500     99.8576      0.0000    714.8810      4.3208
   506.5000     94.5493      0.0000    714.5532      4.2916
   506.7500     90.2035      0.0000    714.2499      4.2372
   507.0000     87.8099      0.0000    713.9455      4.1591
   507.2500     86.9046      0.0000    713.3527      4.0688
   507.5000     86.6196      0.0000    711.9470      3.9863
   507.7500     86.7709      0.0000    709.4013      3.9336
   508.0000     87.8340      0.0000    706.2438      3.9188
   508.2500     90.2097      0.0000    703.9549      3.9229
   508.5000     93.7195      0.0000    703.9492      3.9090
   508.7500     97.5391      0.0000    706.2894      3.8490
   509.0000    100.6156      0.0000    709.6435      3.7421
   509.2500    102.4049      0.0000    712.5247      3.6104
   509.5000    103.0842      0.0000    714.3129      3.4802
   509.7500    102.8605      0.0000    715.1948      3.3660
   510.0000    101.5933      0.0000    715.5912      3.2694
   510.2500     99.4607      0.0000    715.8407      3.1897
   510.5000     97.4400      0.0000    716.2350      3.1342
   510.7500     96.5267      0.0000    717.1811      3.1143
   511.0000     96.6110      0.0000    719.2792      3.1314
   511.2500     96.4552      0.0000    723.0942      3.1703
   511.5000     94.9286      0.0000    728.6042      3.2075
   511.7500     92.2254      0.0000    734.8218      3.2261
   512.0000     89.7586      0.0000    740.1840      3.2195
   512.2500     88.8154      0.0000    743.4603      3.1896
   512.5000     89.3874      0.0000    744.3107      3.1459
   512.7500     90.3530      0.0000    743.1873      3.1036
   513.0000     90.6991      0.0000    740.9216      3.0726
   513.2500     90.4106      0.0000    738.1738      3.0517
   513.5000     90.3161      0.0000    734.9636      3.0372
   513.7500     91.2910      0.0000    730.9308      3.0350
   514.0000     93.5046      0.0000    726.3072      3.0573
   514.2500     96.1363      0.0000    722.3757      3.1059
   514.5000     97.8741      0.0000    720.6826      3.1612
   514.7500     97.9460      0.0000    721.7675      3.1899
   515.0000     96.7697      0.0000    724.5141      3.1709
   515.2500     95.5686      0.0000    726.6604      3.1139
   515.5000     95.3376      0.0000    726.3302      3.0474
   515.7500     96.2213      0.0000    723.4232      2.9907
   516.0000     97.8803      0.0000    719.4575      2.9463
   516.2500    100.1004      0.0000    716.0827      2.9128
   516.5000    102.6978      0.0000    713.9534      2.8931
   516.7500    105.2142      0.0000    712.8325      2.8897
   517.0000    107.1773      0.0000    712.2528      2.8981
   517.2500    108.3986      0.0000    711.9045      2.9062
   517.5000    108.7738      0.0000    711.6741      2.8973
   517.7500    108.3175      0.0000    711.6566      2.8624
   518.0000    107.6115      0.0000    712.2537      2.8110
   518.2500    107.4931      0.0000    714.1357      2.7658
   518.5000    107.9451      0.0000    717.7867      2.7422
   518.7500    107.8561      0.0000    722.8646      2.7382
   519.0000    106.1729      0.0000    728.1934      2.7427
   519.2500    102.9929      0.0000    732.6755      2.7478
   519.5000     99.5032      0.0000    736.0755      2.7517
   519.7500     97.1049      0.0000    738.6193      2.7573
   520.0000     96.4255      0.0000    740.1797      2.7685
   520.2500     96.8206      0.0000    740.4617      2.7846
   520.5000     96.9062      0.0000    739.8489      2.7990
   520.7500     95.7625      0.0000    739.4049      2.8052
   521.0000     93.4814      0.0000    739.7560      2.8046
   521.2500     90.6089      0.0000    740.3156      2.8069
   521.5000     87.4655      0.0000    739.9081      2.8225
   521.7500     84.1562      0.0000    738.0121      2.8546
   522.0000     80.8921      0.0000    735.1291      2.8961
   522.2500     78.0052      0.0000    732.0287      2.9346
   522.5000     75.7337      0.0000    728.9441      2.9607
   522.7500     74.0438      0.0000    725.6095      2.9686
   523.0000     72.4822      0.0000    721.8909      2.9526
   523.2500     70.3481      0.0000    718.1527      2.9122
   523.5000     67.4673      0.0000    714.9760      2.8603
   523.7500     64.7634      0.0000    712.6461      2.8183
   524.0000     63.5316      0.0000    710.9653      2.7976
   524.2500     64.0864      0.0000    709.4872      2.7948
   524.5000     65.5615      0.0000    707.9737      2.8030
   524.7500     66.9323      0.0000    706.7432      2.8198
