~Version Information
VERS.                      2.0: CWLS Log ASCII Standard - VERSION 2.0
WRAP.                       NO: One line per depth step
~Well Information Block
STRT.FT               732.2500: 
STOP.FT              2476.0000: 
STEP.FT                 0.2500: 
NULL.                -999.2500: 
COMP.          Petrogulf Corporation: COMPANY
WELL.            Montoya 7-14V: WELL
FLD.           Purgatorie River: FIELD
LOC.           535' FSL & 491' FWL: LOCATION
CNTY.               Las Animas: COUNTY
SRVC.                         : SERVICE COMPANY
DATE.          Mon Aug 23 05:51:43 2004: LOG DATE
UWI.           05 071 08019 00: UNIQUE WELL ID
STAT.                 Colorado: STATE
~Curve Information Block
DEPT.FT            0 000 00 00: Depth
SP.mV                         : DIL Spontaneous Potential
RILD.Ohm-m                    : DIL Deep Resistivity
RILM.Ohm-m                    : DIL Medium Resistivity
RLL3.Ohm-m                    : DIL Shallow Resistivity
GR.GAPI                       : Gamma Ray
~Parameter Information Block
~A  Depth        SP         RILD        RILM        RLL3         GR     
# ...
  1208.2500    -40.8015     10.1476      9.9168     13.6281    125.3321
  1208.5000    -41.2256     10.2461     10.1380     14.2286    123.8808
  1208.7500    -41.8669     10.3247     10.3593     14.9371    122.4159
  1209.0000    -42.5566     10.3957     10.5700     15.5987    121.4803
  1209.2500    -43.1334     10.4682     10.7619     16.0498    122.2051
  1209.5000    -43.4964     10.5411     10.9303     16.1705    124.5059
  1209.7500    -43.6273     10.6021     11.0722     15.9312    125.9976
  1210.0000    -43.5752     10.6319     11.1847     15.4172    127.3099
  1210.2500    -43.4124     10.6121     11.2628     14.8161    127.5122
  1210.5000    -43.1928     10.5315     11.2984     14.3647    126.8931
  1210.7500    -42.9316     10.3897     11.2820     14.2677    125.8801
  1211.0000    -42.6107     10.1977     11.2057     14.6104    123.7580
  1211.2500    -42.2004      9.9746     11.0659     15.3030    122.4231
  1211.5000    -41.6790      9.7412     10.8659     16.0905    121.4940
  1211.7500    -41.0325      9.5140     10.6154     16.6460    121.8019
  1212.0000    -40.2503      9.3006     10.3280     16.7185    123.0023
  1212.2500    -39.3170      9.1007     10.0187     16.2539    123.5865
  1212.5000    -38.2173      8.9102      9.7019     15.4044    123.5159
  1212.7500    -36.9547      8.7275      9.3904     14.4137    123.1848
  1213.0000    -35.5689      8.5557      9.0956     13.4629    123.4328
  1213.2500    -34.1413      8.4025      8.8278     12.5929    124.4062
  1213.5000    -32.7828      8.2753      8.5961     11.7506    126.5089
  1213.7500    -31.6108      8.1773      8.4083     10.9009    127.7847
  1214.0000    -30.7182      8.1062      8.2699     10.1019    128.9679
  1214.2500    -30.1523      8.0559      8.1837      9.4918    129.1833
  1214.5000    -29.9092      8.0209      8.1494      9.2196    128.5670
  1214.7500    -29.9473      8.0004      8.1639      9.3839    127.5578
  1215.0000    -30.2225      7.9990      8.2211     10.0085    125.5546
  1215.2500    -30.7207      8.0242      8.3131     11.0353    124.3348
  1215.5000    -31.4741      8.0825      8.4306     12.3199    123.3489
  1215.7500    -32.5401      8.1763      8.5640     13.6427    123.2810
  1216.0000    -33.9547      8.3022      8.7043     14.7599    123.5354
  1216.2500    -35.6853      8.4514      8.8437     15.4800    123.6622
  1216.5000    -37.6030      8.6110      8.9763     15.7213    123.7069
  1216.7500    -39.5048      8.7663      9.0987     15.5220    123.7172
  1217.0000    -41.1710      8.9061      9.2104     15.0007    123.9271
  1217.2500    -42.4413      9.0278      9.3144     14.2974    124.3799
  1217.5000    -43.2640      9.1397      9.4170     13.5200    125.6795
  1217.7500    -43.7052      9.2575      9.5282     12.7255    126.7784
  1218.0000    -43.9103      9.3962      9.6598     11.9369    128.1009
  1218.2500    -44.0421      9.5619      9.8249     11.1857    128.4559
  1218.5000    -44.2181      9.7483     10.0355     10.5553    128.2859
  1218.7500    -44.4697      9.9390     10.3009     10.2085    128.0162
  1219.0000    -44.7411     10.1148     10.6257     10.4021    127.6516
  1219.2500    -44.9156     10.2597     11.0073     11.4845    127.1855
  1219.5000    -44.8668     10.3639     11.4336     13.8653    125.3147
  1219.7500    -44.5063     10.4215     11.8802     17.9297    122.9207
  1220.0000    -43.8106     10.4287     12.3094     23.8769    117.5768
  1220.2500    -42.8230     10.3845     12.6718     31.5153    113.1065
  1220.5000    -41.6253     10.2928     12.9139     40.0950    105.7038
  1220.7500    -40.3046     10.1628     12.9896     48.2906    100.7884
  1221.0000    -38.9213     10.0063     12.8744     54.4242     94.4152
  1221.2500    -37.5069      9.8328     12.5742     56.9401     91.3155
  1221.5000    -36.0846      9.6457     12.1242     55.0011     88.7975
  1221.7500    -34.6968      9.4433     11.5770     48.9281     88.5819
  1222.0000    -33.4303      9.2215     10.9891     40.1827     90.2467
  1222.2500    -32.4102      8.9779     10.4077     30.8100     92.2914
  1222.5000    -31.7745      8.7142      9.8665     22.6216     95.8123
  1222.7500    -31.6297      8.4362      9.3849     16.5960     98.1721
  1223.0000    -32.0123      8.1538      8.9710     12.7962    102.0688
  1223.2500    -32.8697      7.8800      8.6259     10.7161    105.2676
  1223.5000    -34.0624      7.6302      8.3468      9.7223    110.9905
  1223.7500    -35.4008      7.4209      8.1301      9.3201    114.9984
  1224.0000    -36.6823      7.2675      7.9725      9.2058    120.4605
  1224.2500    -37.7392      7.1818      7.8726      9.2099    123.6002
  1224.5000    -38.4683      7.1706      7.8310      9.2452    128.0049
  1224.7500    -38.8488      7.2349      7.8500      9.2836    130.8992
  1225.0000    -38.9359      7.3712      7.9338      9.3500    134.3950
  1225.2500    -38.8411      7.5717      8.0877      9.5313    135.3196
  1225.5000    -38.6931      7.8258      8.3179     10.0157    133.8098
  1225.7500    -38.6028      8.1205      8.6305     11.1562    130.9789
  1226.0000    -38.6360      8.4411      9.0307     13.4906    124.1411
  1226.2500    -38.8052      8.7725      9.5215     17.6053    117.5302
  1226.5000    -39.0753      9.1011     10.1023     23.7899    104.0133
  1226.7500    -39.3908      9.4176     10.7669     31.6131     93.0669
  1227.0000    -39.7003      9.7186     11.5010     39.7453     76.4764
  1227.2500    -39.9769     10.0062     12.2800     46.3179     67.5772
  1227.5000    -40.2254     10.2853     13.0673     49.7486     60.6913
  1227.7500    -40.4710     10.5588     13.8129     49.5232     60.9189
  1228.0000    -40.7371     10.8214     14.4563     46.3735     66.5460
  1228.2500    -41.0282     11.0564     14.9339     41.7448     71.8068
  1228.5000    -41.3158     11.2363     15.1918     36.9992     79.3391
  1228.7500    -41.5450     11.3317     15.2015     32.9000     83.7577
  1229.0000    -41.6586     11.3250     14.9701     29.5696     90.1172
  1229.2500    -41.6221     11.2199     14.5401     26.7456     94.5381
  1229.5000    -41.4455     11.0402     13.9767     24.0788    101.5713
  1229.7500    -41.1808     10.8198     13.3511     21.3412    106.4729
  1230.0000    -40.9000     10.5904     12.7261     18.5195    113.9787
  1230.2500    -40.6647     10.3748     12.1492     15.7970    118.8866
  1230.5000    -40.5025     10.1860     11.6521     13.4437    125.4047
  1230.7500    -40.4066     10.0299     11.2536     11.6779    128.5510
  1231.0000    -40.3534      9.9104     10.9640     10.5805    130.4571
  1231.2500    -40.3342      9.8343     10.7888     10.0977    129.7817
  1231.5000    -40.3748      9.8148     10.7314     10.1058    126.9727
  1231.7500    -40.5384      9.8725     10.7946     10.4844    124.8904
  1232.0000    -40.9000     10.0311     10.9823     11.1624    122.5314
  1232.2500    -41.5116     10.3125     11.2998     12.1384    121.5031
  1232.5000    -42.3646     10.7294     11.7546     13.4947    120.3690
  1232.7500    -43.3732     11.2796     12.3573     15.4084    119.6232
  1233.0000    -44.3833     11.9433     13.1230     18.1542    117.7056
  1233.2500    -45.2144     12.6878     14.0722     22.0763    115.1085
  1233.5000    -45.7141     13.4787     15.2319     27.5125    108.2167
  1233.7500    -45.8156     14.2966     16.6365     34.6455    101.7678
  1234.0000    -45.5603     15.1476     18.3266     43.2972     90.6216
  1234.2500    -45.0863     16.0625     20.3463     52.7609     82.9599
  1234.5000    -44.5796     17.0844     22.7373     61.8365     71.6587
  1234.7500    -44.2078     18.2543     25.5294     69.1902     64.3521
  1235.0000    -44.0724     19.6040     28.7297     73.9446     54.4101
  1235.2500    -44.1856     21.1616     32.3111     76.1814     49.2002
  1235.5000    -44.4803     22.9665     36.2098     77.0224     44.3985
  1235.7500    -44.8470     25.0826     40.3350     78.2015     42.9573
  1236.0000    -45.1768     27.5961     44.5919     81.3704     41.8779
