~Version Information
VERS.                      2.0: CWLS Log ASCII Standard - VERSION 2.0
WRAP.                       NO: One line per depth step
~Well Information Block
STRT.FT               528.0000: 
STOP.FT              2251.5000: 
STEP.FT                 0.2500: 
NULL.                -999.2500: 
COMP.          Pioneer Natural Resources: COMPANY
WELL.           Parklane 43-34: WELL
FLD.           Purgatorie River: FIELD
LOC.           1704' FSL & 1119' FEL: LOCATION
PROV.                 Colorado: PROVINCE
CNTY.               Las Animas: COUNTRY
SRVC.                         : SERVICE COMPANY
DATE.          Thu Oct 07 01:37:17 2004: LOG DATE
UWI.           05 071 08162 00: UNIQUE WELL ID
~Curve Information Block
DEPT.FT            0 000 00 00: Depth
LTEN.lb                       : Surface Line Tension
SN.Ohm-m                      : IEL Short Normal
SP.mV                         : IEL Spontaneous Potential
DIR.Ohm-m                     : IEL Induction Resistivity
GR.GAPI                       : Gamma Ray
~Parameter Information Block
~A  Depth       LTEN         SN          SP         DIR          GR     
# ...
  1564.0000    843.0505     11.3429   -154.2546      9.6204     92.6913
  1564.2500    842.1698     11.2462   -155.3315      9.4575     91.2362
  1564.5000    842.1815     11.1156   -156.3102      9.2843     92.5577
  1564.7500    843.5250     10.9635   -157.1885      9.0964     95.5943
  1565.0000    845.7192     10.7937   -157.9427      8.8969    102.2632
  1565.2500    847.4868     10.6074   -158.5229      8.6962    107.2656
  1565.5000    847.7097     10.4155   -158.8672      8.5074    114.2173
  1565.7500    846.3552     10.2403   -158.9125      8.3413    117.7978
  1566.0000    844.4044     10.1021   -158.6107      8.2025    120.9502
  1566.2500    842.9707      9.9983   -157.9465      8.0869    121.8403
  1566.5000    842.4695      9.8964   -156.9512      7.9848    122.8357
  1566.7500    842.3243      9.7517   -155.7051      7.8869    124.0293
  1567.0000    841.5056      9.5398   -154.3220      7.7902    126.3709
  1567.2500    839.7625      9.2767   -152.9225      7.7011    127.3987
  1567.5000    838.2966      9.0118   -151.6063      7.6332    126.9692
  1567.7500    838.8480      8.8007   -150.4325      7.6019    125.4844
  1568.0000    842.0899      8.6835   -149.4153      7.6165    122.4218
  1568.2500    846.9583      8.6817   -148.5416      7.6746    120.2534
  1568.5000    851.2491      8.8040   -147.7925      7.7630    117.1851
  1568.7500    852.8462      9.0453   -147.1676      7.8672    115.5025
  1569.0000    850.9655      9.3776   -146.6872      7.9804    113.9495
  1569.2500    846.7343      9.7514   -146.3846      8.1057    113.5248
  1569.5000    842.4976     10.1165   -146.2878      8.2492    112.9741
  1569.7500    840.0966     10.4512   -146.4070      8.4122    112.0945
  1570.0000    839.6692     10.7751   -146.7256      8.5911    109.8379
  1570.2500    840.3885     11.1376   -147.2076      8.7817    108.1220
  1570.5000    842.0652     11.5880   -147.8056      8.9872    106.2078
  1570.7500    845.0995     12.1479   -148.4671      9.2229    105.9573
  1571.0000    849.0035     12.8032   -149.1407      9.5152    107.9892
  1571.2500    852.3144     13.5208   -149.7735      9.8925    110.9215
  1571.5000    854.1201     14.2739   -150.3134     10.3680    116.1159
  1571.7500    854.6860     15.0548   -150.7119     10.9219    118.7510
  1572.0000    854.5452     15.8677   -150.9341     11.4935    120.0199
  1572.2500    853.7399     16.7132   -150.9650     12.0021    119.1413
  1572.5000    852.0647     17.5862   -150.8074     12.3954    116.2371
  1572.7500    849.6180     18.4919   -150.4731     12.6898    113.6964
  1573.0000    846.8857     19.4672   -149.9739     12.9619    108.6934
  1573.2500    844.3541     20.5887   -149.3166     13.3027    103.7840
  1573.5000    842.2222     21.9567   -148.5178     13.7783     92.8695
  1573.7500    840.5172     23.6563   -147.6117     14.4179     83.4954
  1574.0000    839.3608     25.7112   -146.6692     15.2275     68.6629
  1574.2500    838.9838     28.0511   -145.7977     16.2162     65.8940
  1574.5000    839.6006     30.5132   -145.1196     17.4138     55.0166
  1574.7500    841.4125     32.8844   -144.7434     18.8512     50.1632
  1575.0000    844.3877     34.9672   -144.7249     20.5015     45.7529
  1575.2500    847.5434     36.6383   -145.0479     22.2238     48.3942
  1575.5000    848.7670     37.8680   -145.6262     23.7891     48.2720
  1575.7500    846.3686     38.6927   -146.3209     25.0193     49.4170
  1576.0000    841.0818     39.1701   -146.9826     25.9088     52.3211
  1576.2500    835.8922     39.3485   -147.4829     26.5818     58.9816
  1576.5000    833.6590     39.2671   -147.7425     27.1540     61.3815
  1576.7500    835.0928     38.9740   -147.7440     27.6594     61.7563
  1577.0000    838.6998     38.5409   -147.5266     28.0900     60.9100
  1577.2500    842.0449     38.0631   -147.1725     28.4584     60.3926
  1577.5000    843.2188     37.6473   -146.7896     28.7958     61.2868
  1577.7500    841.8330     37.3930   -146.4840     29.0834     63.0797
  1578.0000    839.0833     37.3737   -146.3401     29.2083     66.0059
  1578.2500    836.8803     37.6227   -146.4066     29.0344     66.8420
  1578.5000    836.6918     38.1293   -146.6896     28.5542     65.1880
  1578.7500    838.7961     38.8444   -147.1517     27.9637     62.3681
  1579.0000    842.3502     39.6924   -147.7259     27.5814     56.9253
  1579.2500    846.0894     40.5875   -148.3212     27.6964     53.2316
  1579.5000    848.8030     41.4469   -148.8437     28.4653     48.3400
  1579.7500    849.2868     42.2016   -149.2026     29.8638     45.7849
  1580.0000    846.8414     42.8013   -149.3322     31.6619     43.3389
  1580.2500    842.4376     43.2165   -149.2010     33.4510     42.6846
  1580.5000    838.6082     43.4403   -148.8238     34.7771     43.1170
  1580.7500    837.4072     43.4876   -148.2696     35.3362     44.2971
  1581.0000    838.8733     43.3889   -147.6503     35.0886     47.0306
  1581.2500    841.7087     43.1797   -147.1000     34.2327     49.0314
  1581.5000    844.7179     42.8899   -146.7447     33.0977     51.5470
  1581.7500    847.1458     42.5355   -146.6662     32.0123     52.7551
  1582.0000    848.2566     42.1136   -146.8831     31.1871     53.9433
  1582.2500    847.3880     41.6005   -147.3470     30.6527     54.2748
  1582.5000    844.5486     40.9568   -147.9526     30.2737     53.7355
  1582.7500    840.8166     40.1445   -148.5701     29.8295     52.5487
  1583.0000    838.0045     39.1448   -149.0749     29.1379     49.9375
  1583.2500    837.5609     37.9681   -149.3764     28.1634     48.4198
  1583.5000    839.5095     36.6448   -149.4278     27.0300     48.3799
  1583.7500    842.6308     35.2078   -149.2210     25.9325     50.6102
  1584.0000    845.6489     33.6809   -148.7792     25.0157     56.7193
  1584.2500    847.7900     32.0828   -148.1354     24.3045     61.1804
  1584.5000    848.3401     30.4443   -147.3322     23.7163     65.8415
  1584.7500    846.7048     28.8211   -146.4168     23.1311     66.9869
  1585.0000    843.5178     27.2905   -145.4474     22.4735     66.6353
  1585.2500    840.8785     25.9312   -144.4980     21.7496     66.1346
  1585.5000    840.4811     24.8012   -143.6587     21.0213     66.6909
  1585.7500    841.6966     23.9228   -143.0250     20.3574     68.4037
  1586.0000    842.3127     23.2783   -142.6853     19.8026     72.8589
  1586.2500    841.1926     22.8158   -142.7052     19.3740     76.6227
  1586.5000    839.4276     22.4658   -143.1137     19.0667     82.0373
  1586.7500    838.6151     22.1654   -143.8965     18.8546     84.3429
  1587.0000    838.8130     21.8765   -145.0034     18.6892     84.1966
  1587.2500    838.7606     21.5873   -146.3462     18.5111     81.6533
  1587.5000    837.5003     21.2987   -147.8146     18.2780     76.1948
  1587.7500    835.2162     21.0071   -149.2850     17.9896     73.3373
  1588.0000    833.0126     20.6987   -150.6390     17.6842     72.8646
  1588.2500    832.3588     20.3564   -151.7732     17.4115     75.5277
  1588.5000    834.2308     19.9715   -152.6155     17.2013     82.5556
  1588.7500    838.3160     19.5490   -153.1394     17.0481     87.6736
  1589.0000    843.2163     19.1036   -153.3589     16.9141     93.5269
  1589.2500    847.4619     18.6469   -153.3284     16.7499     95.5912
  1589.5000    850.1705     18.1799   -153.1198     16.5195     96.5503
  1589.7500    851.1257     17.6960   -152.8088     16.2160     96.6785
  1590.0000    850.8205     17.1945   -152.4577     15.8628     97.3460
  1590.2500    850.3001     16.6916   -152.1092     15.5034     98.2449
  1590.5000    850.3284     16.2207   -151.7841     15.1851     99.9567
  1590.7500    850.5678     15.8183   -151.4932     14.9419    101.3556
  1591.0000    849.8237     15.5084   -151.2388     14.7844    104.3846
  1591.2500    847.2741     15.2941   -151.0160     14.7020    107.1303
  1591.5000    843.5685     15.1632   -150.8139     14.6749    111.3276
  1591.7500    840.6082     15.0986   -150.6074     14.6845    113.1494
