~Version Information
VERS.                      2.0: CWLS Log ASCII Standard - VERSION 2.0
WRAP.                       NO: One line per depth step
~Well Information Block
STRT.FT                -8.2500: 
STOP.FT              2356.2500: 
STEP.FT                 0.2500: 
NULL.                -999.2500: 
COMP.          Petrogulf Corporation: COMPANY
WELL.             State 16-12V: WELL
FLD.           Purgatorie River: FIELD
LOC.           1992' FNL & 1237' FWL: LOCATION
PROV.                 Colorado: PROVINCE
CNTY.               Las Animas: COUNTRY
SRVC.                Patterson: SERVICE COMPANY
DATE.          Thu Aug 11 14:44:06 2005: LOG DATE
UWI.                          : UNIQUE WELL ID
~Curve Information Block
DEPT.FT            0 000 00 00: Depth
GR.GAPI                       : Gamma Ray
CCL.                          : Casing Collar Locator
TT3.usec                      : CBL 3' Travel Time
AMP3.mV                       : CBL 3' Amplitude
~Parameter Information Block
~A  Depth        GR         CCL         TT3         AMP3    
# ...
  1867.7500     98.8093      0.0000    676.0950      2.6195
  1868.0000     96.7571      0.0000    691.1964      2.5672
  1868.2500     95.3923      0.0000    709.5393      2.5469
  1868.5000     94.8670      0.0000    722.4923      2.5453
  1868.7500     94.4655      0.0000    724.5883      2.5404
  1869.0000     93.3635      0.0000    716.8583      2.5287
  1869.2500     91.8422      0.0000    704.9687      2.5237
  1869.5000     91.2803      0.0000    695.6489      2.5352
  1869.7500     92.8941      0.0000    692.4408      2.5711
  1870.0000     96.7627      0.0000    694.5322      2.6455
  1870.2500    101.9842      0.0000    697.6051      2.7645
  1870.5000    107.3519      0.0000    695.5823      2.9261
  1870.7500    111.8489      0.0000    686.8342      3.1255
  1871.0000    114.9291      0.0000    677.0903      3.3413
  1871.2500    116.5088      0.0000    672.0988      3.5495
  1871.5000    116.5612      0.0000    672.6753      3.7563
  1871.7500    114.7747      0.0000    677.8949      3.9658
  1872.0000    110.9004      0.0000    686.1078      4.1077
  1872.2500    105.5555      0.0000    691.9691      4.0814
  1872.5000    100.4406      0.0000    689.3929      3.9554
  1872.7500     97.4147      0.0000    679.6991      3.9477
  1873.0000     97.1676      0.0000    671.5818      4.0310
  1873.2500     98.7990      0.0000    675.0103      3.9229
  1873.5000    100.7473      0.0000    700.1021      3.5685
  1873.7500    102.1058      0.0000    754.6673      3.1706
  1874.0000    103.1013      0.0000    827.2819      2.8609
  1874.2500    104.5570      0.0000    875.1776      2.6343
  1874.5000    106.9003     -2.0000    861.7709      2.4454
  1874.7500    109.4688     -2.0000    801.9304      2.2635
  1875.0000    110.9167      0.0000    737.6782      2.0952
  1875.2500    110.5786      0.0000    695.3686      1.9932
  1875.5000    109.2255      0.0000    684.8308      2.0112
  1875.7500    108.2136      0.0000    706.5011      2.1129
  1876.0000    108.1523      0.0000    745.0521      2.2191
  1876.2500    108.5523      0.0000    776.3812      2.3372
  1876.5000    108.4154      0.0000    789.4396      2.5104
  1876.7500    107.0494      0.0000    790.8091      2.7198
  1877.0000    104.6497      0.0000    789.3829      2.9150
  1877.2500    102.3091      0.0000    786.5528      3.0840
  1877.5000    101.3420      0.0000    778.5093      3.2589
  1877.7500    102.3546      0.0000    762.6105      3.4687
  1878.0000    104.7644      0.0000    743.1180      3.7136
  1878.2500    107.1230      0.0000    729.6479      3.9865
  1878.5000    108.1073      0.0000    729.1232      4.2905
  1878.7500    107.4410      0.0000    741.6689      4.6119
  1879.0000    105.9076      0.0000    759.9163      4.9151
  1879.2500    104.4650      0.0000    770.6273      5.1880
  1879.5000    103.3100      0.0000    766.9771      5.4491
  1879.7500    101.7231      0.0000    760.0997      5.6959
  1880.0000     98.8493      0.0000    761.8880      5.8955
  1880.2500     94.7307      0.0000    760.8328      6.0402
  1880.5000     90.5719      0.0000    743.1052      6.1559
  1880.7500     87.7932      0.0000    720.9509      6.2477
  1881.0000     86.6489      0.0000    710.1673      6.3021
  1881.2500     85.9086      0.0000    706.3450      6.3416
  1881.5000     84.1074      0.0000    699.2408      6.4140
  1881.7500     81.1067      0.0000    689.2820      6.5090
  1882.0000     78.3452      0.0000    684.9304      6.5233
  1882.2500     77.5844      0.0000    692.0764      6.3677
  1882.5000     79.5541      0.0000    707.5274      6.0997
  1882.7500     83.9286      0.0000    721.5745      5.8738
  1883.0000     90.3150      0.0000    727.7089      5.7925
  1883.2500     98.5817      0.0000    728.2836      5.8514
  1883.5000    107.9771      0.0000    728.9175      5.9590
  1883.7500    116.4995      0.0000    732.9023      6.0083
  1884.0000    121.7425      0.0000    741.9279      5.9822
  1884.2500    122.6233      0.0000    754.3936      5.9611
  1884.5000    120.3982      0.0000    764.6155      6.0125
  1884.7500    117.8706      0.0000    767.4239      6.1288
  1885.0000    117.1594      0.0000    759.7462      6.2770
  1885.2500    118.0137      0.0000    740.8470      6.4469
  1885.5000    118.4780      0.0000    716.4323      6.6151
  1885.7500    117.1207      0.0000    696.5554      6.7188
  1886.0000    114.3049      0.0000    685.5078      6.7158
  1886.2500    111.3974      0.0000    679.4112      6.6337
  1886.5000    109.2332      0.0000    673.9709      6.5397
  1886.7500    107.6429      0.0000    669.6161      6.4812
  1887.0000    106.2787      0.0000    668.6643      6.4492
  1887.2500    105.4693      0.0000    671.5276      6.3891
  1887.5000    106.0307      0.0000    676.6630      6.2644
  1887.7500    108.2737      0.0000    681.7931      6.1036
  1888.0000    111.3718      0.0000    686.9615      5.9542
  1888.2500    113.9066      0.0000    696.7762      5.8215
  1888.5000    115.0469      0.0000    716.3287      5.7003
  1888.7500    115.0002      0.0000    746.7531      5.6457
  1889.0000    114.3258      0.0000    790.4509      5.7335
  1889.2500    113.2361      0.0000    847.1760      5.9531
  1889.5000    111.5452      0.0000    893.2130      6.2324
  1889.7500    108.7016      0.0000    896.4511      6.5704
  1890.0000    103.9711      0.0000    858.1757      7.0552
  1890.2500     97.3225      0.0000    810.7538      7.7743
  1890.5000     90.1408      0.0000    782.3026      8.7660
  1890.7500     84.5246      0.0000    770.7946      9.9917
  1891.0000     81.8029      0.0000    757.5162     11.3227
  1891.2500     81.9245      0.0000    739.9583     12.6643
  1891.5000     84.0522      0.0000    728.7282     14.0708
  1891.7500     87.4014      0.0000    730.2466     15.5514
  1892.0000     91.4414      0.0000    745.6633     16.8504
  1892.2500     95.5420      0.0000    766.4769     17.5529
  1892.5000     98.8456      0.0000    774.1790     17.3515
  1892.7500    100.7840      0.0000    761.5916     16.2829
  1893.0000    101.7301      0.0000    746.6588     14.6759
  1893.2500    102.9167      0.0000    749.4086     12.8133
  1893.5000    105.5161      0.0000    764.9301     10.7803
  1893.7500    109.5993      0.0000    777.7065      8.7016
  1894.0000    113.6889      0.0000    788.3762      6.8621
  1894.2500    115.2784      0.0000    805.4487      5.4240
  1894.5000    112.2795      0.0000    828.2291      4.3122
  1894.7500    104.5804      0.0000    854.2686      3.4450
  1895.0000     94.2810      0.0000    884.0197      2.8165
  1895.2500     84.1387      0.0000    914.3002      2.4131
  1895.5000     75.6776      0.0000    935.4442      2.1913
  1895.7500     68.8369      0.0000    928.2963      2.0834
  1896.0000     63.1352      0.0000    883.4181      2.0062
  1896.2500     58.6897      0.0000    822.8041      1.9136
  1896.5000     55.9434      0.0000    775.8783      1.8341
  1896.7500     54.7975      0.0000    756.5449      1.8122
  1897.0000     54.6465      0.0000    767.1292      1.8438
  1897.2500     55.4704      0.0000    799.0301      1.9030
  1897.5000     58.4909      0.0000    841.9169      1.9891
  1897.7500     65.3228      0.0000    888.5840      2.1217
  1898.0000     76.3878      0.0000    917.8561      2.3265
  1898.2500     90.0614      0.0000    910.5318      2.6308
  1898.5000    103.1143      0.0000    881.0977      3.0298
  1898.7500    112.2605      0.0000    853.3083      3.4586
  1899.0000    116.1332      0.0000    829.9432      3.8615
  1899.2500    116.2665      0.0000    807.2583      4.2539
  1899.5000    115.9151      0.0000    788.8942      4.6461
  1899.7500    117.5148      0.0000    777.7147      5.0032
  1900.0000    120.9884      0.0000    771.8320      5.3123
  1900.2500    124.1811      0.0000    769.9713      5.5801
  1900.5000    124.8261      0.0000    771.0299      5.7634
  1900.7500    122.3150      0.0000    770.3926      5.8043
  1901.0000    117.8497      0.0000    763.9511      5.7286
