~Version Information
 VERS.                2.0:  CWLS LOG ASCII STANDARD -VERSION 2.0
 WRAP.                 NO:  ONE LINE PER DEPTH STEP
~WELL INFORMATION BLOCK
#MNEM.UNIT       DATA		            DESCRIPTION OF MNEMONIC
#---------    -------------            ------------------------
 STRT.FT  0.500                          :START DEPTH
 STOP.FT  1808.700                       :STOP DEPTH
 STEP.FT  0.100                          :STEP    UP_HOLE  
 NULL.    -999.25                        :NULL VALUE
 COMP.              EL PASO PRODUCTIONS  :COMPANY
 WELL.                     COREHOLE #38  :WELL
 FLD .                 PURGATOIRE RIVER  :FIELD
 LOC .      15   35S   65W               :LOCATION
 CNTY.                           COLFAX  :COUNTY
 STAT.                     NM            :STATE
 CTRY.                                   :
 SRVC.     O'DRISCOLL                    :SERVICE COMPANY
 DATE.   04/28/05                        :LOG DATE
 API .                                   :API NUMBER
 LIC .                                   :LICENSE NUMBER
~Curve Information Block
#MNEM.UNIT      API CODE     Curve Description
#---------    -------------  ------------------------
 DEPT     .FT        00 001 00 00          :  1  DEPTH   
 GAMMA    .API-GR    00 310 00 00          :  2                GAMMA
 VOLTAGE  .MV        00 000 00 00          :  3              VOLTAGE
 CALIPER  .INCH      00 280 00 00          :  4              CALIPER
 DEN(LS)  .G/CC      00 350 00 00          :  5              DEN(LS)
 DEN(SS)  .G/CC      00 350 00 00          :  6              DEN(SS)
 CURRENT  .UA        00 000 00 00          :  7              CURRENT
 RES(SG)  .OHM-M     00 220 00 00          :  8              RES(SG)
 POR(DEN) .PERCENT   00 890 00 00          :  9             POR(DEN)
 DEN(LS)  .CPS       00 350 00 00          : 10              DEN(LS)
 DEN(SS)  .CPS       00 350 00 00          : 11              DEN(SS)
 COMP     .G/CC      00 356 00 00          : 12                 COMP
 DEN(CDL) .G/CC      00 350 00 00          : 13             DEN(CDL)
 TEMP     .DEG F     00 660 00 00          : 14                 TEMP
 DEL_TEMP .DEG F     00 000 00 00          : 15             DEL_TEMP
 TIME     .MINUTES   00 000 00 00          : 16                 TIME
~Parameter Information Block
#MNEM.UNIT   Information     Description
#---------- ---------------  ------------------------
 FILE.      ORIGINAL           :File Type
 FIID.      9139A              :File Type Identifier
 VERS.      3.58G              :System Version
 SER .      1                  :System Serial Number
 TRUK.      .498775            :Truck Calibration Number
 TOOL.        1245             :Tool Serial Number
 TIME.      1507               :Time    HrHrMinMin
 LAT .       36 59'            :Latitude
 LON .       104 39'           :Longitude
 LMF .            GL           :Log Measured From
 DMF .            GL           :Driller Measured From
 PD  .            GL           :Permanent Data
 PDEV.                         :Elevation Permanent Data
 EKB .M                        :Elevation Kelly Bushing
 ELEV.DF                       :Elevation DF
 EGL .M        7777            :Elevation Ground Level
 DRDP.          1825           :Driller's Depth
 CASD.       10.               :Casing Diameter
 CASB.           300           :Casing Bottom
 CASX.         STEEL           :Casing Type
 CAST.                         :Casing Thickness
 TNOC.                         :Time Circulation Stopped
 LOGU.        108              :Logging Unit
 RECB.           R.SIPES       :Recorded By
 OSR1.          9057           :Other Services
 OSR2.                         :Other Services
 OSR3.                         :Other Services
 BS  .MM         3.5           :Bit Size
 MST .                         :Mean Surface Temperature
 TGRD.                         :Temperature Gradiant
 MAGN.            12           :Magnetic Declination
 MDEN.       2.7               :Density Matrix
 MATR.      SANDSTONE          :Neutron Matrix
 DTMT.            54           :Delta T Matrix
 DTFL.                         :Delta T Fluid
 MUDS.                         :Mud Sample Source
 MRS .                         :Mud Resistivity
 MTP .                         :Mud Temperature
 MFRS.                         :Resistivity Mud Filtrate
 MFTP.                         :Temperature Mud Filtrate
 MCRS.                         :Resistivity Mud Cake
 MCTP.                         :Temperature Mud Cake
 FTYP.                         :Fluid Type
 FD  .K/M3                     :Fluid Density
 DFV .S                        :Fluid Viscosity
 FPH .                         :Fuild PH
 ELCO.       50000             :Electron Cutoff
~Other Information
#MNEM.UNIT  Information      Description
#---------- ---------------  ------------------------
# -------------------------- 
~A DEPTH  GAMMA    VOLTAGE  CALIPER DEN(LS) DEN(SS) CURRENT  RES(SG)  POR(DEN) DEN(LS) DEN(SS) COMP  DEN(CDL) TEMP  DEL_TEMP TIME    
# ...
 726.000    100.2      0.6   2.9  2.77 3.12    74.6      0.5  41.1  400.50 3149.54 -0.773 1.89 33.3  0.00 0.20000 
 726.100     99.2      0.2   2.9  2.73 3.24    80.9      0.2  73.5  435.57 2828.82 -1.284 1.89 33.3  0.00 0.20000 
 726.200     97.3      0.4   2.9  2.81 3.21    91.7      0.3  48.6  370.41 2894.97 -0.938 1.83 33.3  0.00 0.20100 
 726.300     96.4      0.2   2.9  2.81 3.10    99.1      0.2  28.8  370.41 3215.78 -0.602 1.88 33.3  0.00 0.09900 
 726.400    101.1      0.6   2.9  2.80 3.28   107.3      0.4  64.8  380.43 2727.15 -1.201 2.04 33.3  0.00 0.20000 
 726.500    107.7      0.7   3.0  2.87 3.16   140.8      0.4  24.7  325.32 3047.61 -0.595 2.10 33.3  0.00 0.20100 
 726.600     96.4      0.4   3.0  2.92 3.23   135.4      0.2  27.3  300.27 2849.15 -0.681 2.13 33.3  0.00 0.19900 
 726.700     91.7      0.9   3.0  2.87 3.19   143.3      0.5  31.9  330.33 2956.03 -0.708 2.23 33.3  0.00 0.20000 
 726.800     96.4     -0.1   3.0  2.92 3.18   175.7     -0.0  17.5  295.26 2986.55 -0.521 2.29 33.3  0.00 0.20000 
 726.900     89.8      0.6   3.0  2.87 3.23   206.3      0.2  37.2  325.32 2844.07 -0.807 2.31 33.3  0.00 0.20000 
 727.000     89.8      0.9   3.0  2.92 3.09   217.9      0.3   6.2  300.27 3246.33 -0.322 2.28 33.3  0.00 0.20000 
 727.100     98.3      0.4   3.0  2.88 3.15   172.1      0.2  21.8  320.31 3068.07 -0.554 2.26 33.3  0.00 0.20000 
 727.200    104.9      0.7   3.0  2.80 3.15   162.7      0.3  40.7  380.44 3062.90 -0.791 2.32 33.3  0.00 0.20000 
 727.300    107.7      0.4   3.0  2.84 3.10   161.1      0.2  22.2  345.36 3215.87 -0.520 2.27 33.3  0.00 0.20000 
 727.400    118.1      0.7   2.9  2.82 3.06   127.5      0.4  20.8  360.39 3322.87 -0.477 2.25 33.3  0.00 0.20000 
 727.500    116.2      0.9   2.9  2.80 3.04   222.4      0.3  22.2  380.44 3399.32 -0.476 2.34 33.3  0.00 0.20000 
 727.600    122.8      0.5   3.0  2.81 3.08   217.4      0.2  25.4  370.41 3282.01 -0.544 2.35 33.3  0.00 0.20000 
 727.700    125.7      0.9   3.0  2.82 3.01   185.8      0.3  14.1  360.39 3465.71 -0.364 2.39 33.3  0.00 0.20000 
 727.800    126.6      0.6   3.0  2.82 3.06   162.4      0.3  21.0  360.39 3317.70 -0.482 2.39 33.3  0.00 0.20000 
 727.900    110.6      0.7   3.0  2.81 2.95   136.7      0.4   8.7  375.42 3685.33 -0.253 2.38 33.3  0.00 0.20000 
 728.000    115.3      0.9   3.0  2.77 3.00   116.7      0.6  23.1  405.49 3511.61 -0.461 2.29 33.3  0.00 0.20000 
 728.100    105.8      1.0   3.0  2.66 2.89   106.1      0.7  28.4  505.77 3874.66 -0.447 2.24 33.3  0.00 0.20000 
 728.200    103.0      0.8   3.0  2.71 3.03   110.7      0.5  40.2  460.64 3425.06 -0.692 2.22 33.3  0.00 0.20000 
 728.300    104.9      0.7   3.1  2.69 2.97   111.4      0.5  35.6  480.70 3598.54 -0.594 2.22 33.3  0.00 0.20000 
 728.400    116.2      0.9   3.0  2.75 2.91   110.1      0.6  14.3  420.53 3813.13 -0.293 2.24 33.3  0.00 0.20000 
 728.500    116.2      0.7   3.0  2.71 2.92   106.1      0.5  23.1  455.62 3761.98 -0.406 2.38 33.3  0.00 0.20000 
 728.600    122.8      0.5   3.0  2.66 2.83   112.0      0.3  20.8  510.78 4094.70 -0.312 2.29 33.3  0.00 0.20000 
 728.700    127.6      0.7   3.0  2.81 2.86   111.7      0.5  -0.8  375.45 3971.77 -0.092 2.26 33.3  0.00 0.20000 
 728.800    116.2     -0.3   3.0  2.61 3.02   111.5     -0.2  62.6  560.95 3445.25 -0.973 2.29 33.3  0.00 0.20000 
 728.900    111.5      0.2   3.0  2.71 2.93   112.3      0.1  23.9  455.63 3741.54 -0.421 2.26 33.3  0.00 0.20000 
 729.000    113.4      0.2   3.0  2.74 2.90   120.0      0.1  14.8  430.56 3848.99 -0.292 2.14 33.3  0.00 0.20000 
 729.100    109.6      0.5   3.0  2.70 2.94   122.5      0.3  28.2  470.67 3711.07 -0.479 2.25 33.3  0.00 0.20000 
 729.200    101.1      1.2   3.0  2.66 2.93   121.4      0.7  34.2  505.78 3741.53 -0.546 2.19 33.3  0.00 0.20000 
 729.300    110.6      0.6   3.0  2.66 2.91   123.0      0.3  30.8  505.80 3818.24 -0.488 2.12 33.3  0.00 0.20000 
 729.400    105.8     -0.2   3.0  2.64 2.95   120.3     -0.1  43.2  530.85 3665.29 -0.674 2.11 33.3  0.00 0.20000 
 729.500    101.1      0.5   3.0  2.66 2.93   122.0      0.3  34.2  505.79 3741.58 -0.546 2.12 33.3  0.00 0.20000 
 729.600     98.3      0.4   3.0  2.68 2.95   133.0      0.2  32.5  485.71 3685.36 -0.537 2.11 33.3  0.00 0.20000 
 729.700    108.7     -0.7   3.0  2.72 2.97   133.7     -0.4  29.2  450.61 3598.67 -0.515 2.21 33.3  0.00 0.20000 
 729.800     96.4     -0.1   3.0  2.65 2.92   124.8     -0.0  35.6  515.80 3756.88 -0.560 2.33 33.3  0.00 0.20000 
 729.900    103.0     -3.8   3.0  2.74 2.89   119.1     -2.2  14.1  430.56 3869.40 -0.279 2.36 33.3  0.00 0.20000 
 730.000     98.3     -3.8   3.0  2.82 2.85   122.9     -2.2  -3.6  365.41 3997.44 -0.058 2.38 33.3  0.00 0.20000 
 730.100     98.3      0.3   3.0  2.72 2.94   136.0      0.1  23.6  445.60 3700.68 -0.425 2.41 33.3  0.00 0.20000 
 730.200     90.7      0.6   3.0  2.68 2.89   140.0      0.3  24.6  485.71 3869.40 -0.403 2.32 33.3  0.00 0.20000 
 730.300     89.8      0.6   3.0  2.72 2.95   143.0      0.3  25.5  450.61 3680.19 -0.452 2.19 33.3  0.00 0.20000 
 730.400     96.4     -0.2   3.0  2.65 2.95   133.4     -0.1  40.4  515.83 3654.71 -0.641 2.18 33.3  0.00 0.20000 
 730.500     98.3      0.7   3.0  2.61 2.87   136.6      0.4  36.9  560.94 3941.11 -0.537 2.21 33.3  0.00 0.10000 
 730.600    105.8      0.8   3.0  2.69 2.92   136.4      0.4  26.9  475.68 3767.11 -0.451 2.30 33.3  0.00 0.20000 
 730.700    108.7      0.1   3.0  2.71 2.85   136.3      0.1  14.2  460.64 4017.85 -0.251 2.36 33.3  0.00 0.20000 
 730.800    114.3      0.6   3.0  2.80 2.86   148.4      0.3  -0.3  380.44 3987.13 -0.095 2.42 33.3  0.00 0.20000 
 730.900    111.5      0.0   3.0  2.73 2.95   133.9      0.0  23.5  435.57 3654.66 -0.435 2.52 33.3  0.00 0.20000 
 731.000    111.5     -0.3   3.0  2.74 2.92   122.3     -0.2  17.6  430.57 3777.42 -0.338 2.43 33.3  0.00 0.20000 
 731.100     91.7     -2.5   3.0  2.93 3.04   117.6     -1.5  -2.8  290.26 3394.21 -0.184 2.33 33.3  0.00 0.20000 
 731.200     78.4     -7.6   3.0  2.77 3.13   110.9     -4.9  42.1  400.48 3134.21 -0.789 2.34 33.3  0.00 0.20000 
 731.300     68.1     -6.4   3.0  2.89 3.21   115.1     -4.0  28.7  315.30 2915.31 -0.680 2.31 33.3  0.00 0.20000 
 731.400     48.2     -5.1   3.0  2.88 3.14   138.8     -2.6  20.4  320.31 3093.45 -0.530 2.32 33.3  0.00 0.20000 
 731.500     39.7     -7.7   3.0  2.91 3.22   135.8     -4.1  26.6  305.28 2889.85 -0.660 2.51 33.3  0.00 0.20000 
 731.600     42.6     -8.3   3.0  3.05 3.19   115.4      0.0  -5.5  230.16 2956.01 -0.256 2.58 33.3  0.00 0.20000 
 731.700     37.8     -8.2   3.0  3.02 3.08   114.8     -5.1  -13.6 240.17 3266.71 -0.094 2.60 33.3  0.00 0.19900 
 731.800     35.9     -0.5   3.0  2.91 3.08   125.6     -0.3   7.1  305.29 3261.64 -0.329 2.68 33.3  0.00 0.20100 
 731.900     43.5     -0.8   3.0  2.82 3.02   137.2     -0.4  14.5  360.39 3455.53 -0.372 2.62 33.3  0.00 0.20000 
 732.000     42.6     -2.5   3.0  2.86 2.97   148.8     -1.2   2.2  335.35 3608.65 -0.196 2.52 33.3  0.00 0.20000 
 732.100     39.7     -1.7   3.0  2.82 3.00   141.1     -0.9  12.0  360.39 3511.61 -0.329 2.48 33.3  0.00 0.19900 
 732.200     55.8     -1.9   3.0  2.72 2.90   131.9     -1.0  18.1  445.60 3838.78 -0.331 2.45 33.3  0.00 0.20000 
 732.300     58.6     -1.3   3.0  2.74 2.92   127.2     -0.7  16.4  425.54 3782.74 -0.323 2.37 33.3  0.00 0.20100 
 732.400     56.7     -1.9   3.0  2.72 2.94   124.8     -1.1  24.0  450.61 3716.00 -0.427 2.38 33.3  0.00 0.20000 
 732.500     62.4     -2.0   3.0  2.68 2.92   134.5     -1.1  28.0  485.71 3787.56 -0.461 2.37 33.3  0.00 0.20000 
 732.600     68.1     -1.5   3.0  2.78 2.90   143.7     -0.8   7.2  395.47 3854.08 -0.203 2.34 33.3  0.00 0.19900 
 732.700     57.7     -2.4   3.0  2.68 2.86   136.2     -1.3  21.3  490.73 3977.11 -0.341 2.34 33.3  0.00 0.20000 
 732.800     63.3     -3.3   3.0  2.65 2.86   125.6     -1.9  25.6  515.80 3992.38 -0.389 2.40 33.3  0.00 0.20100 
 732.900     70.9     -1.9   3.0  2.64 2.83   126.2     -1.1  24.2  525.83 4079.34 -0.355 2.34 33.3  0.00 0.20000 
