~Version Information
VERS.                      2.0: CWLS Log ASCII Standard - VERSION 2.0
WRAP.                       NO: One line per depth step
~Well Information Block
STRT.FT                -8.2500: 
STOP.FT              2239.2500: 
STEP.FT                 0.2500: 
NULL.                -999.2500: 
COMP.          Pioneer Natural Resources: COMPANY
WELL.            Moo Moo 31-36: WELL
FLD.           Purgatorie River: FIELD
LOC.           612' FNL & 2326' FEL--: LOCATION
PROV.                       CO: PROVINCE
CNTY.               Las Animas: COUNTRY
SRVC.          Patterson Wireline: SERVICE COMPANY
DATE.          Thu Jun 23 10:04:07 2005: LOG DATE
UWI.           05 071 08395 00: UNIQUE WELL ID
~Curve Information Block
DEPT.FT            0 000 00 00: Depth
CCL.                          : Casing Collar Locator
TT3.usec                      : CBL 3' Travel Time
AMP3.mV                       : CBL 3' Amplitude
GR.GAPI                       : Gamma Ray
~Parameter Information Block
~A  Depth       CCL         TT3         AMP3         GR     
# ...
  2202.7500      0.0000    647.9705     11.2929     70.3040
  2203.0000      0.0000    584.6276     13.0963     69.8650
  2203.2500      0.0000    507.9072     15.0296     70.4461
  2203.5000      0.0000    436.2667     16.8090     72.5758
  2203.7500      0.0000    382.7118     18.2135     76.0927
  2204.0000      0.0000    348.9936     19.1548     80.0983
  2204.2500      0.0000    329.7609     19.6716     83.7670
  2204.5000      0.0000    319.2423     19.8563     86.9610
  2204.7500      0.0000    314.0070     19.7931     89.9565
  2205.0000      0.0000    312.4784     19.5572     92.8179
  2205.2500      0.0000    314.1084     19.2071     95.0033
  2205.5000      0.0000    318.8930     18.7389     95.5416
  2205.7500      0.0000    326.7231     18.0867     93.9459
  2206.0000      0.0000    336.7914     17.2219     90.9153
  2206.2500      0.0000    347.5106     16.2427     87.7470
  2206.5000      0.0000    356.8189     15.3247     85.2253
  2206.7500      0.0000    362.7067     14.5909     83.5317
  2207.0000      0.0000    364.2510     14.0608     82.8912
  2207.2500      0.0000    362.6711     13.7045     83.5579
  2207.5000      0.0000    360.9895     13.4827     85.1504
  2207.7500      0.0000    362.0750     13.3242     86.5905
  2208.0000      0.0000    366.7453     13.1248     87.0358
  2208.2500      0.0000    373.5317     12.8208     86.7231
  2208.5000      0.0000    380.0634     12.4537     86.6557
  2208.7500      0.0000    384.6966     12.1310     87.4162
  2209.0000      0.0000    387.0769     11.9120     88.5004
  2209.2500      0.0000    387.5840     11.7482     88.8966
  2209.5000      0.0000    386.6902     11.5642     88.0993
  2209.7500      0.0000    385.2785     11.3812     86.4397
  2210.0000      0.0000    385.6176     11.3148     84.6212
  2210.2500      0.0000    391.7170     11.4449     83.1283
  2210.5000      0.0000    407.3766     11.7307     82.0306
  2210.7500      0.0000    431.7181     12.0503     81.1591
  2211.0000      0.0000    456.2070     12.2883     80.3414
  2211.2500      0.0000    469.3153     12.3982     79.5319
  2211.5000      0.0000    467.6912     12.4262     78.8172
  2211.7500      0.0000    460.8748     12.4823     78.4024
  2212.0000      0.0000    460.8648     12.6525     78.6438
  2212.2500      0.0000    467.7971     12.9206     79.8450
  2212.5000      0.0000    469.9432     13.1708     81.8631
  2212.7500      0.0000    457.9534     13.2591     84.2366
  2213.0000      0.0000    435.0309     13.1066     86.8502
  2213.2500      0.0000    411.9669     12.7741     90.0351
  2213.5000      0.0000    396.3187     12.4450     93.8786
  2213.7500      0.0000    388.6896     12.2841     97.7765
  2214.0000      0.0000    386.4728     12.2922    100.7793
  2214.2500      0.0000    388.2680     12.3207    102.4352
  2214.5000      0.0000    395.4390     12.2295    103.5261
  2214.7500      0.0000    410.5674     12.0031    105.9346
  2215.0000      0.0000    432.9968     11.7340    111.3141
  2215.2500      0.0000    454.7094     11.5314    119.5583
  2215.5000      0.0000    463.3394     11.4381    128.5514
  2215.7500      0.0000    452.5360     11.3947    135.3998
  2216.0000      0.0000    428.4415     11.2804    138.0008
  2216.2500      0.0000    403.9471     11.0017    135.9704
  2216.5000      0.0000    388.0590     10.5436    130.7065
  2216.7500      0.0000    381.7891      9.9484    124.5300
  2217.0000      0.0000    381.4143      9.2718    119.3720
  2217.2500      0.0000    383.0068      8.5698    116.1170
  2217.5000      0.0000    384.4846      7.9077    114.8542
  2217.7500      0.0000    385.3865      7.3591    115.0615
  2218.0000      0.0000    385.9317      6.9800    115.6351
  2218.2500      0.0000    386.3371      6.7781    115.6208
  2218.5000      0.0000    386.6746      6.7097    115.1049
  2218.7500      0.0000    386.9333      6.7182    114.9472
  2219.0000      0.0000    387.1256      6.7747    115.6383
  2219.2500      0.0000    387.3318      6.8842    116.6044
  2219.5000      0.0000    387.6723      7.0615    116.5829
  2219.7500      0.0000    388.3617      7.3076    114.7642
  2220.0000      0.0000    390.0431      7.5949    111.5581
  2220.2500      0.0000    394.4255      7.8613    107.9038
  2220.5000      0.0000    404.5718      8.0214    103.9582
  2220.7500      0.0000    423.5313      8.0027     99.0730
  2221.0000      0.0000    451.1661      7.7771     93.1183
  2221.2500      0.0000    482.0864      7.3679     87.2625
  2221.5000      0.0000    508.1665      6.8465     83.2216
  2221.7500      0.0000    524.1475      6.3247     81.9017
  2222.0000      0.0000    530.5613      5.9210     82.7308
  2222.2500      0.0000    531.5193      5.7090     84.1438
  2222.5000      0.0000    530.8472      5.6903     84.8115
  2222.7500      0.0000    530.3623      5.8093     84.5954
  2223.0000      0.0000    530.3747      5.9761     84.4118
  2223.2500      0.0000    530.6774      6.0916     85.1813
  2223.5000      0.0000    531.0832      6.0834     86.8127
  2223.7500      0.0000    531.5203      5.9393     88.1582
  2224.0000      0.0000    531.9379      5.7145     88.0558
  2224.2500      0.0000    532.2259      5.5033     86.3970
  2224.5000      0.0000    532.1974      5.3830     83.9537
  2224.7500      0.0000    531.5517      5.3724     80.9707
  2225.0000      0.0000    529.8679      5.4383     76.0682
  2225.2500      0.0000    526.8135      5.5280     66.9703
  2225.5000      0.0000    522.5425      5.5875     52.8267
  2225.7500      0.0000    517.9191      5.5733     35.8892
  2226.0000      0.0000    514.3367      5.4760     20.3811
  2226.2500      0.0000    513.2216      5.3362      9.4732
  2226.5000      0.0000    515.2679      5.2188      3.5525
  2226.7500      0.0000    519.7158      5.1557      1.0642
  2227.0000      0.0000    524.5228      5.1269      0.2524
  2227.2500      0.0000    527.5101      5.1143      0.0470
  2227.5000      0.0000    527.3738      5.1449      0.0062
  2227.7500      0.0000    523.9757      5.2445      0.0000
  2228.0000      0.0000    518.4626      5.3721   -999.2500
  2228.2500      0.0000    513.2520      5.4436   -999.2500
  2228.5000      0.0000    511.0702      5.4090   -999.2500
  2228.7500      0.0000    513.1971      5.2890   -999.2500
  2229.0000      0.0000    518.5874      5.1629   -999.2500
  2229.2500      0.0000    525.0280      5.1237   -999.2500
  2229.5000      0.0000    531.4406      5.1994   -999.2500
  2229.7500      0.0000    539.0853      5.3014   -999.2500
  2230.0000      0.0000    549.6865      5.2854   -999.2500
  2230.2500      0.0000    559.5252      5.0704   -999.2500
  2230.5000      0.0000    553.4308      4.6688   -999.2500
  2230.7500      0.0000    508.9771      4.1140   -999.2500
  2231.0000      0.0000    415.1620      3.4255   -999.2500
  2231.2500      0.0000    288.8484      2.6656   -999.2500
  2231.5000      0.0000    166.6967      1.9696   -999.2500
  2231.7500      0.0000     78.3123      1.4642   -999.2500
  2232.0000      0.0000     29.5756      1.1792   -999.2500
  2232.2500      0.0000      8.9017      1.0551   -999.2500
  2232.5000      0.0000      2.1205      1.0134   -999.2500
  2232.7500      0.0000      0.3955      1.0025   -999.2500
  2233.0000      0.0000      0.0525      1.0004   -999.2500
  2233.2500      0.0000   -999.2500   -999.2500   -999.2500
  2233.5000      0.0000   -999.2500   -999.2500   -999.2500
  2233.7500      0.0000   -999.2500   -999.2500   -999.2500
  2234.0000      0.0000   -999.2500   -999.2500   -999.2500
  2234.2500      0.0000   -999.2500   -999.2500   -999.2500
  2234.5000      0.0000   -999.2500   -999.2500   -999.2500
  2234.7500      0.0000   -999.2500   -999.2500   -999.2500
  2235.0000      0.0000   -999.2500   -999.2500   -999.2500
  2235.2500      0.0000   -999.2500   -999.2500   -999.2500
  2235.5000      0.0000   -999.2500   -999.2500   -999.2500
  2235.7500      0.0000   -999.2500   -999.2500   -999.2500
  2236.0000      0.0000   -999.2500   -999.2500   -999.2500
