~Version Information
VERS.                      2.0: CWLS Log ASCII Standard - VERSION 2.0
WRAP.                       NO: One line per depth step
~Well Information Block
STRT.FT               430.0000: 
STOP.FT              1910.2000: 
STEP.FT                 0.1000: 
NULL.                -999.2500: 
COMP.          Pioneer Natural Resources: COMPANY
WELL.          Formula 23-11 Tr: WELL
FLD.           Purgatoire River: FIELD
LOC.           1976' FSL & 1935' FWL--: LOCATION
PROV.                 Colorado: PROVINCE
CNTY.               Las Animas: COUNTRY
SRVC.                Patterson: SERVICE COMPANY
DATE.          Mon Jun 13 07:32:15 2005: LOG DATE
UWI.           05 071 08399 00: UNIQUE WELL ID
~Curve Information Block
DEPT.FT            0 000 00 00: Depth
DCAL.in                       : CDL Caliper
RHOB.g/cc                     : CDL Bulk Density
RHOC.g/cc                     : CDL Density Correction
DPOR.pu                       : CDL Density Porosity
NPOR.pu                       : Neutron Porosity
GR.GAPI                       : Gamma Ray
~Parameter Information Block
~A  Depth       DCAL        RHOB        RHOC        DPOR        NPOR         GR     
# ...
  1591.6000      7.8839      2.6097      0.0847      2.4432     18.3179    133.1021
  1591.7000      7.8839      2.6024      0.1154      2.8854     18.7588    133.5893
  1591.8000      7.8927      2.5865      0.0752      3.8477     18.5828    127.9915
  1591.9000      7.8927      2.5633      0.0721      5.2517     18.1478    120.9010
  1592.0000      7.8945      2.5368      0.0275      6.8591     18.1300    113.3387
  1592.1000      7.8945      2.5141      0.0188      8.2358     18.3645    106.1505
  1592.2000      7.8945      2.5054      0.0059      8.7645     18.6764    103.6379
  1592.3000      7.8949      2.5151      0.0479      8.1772     19.1442    104.2062
  1592.4000      7.8949      2.5300      0.0541      7.2730     19.4838    102.6367
  1592.5000      7.8994      2.5390      0.0548      6.7265     19.5367     98.6603
  1592.6000      7.8994      2.5502      0.0190      6.0474     19.3802     95.0334
  1592.7000      7.8994      2.5667      0.0497      5.0512     18.9692     93.0432
  1592.8000      7.9073      2.5728      0.0799      4.6763     18.5568     92.2664
  1592.9000      7.9073      2.5642      0.0720      5.2015     18.8441     93.5817
  1593.0000      7.9155      2.5587      0.0490      5.5318     19.8698     97.1335
  1593.1000      7.9155      2.5671      0.0726      5.0250     20.7170     97.0559
  1593.2000      7.9155      2.5751      0.1050      4.5382     20.9773     93.5252
  1593.3000      7.9199      2.5743      0.0662      4.5882     20.9590     95.2435
  1593.4000      7.9199      2.5771      0.0596      4.4210     21.0237    101.8201
  1593.5000      7.9201      2.5831      0.0907      4.0524     21.4776    106.2808
  1593.6000      7.9201      2.5748      0.0874      4.5555     22.0386    108.3685
  1593.7000      7.9201      2.5529      0.0326      5.8858     22.0850    109.0855
  1593.8000      7.9183      2.5356      0.0489      6.9304     21.5562    106.5230
  1593.9000      7.9183      2.5301      0.0525      7.2656     21.1100    104.0432
  1594.0000      7.9173      2.5275      0.0631      7.4236     21.2417    104.6262
  1594.1000      7.9173      2.5162      0.0798      8.1074     21.5879    103.7141
  1594.2000      7.9173      2.4961      0.0396      9.3299     21.4711     97.7923
  1594.3000      7.9185      2.4758      0.0324     10.5566     20.6804     90.8154
  1594.4000      7.9185      2.4583      0.0258     11.6159     19.7253     89.0166
  1594.5000      7.9210      2.4408      0.0388     12.6804     18.9941     90.5305
  1594.6000      7.9210      2.4231      0.0304     13.7489     18.5426     91.1119
  1594.7000      7.9210      2.4080      0.0156     14.6645     18.6582     92.6827
  1594.8000      7.9213      2.3974      0.0526     15.3085     19.2366     93.1874
  1594.9000      7.9213      2.3921      0.0733     15.6301     19.3525     87.1048
  1595.0000      7.9193      2.3894      0.0775     15.7940     18.5945     78.7761
  1595.1000      7.9193      2.3871      0.0490     15.9344     17.8356     76.0286
  1595.2000      7.9193      2.3885      0.0592     15.8478     17.8179     75.8491
  1595.3000      7.9190      2.3927      0.0879     15.5926     18.3753     73.7246
  1595.4000      7.9190      2.3950      0.0629     15.4548     19.2753     72.7818
  1595.5000      7.9192      2.3988      0.0448     15.2260     20.0286     75.9182
  1595.6000      7.9192      2.4065      0.0651     14.7550     19.8253     81.4815
  1595.7000      7.9192      2.4161      0.0576     14.1740     18.8566     85.2387
  1595.8000      7.9183      2.4284      0.0697     13.4278     18.1091     85.5975
  1595.9000      7.9183      2.4427      0.1026     12.5666     18.0896     83.8385
  1596.0000      7.9189      2.4552      0.0959     11.8072     18.4434     78.7338
  1596.1000      7.9189      2.4634      0.0976     11.3115     18.5534     70.8148
  1596.2000      7.9189      2.4655      0.1021     11.1827     18.5452     66.4376
  1596.3000      7.9213      2.4657      0.0773     11.1667     18.7301     68.0694
  1596.4000      7.9213      2.4687      0.0972     10.9861     18.6733     72.9946
  1596.5000      7.9225      2.4688      0.1055     10.9802     18.0317     78.7599
  1596.6000      7.9225      2.4623      0.0688     11.3773     17.6379     82.1248
  1596.7000      7.9225      2.4546      0.0723     11.8409     18.2797     82.0102
  1596.8000      7.9218      2.4454      0.0716     12.4023     19.1467     80.5726
  1596.9000      7.9218      2.4350      0.0738     13.0301     19.2239     78.5519
  1597.0000      7.9211      2.4369      0.0470     12.9172     19.0077     75.5808
  1597.1000      7.9211      2.4520      0.0875     12.0009     18.9719     73.7207
  1597.2000      7.9211      2.4620      0.0679     11.3938     18.5846     74.5458
  1597.3000      7.9212      2.4627      0.0741     11.3539     17.4712     76.4353
  1597.4000      7.9212      2.4636      0.0591     11.2977     16.0205     79.0498
  1597.5000      7.9212      2.4638      0.0941     11.2857     14.9473     82.0302
  1597.6000      7.9212      2.4580      0.0695     11.6394     14.5677     81.8160
  1597.7000      7.9212      2.4534      0.0384     11.9137     14.8348     77.4228
  1597.8000      7.9211      2.4560      0.0557     11.7587     15.5722     72.2859
  1597.9000      7.9211      2.4645      0.0325     11.2440     16.1097     70.1691
  1598.0000      7.9216      2.4850      0.0516     10.0003     15.8504     69.7380
  1598.1000      7.9216      2.5139      0.1257      8.2459     15.2808     68.5633
  1598.2000      7.9216      2.5341      0.0915      7.0221     15.1776     68.0934
  1598.3000      7.9242      2.5426      0.0913      6.5063     15.6352     67.9070
  1598.4000      7.9242      2.5492      0.0648      6.1081     16.2191     65.3883
  1598.5000      7.9257      2.5604      0.0646      5.4277     16.2288     64.1493
  1598.6000      7.9257      2.5744      0.0868      4.5824     15.7617     68.0042
  1598.7000      7.9257      2.5844      0.0590      3.9777     15.4962     73.2487
  1598.8000      7.9251      2.5874      0.0750      3.7968     15.5638     72.6661
  1598.9000      7.9251      2.5813      0.0629      4.1663     15.8370     64.4129
  1599.0000      7.9243      2.5678      0.0306      4.9806     16.2848     56.0057
  1599.1000      7.9243      2.5606      0.0372      5.4175     16.6822     56.3167
  1599.2000      7.9243      2.5657      0.0676      5.1096     16.7790     63.9213
  1599.3000      7.9235      2.5734      0.0457      4.6416     16.4076     69.9018
  1599.4000      7.9235      2.5828      0.0495      4.0716     15.5585     71.2250
  1599.5000      7.9248      2.5990      0.0298      3.0890     14.6648     70.3512
  1599.6000      7.9248      2.6119      0.0781      2.3120     14.0440     69.2757
  1599.7000      7.9248      2.6049      0.0718      2.7349     13.9129     72.3469
  1599.8000      7.9265      2.5839      0.0389      4.0082     14.4868     77.4477
  1599.9000      7.9265      2.5692      0.0170      4.8942     15.1719     75.5608
  1600.0000      7.9258      2.5665      0.0428      5.0577     15.3046     68.7716
  1600.1000      7.9258      2.5663      0.0422      5.0743     15.1597     64.1857
  1600.2000      7.9258      2.5592      0.0311      5.5014     15.3728     62.0248
  1600.3000      7.9243      2.5416      0.0151      6.5708     16.0579     60.0040
  1600.4000      7.9243      2.5190      0.0184      7.9390     16.7624     58.5407
  1600.5000      7.9242      2.5030      0.0083      8.9099     17.1963     59.7525
  1600.6000      7.9242      2.5000      0.0349      9.0933     17.3470     62.5615
  1600.7000      7.9242      2.5064      0.0127      8.7006     17.2692     65.6374
  1600.8000      7.9240      2.5141      0.0410      8.2348     17.0814     70.3733
  1600.9000      7.9240      2.5169      0.0514      8.0650     16.7580     76.5251
  1601.0000      7.9239      2.5137      0.0919      8.2611     16.2395     80.2259
  1601.1000      7.9239      2.5022      0.1027      8.9591     15.8727     76.5013
