~Version Information
VERS.                      2.0: CWLS Log ASCII Standard - VERSION 2.0
WRAP.                       NO: One line per depth step
~Well Information Block
STRT.FT                -7.5000: 
STOP.FT              2339.2500: 
STEP.FT                 0.2500: 
NULL.                -999.2500: 
COMP.          Pioneer Natural Resources: COMPANY
WELL.            Harrier 44-33: WELL
FLD.           Purgatorie River: FIELD
LOC.           456' FSL & 930' FEL--: LOCATION
PROV.                       CO: PROVINCE
CNTY.               Las Animas: COUNTRY
SRVC.          Patterson Wireline: SERVICE COMPANY
DATE.          Wed Jun 29 11:08:51 2005: LOG DATE
UWI.           05 071 08398 00: UNIQUE WELL ID
~Curve Information Block
DEPT.FT            0 000 00 00: Depth
CCL.                          : Casing Collar Locator
TT3.usec                      : CBL 3' Travel Time
AMP3.mV                       : CBL 3' Amplitude
GR.GAPI                       : Gamma Ray
~Parameter Information Block
~A  Depth       CCL         TT3         AMP3         GR     
# ...
   763.0000      0.0000    794.3008      6.5353    155.0762
   763.2500      0.0000    801.2904      6.6072    158.8350
   763.5000      0.0000    808.1193      6.7123    160.9991
   763.7500      0.0000    815.8080      6.8389    160.7257
   764.0000      0.0000    824.5167      6.9710    158.0803
   764.2500      0.0000    832.4949      7.0958    153.7924
   764.5000      0.0000    836.5801      7.2018    149.0864
   764.7500      0.0000    834.3802      7.2756    145.3579
   765.0000      0.0000    826.4061      7.3045    143.7414
   765.2500      0.0000    815.7512      7.2868    144.6499
   765.5000      0.0000    805.9794      7.2412    147.2319
   765.7500      0.0000    800.2082      7.2042    149.3439
   766.0000      0.0000    801.3095      7.2076    148.7259
   766.2500      0.0000    810.4512      7.2580    144.6029
   766.5000      0.0000    824.8543      7.3357    138.2313
   766.7500      0.0000    838.7766      7.4100    132.0260
   767.0000      0.0000    847.5253      7.4533    128.1913
   767.2500      0.0000    850.1295      7.4435    127.7775
   767.5000      0.0000    848.6911      7.3619    130.5000
   767.7500      0.0000    846.2474      7.1992    135.2902
   768.0000      0.0000    845.0456      6.9709    140.9230
   768.2500      0.0000    845.5883      6.7289    146.0929
   768.5000      0.0000    846.5448      6.5441    149.5140
   768.7500      0.0000    845.7576      6.4649    150.6132
   769.0000      0.0000    842.0228      6.4894    149.8723
   769.2500      0.0000    836.2485      6.5781    148.1949
   769.5000      0.0000    830.8259      6.6861    146.3891
   769.7500      0.0000    827.8375      6.7836    145.3008
   770.0000      0.0000    827.7918      6.8594    145.7002
   770.2500      0.0000    829.6533      6.9182    147.5648
   770.5000      0.0000    831.7510      6.9744    149.7465
   770.7500      0.0000    832.5195      7.0421    150.9176
   771.0000      0.0000    830.4901      7.1293    151.1224
   771.2500      0.0000    824.4540      7.2452    152.0712
   771.5000      0.0000    815.0958      7.4049    155.3350
   771.7500      0.0000    806.3792      7.6171    160.2495
   772.0000      0.0000    803.4651      7.8612    164.1809
   772.2500      0.0000    808.2798      8.0842    165.0549
   772.5000      0.0000    817.6667      8.2304    163.1732
   772.7500      0.0000    826.1313      8.2739    160.6024
   773.0000      0.0000    830.1772      8.2193    159.4129
   773.2500      0.0000    830.4321      8.0852    160.4751
   773.5000      0.0000    830.0674      7.9011    163.1133
   773.7500      0.0000    831.1060      7.7117    165.4804
   774.0000      0.0000    832.6600      7.5605    165.5787
   774.2500      0.0000    832.9962      7.4633    162.2981
   774.5000      0.0000    832.2551      7.4054    155.9367
   774.7500      0.0000    832.3791      7.3638    148.2113
   775.0000      0.0000    835.1319      7.3244    141.6324
   775.2500      0.0000    840.6846      7.2824    138.3685
   775.5000      0.0000    847.6298      7.2358    139.3289
   775.7500      0.0000    853.9659      7.1875    143.8859
   776.0000      0.0000    858.2457      7.1490    150.1143
   776.2500      0.0000    860.0334      7.1321    155.6425
   776.5000      0.0000    859.5892      7.1410    158.6886
   776.7500      0.0000    857.5754      7.1804    158.2836
   777.0000      0.0000    854.9687      7.2647    153.8900
   777.2500      0.0000    852.5016      7.4047    145.8456
   777.5000      0.0000    849.6046      7.5833    136.3973
   777.7500      0.0000    844.4974      7.7540    129.1873
   778.0000      0.0000    836.3882      7.8687    126.7508
   778.2500      0.0000    827.4644      7.9040    128.4654
   778.5000      0.0000    821.5140      7.8596    131.0390
   778.7500      0.0000    820.2296      7.7486    130.9641
   779.0000      0.0000    821.7961      7.5944    126.8816
   779.2500      0.0000    823.2136      7.4256    120.2558
   779.5000      0.0000    822.7502      7.2591    114.0887
   779.7500      0.0000    819.7236      7.0859    110.8503
   780.0000      0.0000    813.0538      6.8837    111.2703
   780.2500      0.0000    801.3455      6.6579    114.5190
   780.5000      0.0000    784.8932      6.4593    118.9761
   780.7500      0.0000    767.0092      6.3313    122.8385
   781.0000      0.0000    752.1628      6.2461    124.5904
   781.2500      0.0000    742.6561      6.1330    123.5634
   781.5000      0.0000    738.2793      5.9624    120.2973
   781.7500      0.0000    739.0788      5.7628    116.2856
   782.0000      0.0000    746.3184      5.5736    113.2092
   782.2500      0.0000    759.3232      5.4197    112.1783
   782.5000      0.0000    772.7162      5.3201    113.3692
   782.7500      0.0000    779.0264      5.2948    116.2831
   783.0000      0.0000    774.4196      5.3672    120.3488
   783.2500      0.0000    760.8121      5.5614    125.0213
   783.5000      0.0000    743.1719      5.8730    129.0855
   783.7500      0.0000    727.1771      6.2504    130.5474
   784.0000      0.0000    718.4250      6.6370    128.1617
   784.2500      0.0000    720.0538      7.0287    123.1242
   784.5000      0.0000    730.5920      7.4534    118.6204
   784.7500      0.0000    746.3865      7.8993    117.3611
   785.0000      0.0000    765.7325      8.3013    119.5421
   785.2500      0.0000    788.4951      8.5922    123.0156
   785.5000      0.0000    812.5130      8.7445    125.2955
   785.7500      0.0000    833.1294      8.7614    125.6610
   786.0000      0.0000    846.6568      8.6506    125.5841
   786.2500      0.0000    852.6219      8.4134    127.0712
   786.5000      0.0000    852.5142      8.0437    130.5370
   786.7500      0.0000    847.8125      7.5350    134.2189
   787.0000      0.0000    839.8829      6.8966    135.3679
   787.2500      0.0000    830.8431      6.1715    132.0205
   787.5000      0.0000    823.4048      5.4291    124.0946
   787.7500      0.0000    819.8581      4.7372    113.2183
   788.0000      0.0000    821.0273      4.1432    101.7195
   788.2500      0.0000    825.4318      3.6756     92.0019
   788.5000      0.0000    829.6928      3.3470     86.5866
   788.7500      0.0000    830.9712      3.1519     87.6609
   789.0000      0.0000    828.5804      3.0683     95.5464
   789.2500      0.0000    822.3225      3.0699    107.6628
   789.5000      0.0000    811.3370      3.1413    119.7812
   789.7500      0.0000    796.8893      3.2867    128.6130
   790.0000      0.0000    784.4255      3.5235    133.1090
   790.2500      0.0000    779.6812      3.8614    133.7539
   790.5000      0.0000    783.1276      4.2822    131.4386
   790.7500      0.0000    790.3623      4.7365    127.1957
   791.0000      0.0000    797.5670      5.1609    122.4498
   791.2500      0.0000    804.3303      5.5063    118.9182
   791.5000      0.0000    811.0218      5.7566    118.1262
   791.7500      0.0000    816.1677      5.9247    120.8937
   792.0000      0.0000    817.7960      6.0326    126.6950
   792.2500      0.0000    815.5472      6.0993    133.2608
   792.5000      0.0000    809.9987      6.1471    137.5792
   792.7500      0.0000    801.8739      6.2074    137.9887
   793.0000      0.0000    793.6185      6.3067    135.1515
   793.2500      0.0000    789.9514      6.4458    131.0356
   793.5000      0.0000    794.5073      6.5999    127.2769
   793.7500      0.0000    805.9727      6.7410    124.2307
   794.0000      0.0000    818.7141      6.8573    121.1106
   794.2500      0.0000    827.5769      6.9519    117.0863
   794.5000      0.0000    831.8688      7.0343    112.4065
   794.7500      0.0000    834.5301      7.1128    108.3808
   795.0000      0.0000    837.7592      7.1898    106.3606
   795.2500      0.0000    839.9633      7.2568    106.9693
   795.5000      0.0000    837.2665      7.2971    110.1386
   795.7500      0.0000    827.7089      7.2967    115.2972
   796.0000      0.0000    813.9622      7.2543    121.2357
   796.2500      0.0000    802.2850      7.1842    126.2218
