~Version Information
VERS.                      2.0: CWLS Log ASCII Standard - VERSION 2.0
WRAP.                       NO: One line per depth step
~Well Information Block
STRT.FT               580.0000: 
STOP.FT              2729.7500: 
STEP.FT                 0.2500: 
NULL.                -999.2500: 
COMP.          Pioneer Natural Resources: COMPANY
WELL.          Sand Pebbles 13-33: WELL
FLD.           Purgatoire River: FIELD
LOC.           1883' FSL & 63' FWL----: LOCATION
PROV.                 Colorado: PROVINCE
CNTY.               Las Animas: COUNTRY
SRVC.                Patterson: SERVICE COMPANY
DATE.          Fri Mar 11 13:47:45 2005: LOG DATE
UWI.           05 071 08224 00: UNIQUE WELL ID
~Curve Information Block
DEPT.FT            0 000 00 00: Depth
SN.Ohm-m                      : IEL Short Normal
SP.mV                         : IEL Spontaneous Potential
DIR.Ohm-m                     : IEL Induction Resistivity
GR.GAPI                       : Gamma Ray
~Parameter Information Block
~A  Depth        SN          SP         DIR          GR     
# ...
  1853.0000      7.0216    -17.2876      6.8188    137.8890
  1853.2500      7.0817    -18.1280      6.9184    135.5328
  1853.5000      7.1340    -18.9296      7.0131    132.9733
  1853.7500      7.1845    -19.6901      7.0993    131.9990
  1854.0000      7.2397    -20.4116      7.1763    131.4340
  1854.2500      7.3040    -21.0994      7.2454    131.4943
  1854.5000      7.3786    -21.7604      7.3094    132.0445
  1854.7500      7.4625    -22.4020      7.3708    132.5088
  1855.0000      7.5518    -23.0325      7.4310    132.7738
  1855.2500      7.6377    -23.6607      7.4909    132.4782
  1855.5000      7.7091    -24.2960      7.5518    131.6409
  1855.7500      7.7585    -24.9462      7.6163    131.1602
  1856.0000      7.7884    -25.6169      7.6880    130.8579
  1856.2500      7.8114    -26.3100      7.7703    130.9294
  1856.5000      7.8429    -27.0246      7.8662    131.4053
  1856.7500      7.8933    -27.7576      7.9782    131.9945
  1857.0000      7.9660    -28.5065      8.1088    133.3037
  1857.2500      8.0608    -29.2702      8.2603    134.3816
  1857.5000      8.1783    -30.0499      8.4353    135.9567
  1857.7500      8.3236    -30.8474      8.6381    136.6513
  1858.0000      8.5043    -31.6629      8.8750    136.4745
  1858.2500      8.7262    -32.4923      9.1552    135.3264
  1858.5000      8.9887    -33.3250      9.4897    132.5507
  1858.7500      9.2823    -34.1425      9.8880    130.6109
  1859.0000      9.5899    -34.9175     10.3568    127.8241
  1859.2500      9.8924    -35.6130     10.8978    125.3801
  1859.5000     10.1809    -36.1838     11.5088    119.6639
  1859.7500     10.4721    -36.5793     12.1828    114.8169
  1860.0000     10.8129    -36.7509     12.9094    108.1911
  1860.2500     11.2654    -36.6614     13.6742    105.3607
  1860.5000     11.8723    -36.2943     14.4608    103.7575
  1860.7500     12.6229    -35.6588     15.2498    103.7718
  1861.0000     13.4394    -34.7881     16.0152    104.1058
  1861.2500     14.2004    -33.7316     16.7173    104.1030
  1861.5000     14.7895    -32.5449     17.3015    103.5844
  1861.7500     15.1397    -31.2806     17.7085    103.0205
  1862.0000     15.2481    -29.9846     17.8943    102.2939
  1862.2500     15.1591    -28.6940     17.8481    102.0768
  1862.5000     14.9314    -27.4375     17.5952    102.0069
  1862.7500     14.6098    -26.2323     17.1853    101.9520
  1863.0000     14.2159    -25.0804     16.6724    102.0309
  1863.2500     13.7586    -23.9674     16.0999    102.5699
  1863.5000     13.2505    -22.8681     15.4952    104.7169
  1863.7500     12.7152    -21.7596     14.8720    107.3095
  1864.0000     12.1794    -20.6372     14.2371    113.4162
  1864.2500     11.6624    -19.5254     13.5956    118.9970
  1864.5000     11.1751    -18.4739     12.9561    128.3741
  1864.7500     10.7263    -17.5422     12.3349    133.8163
  1865.0000     10.3285    -16.7771     11.7555    138.4315
  1865.2500      9.9953    -16.1971     11.2419    138.9070
  1865.5000      9.7343    -15.7894     10.8113    137.6712
  1865.7500      9.5422    -15.5200     10.4687    137.1467
  1866.0000      9.4058    -15.3486     10.2079    138.0593
  1866.2500      9.3035    -15.2412     10.0148    139.2791
  1866.5000      9.2100    -15.1751      9.8717    140.1257
  1866.7500      9.1044    -15.1364      9.7604    139.1652
  1867.0000      8.9799    -15.1124      9.6635    135.2417
  1867.2500      8.8473    -15.0849      9.5676    131.7051
  1867.5000      8.7282    -15.0294      9.4642    127.2426
  1867.7500      8.6432    -14.9206      9.3513    126.1622
  1868.0000      8.6001    -14.7425      9.2313    128.6004
  1868.2500      8.5879    -14.4953      9.1083    132.5863
  1868.5000      8.5800    -14.1967      8.9845    139.8346
  1868.7500      8.5455    -13.8746      8.8590    143.8387
  1869.0000      8.4653    -13.5580      8.7288    146.6215
  1869.2500      8.3418    -13.2693      8.5928    146.1715
  1869.5000      8.1956    -13.0215      8.4533    143.4861
  1869.7500      8.0515    -12.8196      8.3164    141.7533
  1870.0000      7.9259    -12.6639      8.1898    141.2947
  1870.2500      7.8257    -12.5517      8.0798    142.8472
  1870.5000      7.7526    -12.4788      7.9894    147.2411
  1870.7500      7.7039    -12.4398      7.9175    150.6594
  1871.0000      7.6718    -12.4285      7.8592    155.0439
  1871.2500      7.6455    -12.4387      7.8075    156.8782
  1871.5000      7.6145    -12.4645      7.7553    157.6686
  1871.7500      7.5698    -12.5011      7.6979    157.2839
  1872.0000      7.5049    -12.5441      7.6328    157.0198
  1872.2500      7.4188    -12.5897      7.5596    158.0600
  1872.5000      7.3162    -12.6346      7.4798    161.7410
  1872.7500      7.2031    -12.6767      7.3969    164.7320
  1873.0000      7.0827    -12.7159      7.3159    167.8537
  1873.2500      6.9576    -12.7550      7.2427    168.1392
  1873.5000      6.8344    -12.7991      7.1821    165.4996
  1873.7500      6.7279    -12.8540      7.1374    161.9167
  1874.0000      6.6600    -12.9251      7.1104    154.2285
  1874.2500      6.6529    -13.0167      7.1018    147.7534
  1874.5000      6.7187    -13.1317      7.1123    136.9979
  1874.7500      6.8509    -13.2711      7.1415    130.3512
  1875.0000      7.0240    -13.4340      7.1878    123.4783
  1875.2500      7.2039    -13.6186      7.2472    121.6891
  1875.5000      7.3614    -13.8226      7.3134    123.0337
  1875.7500      7.4817    -14.0445      7.3789    125.8641
  1876.0000      7.5662    -14.2853      7.4369    130.8304
  1876.2500      7.6276    -14.5483      7.4838    133.2032
  1876.5000      7.6830    -14.8405      7.5203    134.0878
  1876.7500      7.7495    -15.1716      7.5520    133.3758
  1877.0000      7.8401    -15.5539      7.5890    132.7462
  1877.2500      7.9624    -16.0002      7.6438    133.9594
  1877.5000      8.1156    -16.5206      7.7289    138.6175
  1877.7500      8.2878    -17.1190      7.8540    142.4666
  1878.0000      8.4567    -17.7903      8.0229    146.3873
  1878.2500      8.5946    -18.5183      8.2319    146.4855
  1878.5000      8.6785    -19.2759      8.4711    142.4122
  1878.7500      8.7014    -20.0258      8.7284    137.5425
  1879.0000      8.6818    -20.7249      8.9944    129.0196
  1879.2500      8.6660    -21.3304      9.2654    123.7732
  1879.5000      8.7127    -21.8079      9.5427    118.3085
  1879.7500      8.8621    -22.1396      9.8269    117.0493
  1880.0000      9.1102    -22.3302     10.1120    119.3621
  1880.2500      9.4052    -22.4078     10.3820    123.1616
  1880.5000      9.6738    -22.4188     10.6130    129.5908
  1880.7500      9.8585    -22.4183     10.7810    132.6988
  1881.0000      9.9431    -22.4579     10.8702    134.7878
  1881.2500      9.9511    -22.5750     10.8799    135.4252
  1881.5000      9.9278    -22.7882     10.8268    137.4103
  1881.7500      9.9192    -23.0986     10.7427    139.7707
  1882.0000      9.9579    -23.4960     10.6684    143.5040
  1882.2500     10.0545    -23.9663     10.6435    144.9728
  1882.5000     10.1989    -24.4951     10.6985    144.7338
  1882.7500     10.3712    -25.0675     10.8511    143.3151
  1883.0000     10.5574    -25.6636     11.1076    140.5952
  1883.2500     10.7569    -26.2545     11.4657    138.8334
  1883.5000     10.9731    -26.8008     11.9153    135.9994
  1883.7500     11.1961    -27.2558     12.4350    133.4375
  1884.0000     11.3933    -27.5716     12.9867    127.6560
  1884.2500     11.5214    -27.7046     13.5124    122.4588
  1884.5000     11.5551    -27.6216     13.9414    114.1695
  1884.7500     11.5149    -27.3052     14.2097    109.9554
  1885.0000     11.4692    -26.7590     14.2844    108.0593
  1885.2500     11.5022    -26.0141     14.1769    110.1655
  1885.5000     11.6647    -25.1297     13.9340    117.3311
  1885.7500     11.9426    -24.1884     13.6159    123.6763
  1886.0000     12.2671    -23.2829     13.2777    133.6646
  1886.2500     12.5563    -22.4981     12.9612    139.6381
