~Version Information
VERS.                      2.0: CWLS Log ASCII Standard - VERSION 2.0
WRAP.                       NO: One line per depth step
~Well Information Block
STRT.FT               890.0000: 
STOP.FT              1589.0000: 
STEP.FT                 0.2500: 
NULL.                -999.2500: 
COMP.          Evergreen Operating Corporation: COMPANY
WELL.            Tomahawk 44-9: WELL
FLD.           Purgatorie River: FIELD
LOC.           434' FSL & 491' FEL: LOCATION
PROV.                 Colorado: PROVINCE
CNTY.               Las Animas: COUNTRY
SRVC.                         : SERVICE COMPANY
DATE.          Sat Sep 11 23:05:26 2004: LOG DATE
UWI.           05 071 08133 00: UNIQUE WELL ID
~Curve Information Block
DEPT.FT            0 000 00 00: Depth
LTEN.lb                       : Surface Line Tension
SN.Ohm-m                      : IEL Short Normal
SP.mV                         : IEL Spontaneous Potential
DIR.Ohm-m                     : IEL Induction Resistivity
GR.GAPI                       : Gamma Ray
~Parameter Information Block
~A  Depth       LTEN         SN          SP         DIR          GR     
# ...
  1562.0000    870.1709     18.4177      5.0334     18.6114    128.3347
  1562.2500    870.1793     18.4203      3.8452     18.4764    126.6503
  1562.5000    869.5178     18.4757      2.3856     18.2505    122.3817
  1562.7500    868.9048     18.5591      0.8369     17.9382    119.2499
  1563.0000    868.9207     18.6284     -0.6276     17.5547    115.3593
  1563.2500    869.4755     18.6319     -1.8816     17.1281    113.8131
  1563.5000    870.3120     18.5207     -2.8599     16.6929    113.7057
  1563.7500    871.3763     18.2615     -3.5530     16.2813    115.3046
  1564.0000    872.4657     17.8461     -3.9897     15.9163    120.0158
  1564.2500    873.1132     17.2927     -4.2031     15.6119    124.2613
  1564.5000    873.1346     16.6433     -4.2090     15.3740    131.1940
  1564.7500    872.8005     15.9567     -4.0033     15.2009    135.5557
  1565.0000    872.1953     15.2986     -3.5768     15.0842    140.8732
  1565.2500    870.9700     14.7250     -2.9332     15.0106    143.2829
  1565.5000    869.1376     14.2690     -2.1154     14.9621    145.0477
  1565.7500    867.5223     13.9376     -1.1999     14.9120    145.2117
  1566.0000    866.8438     13.7249     -0.2816     14.8255    144.5768
  1566.2500    866.8494     13.6276      0.5623     14.6750    143.7450
  1566.5000    866.9470     13.6499      1.2985     14.4629    141.6829
  1566.7500    867.1975     13.7921      1.9473     14.2290    139.6674
  1567.0000    867.9888     14.0385      2.5638     14.0309    136.1027
  1567.2500    869.0654     14.3547      3.1986     13.9146    133.8261
  1567.5000    869.6326     14.6953      3.8583     13.8984    131.0600
  1567.7500    869.3901     15.0129      4.4855     13.9724    129.6330
  1568.0000    868.9072     15.2654      4.9606     14.1075    127.9468
  1568.2500    868.8714     15.4251      5.1369     14.2663    127.1377
  1568.5000    869.3345     15.4871      4.8900     14.4121    126.1504
  1568.7500    869.8505     15.4706      4.1636     14.5178    124.6536
  1569.0000    870.0782     15.4079      2.9916     14.5726    117.3287
  1569.2500    870.0356     15.3294      1.4962     14.5847    106.5676
  1569.5000    869.9583     15.2585     -0.1454     14.5766     80.7864
  1569.7500    870.1570     15.2157     -1.7452     14.5776     59.9738
  1570.0000    870.9103     15.2213     -3.1493     14.6142     31.2991
  1570.2500    872.2648     15.2906     -4.2653     14.7061     17.4528
  1570.5000    873.9470     15.4239     -5.0677     14.8642      5.6875
  1570.7500    875.5308     15.6076     -5.5909     15.0902      2.2680
  1571.0000    876.6340     15.8277     -5.8992     15.3779      0.4350
  1571.2500    877.0050     16.0865     -6.0695     15.7141      0.1187
  1571.5000    876.6100     16.4056     -6.1644     16.0795      0.0109
  1571.7500    875.6631     16.8127     -6.2247     16.4462      0.0000
  1572.0000    874.4676     17.3218     -6.2664     16.7739   -999.2500
  1572.2500    873.2441     17.9203     -6.2859     17.0150   -999.2500
  1572.5000    872.0986     18.5696     -6.2721     17.1303   -999.2500
  1572.7500    871.0156     19.2131     -6.2158     17.1086   -999.2500
  1573.0000    869.9137     19.7852     -6.1159     16.9713   -999.2500
  1573.2500    868.9258     20.2198     -5.9850     16.7596   -999.2500
  1573.5000    868.5205     20.4596     -5.8496     16.5120   -999.2500
  1573.7500    869.0177     20.4662     -5.7419     16.2510   -999.2500
  1574.0000    870.0853     20.2281     -5.6954     15.9835   -999.2500
  1574.2500    871.0477     19.7610     -5.7367     15.7112   -999.2500
  1574.5000    871.5656     19.1022     -5.8796     15.4397   -999.2500
  1574.7500    871.7239     18.3048     -6.1211     15.1805   -999.2500
  1575.0000    871.6474     17.4344     -6.4410     14.9457   -999.2500
  1575.2500    871.4106     16.5640     -6.8051     14.7425   -999.2500
  1575.5000    871.1923     15.7642     -7.1708     14.5516   -999.2500
  1575.7500    871.1128     15.0897     -7.4953     14.4262   -999.2500
  1576.0000    870.9770     14.5723     -7.7427     14.3502   -999.2500
  1576.2500    870.5421     14.2216     -7.8907     14.3252   -999.2500
  1576.5000    869.9496     14.0326     -7.9334     14.3368   -999.2500
  1576.7500    869.5566     13.9918     -7.8812     14.3552   -999.2500
  1577.0000    869.4851     14.0796     -7.7551     14.3488   -999.2500
  1577.2500    869.6830     14.2709     -7.5821     14.3012   -999.2500
  1577.5000    870.1996     14.5332     -7.3884     14.2215   -999.2500
  1577.7500    871.0123     14.8244     -7.1949     14.1472   -999.2500
  1578.0000    871.8042     15.0917     -7.0163     14.1498   -999.2500
  1578.2500    872.2900     15.2767     -6.8612     14.3503   -999.2500
  1578.5000    872.5778     15.3286     -6.7348     14.9430   -999.2500
  1578.7500    872.9539     15.2187     -6.6412     16.2331   -999.2500
  1579.0000    873.5822     14.9493     -6.5847     18.7600   -999.2500
  1579.2500    874.5922     14.5533     -6.5707     23.3139   -999.2500
  1579.5000    876.0367     14.0860     -6.6043     31.5330   -999.2500
  1579.7500    877.5281     13.6162     -6.6889     46.4379   -999.2500
  1580.0000    878.3369     13.2161     -6.8253     73.2946   -999.2500
  1580.2500    878.1144     12.9504     -7.0106    118.7823   -999.2500
  1580.5000    877.2643     12.8660     -7.2378    183.3662   -999.2500
  1580.7500    876.4951     12.9855     -7.4966    250.1261   -999.2500
  1581.0000    876.2167     13.3084     -7.7741    298.4282   -999.2500
  1581.2500    876.3480     13.8187     -8.0521    330.1264   -999.2500
  1581.5000    876.5180     14.4954     -8.3109    362.8879   -999.2500
  1581.7500    876.4373     15.3178     -8.5251    418.5611   -999.2500
  1582.0000    876.1035     16.2624     -8.6633 100000.0000   -999.2500
  1582.2500    875.6812     17.2937     -8.6867 100000.0000   -999.2500
  1582.5000    875.3082     18.3550     -8.5474 100000.0000   -999.2500
  1582.7500    875.0040     19.3668     -8.1875 100000.0000   -999.2500
  1583.0000    874.6583     20.2335     -7.5381 100000.0000   -999.2500
  1583.2500    874.2130     20.8538     -6.5204 100000.0000   -999.2500
  1583.5000    873.8608     21.1360     -5.0494 100000.0000   -999.2500
  1583.7500    873.8741     21.0118     -3.0442 100000.0000   -999.2500
  1584.0000    874.3015     20.4502     -0.4438 100000.0000   -999.2500
  1584.2500    874.9769     19.4504      2.7722 100000.0000   -999.2500
  1584.5000    875.7047     18.0053      6.5634 100000.0000   -999.2500
  1584.7500    876.3452     16.0566     10.8158 100000.0000   -999.2500
  1585.0000    876.7069     13.5024     15.3447 100000.0000   -999.2500
  1585.2500    875.5626     10.2965     19.9150 100000.0000   -999.2500
  1585.5000    868.4940      6.5850     24.2774 100000.0000   -999.2500
  1585.7500    845.0559      2.7526     28.2099 100000.0000   -999.2500
  1586.0000    788.2534     -0.7016     31.5538 100000.0000   -999.2500
  1586.2500    682.1174     -3.3872     34.2335 100000.0000   -999.2500
  1586.5000    527.6564     -5.1773     36.2556 100000.0000   -999.2500
  1586.7500    352.4423     -6.1972     37.6917 100000.0000   -999.2500
  1587.0000    197.6077     -6.6930     38.6511 100000.0000   -999.2500
  1587.2500     91.0563     -6.8986     39.2538 100000.0000   -999.2500
  1587.5000     33.9620     -6.9713     39.6098 100000.0000   -999.2500
  1587.7500     10.1411     -6.9931     39.8074 100000.0000   -999.2500
  1588.0000      2.4026     -6.9988     39.9105 100000.0000   -999.2500
  1588.2500      0.4449   -999.2500     39.9610 100000.0000   -999.2500
  1588.5000      0.0592   -999.2500     39.9842 100000.0000   -999.2500
  1588.7500   -999.2500   -999.2500     39.9943   -999.2500   -999.2500
  1589.0000   -999.2500   -999.2500     39.9982   -999.2500   -999.2500
