~Version Information
VERS.                      2.0: CWLS Log ASCII Standard - VERSION 2.0
WRAP.                       NO: One line per depth step
~Well Information Block
STRT.FT               533.0000: 
STOP.FT              1578.0000: 
STEP.FT                 0.2500: 
NULL.                -999.2500: 
COMP.          Pioneer Natural Resources: COMPANY
WELL.           Telna 24-22 Tr: WELL
FLD.           Purgatoire River: FIELD
LOC.           748' FSL & 1931' FWL: LOCATION
PROV.                 Colorado: PROVINCE
CNTY.               Las Animas: COUNTRY
SRVC.                Patterson: SERVICE COMPANY
DATE.          Sun May 01 14:14:42 2005: LOG DATE
UWI.           05 071 08304 00: UNIQUE WELL ID
~Curve Information Block
DEPT.FT            0 000 00 00: Depth
SN.Ohm-m                      : IEL Short Normal
SP.mV                         : IEL Spontaneous Potential
DIR.Ohm-m                     : IEL Induction Resistivity
GR.GAPI                       : Gamma Ray
~Parameter Information Block
~A  Depth        SN          SP         DIR          GR     
# ...
  1136.0000      7.8715     15.5774      8.6891    141.9180
  1136.2500      7.1218     15.3951      8.3419    142.5594
  1136.5000      6.6347     15.1787      8.0353    142.6953
  1136.7500      6.2708     14.9226      7.7713    142.6348
  1137.0000      5.8918     14.6344      7.5479    143.1976
  1137.2500      5.4538     14.3369      7.3606    144.0884
  1137.5000      4.9989     14.0580      7.2039    145.2745
  1137.7500      4.6069     13.8158      7.0730    145.3098
  1138.0000      4.3609     13.6077      6.9652    144.0851
  1138.2500      4.3428     13.4124      6.8806    142.9959
  1138.5000      4.5896     13.2050      6.8221    142.0649
  1138.7500      5.0356     12.9725      6.7932    141.9785
  1139.0000      5.5484     12.7202      6.7951    141.6438
  1139.2500      6.0039     12.4661      6.8247    140.6754
  1139.5000      6.3208     12.2293      6.8744    138.1446
  1139.7500      6.4859     12.0176      6.9340    136.3056
  1140.0000      6.5550     11.8253      6.9938    134.1497
  1140.2500      6.5883     11.6413      7.0468    133.1720
  1140.5000      6.6017     11.4612      7.0905    132.0823
  1140.7500      6.5926     11.2895      7.1260    131.5107
  1141.0000      6.5779     11.1342      7.1575    131.0534
  1141.2500      6.5867     10.9963      7.1897    131.1378
  1141.5000      6.6295     10.8604      7.2267    131.6830
  1141.7500      6.6889     10.6943      7.2712    132.0430
  1142.0000      6.7373     10.4657      7.3249    132.3735
  1142.2500      6.7507     10.1651      7.3893    132.6819
  1142.5000      6.7099      9.8128      7.4661    133.6954
  1142.7500      6.6161      9.4461      7.5573    134.6380
  1143.0000      6.4991      9.0983      7.6657    135.9359
  1143.2500      6.3724      8.7851      7.7934    136.5775
  1143.5000      6.2132      8.5056      7.9420    137.1855
  1143.7500      6.0457      8.2501      8.1112    137.2204
  1144.0000      5.9795      8.0083      8.2988    136.3572
  1144.2500      6.0996      7.7735      8.5014    135.2084
  1144.5000      6.3945      7.5448      8.7137    133.2635
  1144.7500      6.8158      7.3289      8.9285    132.1935
  1145.0000      7.3193      7.1412      9.1370    130.8446
  1145.2500      7.8555      7.0012      9.3319    129.6038
  1145.5000      8.4065      6.9233      9.5116    126.3307
  1145.7500      8.9926      6.9101      9.6846    123.2088
  1146.0000      9.5812      6.9534      9.8678    118.1698
  1146.2500     10.0646      7.0422     10.0804    115.3243
  1146.5000     10.3786      7.1698     10.3350    112.5391
  1146.7500     10.5565      7.3351     10.6316    111.8185
  1147.0000     10.6425      7.5369     10.9564    112.5911
  1147.2500     10.6294      7.7708     11.2871    114.1920
  1147.5000     10.5041      8.0295     11.6001    117.0666
  1147.7500     10.3110      8.3042     11.8766    118.2943
  1148.0000     10.1452      8.5851     12.1046    118.0037
  1148.2500     10.1111      8.8627     12.2802    116.5332
  1148.5000     10.3097      9.1271     12.4100    113.4892
  1148.7500     10.8155      9.3628     12.5105    111.3905
  1149.0000     11.6079      9.5458     12.6036    108.3682
  1149.2500     12.5481      9.6512     12.7075    106.5356
  1149.5000     13.4495      9.6670     12.8322    104.5610
  1149.7500     14.1608      9.5992     12.9798    104.0285
  1150.0000     14.6122      9.4643     13.1503    104.2131
  1150.2500     14.8315      9.2765     13.3453    104.4637
  1150.5000     14.8988      9.0412     13.5660    103.9474
  1150.7500     14.8752      8.7566     13.8045    102.6081
  1151.0000     14.7911      8.4217     14.0338     99.2163
  1151.2500     14.6740      8.0424     14.2113     96.6686
  1151.5000     14.5621      7.6329     14.3003     94.2895
  1151.7500     14.4790      7.2119     14.2982     94.6858
  1152.0000     14.4093      6.7968     14.2406     98.6171
  1152.2500     14.3139      6.3996     14.1762    102.7249
  1152.5000     14.1519      6.0257     14.1372    109.3126
  1152.7500     13.9056      5.6759     14.1280    113.2515
  1153.0000     13.6099      5.3497     14.1354    117.8080
  1153.2500     13.3561      5.0466     14.1438    119.5906
  1153.5000     13.2380      4.7688     14.1441    119.8822
  1153.7500     13.2886      4.5223     14.1364    118.6352
  1154.0000     13.4781      4.3175     14.1282    115.8717
  1154.2500     13.7411      4.1650     14.1301    114.3609
  1154.5000     13.9849      4.0704     14.1508    113.4366
  1154.7500     14.1255      4.0306     14.1922    113.6351
  1155.0000     14.1590      4.0349     14.2522    114.6145
  1155.2500     14.1488      4.0710     14.3293    115.4242
  1155.5000     14.1302      4.1285     14.4285    116.3782
  1155.7500     14.1050      4.1978     14.5610    116.5573
  1156.0000     14.1064      4.2656     14.7364    115.9067
  1156.2500     14.1888      4.3142     14.9520    114.9825
  1156.5000     14.3764      4.3291     15.1871    113.4488
  1156.7500     14.6633      4.3083     15.4066    112.6575
  1157.0000     15.0381      4.2657     15.5768    111.7673
  1157.2500     15.4630      4.2238     15.6812    110.9405
  1157.5000     15.8419      4.2001     15.7261    108.6871
  1157.7500     16.0845      4.1976     15.7311    106.6621
  1158.0000     16.1812      4.2059     15.7130    104.1325
  1158.2500     16.1624      4.2119     15.6767    103.6912
  1158.5000     16.0624      4.2099     15.6171    105.6855
  1158.7500     15.9542      4.2028     15.5282    108.6345
  1159.0000     15.9568      4.1974     15.4103    114.7365
  1159.2500     16.1715      4.1977     15.2700    119.5088
  1159.5000     16.5578      4.2031     15.1140    126.9968
  1159.7500     16.9018      4.2102     14.9446    131.6725
  1160.0000     17.0079      4.2152     14.7604    137.4116
  1160.2500     16.8729      4.2116     14.5602    140.2309
  1160.5000     16.6211      4.1862     14.3468    143.1111
  1160.7500     16.3473      4.1199     14.1279    144.2366
  1161.0000     16.0588      3.9940     13.9171    144.8022
  1161.2500     15.6929      3.7975     13.7344    144.5437
  1161.5000     15.1675      3.5342     13.6026    143.6493
  1161.7500     14.4875      3.2263     13.5417    142.9815
  1162.0000     13.7896      2.9108     13.5621    141.9501
  1162.2500     13.2225      2.6270     13.6635    141.0439
  1162.5000     12.8777      2.4068     13.8351    138.9160
  1162.7500     12.8444      2.2745     14.0556    136.7767
  1163.0000     13.1631      2.2518     14.2919    132.0986
  1163.2500     13.7404      2.3583     14.4991    127.7400
  1163.5000     14.3997      2.6081     14.6272    119.2002
  1163.7500     15.0179      3.0090     14.6344    112.4934
  1164.0000     15.6300      3.5661     14.5016    102.1161
  1164.2500     16.3613      4.2809     14.2428     95.8256
  1164.5000     17.2299      5.1436     13.9043     88.7563
  1164.7500     18.0346      6.1281     13.5501     86.5267
  1165.0000     18.4430      7.1935     13.2395     88.4372
  1165.2500     18.2401      8.2875     13.0088     93.5479
  1165.5000     17.4980      9.3455     12.8625    105.5233
  1165.7500     16.4695     10.2930     12.7764    114.5403
  1166.0000     15.3945     11.0605     12.7088    126.5177
  1166.2500     14.4276     11.6084     12.6162    132.5348
  1166.5000     13.6285     11.9409     12.4685    138.5546
  1166.7500     12.9813     12.0976     12.2578    140.9316
  1167.0000     12.4447     12.1308     11.9979    142.6445
  1167.2500     11.9725     12.0852     11.7155    142.8920
  1167.5000     11.5287     11.9905     11.4399    142.8024
  1167.7500     11.1234     11.8620     11.1942    142.9927
  1168.0000     10.7885     11.7156     10.9926    143.7624
  1168.2500     10.5626     11.5900     10.8422    143.9677
  1168.5000     10.5113     11.5564     10.7472    142.7517
  1168.7500     10.6558     11.6868     10.7118    141.1523
  1169.0000     10.9257     11.9967     10.7394    139.2806
  1169.2500     11.2369     12.4153     10.8283    139.2559
