~Version Information
VERS.                      2.0: CWLS Log ASCII Standard - VERSION 2.0
WRAP.                       NO: One line per depth step
~Well Information Block
STRT.FT                -6.7500: 
STOP.FT              2058.2500: 
STEP.FT                 0.2500: 
NULL.                -999.2500: 
COMP.          Petrogulf Corporation: COMPANY
WELL.           Schedler 9-23R: WELL
FLD.           Purgatorie River: FIELD
LOC.           2084' FSL & 2331' FWL--: LOCATION
PROV.                       CO: PROVINCE
CNTY.               Las Animas: COUNTRY
SRVC.                         : SERVICE COMPANY
DATE.          Fri Nov 12 13:22:46 2004: LOG DATE
UWI.       005 071 08040 : UNIQUE WELL ID
~Curve Information Block
DEPT.FT            0 000 00 00: Depth
GR.GAPI                       : Gamma Ray
CCL.                          : Casing Collar Locator
TT3.usec                      : CBL 3' Travel Time
AMP3.mV                       : CBL 3' Amplitude
~Parameter Information Block
~A  Depth        GR         CCL         TT3         AMP3    
# ...
  1098.7500    125.9721      0.0000    637.5681     17.2044
  1099.0000    126.5491      0.0000    635.2462     17.1484
  1099.2500    125.6985      0.0000    647.4806     16.8071
  1099.5000    123.1757      0.0000    664.9998     16.2589
  1099.7500    119.4634      0.0000    679.4721     15.5216
  1100.0000    115.9232      0.0000    685.7906     14.6406
  1100.2500    114.1572      0.0000    684.7696     13.6884
  1100.5000    115.1713      0.0000    682.8038     12.7079
  1100.7500    118.8225      0.0000    688.1188     11.6926
  1101.0000    123.4475      0.0000    706.7977     10.6223
  1101.2500    125.8650      0.0000    739.4245      9.5084
  1101.5000    122.5935      0.0000    778.6962      8.4096
  1101.7500    112.2496      0.0000    811.6229      7.4004
  1102.0000     97.1056      0.0000    827.5102      6.5296
  1102.2500     81.9575      0.0000    825.2432      5.8123
  1102.5000     71.3543      0.0000    812.6346      5.2512
  1102.7500     67.7097      0.0000    799.4440      4.8533
  1103.0000     70.8781      0.0000    791.6673      4.6249
  1103.2500     78.2999      0.0000    790.9595      4.5583
  1103.5000     85.8913      0.0000    797.0912      4.6372
  1103.7500     90.1760      0.0000    809.5527      4.8585
  1104.0000     90.2487      0.0000    826.4202      5.2412
  1104.2500     87.7670      0.0000    842.7461      5.7974
  1104.5000     85.4896      0.0000    852.3127      6.4937
  1104.7500     85.8819      0.0000    851.8039      7.2563
  1105.0000     90.1890      0.0000    842.3578      8.0223
  1105.2500     98.0363      0.0000    827.6534      8.7805
  1105.5000    107.8504      0.0000    812.0656      9.5691
  1105.7500    117.8405      0.0000    799.4669     10.4458
  1106.0000    126.7480      0.0000    791.1078     11.4491
  1106.2500    133.9308      0.0000    784.7444     12.5501
  1106.5000    138.9252      0.0000    777.4936     13.6221
  1106.7500    141.1930      0.0000    769.1990     14.4780
  1107.0000    140.7167      0.0000    761.9738     14.9691
  1107.2500    138.6427      0.0000    757.3925     15.0688
  1107.5000    136.6773      0.0000    755.2783     14.8704
  1107.7500    135.8509      0.0000    754.5888     14.5154
  1108.0000    136.2818      0.0000    754.4470     14.1256
  1108.2500    137.8571      0.0000    754.4042     13.7850
  1108.5000    140.4479      0.0000    754.3178     13.5431
  1108.7500    143.4009      0.0000    754.2245     13.4067
  1109.0000    145.4513      0.0000    754.2106     13.3328
  1109.2500    145.7242      0.0000    754.3065     13.2499
  1109.5000    144.7655      0.0000    754.4525     13.0984
  1109.7500    143.9007      0.0000    754.5709     12.8534
  1110.0000    143.2210      0.0000    754.6450     12.5229
  1110.2500    141.1209      0.0000    754.7214     12.1366
  1110.5000    136.5450      0.0000    754.8448     11.7371
  1110.7500    130.8483      0.0000    754.9998     11.3686
  1111.0000    126.5571      0.0000    755.1155     11.0654
  1111.2500    124.7145      0.0000    755.1223     10.8441
  1111.5000    124.1226      0.0000    755.0062     10.7065
  1111.7500    122.9908      0.0000    754.8226     10.6492
  1112.0000    120.8117      0.0000    754.6578     10.6666
  1112.2500    118.5542      0.0000    754.5767     10.7419
  1112.5000    117.5417      0.0000    754.5940     10.8386
  1112.7500    118.6631      0.0000    754.6859     10.9115
  1113.0000    122.2674      0.0000    754.8165     10.9339
  1113.2500    127.7797      0.0000    754.9597     10.9123
  1113.5000    133.1926      0.0000    755.1083     10.8776
  1113.7500    135.8318      0.0000    755.2687     10.8676
  1114.0000    134.4057      0.0000    755.5463     10.9138
  1114.2500    130.1788      0.0000    756.3949     11.0265
  1114.5000    125.7824      0.0000    758.8913     11.1860
  1114.7500    122.9910      0.0000    764.4464     11.3537
  1115.0000    121.8139      0.0000    773.4053     11.4967
  1115.2500    121.2652      0.0000    783.3937     11.6008
  1115.5000    120.3284      0.0000    789.9078     11.6666
  1115.7500    118.2635      0.0000    789.8573     11.6927
  1116.0000    114.7335      0.0000    784.3431     11.6645
  1116.2500    109.9992      0.0000    777.0728     11.5648
  1116.5000    104.9860      0.0000    770.6780     11.4018
  1116.7500    101.0411      0.0000    765.5423     11.2184
  1117.0000     99.3236      0.0000    761.2817     11.0635
  1117.2500    100.1628      0.0000    757.8410     10.9598
  1117.5000    102.8216      0.0000    755.1888     10.9046
  1117.7500    105.7088      0.0000    752.8318     10.8957
  1118.0000    106.9584      0.0000    749.9170     10.9483
  1118.2500    105.2944      0.0000    745.7833     11.0763
  1118.5000    100.6011      0.0000    740.6212     11.2576
  1118.7500     93.6758      0.0000    735.5836     11.4287
  1119.0000     85.6531      0.0000    732.0323     11.5264
  1119.2500     77.7333      0.0000    730.7454     11.5306
  1119.5000     71.0476      0.0000    731.9440     11.4617
  1119.7500     66.3767      0.0000    735.5021     11.3477
  1120.0000     63.9987      0.0000    740.6314     11.2085
  1120.2500     63.9475      0.0000    745.8340     11.0645
  1120.5000     66.2541      0.0000    749.7576     10.9443
  1120.7500     70.5578      0.0000    752.0051     10.8751
  1121.0000     75.6232      0.0000    753.0032     10.8666
  1121.2500     79.7530      0.0000    753.3569     10.9033
  1121.5000     81.6899      0.0000    753.4611     10.9516
  1121.7500     80.8952      0.0000    753.4836     10.9798
  1122.0000     77.3736      0.0000    753.4700     10.9778
  1122.2500     71.9095      0.0000    753.4240     10.9524
  1122.5000     66.3679      0.0000    753.3466     10.9068
  1122.7500     62.9885      0.0000    753.2474     10.8348
  1123.0000     62.7969      0.0000    753.1409     10.7422
  1123.2500     64.7364      0.0000    753.0363     10.6572
  1123.5000     66.5542      0.0000    752.9308     10.6069
  1123.7500     66.5745      0.0000    752.8144     10.5867
  1124.0000     64.7303      0.0000    752.6837     10.5685
  1124.2500     62.1788      0.0000    752.5533     10.5338
  1124.5000     60.0399      0.0000    752.4461     10.4932
  1124.7500     58.5329      0.0000    752.3746     10.4730
  1125.0000     57.2741      0.0000    752.3402     10.4938
  1125.2500     56.0337      0.0000    752.3505     10.5586
  1125.5000     54.8955      0.0000    752.4239     10.6550
  1125.7500     54.0557      0.0000    752.5648     10.7653
  1126.0000     54.1064      0.0000    752.7388     10.8802
  1126.2500     56.4813      0.0000    752.8809     11.0014
  1126.5000     62.9331      0.0000    752.9312     11.1236
  1126.7500     74.2700      0.0000    752.8478     11.2064
  1127.0000     89.7261      0.0000    752.5461     11.1667
  1127.2500    107.2063      0.0000    751.7623     10.9268
  1127.5000    123.6897      0.0000    750.1400     10.5077
  1127.7500    136.1258      0.0000    747.8893     10.0694
  1128.0000    143.1472      0.0000    746.7606      9.8054
  1128.2500    145.9557      0.0000    749.6904      9.7770
  1128.5000    146.8362      0.0000    757.8818      9.8799
  1128.7500    146.9055      0.0000    767.8309      9.9682
  1129.0000    145.7420      0.0000    772.8848      9.9727
  1129.2500    142.9787     -2.0000    769.0429      9.9132
  1129.5000    139.6104      0.0000    758.4479      9.8510
  1129.7500    137.4299      0.0000    746.7800      9.8341
  1130.0000    137.3150      0.0000    738.5368      9.8709
  1130.2500    138.4251      0.0000    735.0507      9.9499
  1130.5000    139.1023      0.0000    735.2570     10.0703
  1130.7500    138.1751      0.0000    737.0973     10.2287
  1131.0000    135.4125      0.0000    738.9272     10.3974
  1131.2500    131.3217      0.0000    740.6111     10.5590
  1131.5000    126.7647      0.0000    743.0606     10.7371
  1131.7500    122.3809      0.0000    746.5256     10.9446
  1132.0000    118.0630      0.0000    750.0541     11.1340
