~Version Information
VERS.                      2.0: CWLS Log ASCII Standard - VERSION 2.0
WRAP.                       NO: One line per depth step
~Well Information Block
STRT.FT               546.0000: 
STOP.FT              1771.5000: 
STEP.FT                 0.2500: 
NULL.                -999.2500: 
COMP.          Petrogulf Corporation: COMPANY
WELL.             McLeod 9-42R: WELL
FLD.           Purgatorie River: FIELD
LOC.           1748' FNL & 372' FEL: LOCATION
PROV.                 Colorado: PROVINCE
CNTY.               Las Animas: COUNTRY
SRVC.                Patterson: SERVICE COMPANY
DATE.          Tue Aug 16 11:11:38 2005: LOG DATE
UWI.           071 08092  : UNIQUE WELL ID
~Curve Information Block
DEPT.FT            0 000 00 00: Depth
SP.mV                         : DIL Spontaneous Potential
RILD.Ohm-m                    : DIL Deep Resistivity
RILM.Ohm-m                    : DIL Medium Resistivity
RLL3.Ohm-m                    : DIL Shallow Resistivity
GR.GAPI                       : Gamma Ray
~Parameter Information Block
~A  Depth        SP         RILD        RILM        RLL3         GR     
# ...
  1414.0000     71.5976     11.8293     11.7778     12.1414    136.4200
  1414.2500     74.0602     11.5352     11.0995     11.7236    132.8794
  1414.5000     78.1982     10.9828     10.1647     11.6017    137.4661
  1414.7500     81.2464     10.4821      9.9215     11.5589    141.0337
  1415.0000     82.7443      9.6395      9.2929     10.5075    142.5098
  1415.2500     85.1409     10.2385      9.0326      8.8807    136.6358
  1415.5000     85.1340      9.9920      8.9209      8.4321    128.2358
  1415.7500     85.4243      9.6088      8.8754      8.9083    119.0802
  1416.0000     84.6279      9.3472      9.3845      9.9878    108.7936
  1416.2500     86.2602      9.2869      9.7704     10.8314    104.3252
  1416.5000     87.0117      9.7038     10.0510     12.4545     94.8354
  1416.7500     86.9216      9.3651     10.0130     16.6600     92.6533
  1417.0000     84.2733      9.6708     10.4283     24.3916     96.2994
  1417.2500     85.0346     10.1206     10.3861     26.8112    105.9431
  1417.5000     83.6108     10.1460     10.1072     18.2822    119.0466
  1417.7500     84.0320     10.7240     10.4858     14.8387    122.9671
  1418.0000     82.5832     10.8761     10.8059     16.1145    123.5779
  1418.2500     82.8485     11.0396     11.3825     18.6452    117.3068
  1418.5000     81.6865     12.3665     11.7719     18.9058    122.3404
  1418.7500     81.5586     12.5771     12.9838     17.0867    116.2785
  1419.0000     80.2751     13.4561     12.4137     15.5869    106.2963
  1419.2500     80.2538     14.1117     13.2499     14.6982    106.0623
  1419.5000     78.6235     14.7908     14.0288     15.2265    103.8914
  1419.7500     78.7885     14.3391     15.0927     18.0808    105.9405
  1420.0000     77.1512     14.4662     15.4689     23.6934     99.9088
  1420.2500     77.4165     15.4958     16.2261     25.8528     93.8124
  1420.5000     76.9462     14.3723     17.0712     24.4568     81.8274
  1420.7500     75.3692     15.7676     18.8189     24.9046     74.1334
  1421.0000     72.4700     17.6989     19.8250     32.3635     74.0091
  1421.2500     72.1350     17.6739     21.5677     41.3854     67.3227
  1421.5000     71.7944     18.8620     23.1036     47.5247     61.0318
  1421.7500     69.9726     19.3461     25.3851     47.3501     55.8570
  1422.0000     67.3681     19.4671     28.9548     48.4507     46.5544
  1422.2500     65.5472     19.6840     28.7449     50.1963     47.9543
  1422.5000     62.4317     20.9517     29.8189     53.7328     54.6545
  1422.7500     60.4564     22.9272     29.2679     55.3469     47.6118
  1423.0000     57.4344     24.4101     33.2644     54.1405     54.9538
  1423.2500     55.7909     26.8552     35.9113     52.3410     52.3663
  1423.5000     51.6745     27.7565     34.4410     52.0651     47.6147
  1423.7500     48.9893     26.2500     36.9221     51.4121     52.1579
  1424.0000     47.0871     25.5790     36.3918     49.2275     48.2460
  1424.2500     45.6890     24.9473     41.8598     47.3531     50.5348
  1424.5000     43.4797     26.6289     37.8669     45.3164     52.0728
  1424.7500     43.9119     26.5655     38.5628     43.8550     53.4425
  1425.0000     42.2126     27.7238     37.8120     43.6351     55.0651
  1425.2500     40.9947     30.2632     36.3565     44.5869     53.0215
  1425.5000     39.8550     26.4825     36.7982     45.6478     49.4632
  1425.7500     39.4680     28.0829     38.6682     46.7778     54.4588
  1426.0000     38.2084     27.3963     40.3061     47.8040     49.8699
  1426.2500     36.0880     27.9949     38.1603     48.6255     51.7521
  1426.5000     34.7718     29.7270     36.5355     49.4738     54.4607
  1426.7500     34.7595     29.4952     46.1204     49.5452     51.9550
  1427.0000     36.6610     34.5506     43.1726     49.7884     50.0236
  1427.2500     37.4168     32.6163     39.8738     48.9592     46.6609
  1427.5000     35.7602     31.4309     40.0423     50.0031     48.7031
  1427.7500     36.6251     27.3391     37.0808     53.0193     51.8698
  1428.0000     39.2735     25.6533     32.6588     55.6504     59.5048
  1428.2500     42.8452     23.1155     23.3500     58.0698     72.8906
  1428.5000     49.2323     21.5835     20.2409     57.4942    106.5304
  1428.7500     56.4634     20.6854     19.3739     47.2144    119.1445
  1429.0000     62.5483     21.4673     16.3179     29.0168    133.5630
  1429.2500     67.5285     22.0968     15.1160     12.9361    138.5325
  1429.5000     71.2526     20.1099     14.6472      9.5580    132.2759
  1429.7500     74.3205     18.0372     14.4473      8.8286    121.3539
  1430.0000     76.9301     18.4547     15.4672      9.2264    115.1450
  1430.2500     77.6718     16.8338     16.5556     11.5513     99.0047
  1430.5000     78.1527     16.3139     16.6622     15.8736     87.0220
  1430.7500     79.6659     14.4649     15.6634     25.1179     87.5219
  1431.0000     81.8588     13.3061     14.9374     27.7845     99.0034
  1431.2500     83.5644     12.5574     14.9423     27.2203     93.5765
  1431.5000     86.0983     11.7653     14.3192     24.3740    102.3038
  1431.7500     86.9004     12.5802     13.4254     22.5455     94.6461
  1432.0000     87.4767     11.6566     12.8881     25.0599     94.1626
  1432.2500     89.1393     11.4939     11.6427     30.2572    106.5461
  1432.5000     90.1303     11.0924     11.0864     31.2242    116.5376
  1432.7500     93.3579     10.3772     10.2446     21.8358    129.0711
  1433.0000     95.2493      9.9428      9.6252     13.7399    134.0211
  1433.2500     96.1226      9.8425      9.1449      9.0146    146.0678
  1433.5000     98.7392      9.9250      9.0932      8.4758    139.3455
  1433.7500    100.0148      9.5121      9.0334      8.9929    130.8902
  1434.0000    100.6765      8.9874      8.8235      9.1144    133.0009
  1434.2500    101.9261      8.4235      8.8369      8.8905    125.9544
  1434.5000    101.7970      8.1794      8.9693      9.0636    111.5518
  1434.7500    100.7672      7.9070      8.9529      9.4518    116.6956
  1435.0000     99.0004      7.7272      8.9523     10.3934    113.7374
  1435.2500     98.1353      7.7883      8.8879     11.4843    114.5096
  1435.5000     98.2629      7.9277      8.4828     11.8550    108.5919
  1435.7500     99.2050      7.7693      8.6635     11.7724    114.4281
  1436.0000     98.4766      7.8386      8.6408     11.8355    118.0951
  1436.2500     99.8315      7.7706      8.5794     11.7922    118.0935
  1436.5000     99.1058      8.2261      8.5756     11.6883    128.8002
  1436.7500     98.6196      8.5069      8.7570     11.5725    124.3620
  1437.0000     97.1435      7.8796      8.9158     11.4019    118.6060
  1437.2500     96.2702      7.8743      8.7095     11.1685    118.4550
  1437.5000     94.0466      8.0689      8.8184     11.1919    109.5027
  1437.7500     92.6628      8.1913      9.1236     11.6275    110.0427
  1438.0000     89.3533      8.0324      8.9184     12.0140    111.2023
  1438.2500     87.2808      8.1547      9.2146     11.9395    115.9877
  1438.5000     84.3130      8.2438      9.0817     11.7096    116.6565
  1438.7500     82.9964      8.0812      9.2077     11.9651    117.4687
  1439.0000     81.3490      8.3762      9.2389     11.8844    113.1881
  1439.2500     82.0097      8.5144      9.3457     11.5787    119.1533
  1439.5000     79.7420      8.7013      9.3385     11.3663    120.9580
  1439.7500     79.5457      8.8235      9.5598     11.9888    114.3572
  1440.0000     79.6689      8.8635      9.8011     12.5298    113.5760
  1440.2500     79.2012      9.1806      9.7238     13.1654    110.6396
  1440.5000     77.5270      9.5536      9.7802     13.7053    111.5488
  1440.7500     77.2815      9.9418     10.4081     13.7733    105.4054
  1441.0000     74.4663     10.3243     10.3565     14.1016    111.8364
  1441.2500     72.2593     10.8086     10.5512     14.0738    117.8121
  1441.5000     68.2160     11.4958     10.8322     14.1837    107.3179
  1441.7500     66.6537     12.3802     11.2521     14.4663    107.9223
