~Version Information
VERS.                      2.0: CWLS Log ASCII Standard - VERSION 2.0
WRAP.                       NO: One line per depth step
~Well Information Block
STRT.FT               750.0000: 
STOP.FT              2433.0000: 
STEP.FT                 0.2500: 
NULL.                -999.2500: 
COMP.          Petrogulf Corporation: COMPANY
WELL.           McDaniel 9-34V: WELL
FLD.           Purgatorie River: FIELD
LOC.           620' FSL & 1800' FEL: LOCATION
PROV.                 Colorado: PROVINCE
CNTY.               Las Animas: COUNTRY
SRVC.                Patterson: SERVICE COMPANY
DATE.          Tue Sep 27 19:56:11 2005: LOG DATE
UWI.                          : UNIQUE WELL ID
~Curve Information Block
DEPT.FT            0 000 00 00: Depth
SP.mV                         : DIL Spontaneous Potential
RILD.Ohm-m                    : DIL Deep Resistivity
RILM.Ohm-m                    : DIL Medium Resistivity
RLL3.Ohm-m                    : DIL Shallow Resistivity
GR.GAPI                       : Gamma Ray
~Parameter Information Block
~A  Depth        SP         RILD        RILM        RLL3         GR     
# ...
  2066.0000    142.5583     12.8943     13.3086     15.5435     78.7491
  2066.2500    142.0520     12.8248     13.1413     14.7861     78.6725
  2066.5000    141.5500     12.7805     13.0083     13.9997     78.1984
  2066.7500    141.0442     12.7505     12.9128     13.4293     77.7817
  2067.0000    140.5276     12.7248     12.8518     13.3654     76.8078
  2067.2500    139.9967     12.6994     12.8174     14.0664     75.7036
  2067.5000    139.4521     12.6781     12.7993     15.5950     73.2012
  2067.7500    138.8981     12.6697     12.7880     17.5870     70.9609
  2068.0000    138.3409     12.6828     12.7787     19.2177     66.7026
  2068.2500    137.7858     12.7226     12.7728     19.6388     63.3380
  2068.5000    137.2361     12.7914     12.7782     18.6512     58.2286
  2068.7500    136.6915     12.8892     12.8059     16.9262     55.5657
  2069.0000    136.1494     13.0135     12.8660     15.4888     54.0346
  2069.2500    135.6059     13.1581     12.9642     14.9934     55.0007
  2069.5000    135.0584     13.3128     13.0994     15.4481     58.9956
  2069.7500    134.5065     13.4662     13.2632     16.4373     62.6794
  2070.0000    133.9534     13.6101     13.4425     17.4751     68.2588
  2070.2500    133.4050     13.7431     13.6224     18.2296     71.1667
  2070.5000    132.8690     13.8718     13.7907     18.5869     73.4617
  2070.7500    132.3531     14.0068     13.9411     18.5991     73.7155
  2071.0000    131.8635     14.1560     14.0747     18.3729     73.0199
  2071.2500    131.4046     14.3200     14.1994     17.9909     72.2109
  2071.5000    130.9794     14.4929     14.3279     17.5185     70.5576
  2071.7500    130.5911     14.6661     14.4748     17.0545     69.2046
  2072.0000    130.2442     14.8331     14.6527     16.7357     67.4120
  2072.2500    129.9453     14.9879     14.8696     16.6922     66.8739
  2072.5000    129.7027     15.1225     15.1256     17.0591     67.4464
  2072.7500    129.5253     15.2264     15.4104     18.1327     68.6034
  2073.0000    129.4208     15.2913     15.7024     20.5428     70.7779
  2073.2500    129.3945     15.3190     15.9697     25.0593     71.8159
  2073.5000    129.4489     15.3244     16.1767     31.7695     71.1354
  2073.7500    129.5830     15.3314     16.2938     39.1275     68.5100
  2074.0000    129.7928     15.3641     16.3085     44.1292     61.8784
  2074.2500    130.0705     15.4403     16.2323     44.1755     57.0224
  2074.5000    130.4040     15.5705     16.0993     39.1591     51.6745
  2074.7500    130.7765     15.7593     15.9568     31.5749     50.3351
  2075.0000    131.1667     16.0060     15.8541     24.5264     52.1600
  2075.2500    131.5502     16.3034     15.8330     19.7655     55.6963
  2075.5000    131.9019     16.6354     15.9223     17.4053     63.0737
  2075.7500    132.1999     16.9785     16.1379     16.8290     68.1549
  2076.0000    132.4287     17.3092     16.4829     17.4658     74.2886
  2076.2500    132.5823     17.6127     16.9513     18.9166     76.8768
  2076.5000    132.6657     17.8895     17.5305     20.8013     78.0809
  2076.7500    132.6939     18.1547     18.2048     22.7596     76.9948
  2077.0000    132.6899     18.4321     18.9596     24.6156     73.1797
  2077.2500    132.6811     18.7488     19.7838     26.4619     70.1642
  2077.5000    132.6954     19.1299     20.6711     28.5185     66.7194
  2077.7500    132.7582     19.5948     21.6198     30.8724     65.5036
  2078.0000    132.8903     20.1538     22.6296     33.3442     64.3964
  2078.2500    133.1074     20.8053     23.6978     35.6182     63.2893
  2078.5000    133.4214     21.5343     24.8149     37.4961     60.4864
  2078.7500    133.8418     22.3105     25.9601     38.9666     58.2196
  2079.0000    134.3766     23.0833     27.0968     40.0465     55.2101
  2079.2500    135.0324     23.7821     28.1697     40.7514     53.7054
  2079.5000    135.8133     24.3267     29.1031     41.5446     51.7565
  2079.7500    136.7178     24.6499     29.8035     44.0402     50.2010
  2080.0000    137.7360     24.7205     30.1712     51.0799     47.2076
  2080.2500    138.8473     24.5523     30.1231     65.1542     45.1123
  2080.5000    140.0191     24.1945     29.6233     85.2841     42.7635
  2080.7500    141.2084     23.7144     28.7058    104.9481     42.0261
  2081.0000    142.3639     23.1797     27.4738    114.5950     42.0485
  2081.2500    143.4316     22.6473     26.0724    108.3432     42.6973
  2081.5000    144.3600     22.1558     24.6488     88.7961     44.8774
  2081.7500    145.1066     21.7229     23.3205     64.7983     47.5118
  2082.0000    145.6440     21.3474     22.1624     44.6799     53.7714
  2082.2500    145.9647     21.0161     21.2103     31.8207     59.4371
  2082.5000    146.0840     20.7127     20.4723     25.2487     68.9569
  2082.7500    146.0404     20.4253     19.9411     22.5051     74.6154
  2083.0000    145.8917     20.1524     19.6043     21.5820     79.7544
  2083.2500    145.7082     19.9037     19.4504     21.3455     80.5407
  2083.5000    145.5627     19.6923     19.4708     21.3291     79.2304
  2083.7500    145.5186     19.5236     19.6581     21.5927     78.1181
  2084.0000    145.6202     19.3847     20.0005     22.8503     77.8506
  2084.2500    145.8858     19.2443     20.4734     26.8386     78.9543
  2084.5000    146.3061     19.0630     21.0281     36.6065     82.1662
  2084.7500    146.8497     18.8083     21.5830     55.8919     84.5358
  2085.0000    147.4722     18.4666     22.0219     86.6206     86.2486
  2085.2500    148.1278     18.0467     22.2109    125.0825     85.0576
  2085.5000    148.7801     17.5741     22.0365    160.2049     79.4457
  2085.7500    149.4080     17.0811     21.4516    177.8143     74.0035
  2086.0000    150.0061     16.5966     20.5005    169.6113     65.7822
  2086.2500    150.5803     16.1385     19.3014    139.2773     61.8182
  2086.5000    151.1397     15.7114     17.9990     99.6632     60.1683
  2086.7500    151.6887     15.3089     16.7183     63.9758     62.3785
  2087.0000    152.2214     14.9185     15.5423     39.0941     69.8192
  2087.2500    152.7203     14.5272     14.5113     25.1037     76.2765
  2087.5000    153.1603     14.1268     13.6351     18.6828     85.7403
  2087.7500    153.5142     13.7163     12.9053     16.3305     90.8438
  2088.0000    153.7591     13.3035     12.3064     15.7345     96.0458
  2088.2500    153.8814     12.9035     11.8218     15.7530     98.1538
  2088.5000    153.8771     12.5372     11.4379     15.9495    100.4471
  2088.7500    153.7506     12.2272     11.1446     16.2016    102.1360
  2089.0000    153.5112     11.9944     10.9363     16.4788    105.4650
  2089.2500    153.1697     11.8551     10.8110     16.7525    107.7579
  2089.5000    152.7366     11.8197     10.7700     16.9865    109.3761
  2089.7500    152.2215     11.8915     10.8176     17.1405    108.2685
  2090.0000    151.6362     12.0663     10.9604     17.1666    103.7485
  2090.2500    150.9967     12.3315     11.2060     17.0472    100.3517
  2090.5000    150.3273     12.6657     11.5616     16.9155     97.5869
  2090.7500    149.6620     13.0385     12.0299     17.1755     98.0741
  2091.0000    149.0446     13.4128     12.6048     18.4514    101.4551
  2091.2500    148.5253     13.7479     13.2638     21.2889    104.0600
  2091.5000    148.1548     14.0048     13.9614     25.7488    105.8682
  2091.7500    147.9753     14.1540     14.6250     31.2362    104.9753
  2092.0000    148.0116     14.1810     15.1606     36.7155    101.6917
  2092.2500    148.2643     14.0893     15.4731     41.0014     99.8034
  2092.5000    148.7072     13.8956     15.4962     42.8555     99.3063
  2092.7500    149.2890     13.6217     15.2176     41.2799    100.1755
  2093.0000    149.9414     13.2865     14.6821     36.2841    100.7397
  2093.2500    150.5899     12.9037     13.9704     29.3112     99.4614
  2093.5000    151.1666     12.4840     13.1701     22.4879     95.7938
  2093.7500    151.6222     12.0379     12.3534     17.3332     93.8154
