~Version Information
VERS.                      2.0: CWLS Log ASCII Standard - VERSION 2.0
WRAP.                       NO: One line per depth step
~Well Information Block
STRT.FT                 0.7500: 
STOP.FT              2144.0000: 
STEP.FT                 0.2500: 
NULL.                -999.2500: 
COMP.          Petrogulf Corporation: COMPANY
WELL.            Montoya 1-44R: WELL
FLD.           Purgatorie River: FIELD
LOC.           658' FSL & 1052' FWL: LOCATION
CNTY.               Las Animas: COUNTY
SRVC.                         : SERVICE COMPANY
DATE.          Tue Nov 30 08:31:55 2004: LOG DATE
UWI.           05 071 08239 00: UNIQUE WELL ID
STAT.                 Colorado: STATE
~Curve Information Block
DEPT.FT            0 000 00 00: Depth
TT3.usec                      : CBL 3' Travel Time
AMP3.mV                       : CBL 3' Amplitude
GR.GAPI                       : Gamma Ray
CCL.                          : Casing Collar Locator
~Parameter Information Block
~A  Depth       TT3         AMP3         GR         CCL     
# ...
  1977.2500    460.9040      8.7242    130.3123      0.0000
  1977.5000    467.8451      8.5491    115.6034      0.0000
  1977.7500    470.5290      8.2077     98.3129      0.0000
  1978.0000    478.3227      7.7217     80.7969      0.0000
  1978.2500    503.4584      7.1938     65.3566      0.0000
  1978.5000    549.9824      6.7699     53.6714      0.0000
  1978.7500    608.5997      6.5658     46.5484      0.0000
  1979.0000    662.9142      6.6174     43.9972      0.0000
  1979.2500    700.2159      6.8922     45.5263      0.0000
  1979.5000    716.6336      7.3307     50.5351      0.0000
  1979.7500    715.7260      7.8617     58.6277      0.0000
  1980.0000    706.0358      8.3862     69.6815      0.0000
  1980.2500    698.0825      8.7880     83.5778      0.0000
  1980.5000    698.4213      8.9959     99.7312      0.0000
  1980.7500    704.7693      9.0443    116.8011      0.0000
  1981.0000    707.6486      9.0520    132.9067      0.0000
  1981.2500    696.2702      9.1379    146.2970      0.0000
  1981.5000    663.8726      9.3539    156.0205      0.0000
  1981.7500    611.7994      9.6694    162.0910      0.0000
  1982.0000    550.5637      9.9825    165.0952      0.0000
  1982.2500    494.4170     10.1659    165.6902      0.0000
  1982.5000    452.6206     10.1489    164.4615      0.0000
  1982.7500    426.1140      9.9718    162.1450      0.0000
  1983.0000    411.5236      9.7406    159.7410      0.0000
  1983.2500    405.7100      9.5332    158.2166      0.0000
  1983.5000    406.2923      9.3561    158.0028      0.0000
  1983.7500    410.3820      9.1812    158.7447      0.0000
  1984.0000    414.8469      9.0077    159.4751      0.0000
  1984.2500    417.7348      8.8713    159.0482      0.0000
  1984.5000    418.7217      8.7901    156.6600      0.0000
  1984.7500    418.5453      8.7248    152.3480      0.0000
  1985.0000    418.8378      8.6131    147.2430      0.0000
  1985.2500    422.7186      8.4338    143.2455      0.0000
  1985.5000    433.9185      8.2250    142.1405      0.0000
  1985.7500    452.8356      8.0525    144.6736      0.0000
  1986.0000    472.9421      7.9634    150.2010      0.0000
  1986.2500    483.9644      7.9459    157.0169      0.0000
  1986.5000    481.1119      7.9232    163.0083      0.0000
  1986.7500    469.7424      7.8052    166.3076      0.0000
  1987.0000    459.1021      7.5684    165.8266      0.0000
  1987.2500    453.1917      7.2806    161.5663      0.0000
  1987.5000    449.3598      7.0336    154.5314      0.0000
  1987.7500    443.7909      6.8547    146.2560      0.0000
  1988.0000    436.2177      6.6920    138.2449      0.0000
  1988.2500    430.1279      6.4787    131.6831      0.0000
  1988.5000    430.8115      6.1961    127.4196      0.0000
  1988.7500    443.6339      5.8724    125.9867      0.0000
  1989.0000    471.9231      5.5378    127.4756      0.0000
  1989.2500    514.1721      5.1974    131.3764      0.0000
  1989.5000    563.0775      4.8422    136.5777      0.0000
  1989.7500    607.5902      4.4765    141.5798      0.0000
  1990.0000    635.4896      4.1338    144.8958      0.0000
  1990.2500    636.7762      3.8687    145.5432      0.0000
  1990.5000    610.5295      3.7259    143.4566      0.0000
  1990.7500    570.6956      3.7124    139.5058      0.0000
  1991.0000    541.5367      3.8002    134.9722      0.0000
  1991.2500    542.9523      3.9482    130.7944      0.0000
  1991.5000    577.0811      4.1173    127.1922      0.0000
  1991.7500    627.1734      4.2689    123.9466      0.0000
  1992.0000    669.8314      4.3619    120.9192      0.0000
  1992.2500    690.4796      4.3641    118.1909      0.0000
  1992.5000    689.3851      4.2705    115.7188      0.0000
  1992.7500    675.4902      4.1051    113.0381      0.0000
  1993.0000    657.2101      3.9011    109.4635      0.0000
  1993.2500    638.8940      3.6842    104.6024      0.0000
  1993.5000    622.6571      3.4751     98.6255      0.0000
  1993.7500    610.2010      3.2933     92.0591      0.0000
  1994.0000    602.4302      3.1482     85.4007      0.0000
  1994.2500    598.7548      3.0315     78.9369      0.0000
  1994.5000    597.6075      2.9281     72.8112      0.0000
  1994.7500    597.5157      2.8321     67.1501      0.0000
  1995.0000    597.6266      2.7492     62.1167      0.0000
  1995.2500    597.6360      2.6867     57.8895      0.0000
  1995.5000    597.5252      2.6465     54.6056      0.0000
  1995.7500    597.3659      2.6252     52.3020      0.0000
  1996.0000    597.2231      2.6182     50.9168      0.0000
  1996.2500    597.1383      2.6233     50.3511      0.0000
  1996.5000    597.1533      2.6395     50.5075      0.0000
  1996.7500    597.3396      2.6652     51.2285      0.0000
  1997.0000    597.7982      2.6963     52.2165      0.0000
  1997.2500    598.6301      2.7289     53.0992      0.0000
  1997.5000    599.9957      2.7631     53.6591      0.0000
  1997.7500    602.3764      2.8019     54.0261      0.0000
  1998.0000    607.0257      2.8458     54.5909      0.0000
  1998.2500    616.1227      2.8920     55.6444      0.0000
  1998.5000    631.7623      2.9371     57.0395      0.0000
  1998.7500    653.7696      2.9784     58.1979      0.0000
  1999.0000    678.3705      3.0101     58.4843      0.0000
  1999.2500    699.8600      3.0236     57.6405      0.0000
  1999.5000    714.0600      3.0154     55.9245      0.0000
  1999.7500    719.9445      2.9941     53.8954      0.0000
  2000.0000    718.3458      2.9784     52.0825      0.0000
  2000.2500    710.2915      2.9884     50.7964      0.0000
  2000.5000    697.2592      3.0374     50.1512      0.0000
  2000.7500    682.6208      3.1298     50.1805      0.0000
  2001.0000    671.7809      3.2651     50.9560      0.0000
  2001.2500    669.7571      3.4394     52.6603      0.0000
  2001.5000    677.9289      3.6442     55.6020      0.0000
  2001.7500    693.3241      3.8686     60.1539      0.0000
  2002.0000    711.3669      4.1041     66.6417      0.0000
  2002.2500    728.8841      4.3489     75.1994      0.0000
  2002.5000    744.2941      4.6077     85.6220      0.0000
  2002.7500    756.2164      4.8903     97.2342      0.0000
  2003.0000    763.6315      5.1999    108.8751      0.0000
  2003.2500    767.5732      5.5157    119.0879      0.0000
  2003.5000    771.3860      5.8048    126.5360      0.0000
  2003.7500    778.1041      6.0769    130.4817      0.0000
  2004.0000    787.5981      6.4162    131.0722      0.0000
  2004.2500    796.9979      6.9209    129.2978      0.0000
  2004.5000    803.7498      7.5936    126.6689      0.0000
  2004.7500    807.4457      8.3018    124.7796      0.0000
  2005.0000    808.8793      8.8590    124.8942      0.0000
  2005.2500    808.3701      9.1546    127.6858      0.0000
  2005.5000    805.3948      9.2134    133.1563      0.0000
  2005.7500    799.5541      9.1370    140.7191      0.0000
  2006.0000    791.3873      9.0007    149.3708      0.0000
  2006.2500    781.6962      8.8113    157.9345      0.0000
  2006.5000    769.6006      8.5421    165.3682      0.0000
  2006.7500    751.7164      8.1907    170.9972      0.0000
  2007.0000    725.0626      7.8051    174.5425      0.0000
  2007.2500    692.4331      7.4582    175.9672      0.0000
  2007.5000    663.5692      7.1962    175.3119      0.0000
  2007.7500    647.7514      7.0225    172.6395      0.0000
  2008.0000    645.3836      6.9425    168.0702      0.0000
  2008.2500    649.4567      7.0145    161.8151      0.0000
  2008.5000    654.1548      7.3351    154.2423      0.0000
  2008.7500    658.8618      7.9584    145.9361      0.0000
  2009.0000    665.2100      8.8296    137.6149      0.0000
  2009.2500    672.4929      9.8096    129.8189      0.0000
  2009.5000    674.3788     10.7699    122.5586      0.0000
  2009.7500    661.0110     11.6579    115.3170      3.0000
  2010.0000    628.1357     12.5115    107.4869      0.0000
  2010.2500    582.5175     13.4614     98.9008      0.0000
  2010.5000    534.3416     14.6672     90.0009      0.0000
