~Version Information
VERS.                      2.0: CWLS Log ASCII Standard - VERSION 2.0
WRAP.                       NO: One line per depth step
~Well Information Block
STRT.FT               647.0000: 
STOP.FT              1167.5000: 
STEP.FT                 0.2500: 
NULL.                -999.2500: 
COMP.          Pioneer Natural Resources: COMPANY
WELL.             Linda T 32-3: WELL
FLD.           Purgatoire River: FIELD
LOC.           1350' FNL & 2290' FEL: LOCATION
PROV.                 Colorado: PROVINCE
CNTY.               Las Animas: COUNTRY
SRVC.                Patterson: SERVICE COMPANY
DATE.          Sat Feb 05 06:41:02 2005: LOG DATE
UWI.           05 071 08215 00: UNIQUE WELL ID
~Curve Information Block
DEPT.FT            0 000 00 00: Depth
SN.Ohm-m                      : IEL Short Normal
SP.mV                         : IEL Spontaneous Potential
DIR.Ohm-m                     : IEL Induction Resistivity
GR.GAPI                       : Gamma Ray
~Parameter Information Block
~A  Depth        SN          SP         DIR          GR     
# ...
   915.0000     24.9594     43.3288     20.4984     64.1268
   915.2500     24.4945     44.7975     20.1966     69.9221
   915.5000     24.1145     46.1172     19.8468     77.0812
   915.7500     23.7611     47.2889     19.4482     81.2052
   916.0000     23.4551     48.3632     19.0267     87.4923
   916.2500     23.2469     49.3994     18.6109     91.8494
   916.5000     23.1289     50.4223     18.2193     97.4319
   916.7500     23.0388     51.4073     17.8613     99.6010
   917.0000     22.9212     52.2999     17.5428    100.1142
   917.2500     22.7693     53.0513     17.2682     99.3039
   917.5000     22.6350     53.6466     17.0362     98.1442
   917.7500     22.5872     54.1110     16.8341     98.1575
   918.0000     22.6211     54.4988     16.6365     99.6445
   918.2500     22.6429     54.8704     16.4140    101.3544
   918.5000     22.5858     55.2702     16.1491    104.3169
   918.7500     22.4633     55.7133     15.8493    106.1008
   919.0000     22.2887     56.1861     15.5465    107.5261
   919.2500     22.0522     56.6599     15.2845    107.1170
   919.5000     21.7674     57.1084     15.1053    104.2869
   919.7500     21.4625     57.5171     15.0429    101.3895
   920.0000     21.1580     57.8864     15.1206     96.7559
   920.2500     20.8854     58.2311     15.3491     93.9528
   920.5000     20.7027     58.5809     15.7215     90.1978
   920.7500     20.7068     58.9716     16.2101     87.6362
   921.0000     21.0258     59.4294     16.7668     82.7619
   921.2500     21.7264     59.9604     17.3281     78.2492
   921.5000     22.7338     60.5574     17.8280     69.1421
   921.7500     23.9096     61.2100     18.2148     61.8918
   922.0000     25.2005     61.9055     18.4701     51.0111
   922.2500     26.6472     62.6194     18.6163     45.0480
   922.5000     28.1958     63.3166     18.7045     39.7350
   922.7500     29.5303     63.9650     18.7879     38.9267
   923.0000     30.2036     64.5468     18.8951     41.3745
   923.2500     29.9635     65.0562     19.0152     45.0774
   923.5000     28.8922     65.4917     19.1012     53.3197
   923.7500     27.2913     65.8550     19.0898     60.2271
   924.0000     25.4987     66.1553     18.9311     71.3022
   924.2500     23.7508     66.4078     18.6098     78.0200
   924.5000     22.1633     66.6259     18.1472     85.3132
   924.7500     20.8067     66.8143     17.5820     87.8019
   925.0000     19.7528     66.9697     16.9536     88.4525
   925.2500     19.0361     67.0858     16.2978     87.6954
   925.5000     18.6071     67.1547     15.6553     86.1304
   925.7500     18.3624     67.1684     15.0739     85.1685
   926.0000     18.2083     67.1210     14.5983     84.1415
   926.2500     18.0765     67.0151     14.2491     83.9581
   926.5000     17.9251     66.8670     14.0087     84.6166
   926.7500     17.7600     66.7070     13.8236     85.4795
   927.0000     17.6110     66.5703     13.6286     86.9003
   927.2500     17.4825     66.4801     13.3801     87.8582
   927.5000     17.3685     66.4329     13.0748     89.5488
   927.7500     17.2768     66.3996     12.7390     90.9075
   928.0000     17.2039     66.3413     12.4038     93.0635
   928.2500     17.1168     66.2262     12.0881     94.4628
   928.5000     16.9683     66.0337     11.7988     96.6957
   928.7500     16.7085     65.7559     11.5379     98.5259
   929.0000     16.3025     65.4029     11.3103    102.0585
   929.2500     15.7534     65.0044     11.1250    104.9217
   929.5000     15.0973     64.5987     10.9933    109.6203
   929.7500     14.3890     64.2138     10.9257    112.5851
   930.0000     13.7135     63.8570     10.9287    115.7261
   930.2500     13.1761     63.5192     11.0027    116.4160
   930.5000     12.8560     63.1873     11.1407    115.2507
   930.7500     12.7863     62.8535     11.3285    113.5433
   931.0000     12.9625     62.5186     11.5475    110.8980
   931.2500     13.3555     62.1899     11.7789    109.5481
   931.5000     13.9437     61.8753     12.0064    107.8850
   931.7500     14.7222     61.5771     12.2157    106.3735
   932.0000     15.6674     61.2898     12.3929    102.5169
   932.2500     16.6982     61.0028     12.5258     98.8755
   932.5000     17.6889     60.7090     12.6092     92.7281
   932.7500     18.5364     60.4147     12.6523     88.9361
   933.0000     19.1958     60.1418     12.6831     85.1683
   933.2500     19.6411     59.9169     12.7423     84.7596
   933.5000     19.8307     59.7538     12.8700     87.7881
   933.7500     19.7294     59.6409     13.0898     91.5636
   934.0000     19.3577     59.5442     13.3989     97.6772
   934.2500     18.8037     59.4231     13.7707    100.9515
   934.5000     18.1815     59.2506     14.1698    103.8253
   934.7500     17.5931     59.0263     14.5685    104.3860
   935.0000     17.1242     58.7736     14.9521    103.5963
   935.2500     16.8392     58.5257     15.3077    102.2313
   935.5000     16.7690     58.3117     15.6102     98.7695
   935.7500     16.9306     58.1496     15.8254     94.9050
   936.0000     17.3662     58.0444     15.9336     85.5873
   936.2500     18.1381     57.9920     15.9539     77.0699
   936.5000     19.2864     57.9861     15.9411     62.8667
   936.7500     20.7826     58.0279     15.9573     54.2828
   937.0000     22.4722     58.1325     16.0439     45.4586
   937.2500     24.0730     58.3264     16.2133     43.1710
   937.5000     25.2853     58.6309     16.4563     45.5063
   937.7500     25.9136     59.0445     16.7522     50.5268
   938.0000     25.9059     59.5402     17.0711     61.5908
   938.2500     25.3428     60.0801     17.3699     69.9748
   938.5000     24.4065     60.6309     17.5919     82.1238
   938.7500     23.3180     61.1671     17.6818     89.4894
   939.0000     22.2561     61.6656     17.6070     99.6320
   939.2500     21.3220     62.1010     17.3709    105.9079
   939.5000     20.5742     62.4470     17.0040    114.1592
   939.7500     20.0540     62.6837     16.5460    118.4143
   940.0000     19.7644     62.8060     16.0355    122.3412
   940.2500     19.6532     62.8269     15.5128    123.2174
   940.5000     19.6302     62.7733     15.0230    122.0975
   940.7500     19.6014     62.6819     14.6097    120.1240
   941.0000     19.5007     62.5990     14.3024    116.5461
   941.2500     19.3015     62.5737     14.1075    114.4611
   941.5000     19.0079     62.6430     14.0111    112.2420
   941.7500     18.6399     62.8201     13.9884    111.2112
   942.0000     18.2376     63.0925     14.0130    110.1360
   942.2500     17.8725     63.4290     14.0616    109.9176
   942.5000     17.6199     63.7876     14.1141    110.7364
   942.7500     17.5173     64.1271     14.1512    111.8498
   943.0000     17.5564     64.4199     14.1557    112.8937
   943.2500     17.6866     64.6617     14.1186    112.0706
   943.5000     17.8234     64.8738     14.0463    107.9261
   943.7500     17.8829     65.0953     13.9627    104.1135
   944.0000     17.8262     65.3671     13.9008     99.4135
   944.2500     17.6773     65.7153     13.8900     97.9124
   944.5000     17.5072     66.1411     13.9460     97.7638
   944.7500     17.4107     66.6186     14.0712     98.0915
   945.0000     17.4740     67.0986     14.2639     97.4649
   945.2500     17.7017     67.5255     14.5249     95.8012
   945.5000     17.9698     67.8633     14.8575     92.1805
   945.7500     18.1336     68.1187     15.2587     90.2409
   946.0000     18.2066     68.3365     15.7145     89.9814
   946.2500     18.3750     68.5676     16.2037     91.7318
   946.5000     18.8313     68.8346     16.7098     95.5294
   946.7500     19.6009     69.1211     17.2277     97.2830
   947.0000     20.5080     69.3899     17.7627     96.8420
   947.2500     21.3267     69.6088     18.3215     94.4895
   947.5000     21.9780     69.7640     18.9033     89.3283
   947.7500     22.5522     69.8593     19.4953     85.5719
   948.0000     23.1521     69.9061     20.0742     79.6695
   948.2500     23.7683     69.9099     20.6136     75.4773
