~Version Information
 VERS.                                  2.0 : CWLS LAS VERSION
 WRAP.                                   NO : WRAPING MODE
 SWARE .                 MController 2.5.0J : SOFTWARE VERSION
~Well Information
 WELL.                          Silva 6-22V : WELL
 COMP.                       Petrogulf Corp : COMPANY
 FLD.                      Purgatoire River : FIELD
 LOC.                 SE/NW Sec 6 T33S R67W : LOCATION
 DATE.                            11/7-9/04 : DATE(S) LOGGED
 SRVC.       Blanco Geological Services LLC : SERVICE COMPANY
 STAT.                                   CO : STATE
 CNTY.                           Las Animas : COUNTY
 CTRY.                                  USA : COUNTRY
 API.                       05-071-08143-00 : API NUMBER
 STRT.FT                              35.00 : START DEPTH
 STOP.FT                            2732.00 : STOP DEPTH
 STEP.FT                               1.00 : DEPTH INCREMENT
 NULL.                                -9999 : NULL VALUE
~Curve information
 DEPTH.FT                                   :
 ROP.MIN/FT                                 :
 GAS.UNITS                                  :
~ASCII Log data
# ...
      2235.0         0.27         21.5 
      2236.0         0.33         21.0 
      2237.0         0.32         20.2 
      2238.0         0.40         20.6 
      2239.0         0.40         20.9 
      2240.0         0.27         21.2 
      2241.0         0.43         21.3 
      2242.0         0.57         20.6 
      2243.0         0.43         71.6 
      2244.0         0.37         21.8 
      2245.0         0.35         19.9 
      2246.0         0.30         21.0 
      2247.0         0.37         21.9 
      2248.0         0.30         23.0 
      2249.0         0.30         23.6 
      2250.0         0.30         24.2 
      2251.0         0.27         27.6 
      2252.0         0.17         28.1 
      2253.0         0.27         28.3 
      2254.0         0.28         25.5 
      2255.0         0.30         24.8 
      2256.0         0.30         24.2 
      2257.0         0.30         23.3 
      2258.0         0.13         23.3 
      2259.0         0.20         23.9 
      2260.0         0.23         23.0 
      2261.0         0.27         23.6 
      2262.0         0.27         22.3 
      2263.0         0.30         22.3 
      2264.0         0.20         21.6 
      2265.0         0.20         21.2 
      2266.0         0.27         21.4 
      2267.0         0.28         20.8 
      2268.0         0.27         20.5 
      2269.0         0.30         20.5 
      2270.0         0.33         20.5 
      2271.0         0.20         20.3 
      2272.0         0.23         99.7 
      2273.0         0.27         55.1 
      2274.0         0.27         36.4 
      2275.0         0.50         30.1 
      2276.0         0.27         20.5 
      2277.0         0.23         20.4 
      2278.0         0.27         19.0 
      2279.0         0.28         17.5 
      2280.0         0.27         17.7 
      2281.0         0.27         18.0 
      2282.0         0.33         17.1 
      2283.0         0.47         16.5 
      2284.0         0.57         18.1 
      2285.0         0.47         19.7 
      2286.0         0.43         21.4 
      2287.0         0.47         24.3 
      2288.0         0.45         25.8 
      2289.0         0.47         26.0 
      2290.0         0.43         25.3 
      2291.0         0.43         24.2 
      2292.0         0.30         21.7 
      2293.0         0.20         21.7 
      2294.0         0.23         21.9 
      2295.0         0.27         21.1 
      2296.0         0.27         20.9 
      2297.0         0.27         20.6 
      2298.0         0.48         20.5 
      2299.0         0.33         19.8 
      2300.0         0.27         20.4 
      2301.0         0.27         21.1 
      2302.0         0.33         55.9 
      2303.0         0.27         55.9 
      2304.0         0.30         52.9 
      2305.0         0.30         41.4 
      2306.0         0.27         32.8 
      2307.0         0.30         24.0 
      2308.0         0.23         21.1 
      2309.0         0.27         21.9 
      2310.0         0.28         22.0 
      2311.0         0.30         23.0 
      2312.0         0.37         25.2 
      2313.0         0.37         27.1 
      2314.0         0.30         25.4 
      2315.0         0.20         25.4 
      2316.0         0.30         24.9 
      2317.0         0.37         23.6 
      2318.0         0.33         20.2 
      2319.0         0.48         18.8 
      2320.0         0.73         18.8 
      2321.0         0.97         20.7 
      2322.0         0.72         21.2 
      2323.0         0.80         20.0 
      2324.0         0.73         20.0 
      2325.0         0.97         20.0 
      2326.0         0.65         20.0 
      2327.0         0.33         21.1 
      2328.0         0.27         20.5 
      2329.0         0.30         20.7 
      2330.0         0.23         21.2 
      2331.0         0.23         21.6 
      2332.0         0.30         21.2 
      2333.0         0.27         21.3 
      2334.0         0.30         20.5 
      2335.0         0.33         48.3 
      2336.0         0.40         55.4 
      2337.0         0.35         58.1 
      2338.0         0.43         48.5 
      2339.0         0.67         28.6 
      2340.0         0.53         19.3 
      2341.0         0.47         18.8 
      2342.0         0.50         18.7 
      2343.0         0.52         21.1 
      2344.0         0.67         22.0 
      2345.0         0.63         23.1 
      2346.0         0.63         22.4 
      2347.0         0.80         22.0 
      2348.0         0.98         20.4 
      2349.0         0.80         20.4 
      2350.0         0.60         20.3 
      2351.0         0.40         20.1 
      2352.0         0.40         20.6 
      2353.0         0.30         21.1 
      2354.0         0.35         21.4 
      2355.0         0.37         21.7 
      2356.0         0.37         20.6 
      2357.0         0.43         19.6 
      2358.0         0.57         19.5 
      2359.0         0.60         18.5 
      2360.0         0.73         19.0 
      2361.0         0.62         18.9 
      2362.0         0.67         18.3 
      2363.0         0.70         19.1 
      2364.0         0.67         18.7 
      2365.0         1.05         18.7 
      2366.0         0.77         18.3 
      2367.0         0.83         18.2 
      2368.0         0.97         52.7 
      2369.0         0.78         56.1 
      2370.0         0.67         29.0 
      2371.0         0.53         19.4 
      2372.0         0.43         19.8 
      2373.0         0.72         20.7 
      2374.0         0.70         20.4 
      2375.0         0.80         20.3 
      2376.0         0.77         20.7 
      2377.0         0.92         19.7 
      2378.0         0.50         19.4 
      2379.0         0.57         19.5 
      2380.0         0.60         20.5 
      2381.0         0.60         20.0 
      2382.0         0.57         19.8 
      2383.0         0.58         20.0 
      2384.0         0.53         19.3 
      2385.0         0.70         19.6 
      2386.0         0.87         18.8 
      2387.0         0.53         18.4 
      2388.0         0.88         18.5 
      2389.0         0.83         18.3 
      2390.0         0.93         17.9 
      2391.0         0.60         18.5 
      2392.0         0.48         18.7 
      2393.0         0.37         18.8 
      2394.0         0.43         43.6 
      2395.0         0.43         52.2 
      2396.0         0.60         59.0 
      2397.0         0.30         45.4 
      2398.0         0.20         31.4 
      2399.0         0.30         28.1 
      2400.0         0.23         21.3 
      2401.0         0.30         18.7 
      2402.0         0.35         17.6 
      2403.0         0.33         18.6 
      2404.0         0.27         18.5 
      2405.0         0.33         19.9 
      2406.0         0.30         20.5 
      2407.0         0.30         21.2 
      2408.0         0.32         20.9 
      2409.0         0.33         21.3 
      2410.0         0.30         22.6 
      2411.0         0.30         22.9 
      2412.0         0.57         23.9 
      2413.0         0.87         24.0 
      2414.0         0.40         17.3 
      2415.0         0.40         18.9 
      2416.0         0.52         19.0 
      2417.0         0.53         19.9 
      2418.0         0.47         20.8 
      2419.0         0.37         20.4 
      2420.0         0.47         19.4 
      2421.0         0.53         18.9 
      2422.0         0.50         17.9 
      2423.0         0.38         17.3 
      2424.0         0.47         17.9 
      2425.0         0.47         18.0 
      2426.0         0.50         18.3 
      2427.0         0.40         17.6 
      2428.0         0.43         62.3 
      2429.0         0.67         18.7 
      2430.0         0.72         19.9 
      2431.0         0.63         21.0 
      2432.0         0.67         22.2 
      2433.0         1.12         23.5 
      2434.0         0.97         21.4 
