~Version Information
VERS.                      2.0: CWLS Log ASCII Standard - VERSION 2.0
WRAP.                       NO: One line per depth step
~Well Information Block
STRT.FT               550.0000: 
STOP.FT              1577.7000: 
STEP.FT                 0.1000: 
NULL.                -999.2500: 
COMP.          Pioneer Natural Resources: COMPANY
WELL.          Kristin 22-23 Tr: WELL
FLD.           Purgatoire River: FIELD
LOC.           2273' FNL & 2029' FWL: LOCATION
PROV.                 Colorado: PROVINCE
CNTY.               Las Animas: COUNTRY
SRVC.                Patterson: SERVICE COMPANY
DATE.          Fri Jan 21 06:58:50 2005: LOG DATE
UWI.           05 071 08259 00: UNIQUE WELL ID
~Curve Information Block
DEPT.FT            0 000 00 00: Depth
DCAL.in                       : CDL Caliper
RHOB.g/cc                     : CDL Bulk Density
RHOC.g/cc                     : CDL Density Correction
DPOR.pu                       : CDL Density Porosity
NPOR.pu                       : Neutron Porosity
GR.GAPI                       : Gamma Ray
~Parameter Information Block
~A  Depth       DCAL        RHOB        RHOC        DPOR        NPOR         GR     
# ...
  1548.4000      7.7963      2.5579      0.1391      5.5843     25.3000   -999.2500
  1548.5000      7.7970      2.5589      0.0727      5.5189     24.6093   -999.2500
  1548.6000      7.7970      2.5616      0.0591      5.3602     23.9209   -999.2500
  1548.7000      7.7970      2.5734      0.0837      4.6436     23.4824   -999.2500
  1548.8000      7.7942      2.5735      0.1029      4.6355     23.2330   -999.2500
  1548.9000      7.7942      2.5620      0.0171      5.3350     23.3324   -999.2500
  1549.0000      7.7911      2.5570      0.0736      5.6389     23.7165   -999.2500
  1549.1000      7.7911      2.5505      0.0845      6.0282     24.2199   -999.2500
  1549.2000      7.7911      2.5375      0.0234      6.8196     24.7240   -999.2500
  1549.3000      7.7943      2.5340      0.0412      7.0331     24.7607   -999.2500
  1549.4000      7.7943      2.5377      0.0906      6.8067     24.0101   -999.2500
  1549.5000      7.7985      2.5347      0.0536      6.9849     23.1860   -999.2500
  1549.6000      7.7985      2.5298      0.0447      7.2868     22.8655   -999.2500
  1549.7000      7.7985      2.5237      0.0620      7.6519     22.5391   -999.2500
  1549.8000      7.8015      2.5093      0.0451      8.5300     22.1177   -999.2500
  1549.9000      7.8015      2.4951      0.0320      9.3878     22.3091   -999.2500
  1550.0000      7.8040      2.4914      0.0480      9.6131     23.4426   -999.2500
  1550.1000      7.8040      2.4942      0.0230      9.4410     25.1373   -999.2500
  1550.2000      7.8040      2.4956      0.0565      9.3561     26.6632   -999.2500
  1550.3000      7.8058      2.4962      0.0094      9.3235     27.3380   -999.2500
  1550.4000      7.8058      2.5046      0.0365      8.8096     27.1074   -999.2500
  1550.5000      7.8051      2.5165      0.0628      8.0908     26.2353   -999.2500
  1550.6000      7.8051      2.5195      0.0652      7.9100     25.2019   -999.2500
  1550.7000      7.8051      2.5171      0.0501      8.0529     24.9119   -999.2500
  1550.8000      7.8052      2.5264      0.0321      7.4886     26.0718   -999.2500
  1550.9000      7.8052      2.5532      0.0633      5.8685     29.4632   -999.2500
  1551.0000      7.8082      2.5764      0.1067      4.4621     36.3879   -999.2500
  1551.1000      7.8082      2.5793      0.0780      4.2874     45.2697   -999.2500
  1551.2000      7.8082      2.5725      0.0672      4.6947     51.2680   -999.2500
  1551.3000      7.8092      2.5683      0.0823      4.9540     53.4141   -999.2500
  1551.4000      7.8092      2.5696      0.0213      4.8701     53.8362   -999.2500
  1551.5000      7.8044      2.5797      0.0429      4.2614     53.8810   -999.2500
  1551.6000      7.8044      2.5991      0.0053      3.0822     53.8836   -999.2500
  1551.7000      7.8044      2.6272      0.0743      1.3833   -999.2500   -999.2500
  1551.8000      7.8009      2.6576      0.1031     -0.4619   -999.2500   -999.2500
  1551.9000      7.8009      2.6778      0.1202     -1.6858   -999.2500   -999.2500
  1552.0000      7.8001      2.6738      0.0916     -1.4424   -999.2500   -999.2500
  1552.1000      7.8001      2.6489      0.0304      0.0688   -999.2500   -999.2500
  1552.2000      7.8001      2.6199      0.0705      1.8221   -999.2500   -999.2500
  1552.3000      7.7954      2.5957      0.0218      3.2932   -999.2500   -999.2500
  1552.4000      7.7954      2.5807      0.0245      4.1988   -999.2500   -999.2500
  1552.5000      7.7907      2.5718      0.0485      4.7418   -999.2500   -999.2500
  1552.6000      7.7907      2.5586      0.0291      5.5410   -999.2500   -999.2500
  1552.7000      7.7907      2.5444      0.0242      6.3971   -999.2500   -999.2500
  1552.8000      7.7947      2.5344      0.0655      7.0073   -999.2500   -999.2500
  1552.9000      7.7947      2.5244      0.0381      7.6110   -999.2500   -999.2500
  1553.0000      7.7994      2.5149      0.0202      8.1857   -999.2500   -999.2500
  1553.1000      7.7994      2.5073      0.0508      8.6491   -999.2500   -999.2500
  1553.2000      7.7994      2.5055      0.0008      8.7550   -999.2500   -999.2500
  1553.3000      7.8008      2.5139      0.0857      8.2491   -999.2500   -999.2500
  1553.4000      7.8008      2.5250      0.0482      7.5767   -999.2500   -999.2500
  1553.5000      7.8015      2.5295      0.0675      7.3018   -999.2500   -999.2500
  1553.6000      7.8015      2.5218      0.0410      7.7677   -999.2500   -999.2500
  1553.7000      7.8015      2.5068      0.0365      8.6784   -999.2500   -999.2500
  1553.8000      7.8013      2.4975      0.0327      9.2437   -999.2500   -999.2500
  1553.9000      7.8013      2.5005      0.0610      9.0605   -999.2500   -999.2500
  1554.0000      7.7983      2.5135      0.0759      8.2705   -999.2500   -999.2500
  1554.1000      7.7983      2.5301      0.0900      7.2663   -999.2500   -999.2500
  1554.2000      7.7983      2.5389      0.0978      6.7345   -999.2500   -999.2500
  1554.3000      7.7913      2.5349      0.0569      6.9781   -999.2500   -999.2500
  1554.4000      7.7913      2.5360      0.0223      6.9096   -999.2500   -999.2500
  1554.5000      7.7854      2.5565      0.0776      5.6691   -999.2500   -999.2500
  1554.6000      7.7854      2.5803      0.0860      4.2249   -999.2500   -999.2500
  1554.7000      7.7854      2.5958      0.0860      3.2827   -999.2500   -999.2500
  1554.8000      7.7843      2.6101      0.0910      2.4184   -999.2500   -999.2500
  1554.9000      7.7843      2.6218      0.1133      1.7061   -999.2500   -999.2500
  1555.0000      7.7847      2.6236      0.1142      1.6023   -999.2500   -999.2500
  1555.1000      7.7847      2.6174      0.1032      1.9782   -999.2500   -999.2500
  1555.2000      7.7847      2.6067      0.0518      2.6253   -999.2500   -999.2500
  1555.3000      7.7819      2.5913      0.0414      3.5604   -999.2500   -999.2500
  1555.4000      7.7819      2.5714      0.0342      4.7651   -999.2500   -999.2500
  1555.5000      7.7773      2.5510     -0.0014      6.0024   -999.2500   -999.2500
  1555.6000      7.7773      2.5418     -0.0167      6.5582   -999.2500   -999.2500
  1555.7000      7.7773      2.5460      0.0732      6.3025   -999.2500   -999.2500
  1555.8000      7.7744      2.5455      0.0408      6.3339   -999.2500   -999.2500
  1555.9000      7.7744      2.5401     -0.0230      6.6610   -999.2500   -999.2500
  1556.0000      7.7733      2.5480     -0.0231      6.1822   -999.2500   -999.2500
  1556.1000      7.7733      2.5592      0.0459      5.5032   -999.2500   -999.2500
  1556.2000      7.7733      2.5481      0.0465      6.1752   -999.2500   -999.2500
  1556.3000      7.7744      2.5239     -0.0156      7.6401   -999.2500   -999.2500
  1556.4000      7.7744      2.5133      0.0032      8.2838   -999.2500   -999.2500
  1556.5000      7.7743      2.5157      0.0141      8.1405   -999.2500   -999.2500
  1556.6000      7.7743      2.5190      0.0243      7.9415   -999.2500   -999.2500
  1556.7000      7.7743      2.5254     -0.0032      7.5531   -999.2500   -999.2500
  1556.8000      7.7679      2.5327      0.0239      7.1066   -999.2500   -999.2500
  1556.9000      7.7679      2.5223      0.0105      7.7397   -999.2500   -999.2500
  1557.0000      7.7552      2.4953     -0.0248      9.3754   -999.2500   -999.2500
  1557.1000      7.7552      2.4844     -0.0398     10.0366   -999.2500   -999.2500
  1557.2000      7.7552      2.4989      0.0215      9.1567   -999.2500   -999.2500
  1557.3000      7.7449      2.5129      0.0272      8.3111   -999.2500   -999.2500
  1557.4000      7.7449      2.5204     -0.0042      7.8549   -999.2500   -999.2500
  1557.5000      7.7410      2.5353      0.0271      6.9540   -999.2500   -999.2500
  1557.6000      7.7410      2.5508      0.0707      6.0114   -999.2500   -999.2500
  1557.7000      7.7410      2.5547      0.0706      5.7774   -999.2500   -999.2500
  1557.8000      7.7411      2.5505      0.0402      6.0323   -999.2500   -999.2500
  1557.9000      7.7411      2.5443      0.0591      6.4080   -999.2500   -999.2500
