~Version Information
 VERS.                                  2.0 : CWLS LAS VERSION
 WRAP.                                   NO : WRAPING MODE
 SWARE .                 MController 2.5.0N : SOFTWARE VERSION
~Well Information
 WELL.                        Paradise 13-8 : WELL
 COMP.        Pioneer Natural Resources Inc : COMPANY
 FLD.                      Purgatoire River : FIELD
 LOC.                 NW/SW Sec 8 T32S R66W : LOCATION
 DATE.                           1/21-22/05 : DATE(S) LOGGED
 SRVC.       Blanco Geological Services LLC : SERVICE COMPANY
 STAT.                                   CO : STATE
 CNTY.                           Las Animas : COUNTY
 CTRY.                                  USA : COUNTRY
 API.                       05-071-07946-00 : API NUMBER
 STRT.FT                             855.00 : START DEPTH
 STOP.FT                            3151.00 : STOP DEPTH
 STEP.FT                               1.00 : DEPTH INCREMENT
 NULL.                                -9999 : NULL VALUE
~Curve information
 DEPTH.FT                                   :
 ROP.MIN/FT                                 :
 GAS.UNITS                                  :
~ASCII Log data
# ...
      2055.0         0.47          8.9 
      2056.0         0.52          9.8 
      2057.0         0.43         11.5 
      2058.0         0.40         12.5 
      2059.0         0.43         13.2 
      2060.0         0.27         12.7 
      2061.0         0.27         11.4 
      2062.0         0.57         11.2 
      2063.0         0.67          8.7 
      2064.0         0.75          5.6 
      2065.0         0.73          5.0 
      2066.0         0.87          5.1 
      2067.0         0.60          5.1 
      2068.0         0.30          5.4 
      2069.0         0.55          7.8 
      2070.0         0.53          9.9 
      2071.0         0.43         10.9 
      2072.0         0.43         11.2 
      2073.0         0.43         12.9 
      2074.0         7.67         69.2 
      2075.0         0.30          7.0 
      2076.0         0.28          7.8 
      2077.0         0.37          7.8 
      2078.0         0.33          8.9 
      2079.0         0.33         10.0 
      2080.0         0.40         11.1 
      2081.0         0.43         10.4 
      2082.0         0.33         10.4 
      2083.0         0.23         10.9 
      2084.0         0.37         12.2 
      2085.0         0.27         11.2 
      2086.0         0.38         10.2 
      2087.0         0.33          9.0 
      2088.0         0.50          7.6 
      2089.0         0.43          6.9 
      2090.0         0.43          7.6 
      2091.0         0.50          8.5 
      2092.0         1.25         10.5 
      2093.0         0.27          9.6 
      2094.0         0.40          8.6 
      2095.0         0.40          7.7 
      2096.0         0.43          6.3 
      2097.0         0.40          6.1 
      2098.0         0.47          7.1 
      2099.0         0.43          7.8 
      2100.0         0.52          8.7 
      2101.0         0.47          9.5 
      2102.0         0.43         13.0 
      2103.0         0.33         15.8 
      2104.0         4.68         52.3 
      2105.0         0.30         17.3 
      2106.0         0.42         17.3 
      2107.0         0.47         15.8 
      2108.0         0.30         12.8 
      2109.0         0.33         12.3 
      2110.0         0.40         12.5 
      2111.0         0.30         13.3 
      2112.0         0.33         14.1 
      2113.0         0.23         12.9 
      2114.0         0.43         11.3 
      2115.0         0.55          9.8 
      2116.0         0.50          7.2 
      2117.0         0.60          7.5 
      2118.0         0.50          7.0 
      2119.0         0.27          8.1 
      2120.0         0.20          8.1 
      2121.0         0.20         15.3 
      2122.0         0.27         21.6 
      2123.0         0.23         23.9 
      2124.0         0.25         24.3 
      2125.0         0.23         23.3 
      2126.0         0.20         21.3 
      2127.0         0.23         19.2 
      2128.0         0.33         13.3 
      2129.0         0.27         11.7 
      2130.0         0.37          9.9 
      2131.0         0.43          8.9 
      2132.0         0.43          8.6 
      2133.0         0.20          8.1 
      2134.0         7.35         17.5 
      2135.0         0.40          6.5 
      2136.0         0.43          6.7 
      2137.0         0.30          6.7 
      2138.0         0.23          6.7 
      2139.0         0.27          6.7 
      2140.0         0.23          6.8 
      2141.0         0.50          7.4 
      2142.0         0.53          6.7 
      2143.0         0.55          6.1 
      2144.0         0.63          5.9 
      2145.0         0.50          6.0 
      2146.0         0.53          6.9 
      2147.0         0.53          7.4 
      2148.0         0.43          8.3 
      2149.0         0.43          9.1 
      2150.0         0.42          9.5 
      2151.0         0.43         10.6 
      2152.0         0.47         10.7 
      2153.0         0.47         10.9 
      2154.0         0.57          9.7 
      2155.0         0.57          7.8 
      2156.0         0.58          6.2 
      2157.0         0.50          5.6 
      2158.0         0.50          5.8 
      2159.0         0.40          5.8 
      2160.0         0.37          6.1 
      2161.0         0.40          6.7 
      2162.0         0.40          7.1 
      2163.0         0.68          9.0 
      2164.0         5.12         35.0 
      2165.0         1.00         10.5 
      2166.0         0.50         16.8 
      2167.0         0.48         19.4 
      2168.0         0.37         21.8 
      2169.0         0.47         23.5 
      2170.0         0.53         21.2 
      2171.0         0.50         17.0 
      2172.0         0.50         13.8 
      2173.0         0.50         14.0 
      2174.0         0.32         21.9 
      2175.0         0.20         27.9 
      2176.0         0.37         32.6 
      2177.0         0.47         35.4 
      2178.0         0.27         31.2 
      2179.0         0.37         29.5 
      2180.0         0.43         24.3 
      2181.0         0.67         22.8 
      2182.0         0.72         15.2 
      2183.0         0.60          9.5 
      2184.0         0.57          7.1 
      2185.0         0.60          6.4 
      2186.0         0.63          5.2 
      2187.0         0.52          4.6 
      2188.0         0.70          4.5 
      2189.0         0.77          5.0 
      2190.0         0.97          5.5 
      2191.0         0.57          5.2 
      2192.0         0.72          5.9 
      2193.0         0.80         11.1 
      2194.0         4.55         54.4 
      2195.0         0.63         42.9 
      2196.0         0.98         26.2 
      2197.0         0.57          7.7 
      2198.0         0.57          7.3 
      2199.0         0.63         11.0 
      2200.0         0.50         13.2 
      2201.0         0.62         13.3 
      2202.0         0.43         11.6 
      2203.0         0.40         10.7 
      2204.0         0.47         10.8 
      2205.0         0.33         10.5 
      2206.0         0.30          9.9 
      2207.0         0.23          9.6 
      2208.0         0.27          9.7 
      2209.0         0.37         10.3 
      2210.0         0.33         14.5 
      2211.0         0.35         20.4 
      2212.0         0.30         20.7 
      2213.0         0.37         15.3 
      2214.0         0.30         11.9 
      2215.0         0.33         11.1 
      2216.0         0.37          8.1 
      2217.0         0.37          6.2 
      2218.0         0.33          6.1 
      2219.0         0.33          6.2 
      2220.0         0.23          5.9 
      2221.0         0.35          5.3 
      2222.0         0.40          5.4 
      2223.0         0.40          4.9 
      2224.0         7.03         39.9 
      2225.0         0.67         10.7 
      2226.0         0.63         17.6 
      2227.0         0.50         21.0 
      2228.0         0.55         22.6 
      2229.0         0.37         21.7 
      2230.0         0.33         18.6 
      2231.0         0.40         15.4 
      2232.0         0.33         12.7 
      2233.0         0.63          9.0 
      2234.0         0.50          6.8 
      2235.0         0.42          7.5 
      2236.0         0.40          8.5 
      2237.0         0.40         10.6 
      2238.0         0.37         12.2 
      2239.0         0.40         12.9 
      2240.0         0.47         15.8 
      2241.0         0.50         16.7 
      2242.0         0.40         16.4 
      2243.0         0.42         15.1 
      2244.0         0.40         14.2 
      2245.0         0.43         10.0 
      2246.0         0.43          8.1 
      2247.0         0.43          7.1 
      2248.0         0.40          6.8 
      2249.0         0.40          6.8 
      2250.0         0.43          6.5 
      2251.0         0.42          5.5 
      2252.0         0.60          5.7 
      2253.0         0.33          6.4 
      2254.0         5.28         51.5 
