~Version Information
 VERS.                                  2.0 : CWLS LAS VERSION
 WRAP.                                   NO : WRAPING MODE
 SWARE .                 MController 2.5.0J : SOFTWARE VERSION
~Well Information
 WELL.                        Montoya 6-14R : WELL
 COMP.                       Petrogulf Corp : COMPANY
 FLD.                      Purgatoire River : FIELD
 LOC.                 SW/SW Sec 6 T33S R67W : LOCATION
 DATE.                             11/13/04 : DATE(S) LOGGED
 SRVC.       Blanco Geological Services LLC : SERVICE COMPANY
 STAT.                                   CO : STATE
 CNTY.                           Las Animas : COUNTY
 CTRY.                                  USA : COUNTRY
 API.                       05-071-08242-00 : API NUMBER
 STRT.FT                             484.00 : START DEPTH
 STOP.FT                            2180.00 : STOP DEPTH
 STEP.FT                               1.00 : DEPTH INCREMENT
 NULL.                                -9999 : NULL VALUE
~Curve information
 DEPTH.FT                                   :
 ROP.MIN/FT                                 :
 GAS.UNITS                                  :
~ASCII Log data
# ...
      1884.0         0.53         15.5 
      1885.0         0.67       1245.9 
      1886.0         0.70         23.3 
      1887.0         0.53         23.5 
      1888.0         0.48         23.4 
      1889.0         0.53         21.5 
      1890.0         0.37         20.9 
      1891.0         0.27         19.2 
      1892.0         0.23         18.1 
      1893.0         0.27         17.8 
      1894.0         0.20         17.4 
      1895.0         0.17         17.3 
      1896.0         0.17         17.8 
      1897.0         0.20         18.0 
      1898.0         0.17         17.8 
      1899.0         0.23         16.9 
      1900.0         0.28         17.1 
      1901.0         0.30         18.0 
      1902.0         0.33         17.8 
      1903.0         0.23         17.0 
      1904.0         0.27         17.5 
      1905.0         0.53         17.3 
      1906.0         0.40         25.6 
      1907.0         0.50       2217.2 
      1908.0         0.55       1937.5 
      1909.0         0.80        440.0 
      1910.0         0.60         14.9 
      1911.0         0.57       2655.0 
      1912.0         0.80       2934.7 
      1913.0         0.95       3019.4 
      1914.0         0.73       3317.4 
      1915.0         0.73       9245.0 
      1916.0         0.60         74.7 
      1917.0         0.60         54.6 
      1918.0         0.60         46.0 
      1919.0         0.65         32.5 
      1920.0         0.60         28.6 
      1921.0         1.10         21.1 
      1922.0         1.47         22.0 
      1923.0         0.25         21.8 
      1924.0         0.83         22.2 
      1925.0         1.03         23.5 
      1926.0         1.07         24.0 
      1927.0         0.35         23.9 
      1928.0         0.67         24.3 
      1929.0         0.40         24.0 
      1930.0         0.30         23.2 
      1931.0         0.37         23.7 
      1932.0         0.30         24.9 
      1933.0         0.27         25.1 
      1934.0         0.37         24.9 
      1935.0         0.67         26.6 
      1936.0         0.23         24.1 
      1937.0         0.37         24.6 
      1938.0         0.37         25.7 
      1939.0         0.40         25.1 
      1940.0         0.47         24.2 
      1941.0         0.43         24.1 
      1942.0         0.42         24.8 
      1943.0         0.43         25.0 
      1944.0         0.40         23.3 
      1945.0         0.43         24.8 
      1946.0         0.43         22.8 
      1947.0         0.40         21.9 
      1948.0         0.43         23.3 
      1949.0         0.40         22.2 
      1950.0         0.42         22.5 
      1951.0         0.40         22.8 
      1952.0         0.40         23.2 
      1953.0         0.37         21.5 
      1954.0         0.43         20.6 
      1955.0         0.40         21.3 
      1956.0         0.43         20.1 
      1957.0         0.40         19.7 
      1958.0         0.38         19.5 
      1959.0         0.40         19.9 
      1960.0         0.40         20.1 
      1961.0         0.40         20.7 
      1962.0         0.30         19.6 
      1963.0         0.33         18.3 
      1964.0         0.33         18.0 
      1965.0         0.40         18.3 
      1966.0         0.43         15.3 
      1967.0         0.50         15.5 
      1968.0         0.23         15.0 
      1969.0         0.27         13.8 
      1970.0         0.23         14.5 
      1971.0         0.28         14.9 
      1972.0         0.27         14.8 
      1973.0         0.30         13.4 
      1974.0         0.17         14.1 
      1975.0         0.27         14.1 
      1976.0         0.33         13.0 
      1977.0         0.37         13.7 
      1978.0         0.33         13.2 
      1979.0         0.40         12.2 
      1980.0         0.40         12.7 
      1981.0         0.33         12.4 
      1982.0         0.38         12.4 
      1983.0         0.33         11.8 
      1984.0         0.37         11.4 
      1985.0         0.43         12.7 
      1986.0         0.43         12.0 
      1987.0         0.37         11.6 
      1988.0         0.40         11.5 
      1989.0         0.50         11.1 
      1990.0         0.62         11.3 
      1991.0         0.27         11.3 
      1992.0         0.30         10.6 
      1993.0         0.30          9.6 
      1994.0         0.27         11.6 
      1995.0         0.17          8.9 
      1996.0         0.20          8.0 
      1997.0         0.20          8.5 
      1998.0         0.32          8.8 
      1999.0         0.37          9.2 
      2000.0         0.33          8.8 
      2001.0         0.37          8.2 
      2002.0         0.37          8.9 
      2003.0         0.40          8.6 
      2004.0         0.37          8.6 
      2005.0         0.40          7.5 
      2006.0         0.47          8.3 
      2007.0         0.45          8.7 
      2008.0         0.40          8.7 
      2009.0         0.40          7.8 
      2010.0         0.43          7.8 
      2011.0         0.40          8.7 
      2012.0         0.40          8.5 
      2013.0         0.40          7.1 
      2014.0         0.37          7.7 
      2015.0         0.28          8.1 
      2016.0         0.20          8.5 
      2017.0         0.17          8.2 
      2018.0         0.23          8.1 
      2019.0         0.27          7.1 
      2020.0         0.27          7.3 
      2021.0         0.37          7.0 
      2022.0         0.47          7.6 
      2023.0         0.53          7.2 
      2024.0         0.27          6.4 
      2025.0         0.33          7.8 
      2026.0         0.28          8.3 
      2027.0         0.27          7.2 
      2028.0         0.37          5.7 
      2029.0         0.33          5.2 
      2030.0         0.33          4.6 
      2031.0         0.35          4.9 
      2032.0         0.30          5.8 
      2033.0         0.33          6.5 
      2034.0         0.43          5.6 
      2035.0         0.43          5.7 
      2036.0         0.50          6.9 
      2037.0         0.57          7.2 
      2038.0         0.82          7.3 
      2039.0         0.60          5.9 
      2040.0         0.43          4.5 
      2041.0         0.50          5.9 
      2042.0         0.53          6.4 
      2043.0         0.53          6.1 
      2044.0         0.78          5.0 
      2045.0         0.33          4.8 
      2046.0         0.37          5.5 
      2047.0         0.40          6.0 
      2048.0         0.40          5.2 
      2049.0         0.53          5.7 
      2050.0         0.80          5.4 
      2051.0         0.82          5.9 
      2052.0         0.33          5.0 
      2053.0         0.30          5.5 
      2054.0         0.37          4.3 
      2055.0         0.33         63.2 
      2056.0         0.20         75.6 
      2057.0         0.57         76.3 
      2058.0         0.40         59.6 
      2059.0         0.48         30.2 
      2060.0         0.43         16.1 
      2061.0         0.27         11.7 
      2062.0         0.23          2.5 
      2063.0         0.33          5.9 
      2064.0         0.37          7.5 
      2065.0         0.43         10.6 
      2066.0         0.57          7.7 
      2067.0         0.53          0.9 
      2068.0         0.42         -0.5 
      2069.0         0.30          0.1 
      2070.0         0.27         -0.1 
      2071.0         0.30          1.0 
      2072.0         0.30          7.4 
      2073.0         0.33          9.0 
      2074.0         0.20          8.0 
      2075.0         0.30          7.3 
      2076.0         0.33          6.8 
      2077.0         0.37          5.2 
      2078.0         0.42          5.0 
      2079.0         0.40          4.4 
      2080.0         0.40          3.4 
      2081.0         0.43          5.5 
      2082.0         0.43          4.1 
      2083.0         0.43          1.3 
