~Version Information
VERS.                      2.0: CWLS Log ASCII Standard - VERSION 2.0
WRAP.                       NO: One line per depth step
~Well Information Block
STRT.FT               780.0000: 
STOP.FT              1557.5000: 
STEP.FT                 0.1000: 
NULL.                -999.2500: 
COMP.          Pioneer Natural Resources: COMPANY
WELL.          Bunner's 13-26 Tr: WELL
FLD.           Purgatoire River: FIELD
LOC.           1843' FSL & 456' FWL----: LOCATION
PROV.                 Colorado: PROVINCE
CNTY.               Las Animas: COUNTRY
SRVC.                Patterson: SERVICE COMPANY
DATE.          Tue Mar 29 07:41:16 2005: LOG DATE
UWI.           05 071 08331 00: UNIQUE WELL ID
~Curve Information Block
DEPT.FT            0 000 00 00: Depth
DCAL.in                       : CDL Caliper
RHOB.g/cc                     : CDL Bulk Density
RHOC.g/cc                     : CDL Density Correction
DPOR.pu                       : CDL Density Porosity
NPOR.pu                       : Neutron Porosity
GR.GAPI                       : Gamma Ray
~Parameter Information Block
~A  Depth       DCAL        RHOB        RHOC        DPOR        NPOR         GR     
# ...
   933.6000      7.9064      2.6483      0.0633      0.1002     28.7053    133.3302
   933.7000      7.9064      2.6366      0.0414      0.8093     28.7099    126.8097
   933.8000      7.9088      2.6496      0.0411      0.0232     28.1245    123.8472
   933.9000      7.9088      2.6730      0.0729     -1.3958     27.7494    123.7720
   934.0000      7.9109      2.6982      0.0671     -2.9196     27.9072    121.6541
   934.1000      7.9109      2.7321      0.0640     -4.9746     28.4691    117.4271
   934.2000      7.9109      2.7643      0.1134     -6.9285     29.0513    113.1628
   934.3000      7.9103      2.7724      0.0384     -7.4187     29.3791    112.7495
   934.4000      7.9103      2.7557      0.0519     -6.4049     29.6724    118.1746
   934.5000      7.9076      2.7340     -0.0050     -5.0937     30.2273    125.6568
   934.6000      7.9076      2.7328      0.0014     -5.0194     30.8232    131.6641
   934.7000      7.9076      2.7511      0.0463     -6.1299     30.9501    133.9365
   934.8000      7.9041      2.7612      0.0317     -6.7399     30.7081    131.7924
   934.9000      7.9041      2.7475      0.0857     -5.9068     30.4087    128.8300
   935.0000      7.9020      2.7230      0.0677     -4.4257     29.8625    127.4892
   935.1000      7.9020      2.7061      0.0484     -3.3989     29.1513    127.3542
   935.2000      7.9020      2.6919      0.0565     -2.5365     28.8206    130.1930
   935.3000      7.9024      2.6726      0.0468     -1.3671     29.1366    135.8584
   935.4000      7.9024      2.6593      0.0458     -0.5634     29.7120    138.7108
   935.5000      7.9050      2.6545      0.0569     -0.2725     29.8270    138.9679
   935.6000      7.9050      2.6401      0.0285      0.6001     29.3976    141.8619
   935.7000      7.9050      2.6074      0.0500      2.5819     28.9992    145.3474
   935.8000      7.9068      2.5779     -0.0273      4.3722     28.8490    143.9639
   935.9000      7.9068      2.5805     -0.0218      4.2137     28.8482    136.8229
   936.0000      7.9065      2.6023      0.0490      2.8926     28.7440    126.1393
   936.1000      7.9065      2.6121     -0.0080      2.2969     28.1697    116.4693
   936.2000      7.9065      2.6076      0.0361      2.5717     27.3465    113.7498
   936.3000      7.9065      2.5966      0.0246      3.2344     27.1109    116.9731
   936.4000      7.9065      2.5911     -0.0015      3.5716     27.7878    120.0735
   936.5000      7.9076      2.5996      0.0107      3.0575     28.8073    120.1407
   936.6000      7.9076      2.6109      0.0219      2.3693     29.6535    118.3728
   936.7000      7.9076      2.6168     -0.0012      2.0094     30.1184    117.4079
   936.8000      7.9064      2.6222      0.0552      1.6848     30.2264    118.6607
   936.9000      7.9064      2.6247      0.0486      1.5308     30.2318    121.6477
   937.0000      7.9032      2.6210      0.0348      1.7563     30.0118    125.0223
   937.1000      7.9032      2.6160      0.0626      2.0610     29.3758    128.2068
   937.2000      7.9032      2.6146      0.0685      2.1443     28.6655    131.9350
   937.3000      7.9032      2.6152      0.0467      2.1062     28.2193    135.4990
   937.4000      7.9032      2.6072      0.0546      2.5927     27.9716    136.9440
   937.5000      7.9058      2.5870      0.0598      3.8166     27.5710    135.2960
   937.6000      7.9058      2.5751      0.0334      4.5419     27.0218    129.9976
   937.7000      7.9058      2.5858      0.0713      3.8932     26.5467    126.1550
   937.8000      7.9071      2.5975      0.0731      3.1821     26.1745    129.3982
   937.9000      7.9071      2.5898      0.0484      3.6495     26.1209    133.1364
   938.0000      7.9068      2.5727      0.0613      4.6856     26.2494    129.2931
   938.1000      7.9068      2.5648      0.0366      5.1635     25.8500    122.9694
   938.2000      7.9068      2.5748      0.0280      4.5602     25.1311    121.7370
   938.3000      7.9053      2.5945      0.0921      3.3617     24.8214    123.9612
   938.4000      7.9053      2.6074      0.1001      2.5836     24.8048    125.5119
   938.5000      7.9047      2.6072      0.0859      2.5922     24.8497    124.9046
   938.6000      7.9047      2.6044      0.0407      2.7639     24.9686    122.9948
   938.7000      7.9047      2.6156      0.0604      2.0848     24.8595    119.9334
   938.8000      7.9054      2.6431      0.0878      0.4173     24.5943    112.7779
   938.9000      7.9054      2.6643      0.1165     -0.8651     24.7899    104.5089
   939.0000      7.9059      2.6559      0.0900     -0.3576     25.4712    100.3430
   939.1000      7.9059      2.6276      0.0573      1.3583     26.1155     99.4278
   939.2000      7.9059      2.6049      0.0546      2.7357     26.0531     99.1709
   939.3000      7.9059      2.5937      0.0299      3.4136     25.1574     98.6619
   939.4000      7.9059      2.5838      0.0525      4.0112     24.1885     96.7780
   939.5000      7.9045      2.5695      0.0189      4.8814     23.5655     91.7294
   939.6000      7.9045      2.5586      0.0253      5.5388     23.0992     85.6492
   939.7000      7.9045      2.5559      0.0402      5.7009     22.6365     82.6628
   939.8000      7.9047      2.5556      0.0092      5.7233     22.2529     82.5852
   939.9000      7.9047      2.5532      0.0717      5.8685     21.9538     82.5294
   940.0000      7.9064      2.5431      0.0905      6.4760     21.5334     82.2952
   940.1000      7.9064      2.5239      0.0360      7.6450     20.9094     81.5253
   940.2000      7.9064      2.5069      0.0328      8.6746     20.3632     79.8386
   940.3000      7.9078      2.5046      0.0123      8.8123     19.8726     78.9744
   940.4000      7.9078      2.5175      0.0473      8.0319     19.1620     79.7766
   940.5000      7.9076      2.5346      0.0510      6.9927     18.2839     78.3337
   940.6000      7.9076      2.5401      0.0665      6.6628     17.3467     71.9270
   940.7000      7.9076      2.5246      0.0580      7.5992     16.5595     66.1394
   940.8000      7.9075      2.5022      0.0319      8.9545     16.2161     65.3519
   940.9000      7.9075      2.4939      0.0553      9.4577     16.1629     65.3236
   941.0000      7.9089      2.4976      0.0632      9.2381     15.9627     62.6035
   941.1000      7.9089      2.5004      0.0414      9.0696     15.4377     61.4337
   941.2000      7.9089      2.5000      0.0593      9.0933     14.8667     65.1741
   941.3000      7.9075      2.4971      0.0433      9.2681     14.6641     68.5281
   941.4000      7.9075      2.4926      0.0268      9.5419     14.8462     66.0575
   941.5000      7.9036      2.4856      0.0610      9.9634     15.2144     61.5590
   941.6000      7.9036      2.4769      0.0263     10.4909     15.8627     60.5055
   941.7000      7.9036      2.4746      0.0356     10.6286     16.6858     62.6532
   941.8000      7.9014      2.4779      0.0531     10.4292     17.1690     66.0335
   941.9000      7.9014      2.4779      0.0306     10.4332     17.2871     68.8510
   942.0000      7.9017      2.4723      0.0315     10.7696     17.2685     69.8458
   942.1000      7.9017      2.4638      0.0358     11.2844     17.1009     69.0828
   942.2000      7.9017      2.4565      0.0087     11.7287     17.1556     66.8537
   942.3000      7.9032      2.4523      0.0100     11.9816     17.6775     63.9101
   942.4000      7.9032      2.4507      0.0193     12.0759     18.2459     62.7375
   942.5000      7.9044      2.4546      0.0361     11.8416     18.4351     64.6797
   942.6000      7.9044      2.4633      0.0374     11.3163     18.0976     69.4073
   942.7000      7.9044      2.4677      0.0282     11.0504     17.5106     75.5070
   942.8000      7.9049      2.4637      0.0267     11.2928     17.0438     79.0636
   942.9000      7.9049      2.4620      0.0291     11.3945     16.7637     77.5919
   943.0000      7.9044      2.4735      0.0397     10.6961     16.5852     73.7635
   943.1000      7.9044      2.4893      0.0606      9.7393     16.4918     70.4072
