~Version Information
 VERS.                                  2.0 : CWLS LAS VERSION
 WRAP.                                   NO : WRAPING MODE
 SWARE .                 MController 2.5.0I : SOFTWARE VERSION
~Well Information
 WELL.                        Montoya 6-14v : WELL
 COMP.                       Petrogulf Corp : COMPANY
 FLD.                      Purgatorie River : FIELD
 LOC.                 SW/SW Sec 6 T33S R67W : LOCATION
 DATE.                              8/12/04 : DATE(S) LOGGED
 SRVC.       Blanco Geological Services LLC : SERVICE COMPANY
 STAT.                                   CO : STATE
 CNTY.                           Las Animas : COUNTY
 CTRY.                                  USA : COUNTRY
 API.                       05-071-08070-00 : API NUMBER
 STRT.FT                             803.00 : START DEPTH
 STOP.FT                            2673.00 : STOP DEPTH
 STEP.FT                               1.00 : DEPTH INCREMENT
 NULL.                                -9999 : NULL VALUE
~Curve information
 DEPTH.FT                                   :
 ROP.MIN/FT                                 :
 GAS.UNITS                                  :
~ASCII Log data
# ...
      2003.0          1.0         13.8 
      2004.0          0.9         15.2 
      2005.0          0.9         14.6 
      2006.0          0.7         15.8 
      2007.0          0.6         15.5 
      2008.0          0.5         17.2 
      2009.0          0.5         12.3 
      2010.0          0.6         13.9 
      2011.0          0.5         13.1 
      2012.0          0.5         14.0 
      2013.0          0.5         13.7 
      2014.0          0.6         14.4 
      2015.0          0.5         15.2 
      2016.0          0.3         14.9 
      2017.0         15.9         22.3 
      2018.0          2.8        446.0 
      2019.0          0.3          4.5 
      2020.0          0.8         13.6 
      2021.0          0.3         13.3 
      2022.0          0.4         12.8 
      2023.0          0.5         10.6 
      2024.0          0.4         10.9 
      2025.0          0.3         11.1 
      2026.0          0.4         12.2 
      2027.0          0.8         14.6 
      2028.0          0.5         14.7 
      2029.0          0.3         13.7 
      2030.0          0.4         16.0 
      2031.0          0.5         15.5 
      2032.0          0.5         14.4 
      2033.0          0.3         13.8 
      2034.0          1.5         15.9 
      2035.0          0.7         13.9 
      2036.0          0.2         12.7 
      2037.0          0.3         12.4 
      2038.0          0.4         15.2 
      2039.0          0.5         21.1 
      2040.0          0.4         21.5 
      2041.0          0.4         16.5 
      2042.0          0.4         12.1 
      2043.0          0.4         12.8 
      2044.0          0.4         13.8 
      2045.0          0.5         16.2 
      2046.0          0.5         18.3 
      2047.0         13.7        315.1 
      2048.0          0.4         14.0 
      2049.0          0.4         16.3 
      2050.0          1.0         13.6 
      2051.0          1.0          9.6 
      2052.0          1.1         10.6 
      2053.0          0.6          5.7 
      2054.0          1.5         16.8 
      2055.0          0.7         19.1 
      2056.0          0.8         18.6 
      2057.0          0.6          6.3 
      2058.0          0.7          6.1 
      2059.0          0.6          7.5 
      2060.0          0.7          6.9 
      2061.0          0.4          6.1 
      2062.0          0.5          6.4 
      2063.0          0.5          7.9 
      2064.0          0.5          9.8 
      2065.0          0.6         10.2 
      2066.0          0.5          6.8 
      2067.0          0.5          8.1 
      2068.0          0.4          6.7 
      2069.0          0.5          7.2 
      2070.0          0.4          8.6 
      2071.0          0.5          8.6 
      2072.0          0.5          8.0 
      2073.0          0.5          6.6 
      2074.0          0.7          7.7 
      2075.0          0.8          8.0 
      2076.0          0.7          9.6 
      2077.0         13.4          7.8 
      2078.0          0.4          1.5 
      2079.0          0.4          1.4 
      2080.0          0.4          1.4 
      2081.0          0.4          1.7 
      2082.0          0.4          1.7 
      2083.0          0.3          1.9 
      2084.0          0.5          9.5 
      2085.0          0.5         10.5 
      2086.0          0.5          9.6 
      2087.0          0.4          8.8 
      2088.0          0.2          7.9 
      2089.0          0.3          8.2 
      2090.0          0.4          8.5 
      2091.0          0.4          8.7 
      2092.0          0.5          8.8 
      2093.0          0.5          9.8 
      2094.0          0.5          9.7 
      2095.0          0.5          9.4 
      2096.0          0.5         10.5 
      2097.0          0.5         10.3 
      2098.0          0.5         10.6 
      2099.0          0.6         10.2 
      2100.0          0.5         10.1 
      2101.0          0.5         11.2 
      2102.0          0.5         10.7 
      2103.0          0.4          8.8 
      2104.0          0.4          9.2 
      2105.0          0.4         10.0 
      2106.0          0.3          9.7 
      2107.0         24.3       1400.4 
      2108.0          0.5          3.5 
      2109.0          0.5          5.0 
      2110.0          0.4          6.9 
      2111.0          0.7          8.0 
      2112.0          0.4          6.5 
      2113.0          0.4          5.4 
      2114.0          0.5          4.7 
      2115.0          0.4          4.9 
      2116.0          0.6          4.9 
      2117.0          0.6          5.4 
      2118.0          0.6          6.3 
      2119.0          0.6          6.6 
      2120.0          0.5          6.9 
      2121.0          0.5          6.2 
      2122.0          0.6          7.9 
      2123.0          0.6          9.6 
      2124.0          0.5          8.9 
      2125.0          0.6          6.1 
      2126.0          0.6          6.8 
      2127.0          0.6          4.7 
      2128.0          0.5          8.0 
      2129.0          0.6          9.3 
      2130.0          0.6          9.5 
      2131.0          0.5          9.4 
      2132.0          0.5          8.1 
      2133.0          0.5          8.3 
      2134.0          3.1          7.5 
      2135.0          0.6          2.5 
      2136.0          0.2          2.3 
      2137.0          6.8         62.3 
      2138.0          0.4          5.9 
      2139.0          0.6          2.6 
      2140.0          0.4          1.4 
      2141.0          0.5          2.0 
      2142.0          0.5          1.7 
      2143.0          0.5          1.9 
      2144.0          0.5          1.5 
      2145.0          0.5          2.7 
      2146.0          0.3          4.3 
      2147.0          0.4          5.6 
      2148.0          0.4          5.6 
      2149.0          0.3          4.2 
      2150.0          0.4          2.6 
      2151.0          0.4          2.9 
      2152.0          0.4          2.3 
      2153.0          0.4          2.4 
      2154.0          0.4          2.6 
      2155.0          0.4          2.9 
      2156.0          0.5          2.9 
      2157.0          0.4          3.3 
      2158.0          0.4          3.1 
      2159.0          0.4          4.0 
      2160.0          0.4          4.9 
      2161.0          0.3          5.3 
      2162.0          0.3          5.2 
      2163.0          0.4          4.7 
      2164.0          0.4          4.2 
      2165.0          0.4          4.1 
      2166.0          0.2          4.0 
      2167.0         11.6         69.1 
      2168.0          0.3          1.3 
      2169.0          0.3          0.5 
      2170.0          0.4          0.6 
      2171.0          0.3          0.8 
      2172.0          0.8          1.7 
      2173.0          0.7         16.6 
      2174.0          0.4         17.1 
      2175.0          0.5          7.2 
      2176.0          0.3          2.0 
      2177.0          0.4          1.5 
      2178.0          0.8          2.5 
      2179.0          0.4          4.8 
      2180.0          0.4          7.3 
      2181.0          0.7          8.5 
      2182.0          0.4          5.4 
      2183.0          0.4          3.8 
      2184.0          0.4          4.6 
      2185.0          0.3          5.6 
      2186.0          0.3          4.4 
      2187.0          0.3          4.9 
      2188.0          0.5          5.0 
      2189.0          0.4          4.6 
      2190.0          0.4          5.7 
      2191.0          0.4          5.9 
      2192.0          0.6          5.6 
      2193.0          0.7          5.4 
      2194.0          0.6          4.9 
      2195.0          0.3          5.0 
      2196.0          0.3          6.5 
      2197.0          7.7        100.9 
      2198.0          0.3         17.1 
      2199.0          0.3         17.2 
      2200.0          0.3         17.6 
      2201.0          0.4         17.9 
      2202.0          0.3         13.9 
