~Version Information
 VERS.                                  2.0 : CWLS LAS VERSION
 WRAP.                                   NO : WRAPING MODE
 SWARE .                 MController 2.5.0E : SOFTWARE VERSION
~Well Information
 WELL.                          Lynch 43-30 : WELL
 COMP.        Pioneer Natural Resources Inc : COMPANY
 FLD.                      Purgatoire River : FIELD
 LOC.                NE/SE Sec 30 T32S R67W : LOCATION
 DATE.                             10/25/04 : DATE(S) LOGGED
 SRVC.       Blanco Geological services LLc : SERVICE COMPANY
 STAT.                                   CO : STATE
 CNTY.                           Las Animas : COUNTY
 CTRY.                                  USA : COUNTRY
 API.                       05-071-08170-00 : API NUMBER
 STRT.FT                             410.00 : START DEPTH
 STOP.FT                            2845.00 : STOP DEPTH
 STEP.FT                               1.00 : DEPTH INCREMENT
 NULL.                                -9999 : NULL VALUE
~Curve information
 DEPTH.FT                                   :
 ROP.MIN/FT                                 :
 GAS.UNITS                                  :
~ASCII Log data
# ...
      810.00        0.200          2.5 
      811.00        0.233          2.1 
      812.00        0.167          2.0 
      813.00        0.167          2.2 
      814.00        0.200          1.9 
      815.00        0.167          1.7 
      816.00        0.200          1.9 
      817.00        0.150          2.0 
      818.00        0.167          1.8 
      819.00        0.167          1.6 
      820.00        0.167          1.8 
      821.00        0.200          1.8 
      822.00        0.200          2.0 
      823.00        0.267          1.5 
      824.00        0.233          1.3 
      825.00        0.267          1.7 
      826.00        0.233          0.7 
      827.00        0.200          1.3 
      828.00        0.233          1.0 
      829.00        0.233          0.8 
      830.00        0.300          0.7 
      831.00        0.200          1.3 
      832.00        0.183          1.1 
      833.00        0.200          1.3 
      834.00        0.167          1.4 
      835.00        0.200          1.2 
      836.00        3.883          1.9 
      837.00        0.233          1.3 
      838.00        0.267          0.6 
      839.00        0.267          1.3 
      840.00        0.300          1.1 
      841.00        0.300          1.2 
      842.00        0.267          0.9 
      843.00        0.200          0.3 
      844.00        0.233          0.8 
      845.00        0.317          0.8 
      846.00        0.333          1.0 
      847.00        0.333          0.9 
      848.00        0.333          1.1 
      849.00        0.367          0.8 
      850.00        0.300          0.7 
      851.00        0.333          0.8 
      852.00        0.333          0.7 
      853.00        0.300          0.8 
      854.00        0.333          0.7 
      855.00        0.317          0.8 
      856.00        0.333          0.3 
      857.00        0.333          0.9 
      858.00        0.300          0.5 
      859.00        0.233          1.1 
      860.00        0.233          1.1 
      861.00        0.233          0.6 
      862.00        0.300          2.1 
      863.00        0.333          2.2 
      864.00        0.333          2.4 
      865.00        0.300          2.4 
      866.00        2.650          2.8 
      867.00        0.467          2.7 
      868.00        0.300          2.3 
      869.00        0.217          2.0 
      870.00        0.233          2.3 
      871.00        0.167          2.2 
      872.00        0.167          2.1 
      873.00        0.167          1.6 
      874.00        0.167          2.1 
      875.00        0.200          2.1 
      876.00        0.167          2.2 
      877.00        0.133          2.3 
      878.00        0.167          2.2 
      879.00        0.133          2.2 
      880.00        0.133          2.2 
      881.00        0.133          1.8 
      882.00        0.167          2.0 
      883.00        0.167          2.2 
      884.00        0.200          2.0 
      885.00        0.233          2.3 
      886.00        0.300          2.0 
      887.00        0.217          2.1 
      888.00        0.267          2.3 
      889.00        0.133          2.1 
      890.00        0.167          1.4 
      891.00        0.167          2.1 
      892.00        0.200          1.3 
      893.00        0.200          1.3 
      894.00        0.167          1.9 
      895.00        0.167          2.0 
      896.00        3.117          2.5 
      897.00        0.400          1.6 
      898.00        0.233          1.9 
      899.00        0.200          1.9 
      900.00        0.200          1.8 
      901.00        0.133          1.8 
      902.00        0.167          1.3 
      903.00        0.200          1.6 
      904.00        0.200          1.2 
      905.00        0.200          1.9 
      906.00        0.183          1.5 
      907.00        0.200          1.7 
      908.00        0.167          1.7 
      909.00        0.200          1.9 
      910.00        0.167          1.7 
      911.00        0.167          1.9 
      912.00        0.200          1.6 
      913.00        0.200          2.0 
      914.00        0.233          2.0 
      915.00        0.200          2.1 
      916.00        0.200          2.0 
      917.00        0.233          2.3 
      918.00        0.233          2.1 
      919.00        0.300          2.1 
      920.00        0.267          2.3 
      921.00        0.233          1.9 
      922.00        0.217          2.0 
      923.00        0.200          2.0 
      924.00        0.200          2.1 
      925.00        0.167          1.5 
      926.00        3.417          4.1 
      927.00        0.200          4.1 
      928.00        0.200          3.2 
      929.00        0.233          3.4 
      930.00        0.233          3.5 
      931.00        0.233          2.6 
      932.00        0.200          3.1 
      933.00        0.200          3.0 
      934.00        0.200          3.6 
      935.00        0.167          4.7 
      936.00        0.167          5.4 
      937.00        0.300          6.4 
      938.00        0.200          7.8 
      939.00        0.217          8.7 
      940.00        0.133         10.1 
      941.00        0.133         10.5 
      942.00        0.133          9.4 
      943.00        0.167          9.5 
      944.00        0.133          9.7 
      945.00        0.100          8.4 
      946.00        0.167          8.7 
      947.00        0.133          8.1 
      948.00        0.133          7.9 
      949.00        0.167          6.9 
      950.00        0.200          6.8 
      951.00        0.200          6.8 
      952.00        0.200          5.9 
      953.00        0.200          5.7 
      954.00        0.200          5.2 
      955.00        0.167          4.6 
      956.00        7.250          8.4 
      957.00        0.200          3.5 
      958.00        0.233          3.7 
      959.00        0.200          3.7 
      960.00        0.200          3.9 
      961.00        0.267          3.9 
      962.00        0.167          3.9 
      963.00        0.333          3.8 
      964.00        0.267          3.3 
      965.00        0.300          3.5 
      966.00        0.267          3.3 
      967.00        0.233          3.3 
      968.00        0.233          3.3 
      969.00        0.200          2.6 
      970.00        0.167          3.1 
      971.00        0.183          2.8 
      972.00        0.200          3.3 
      973.00        0.233          3.4 
      974.00        0.233          3.5 
      975.00        0.233          3.0 
      976.00        0.233          2.9 
      977.00        0.200          3.3 
      978.00        0.233          3.5 
      979.00        0.233          3.4 
      980.00        0.233          3.2 
      981.00        0.267          3.3 
      982.00        0.233          3.1 
      983.00        0.233          3.2 
      984.00        0.233          3.3 
      985.00        0.283          3.1 
      986.00        3.450          9.6 
      987.00        0.233          7.5 
      988.00        0.267          7.1 
      989.00        0.233          6.6 
      990.00        0.533          5.7 
      991.00        0.467          4.7 
      992.00        5.433          4.4 
      993.00        0.267          3.5 
      994.00        0.300          3.8 
      995.00        0.233          3.5 
      996.00        0.200          3.4 
      997.00        0.300          3.7 
      998.00        0.367          3.3 
      999.00        0.233          3.5 
     1000.00        0.167          3.2 
     1001.00        0.267          3.1 
     1002.00        0.217          3.2 
     1003.00        0.233          3.3 
     1004.00        0.300          3.3 
     1005.00        0.300          3.0 
     1006.00        0.267          3.3 
     1007.00        0.300          2.9 
     1008.00        0.267          3.3 
     1009.00        0.267          3.1 
