~Version Information
VERS.                      2.0: CWLS Log ASCII Standard - VERSION 2.0
WRAP.                       NO: One line per depth step
~Well Information Block
STRT.FT               259.0000: 
STOP.FT              2379.0000: 
STEP.FT                 0.2500: 
NULL.                -999.2500: 
COMP.          Pioneer Natural Resources: COMPANY
WELL.          Foothills 12-36: WELL
FLD.           Purgatoire River: FIELD
LOC.           2450' FNL & 201' FWL: LOCATION
PROV.                 Colorado: PROVINCE
CNTY.               Las Animas: COUNTRY
SRVC.                Patterson: SERVICE COMPANY
DATE.          Thu Apr 21 09:19:57 2005: LOG DATE
UWI.           05 071 08339 00: UNIQUE WELL ID
~Curve Information Block
DEPT.FT            0 000 00 00: Depth
DCAL.in                       : CDL Caliper
RHOB.g/cc                     : CDL Bulk Density
RHOC.g/cc                     : CDL Density Correction
DPOR.pu                       : CDL Density Porosity
GR.GAPI                       : Gamma Ray
NPOR.pu                       : Neutron Porosity
~Parameter Information Block
~A  Depth       DCAL        RHOB        RHOC        DPOR         GR         NPOR    
# ...
  1795.0000      7.8634      2.4923      0.0568      9.5567     75.2441     27.1228
  1795.2500      7.8754      2.4712     -0.0131     10.8357     70.6765     26.8944
  1795.5000      7.8612      2.4531      0.0207     11.9353     68.9371     22.6570
  1795.7500      7.8220      2.4871      0.0294      9.8727     73.2612     22.1552
  1796.0000      7.7926      2.5212      0.0512      7.8078     68.8564     22.1337
  1796.2500      7.7855      2.5236      0.0556      7.6632     66.8971     21.9614
  1796.5000      7.7926      2.4722     -0.0003     10.7750     52.5728     22.2285
  1796.7500      7.8006      2.4544     -0.0332     11.8566     52.3615     20.7624
  1797.0000      7.8097      2.4135      0.0007     14.3324     43.7372     20.6422
  1797.2500      7.8193      2.4031     -0.0698     14.9633     44.6506     20.7267
  1797.5000      7.8194      2.4395      0.0390     12.7601     45.7343     20.9431
  1797.7500      7.8117      2.4042      0.0076     14.8960     43.9828     21.4751
  1798.0000      7.8064      2.4021      0.0167     15.0258     42.4535     19.6872
  1798.2500      7.8058      2.4162     -0.0182     14.1699     41.3570     19.9473
  1798.5000      7.8086      2.4061     -0.0223     14.7821     25.2499     19.6982
  1798.7500      7.8140      2.3676     -0.1275     17.1123     31.3507     19.3886
  1799.0000      7.8177      2.4665      0.0192     11.1195     27.7601     18.8081
  1799.2500      7.8140      2.4650      0.0299     11.2147     28.5758     18.3826
  1799.5000      7.8031      2.3800     -0.0434     16.3650     32.4616     17.1818
  1799.7500      7.7922      2.4124     -0.0147     14.4019     33.0173     18.7168
  1800.0000      7.7895      2.5192      0.0762      7.9300     31.7993     19.3927
  1800.2500      7.7791      2.5059      0.0153      8.7305     39.5967     20.7137
  1800.5000      7.7573      2.4709      0.0819     10.8524     58.8457     24.3372
  1800.7500      7.7546      2.4062      0.0390     14.7730     69.0289     25.2415
  1801.0000      7.7753      2.4539      0.0841     11.8827    103.0319     26.9711
  1801.2500      7.7976      2.5045      0.1228      8.8164    108.1641     27.8220
  1801.5000      7.8150      2.4188      0.0922     14.0126    123.8754     28.6835
  1801.7500      7.8162      2.3578     -0.0056     17.7079    123.4380     27.7320
  1802.0000      7.7984      2.4068      0.1075     14.7372    128.0912     24.6736
  1802.2500      7.7956      2.3774      0.0439     16.5230    146.4820     27.9157
  1802.5000      7.8210      2.4690      0.1316     10.9675    141.9916     29.6681
  1802.7500      7.8492      2.4578      0.1014     11.6466    141.7843     28.4536
  1803.0000      7.8391      2.4802      0.1373     10.2913    137.1365     29.2034
  1803.2500      7.7908      2.5240      0.1002      7.6364    129.3557     29.1110
  1803.5000      7.7301      2.5036      0.0937      8.8723    136.8213     29.7637
  1803.7500      7.7137      2.4818      0.1061     10.1936    148.5184     30.6499
  1804.0000      7.7648      2.4746      0.0843     10.6290    155.5378     28.6206
  1804.2500      7.8246      2.5069      0.1428      8.6722    146.9986     27.4218
  1804.5000      7.8592      2.4579      0.0749     11.6404    130.1806     28.7024
  1804.7500      7.8785      2.4298      0.0933     13.3430    138.2131     28.6528
  1805.0000      7.9003      2.4688      0.1285     10.9836    132.1806     29.8386
  1805.2500      7.9598      2.4984      0.1182      9.1888    133.5223     29.9071
  1805.5000      8.0603      2.4718      0.0948     10.8008    128.3285     29.8884
  1805.7500      8.1536      2.4752      0.0718     10.5927    114.7480     30.2610
  1806.0000      8.1764      2.4662      0.0354     11.1393    108.2970     27.9759
  1806.2500      8.0748      2.5195      0.1294      7.9121    106.8682     28.0397
  1806.5000      7.9553      2.5590      0.0991      5.5148    117.0153     27.6557
  1806.7500      7.8963      2.5643      0.1055      5.1924    110.3187     27.7208
  1807.0000      7.8723      2.5473      0.0569      6.2256    119.9364     28.0630
  1807.2500      7.8596      2.5882      0.0844      3.7438    106.5873     29.0762
  1807.5000      7.8497      2.5925      0.0657      3.4819    107.1615     26.6264
  1807.7500      7.8437      2.6106      0.1024      2.3894    103.7627     26.5747
  1808.0000      7.8438      2.5471      0.0359      6.2346    110.2070     28.1351
  1808.2500      7.8512      2.4964     -0.0059      9.3107    109.2896     29.1217
  1808.5000      7.8674      2.4534     -0.0098     11.9143     98.0436     27.4376
  1808.7500      7.8856      2.4944      0.0701      9.4298    104.6228     28.4245
  1809.0000      7.8954      2.4925      0.0208      9.5427    123.1053     30.7622
  1809.2500      7.8919      2.5442      0.0128      6.4138    125.9944     31.1422
  1809.5000      7.8825      2.4848     -0.0074     10.0094    138.0272     28.1706
  1809.7500      7.8747      2.4631     -0.0073     11.3268    119.6082     28.4821
  1810.0000      7.8716      2.4572      0.0326     11.6874    122.3640     27.2952
  1810.2500      7.8697      2.3760     -0.0039     16.6069    141.3100     27.8604
  1810.5000      7.8670      2.1397     -0.0548     30.9278    107.6678     29.1271
  1810.7500      7.8666      1.8918     -0.1790     45.9542    106.8216     29.8062
  1811.0000      7.8712      1.8130     -0.1379     50.7259    106.9821     30.1104
  1811.2500      7.8832      1.8949      0.0678     45.7664    101.0323     32.7295
  1811.5000      7.9041      2.0764      0.1426     34.7635    120.5338     32.5667
  1811.7500      7.9208      2.1883      0.1291     27.9801    123.7208     32.7182
  1812.0000      7.9258      2.1968      0.0185     27.4657    119.1149     33.6535
  1812.2500      7.9425      2.2867      0.1197     22.0189    126.6457     32.7124
  1812.5000      7.9733      2.3258      0.0888     19.6486    124.1263     31.1253
  1812.7500      8.0021      2.3235      0.0389     19.7905    123.2727     30.3101
  1813.0000      8.0277      2.3614      0.0297     17.4922    141.7404     26.8983
  1813.2500      8.0429      2.4580      0.1797     11.6378    144.1979     27.3630
  1813.5000      8.0487      2.5686      0.2229      4.9316    135.2695     29.9273
  1813.7500      8.0572      2.5818      0.3175      4.1305    131.3517     29.1667
  1814.0000      8.0513      2.5282      0.1600      7.3824    148.3783     27.8738
  1814.2500      8.0466      2.5209      0.1588      7.8224    155.3086     31.3414
  1814.5000      8.0842      2.4817      0.1498     10.2000    137.9104     32.0686
  1814.7500      8.1357      2.3958      0.0702     15.4084    130.7200     31.5837
  1815.0000      8.1250      2.3586      0.0701     17.6607    132.2385     29.8211
  1815.2500      8.0471      2.3354      0.0188     19.0648    132.8303     30.4460
  1815.5000      7.9854      2.3478      0.0902     18.3134    133.1467     29.7902
  1815.7500      7.9665      2.2726     -0.0035     22.8750    146.4029     29.5654
  1816.0000      7.9746      2.2147      0.0388     26.3816    144.8441     30.1310
  1816.2500      8.0236      2.1763     -0.0411     28.7068    145.7327     29.3705
  1816.5000      8.1479      2.3319      0.3796     19.2782    132.7128     28.7607
  1816.7500      8.3295      2.4033      0.3918     14.9521    144.7899     29.1451
  1817.0000      8.5140      2.3444      0.3376     18.5207    152.0294     29.2855
  1817.2500      8.6629      2.2934      0.3230     21.6114    165.4873     29.4530
  1817.5000      8.6885      2.4179      0.4290     14.0645    148.9334     28.3428
  1817.7500      8.5817      2.5697      0.4829      4.8655    143.8136     27.6110
  1818.0000      8.3988      2.7067      0.5253     -3.4377    137.8039     30.5181
  1818.2500      8.2592      2.6237      0.1884      1.5957    119.6945     29.8817
  1818.5000      8.1575      2.6002      0.1499      3.0185    104.7699     28.8092
  1818.7500      8.0347      2.5889      0.0836      3.7002     99.9214     28.4469
