~Version Information
VERS.                      2.0: CWLS Log ASCII Standard - VERSION 2.0
WRAP.                       NO: One line per depth step
~Well Information Block
STRT.FT               953.8000: 
STOP.FT              2226.0000: 
STEP.FT                 0.1000: 
NULL.                -999.2500: 
COMP.          Petrogulf Corporation: COMPANY
WELL.             Burson 8-13R: WELL
FLD.           Purgatorie River: FIELD
LOC.           1045' FNL & 2189' FEL: LOCATION
CNTY.               Las Animas: COUNTY
SRVC.                         : SERVICE COMPANY
DATE.          Fri Apr 30 07:30:36 2004: LOG DATE
UWI.           05 071 08039 00: UNIQUE WELL ID
STAT.                 Colorado: STATE
~Curve Information Block
DEPT.FT            0 000 00 00: Depth
DCAL.in                       : CDL Caliper
RHOB.g/cc                     : CDL Bulk Density
RHOC.g/cc                     : CDL Density Correction
DPOR.pu                       : CDL Density Porosity
NPOR.pu                       : Neutron Porosity
GR.GAPI                       : Gamma Ray
~Parameter Information Block
~A  Depth       DCAL        RHOB        RHOC        DPOR        NPOR         GR     
# ...
  1616.2000      7.9118      2.6270      0.1391      1.3968     22.3616    141.1671
  1616.3000      7.9106      2.6167      0.0966      2.0200     22.9307    139.1687
  1616.4000      7.9106      2.5824      0.0325      4.0995     23.3957    133.2454
  1616.5000      7.9110      2.5439      0.0644      6.4283     23.6552    127.4017
  1616.6000      7.9110      2.5134     -0.0104      8.2762     23.9017    123.2878
  1616.7000      7.9110      2.5077     -0.0095      8.6262     24.0576    118.2370
  1616.8000      7.9107      2.5279      0.0466      7.3971     24.1716    114.6411
  1616.9000      7.9107      2.5531      0.0602      5.8750     24.4133    118.9863
  1617.0000      7.9077      2.5627      0.0504      5.2900     24.8991    129.0251
  1617.1000      7.9077      2.5498      0.0305      6.0723     25.3079    134.1592
  1617.2000      7.9077      2.5291      0.0418      7.3276     25.1823    132.0450
  1617.3000      7.9084      2.5190      0.0469      7.9381     24.8529    131.7422
  1617.4000      7.9084      2.5223      0.0748      7.7390     25.0162    134.3599
  1617.5000      7.9086      2.5378      0.0641      6.7978     25.6967    132.1482
  1617.6000      7.9086      2.5618      0.1137      5.3455     26.0941    126.1424
  1617.7000      7.9086      2.5815      0.0897      4.1540     25.7265    122.3490
  1617.8000      7.9117      2.5917      0.1001      3.5315     25.0509    123.1446
  1617.9000      7.9117      2.5940      0.1189      3.3925     24.4578    127.3706
  1618.0000      7.8989      2.5897      0.0858      3.6575     23.6047    129.0745
  1618.1000      7.8989      2.5860      0.1028      3.8794     22.3144    121.6850
  1618.2000      7.8989      2.5856      0.1069      3.9058     21.1630    107.9544
  1618.3000      7.9073      2.5838      0.0822      4.0105     20.3558     97.3910
  1618.4000      7.9073      2.5787      0.0905      4.3200     19.7053     93.9162
  1618.5000      7.9141      2.5727      0.0274      4.6870     19.4827     93.9065
  1618.6000      7.9141      2.5688      0.0688      4.9220     19.7337     94.3993
  1618.7000      7.9141      2.5720      0.0042      4.7302     19.7720     93.9743
  1618.8000      7.9131      2.5882      0.0549      3.7430     19.1949     89.9373
  1618.9000      7.9131      2.6056      0.1018      2.6918     18.7370     82.5046
  1619.0000      7.9140      2.6100      0.0675      2.4248     18.8917     76.2315
  1619.1000      7.9140      2.6084      0.0567      2.5224     19.3582     73.9254
  1619.2000      7.9140      2.6061      0.0857      2.6597     19.8506     74.9548
  1619.3000      7.9182      2.5959      0.0890      3.2778     20.1011     78.4001
  1619.4000      7.9182      2.5797      0.0423      4.2597     19.9361     82.0837
  1619.5000      7.9211      2.5745      0.0346      4.5783     19.5482     83.9266
  1619.6000      7.9211      2.5825      0.0750      4.0937     19.2103     83.9502
  1619.7000      7.9211      2.5894      0.0491      3.6741     18.8887     83.5576
  1619.8000      7.9245      2.5924      0.0686      3.4914     18.6381     82.4248
  1619.9000      7.9245      2.5940      0.0612      3.3932     18.8057     80.4920
  1620.0000      7.9251      2.5875      0.1054      3.7888     19.5299     79.2196
  1620.1000      7.9251      2.5683      0.0567      4.9496     20.6186     79.8429
  1620.2000      7.9251      2.5539     -0.0022      5.8255     21.7178     85.3210
  1620.3000      7.9269      2.5637      0.0546      5.2303     22.5808     94.6127
  1620.4000      7.9269      2.5900      0.0927      3.6380     23.0204     98.7539
  1620.5000      7.9306      2.6134      0.0660      2.2181     22.9369     94.2328
  1620.6000      7.9306      2.6313      0.0451      1.1355     22.5521     86.2285
  1620.7000      7.9306      2.6453      0.0835      0.2876     21.8554     80.7724
  1620.8000      7.9294      2.6421      0.1010      0.4817     20.5896     79.6408
  1620.9000      7.9294      2.6172      0.0762      1.9900     19.2694     82.4165
  1621.0000      7.9342      2.5952      0.0241      3.3226     18.7165     89.1152
  1621.1000      7.9342      2.5926      0.0908      3.4800     19.0274     96.8324
  1621.2000      7.9342      2.5940      0.0563      3.3938     19.5088    100.6784
  1621.3000      7.9304      2.5801      0.0921      4.2378     19.3920     98.3690
  1621.4000      7.9304      2.5478      0.0637      6.1929     18.3576     94.9144
  1621.5000      7.9290      2.5205     -0.0150      7.8465     16.9932     97.9419
  1621.6000      7.9290      2.5240      0.0580      7.6375     16.4641    105.3783
  1621.7000      7.9290      2.5457      0.0898      6.3221     16.9853    108.6592
  1621.8000      7.9282      2.5590      0.0781      5.5170     17.4983    106.8941
  1621.9000      7.9282      2.5645      0.0663      5.1820     17.2355    104.7157
  1622.0000      7.9278      2.5748      0.0835      4.5579     16.7370    103.7004
  1622.1000      7.9278      2.5830      0.1071      4.0590     16.8177    101.3993
  1622.2000      7.9278      2.5725      0.0974      4.6967     17.5087     98.2364
  1622.3000      7.9299      2.5439      0.0519      6.4296     18.3179     97.1613
  1622.4000      7.9299      2.5196      0.0467      7.9052     18.8117     97.2085
  1622.5000      7.9317      2.5230      0.0181      7.6990     18.7790     97.6028
  1622.6000      7.9317      2.5475      0.0837      6.2107     18.3192    100.9058
  1622.7000      7.9317      2.5639      0.0838      5.2159     17.6735    104.7260
  1622.8000      7.9293      2.5699      0.0471      4.8540     16.9794    106.3138
  1622.9000      7.9293      2.5828      0.0407      4.0705     16.4813    105.7537
  1623.0000      7.9288      2.5954      0.0907      3.3109     16.7089    101.6721
  1623.1000      7.9288      2.5914      0.0553      3.5513     17.5529     96.3659
  1623.2000      7.9288      2.5818      0.0264      4.1326     17.8433     93.4026
  1623.3000      7.9336      2.5768      0.0644      4.4352     17.3053     91.5777
  1623.4000      7.9336      2.5639      0.0452      5.2164     17.1450     90.3372
  1623.5000      7.9408      2.5465      0.0082      6.2729     17.9109     90.1155
  1623.6000      7.9408      2.5422      0.0410      6.5326     18.8141     89.0806
  1623.7000      7.9408      2.5521      0.0015      5.9309     19.1671     86.0739
  1623.8000      7.9394      2.5643      0.0602      5.1921     19.1663     85.2654
  1623.9000      7.9394      2.5654      0.0269      5.1291     18.9268     88.2999
  1624.0000      7.9405      2.5568      0.0164      5.6468     18.5175     91.3584
  1624.1000      7.9405      2.5495      0.0190      6.0916     18.1826     93.3844
  1624.2000      7.9405      2.5454      0.0029      6.3420     17.8666     92.8505
  1624.3000      7.9374      2.5377      0.0488      6.8033     17.5779     87.4814
  1624.4000      7.9374      2.5256      0.0108      7.5407     17.3696     79.6100
  1624.5000      7.9417      2.5227      0.0097      7.7153     17.1286     73.6704
  1624.6000      7.9417      2.5371      0.0170      6.8420     16.9585     71.0945
  1624.7000      7.9417      2.5505      0.0717      6.0321     16.7222     69.4158
  1624.8000      7.9450      2.5403      0.0767      6.6463     16.1581     65.9753
  1624.9000      7.9450      2.5136      0.0657      8.2661     15.3765     63.2910
  1625.0000      7.9165      2.4973      0.0453      9.2569     14.7362     64.9880
  1625.1000      7.9165      2.5022      0.0698      8.9574     14.7557     67.4213
  1625.2000      7.9165      2.5154      0.0972      8.1584     15.3822     65.5499
  1625.3000      7.9257      2.5196      0.1118      7.9012     16.0849     62.7721
  1625.4000      7.9257      2.5091      0.0794      8.5371     16.3793     62.3197
  1625.5000      7.9218      2.4914      0.0730      9.6111     15.9583     62.9334
  1625.6000      7.9218      2.4785      0.0754     10.3964     15.5815     64.8202
  1625.7000      7.9218      2.4743      0.0699     10.6459     16.0633     67.7700
