~Version Information
VERS.                      2.0: CWLS Log ASCII Standard - VERSION 2.0
WRAP.                       NO: One line per depth step
~Well Information Block
STRT.FT               630.0000: 
STOP.FT              1156.0000: 
STEP.FT                 0.2500: 
NULL.                -999.2500: 
COMP.          Pioneer Natural Resources: COMPANY
WELL.          Drewmeister 34-34: WELL
FLD.           Purgatoire River: FIELD
LOC.           958' FSL & 1857' FEL: LOCATION
STAT.                 Colorado: State
CNTY.               Las Animas: COUNTY
CTRY. USA : Country
SECT. 34 : Section
TOWN. 32S : Township
RANG. 65W : Range
SRVC.                Patterson: SERVICE COMPANY
DATE.          Mon Oct 03 23:24:37 2005: LOG DATE
API.           05 071 08131 00: UNIQUE WELL ID
~Curve Information Block
DEPT.FT            0 000 00 00: Depth
SN.Ohm-m                      : IEL Short Normal
SP.mV                         : IEL Spontaneous Potential
DIR.Ohm-m                     : IEL Induction Resistivity
GR.GAPI                       : Gamma Ray
~Parameter Information Block
~A  Depth        SN          SP         DIR          GR     
   630.0000      3.0572    799.9761    138.6381     53.6628
   630.2500      3.0258    799.9761    139.5996     54.8627
   630.5000      3.0044    799.9761    138.6602     56.2989
   630.7500      2.9833    799.9761    135.5909     57.0176
   631.0000      2.9806    799.9761    131.2191     58.0237
   631.2500      3.0240    799.9761    127.1211     58.6761
   631.5000      3.0935    799.9761    124.7125     59.5662
   631.7500      3.1523    799.9761    124.4821     60.0771
   632.0000      3.1950    799.9761    125.7526     60.5119
   632.2500      3.2062    799.9761    127.0191     60.4421
   632.5000      3.1604    799.9761    126.9217     60.0831
   632.7500      3.0912    799.9761    125.3248     60.1309
   633.0000      3.0779    799.9761    123.3550     61.0658
   633.2500      3.1586    799.9761    122.3681     62.0608
   633.5000      3.2863    799.9761    123.0168     63.5248
   633.7500      3.3691    799.9761    125.0951     64.3747
   634.0000      3.3398    799.9761    127.9887     65.6127
   634.2500      3.2093    799.9761    131.3024     66.4184
   634.5000      3.0643    799.9761    135.1077     67.2830
   634.7500      2.9730    799.9761    139.5701     67.4106
   635.0000      2.9211    799.9761    144.3537     66.7682
   635.2500      2.8767    799.9761    148.3604     65.8442
   635.5000      2.8641    799.9761    150.1469     64.0370
   635.7500      2.9228    799.9761    148.7135     62.8590
   636.0000      3.0260    799.9761    143.9923     61.7893
   636.2500      3.1360    799.9761    136.6211     61.8570
   636.5000      3.2733    799.9761    127.5823     63.2414
   636.7500      3.4333    799.9761    117.9779     64.7844
   637.0000      3.5624    799.9761    108.7406     67.3821
   637.2500      3.6197    799.9761    100.2732     68.9431
   637.5000      3.5573    799.9761     92.4758     70.5821
   637.7500      3.3547    799.9761     85.2542     71.0918
   638.0000      3.0990    799.9761     78.9334     71.0231
   638.2500      2.8976    799.9761     74.0568     70.4941
   638.5000      2.7394    799.9761     70.8443     69.0320
   638.7500      2.5762    799.9761     68.9026     67.6886
   639.0000      2.5032    799.9761     67.3614     65.6348
   639.2500      2.6467    799.9761     65.3384     64.6411
   639.5000      2.9276    799.9761     62.4738     63.7588
   639.7500      3.1839    799.9761     59.1950     63.0414
   640.0000      3.3903    799.9761     56.6320     60.7669
   640.2500      3.5913    799.9761     56.5410     58.4861
   640.5000      3.7521    799.9761     61.9437     55.1131
   640.7500      3.8002    799.9761     81.0342     53.6440
   641.0000      3.7356    799.9761    159.3672     52.9189
   641.2500      3.6068    799.9761 100000.0000     53.0064
   641.5000      3.4538    799.9761 100000.0000     52.9269
   641.7500      3.3217    799.9761 100000.0000     52.2697
   642.0000      3.2486    799.9761 100000.0000     50.2026
   642.2500      3.2319    799.9761 100000.0000     48.3879
   642.5000      3.2402    799.9761 100000.0000     45.8677
   642.7500      3.2418    799.9723 100000.0000     44.7338
   643.0000      3.2183    799.9393 100000.0000     44.0561
   643.2500      3.1678    799.7531 100000.0000     44.1889
   643.5000      3.1090    798.9362 100000.0000     44.9996
   643.7500      3.0658    796.0734 100000.0000     44.2590
   644.0000      3.0355    787.9939 100000.0000     45.5353
   644.2500      3.0048    769.4553 100000.0000     46.4448
   644.5000      3.1155    734.3855 100000.0000     48.0090
   644.7500      4.1107    678.6216 100000.0000     44.1517
   645.0000      8.3497    602.1650 100000.0000     46.1102
   645.2500     21.2611    509.3341 100000.0000     47.8171
   645.5000     50.0081    408.0733 100000.0000     52.2317
   645.7500     93.7738    310.1105 100000.0000     50.8442
   646.0000    135.2255    229.9371 100000.0000     61.6879
   646.2500    156.9653    179.7895 100000.0000     71.1057
   646.5000    161.1767    163.4224 100000.0000     86.9385
   646.7500    151.5416    174.7499 100000.0000     84.9378
   647.0000    121.3370    202.3327 100000.0000     97.7710
   647.2500     77.6939    234.8593 100000.0000    104.7004
   647.5000     42.1589    263.7644 100000.0000    111.8112
   647.7500     25.0324    283.3773     11.3312    114.5287
   648.0000     21.4327    290.5648      4.6464    116.5111
   648.2500     22.9560    284.6361      3.2204    116.8202
   648.5000     23.6684    267.0246      2.8431    115.9330
   648.7500     22.3364    240.2412      2.9252    114.6549
   649.0000     22.6195    206.4457      3.3354    112.6047
   649.2500     29.1179    166.6525      4.0910    111.6640
   649.5000     44.4587    121.2057      5.3677    111.2019
   649.7500     73.5609     71.0626      7.7029    111.4133
   650.0000    130.7537     18.6851     12.6414    112.1638
   650.2500    235.5672    -32.2224     24.7263    112.8567
   650.5000    391.6946    -77.6964     50.5507    114.4762
   650.7500    568.6100   -114.4002     53.1388    116.3204
   651.0000    715.6902   -140.2528     29.5485    120.6326
   651.2500    802.9555   -154.8790     17.5275    124.3488
   651.5000    839.0587   -159.4997     12.5205    130.3255
   651.7500    849.2703   -156.0529     10.3316    134.1023
   652.0000    851.2119   -146.1484      9.3757    138.9584
   652.2500    851.4561   -130.6391      8.9999    141.3935
   652.5000    851.4747   -109.8953      8.8974    143.2797
   652.7500    851.4747    -84.2887      8.9190    143.1898
   653.0000    851.4747    -54.4925      9.0000    141.4795
   653.2500    851.4747    -21.5481      9.1276    139.8862
   653.5000    851.4747     13.2298      9.3283    137.9247
   653.7500    851.4240     48.4959      9.6536    137.4878
   654.0000    850.8234     83.2317     10.1531    138.9589
   654.2500    846.3167    117.0838     10.8335    141.4369
   654.5000    824.4597    150.4937     11.6218    146.2216
   654.7500    755.6799    184.4239     12.3708    148.8070
   655.0000    614.5353    219.6404     12.9338    149.6368
   655.2500    424.4546    255.9678     13.2533    147.5349
   655.5000    255.3553    292.3564     13.3662    140.5184
   655.7500    156.0332    328.2131     13.3288    133.8193
   656.0000    121.3811    365.0728     13.1657    122.2542
   656.2500    128.2862    406.6360     12.8845    114.6181
   656.5000    163.5946    456.3409     12.5167    104.9535
   656.7500    209.4784    514.2609     12.1281    100.1829
   657.0000    232.1153    576.0135     11.7897     95.2250
   657.2500    210.5870    634.4312     11.5418     92.9276
   657.5000    161.9422    682.6343     11.3816     90.8584
   657.7500    115.9162    716.7238     11.2746     90.9277
   658.0000     82.6883    736.8444     11.1792     94.3988
   658.2500     57.6685    746.2198     11.0676     99.2347
   658.5000     38.9011    748.9805     10.9305    109.5165
   658.7500     28.1458    748.2940     10.7695    117.3399
   659.0000     25.0143    745.7022     10.5865    128.3119
   659.2500     27.7525    741.4863     10.3793    134.0216
   659.5000     35.8070    735.4545     10.1442    139.2614
   659.7500     49.2834    727.7096      9.8821    140.6024
   660.0000     68.4091    719.0305      9.6020    140.0549
   660.2500     94.4151    710.4531      9.3198    138.4473
   660.5000    127.6611    702.1741      9.0542    135.0328
   660.7500    157.7397    693.0674      8.8221    132.7189
   661.0000    164.0024    682.1157      8.6362    130.3156
   661.2500    151.4506    670.7606      8.5029    129.7795
   661.5000    172.3655    663.1898      8.4223    130.4024
   661.7500    276.1445    663.2989      8.3901    131.4315
   662.0000    440.7510    670.8936      8.4004    133.3844
   662.2500    569.2177    680.8314      8.4473    134.7019
   662.5000    568.5032    685.8684      8.5247    136.2974
   662.7500    441.0834    680.5712      8.6236    137.1252
   663.0000    283.5356    663.4308      8.7326    138.7947
   663.2500    191.4084    636.7936      8.8406    140.6717
