~Version Information
VERS.                      2.0: CWLS Log ASCII Standard - VERSION 2.0
WRAP.                       NO: One line per depth step
~Well Information Block
STRT.FT               605.6000: 
STOP.FT              1938.0000: 
STEP.FT                 0.1000: 
NULL.                -999.2500: 
COMP.          Petrogulf Corporation: COMPANY
WELL.              Graff 9-31R: WELL
FLD.           Purgatorie River: FIELD
LOC.           707' FNL & 1713' FEL: LOCATION
CNTY.               Las Animas: COUNTY
SRVC.                         : SERVICE COMPANY
DATE.          Mon Oct 25 06:13:30 2004: LOG DATE
UWI.           05 071 08037 00: UNIQUE WELL ID
STAT.                 Colorado: STATE
~Curve Information Block
DEPT.FT            0 000 00 00: Depth
DCAL.in                       : CDL Caliper
RHOB.g/cc                     : CDL Bulk Density
RHOC.g/cc                     : CDL Density Correction
DPOR.pu                       : CDL Density Porosity
GR.GAPI                       : Gamma Ray
NPOR.pu                       : Neutron Porosity
~Parameter Information Block
~A  Depth       DCAL        RHOB        RHOC        DPOR         GR         NPOR    
# ...
  1056.8000      8.3441      2.0659      0.3049     35.3988     90.4738     23.9653
  1056.9000      8.3441      2.1806      0.3311     28.4511     89.1601     25.0037
  1057.0000      8.3626      2.2728      0.3446     22.8600     92.7139     25.7935
  1057.1000      8.3626      2.3516      0.3110     18.0867    100.8590     26.7387
  1057.2000      8.3626      2.4224      0.2170     13.7962    110.3541     27.7559
  1057.3000      8.3489      2.4691      0.1638     10.9613    118.7803     28.6373
  1057.4000      8.3489      2.4843      0.0543     10.0430    124.7744     29.3604
  1057.5000      8.1995      2.4895      0.0476      9.7260    129.0632     29.9166
  1057.6000      8.1995      2.5044      0.0816      8.8231    133.5562     30.2957
  1057.7000      8.1995      2.5314      0.0483      7.1864    139.4819     30.4561
  1057.8000      8.1778      2.5609      0.1126      5.3986    144.6110     30.2062
  1057.9000      8.1778      2.5835      0.0867      4.0287    147.2528     29.5091
  1058.0000      8.1761      2.6009      0.1378      2.9727    146.4545     28.7391
  1058.1000      8.1761      2.6056      0.1307      2.6910    143.4354     28.1811
  1058.2000      8.1761      2.5912      0.0530      3.5626    142.8724     27.4166
  1058.3000      8.1676      2.5665      0.0293      5.0592    145.3360     26.2416
  1058.4000      8.1676      2.5316      0.0553      7.1782    147.0145     25.2353
  1058.5000      8.1573      2.4934     -0.0115      9.4937    145.5168     24.8824
  1058.6000      8.1573      2.4781      0.0163     10.4157    138.5726     25.1800
  1058.7000      8.1573      2.4858      0.0661      9.9509    128.1531     25.7676
  1058.8000      8.1515      2.4959      0.0601      9.3423    122.7050     26.2599
  1058.9000      8.1515      2.5075      0.0575      8.6371    126.5242     26.6312
  1059.0000      8.1260      2.5248      0.0907      7.5905    135.2649     27.0843
  1059.1000      8.1260      2.5444      0.0796      6.4026    142.9650     27.8138
  1059.2000      8.1260      2.5618      0.1761      5.3431    146.8005     28.7649
  1059.3000      8.1027      2.5744      0.1649      4.5814    148.9476     29.5445
  1059.4000      8.1027      2.5964      0.1753      3.2462    153.3212     30.2008
  1059.5000      8.0677      2.6491      0.1897      0.0540    158.4307     31.2675
  1059.6000      8.0677      2.7298      0.2247     -4.8373    157.0501     32.8240
  1059.7000      8.0677      2.8177      0.2086    -10.1658    149.4069     34.4566
  1059.8000      7.9967      2.9015      0.1415    -15.2424    141.7093     35.7032
  1059.9000      7.9967      2.9700      0.2109    -19.3933    135.0778     36.2238
  1060.0000      7.9360      3.0058      0.1742    -21.5607    129.5546     36.0362
  1060.1000      7.9360      3.0214      0.1592    -22.5083    123.3109     35.1800
  1060.2000      7.9360      3.0366      0.1519    -23.4283    110.4356     33.6526
  1060.3000      7.9055      3.0257      0.1465    -22.7682     92.6998     31.7955
  1060.4000      7.9055      2.9549     -0.0451    -18.4797     78.6952     30.0200
  1060.5000      7.8963      2.8435     -0.1732    -11.7297     72.5763     28.4286
  1060.6000      7.8963      2.7445     -0.2641     -5.7261     71.2841     26.7088
  1060.7000      7.8963      2.6899     -0.1710     -2.4180     69.3847     24.8247
  1060.8000      7.9175      2.6715     -0.0814     -1.3037     65.1330     23.1996
  1060.9000      7.9175      2.6700      0.0263     -1.2110     61.6075     21.9799
  1061.0000      7.9196      2.6661      0.1499     -0.9744     61.1169     20.6130
  1061.1000      7.9196      2.6355      0.1984      0.8780     61.7741     18.8710
  1061.2000      7.9196      2.5761      0.1593      4.4797     61.7306     17.2477
  1061.3000      7.8959      2.5185      0.1410      7.9685     60.1755     15.9462
  1061.4000      7.8959      2.4899      0.1289      9.7034     56.6302     14.8923
  1061.5000      7.8927      2.4884      0.1935      9.7937     52.9682     14.1605
  1061.6000      7.8927      2.5010      0.1869      9.0297     49.5903     13.7750
  1061.7000      7.8927      2.5280      0.1941      7.3933     45.1575     13.5546
  1061.8000      7.8972      2.5717      0.2895      4.7459     40.8408     13.2988
  1061.9000      7.8972      2.6177      0.2461      1.9574     37.8466     12.9815
  1062.0000      7.9040      2.6507      0.2643     -0.0395     36.9308     12.7563
  1062.1000      7.9040      2.6691      0.2019     -1.1589     36.1323     12.6958
  1062.2000      7.9040      2.6758      0.2589     -1.5629     33.0105     12.5175
  1062.3000      7.9160      2.6663      0.1947     -0.9862     30.8660     11.9251
  1062.4000      7.9160      2.6395      0.1888      0.6348     31.2621     11.1875
  1062.5000      7.9452      2.5974      0.1622      3.1869     31.6451     10.7708
  1062.6000      7.9452      2.5446      0.1257      6.3885     31.1306     10.7893
  1062.7000      7.9452      2.5061      0.0335      8.7226     29.6656     11.0351
  1062.8000      7.9606      2.5077      0.0023      8.6255     27.1635     11.0943
  1062.9000      7.9606      2.5305      0.0727      7.2397     24.4949     10.8423
  1063.0000      7.9889      2.5397      0.0734      6.6850     23.2782     10.4935
  1063.1000      7.9889      2.5347      0.0692      6.9855     23.7304     10.4561
  1063.2000      7.9889      2.5276      0.0639      7.4188     23.8613     10.9025
  1063.3000      8.0482      2.5178      0.0489      8.0123     23.2604     11.3698
  1063.4000      8.0482      2.5066      0.0134      8.6926     23.4608     11.6111
  1063.5000      8.0735      2.5027      0.0523      8.9267     24.2661     11.8285
  1063.6000      8.0735      2.5065      0.0738      8.6971     24.8356     11.8924
  1063.7000      8.0735      2.5101      0.0443      8.4817     25.5564     11.5724
  1063.8000      8.0779      2.5149      0.0468      8.1895     25.9596     11.2810
  1063.9000      8.0779      2.5261      0.0837      7.5073     24.4206     11.5600
  1064.0000      8.0824      2.5333      0.1053      7.0752     22.2365     12.3341
  1064.1000      8.0824      2.5265      0.0785      7.4820     22.3159     12.8407
  1064.2000      8.0824      2.5155      0.0660      8.1533     23.6387     12.6390
  1064.3000      8.0823      2.5125      0.0908      8.3312     23.9297     12.3129
  1064.4000      8.0823      2.5173      0.1031      8.0430     22.8658     12.3001
  1064.5000      8.0814      2.5232      0.0648      7.6875     20.9547     12.4062
  1064.6000      8.0814      2.5305      0.1096      7.2447     19.3749     12.5292
  1064.7000      8.0814      2.5367      0.1045      6.8674     19.7560     12.6312
  1064.8000      8.0855      2.5422      0.0821      6.5341     21.9884     12.4530
  1064.9000      8.0855      2.5492      0.1205      6.1106     23.5959     11.9405
  1065.0000      8.0824      2.5475      0.0919      6.2150     23.2271     11.3864
  1065.1000      8.0824      2.5341      0.0863      7.0240     23.0484     11.1552
  1065.2000      8.0824      2.5166      0.0712      8.0826     23.5668     11.3164
  1065.3000      8.0809      2.5006      0.0360      9.0517     22.2830     11.5169
  1065.4000      8.0809      2.4966      0.0310      9.2942     18.8597     11.6276
  1065.5000      8.0695      2.5097      0.0706      8.5030     15.4072     11.8556
  1065.6000      8.0695      2.5243      0.0944      7.6200     13.6249     12.0048
  1065.7000      8.0695      2.5277      0.0436      7.4146     14.4895     11.7999
  1065.8000      8.0620      2.5351      0.0560      6.9649     18.2519     11.5232
  1065.9000      8.0620      2.5552      0.1049      5.7451     24.3914     11.4211
  1066.0000      8.0665      2.5721      0.0506      4.7209     30.6061     11.4523
  1066.1000      8.0665      2.5789      0.0788      4.3063     33.9719     11.6900
  1066.2000      8.0665      2.5803      0.1111      4.2269     34.6151     12.1720
  1066.3000      8.0786      2.5767      0.1145      4.4407     35.1988     12.8146
