~Version Information               
VERS.     2.0     :     CWLS LAS VERSION
WRAP.                         NO     :     WRAPING MODE
~Well Information   
API.                      :            
WELL.               Egan 9-11V     :     WELL
COMP.                    N/A     :     COMPANY
FLD.                    N/A     :     FIELD
LOC.                    N/A     :     LOCATION
CNTY.                    N/A     :     COUNTY
STATE.              N/A     :     STATE
CTRY.                    N/A     :     COUNTRY
DATE.                N/A     :     DATE (LOGGED)
UWI.                    N/A     :     UNIQUE WELL ID
SRVC.                N/A     :     SERVICE COMPANY
STAT.                           :
STRT.FT              612.00     :     START DEPTH
STOP.FT             2500.00     :     STOP DEPTH
STEP.FT                1.00     :     DEPTH INCREMENT
NULL.             -9999           :     NULL VALUE
~Curve information               
 DEPTH.FT                                   :
 ROP.MIN/FT                                 :
 GAS.UNITS                                  :     
C1.PPM          :     
C2.PPM          :
~ASCII Log data               
# ...
2080.00        0.16     7         10.8          -49995
2081.00        0.11     7         10.7          -49995
2082.00        0.10     0         10.7          -49995
2083.00        0.06     7         10.7          -49995
2084.00        0.16     7         10.3          -49995
2085.00        0.30     0          9.6          -49995
2086.00        0.30     0         10.5          -49995
2087.00        0.23     3         23.0          -49995
2088.00        0.23     3         32.5          -49995
2089.00        0.26     7         35.1          -49995
2090.00        0.33     3         33.8          -49995
2091.00        0.30     0         12.7          -49995
2092.00        0.30     0         13.5          -49995
2093.00        0.26     7         13.6          -49995
2094.00        0.26     7         15.7          -49995
2095.00        0.26     7         19.5          -49995
2096.00        0.26     7         26.0          -49995
2097.00        0.43     3         34.5          -49995
2098.00        0.26     7         42.0          -49995
2099.00        0.35     0         45.1          -49995
2100.00        0.20     0         43.7          -49995
2101.00        0.13     3         41.5          -49995
2102.00        0.13     3         39.8          -49995
2103.00        0.16     7         37.1          -49995
2104.00        0.16     7         36.5          -49995
2105.00        0.16     7         32.9          -49995
2106.00        0.16     7         31.8          -49995
2107.00        0.16     7         25.8          -49995
2108.00        0.16     7         25.8          -49995
2109.00        0.26     7         25.4          -49995
2110.00        0.23     3         21.3          -49995
2111.00        0.23     3         20.9          -49995
2112.00        0.23     3         20.0          -49995
2113.00        0.23     3         20.1          -49995
2114.00        0.23     3         20.2          -49995
2115.00        0.25     0         19.3          -49995
2116.00        0.23     3         19.0          -49995
2117.00        0.23     3         18.4          -49995
2118.00        0.20     0         18.4          -49995
2119.00        0.23     3         18.7          -49995
2120.00        0.26     7         18.0          -49995
2121.00        0.26     7         10.6          -49995
2122.00        0.33     3         10.6          -49995
2123.00        0.46     7         14.2          -49995
2124.00        0.36     7         17.2          -49995
2125.00        0.33     3         25.5          -49995
2126.00        0.33     3         35.9          -49995
2127.00        0.10     0         37.2          -49995
2128.00        0.13     3         40.5          -49995
2129.00        0.16     7         40.1          -49995
2130.00        0.16     7         39.6          -49995
2131.00        0.26     7         36.5          -49995
2132.00        0.20     0         36.2          -49995
2133.00        0.23     3         32.9          -49995
2134.00        0.13     3         32.9          -49995
2135.00        0.25     0         33.0          -49995
2136.00        0.26     7         29.9          -49995
2137.00        0.33     3         25.6          -49995
2138.00        0.30     0         27.8          -49995
2139.00        0.30     0         28.7          -49995
2140.00        0.40     0         31.5          -49995
2141.00        0.33     3         32.7          -49995
2142.00        0.36     7         32.2          -49995
2143.00        0.36     7         31.1          -49995
2144.00        0.36     7         28.8          -49995
2145.00        0.35     0         28.1          -49995
2146.00        0.33     3         26.3          -49995
2147.00        0.30     0         24.8          -49995
2148.00        0.33     3         23.5          -49995
2149.00        0.30     0         24.6          -49995
2150.00        0.26     7         68.2          -49995
2151.00        0.36     7         68.2          -49995
2152.00        0.26     7         72.1          -49995
2153.00        0.36     7         74.6          -49995
2154.00        0.26     7         85.1          -49995
2155.00        0.30     0         94.0          -49995
2156.00        0.23     3        123.7          -49995
2157.00        0.20     0        165.6          -49995
2158.00        0.16     7        165.6          -49995
2159.00        0.16     7        201.3          -49995
2160.00        0.16     7        212.1          -49995
2161.00        0.16     7        224.4          -49995
2162.00        0.25     0        229.1          -49995
2163.00        0.23     3        218.2          -49995
2164.00        0.26     7        204.9          -49995
2165.00        0.23     3        189.6          -49995
2166.00        0.13     3        187.5          -49995
2167.00        0.20     0        169.6          -49995
2168.00        0.23     3        160.2          -49995
2169.00        0.26     7        147.8          -49995
2170.00        0.23     3        137.7          -49995
2171.00        0.23     3        136.6          -49995
2172.00        0.26     7        128.2          -49995
2173.00        0.30     0        124.8          -49995
2174.00        0.30     0        125.3          -49995
2175.00        0.30     0        124.2          -49995
2176.00        0.38     3        122.7          -49995
2177.00        0.36     7        116.1          -49995
2178.00        0.26     7        112.6          -49995
2179.00        0.26     7        107.5          -49995
2180.00        0.23     3         57.0          -49995
2181.00        0.23     3         57.6          -49995
2182.00        0.23     3         57.6          -49995
2183.00        0.50     0         64.0          -49995
2184.00        0.33     3         75.2          -49995
2185.00        0.46     7        130.7          -49995
2186.00        0.56     7        189.4          -49995
2187.00        0.63     3        193.4          -49995
2188.00        0.61     7        169.8          -49995
2189.00        0.60     0        125.5          -49995
2190.00        0.46     7        112.8          -49995
2191.00        0.53     3        103.1          -49995
2192.00        0.53     3         95.8          -49995
2193.00        0.43     3         96.1          -49995
2194.00        0.30     0         94.6          -49995
2195.00        0.25     0         92.8          -49995
2196.00        0.23     3         92.5          -49995
2197.00        0.30     0         95.2          -49995
2198.00        0.36     7         98.3          -49995
2199.00        0.33     3        102.5          -49995
2200.00        0.26     7        103.1          -49995
2201.00        0.16     7        102.6          -49995
2202.00        0.23     3        100.2          -49995
2203.00        0.30     0        100.0          -49995
2204.00        0.13     3         97.6          -49995
2205.00        0.23     3         97.2          -49995
2206.00        0.30     0         94.3          -49995
2207.00        0.33     3         93.1          -49995
2208.00        0.28     3         92.9          -49995
2209.00        0.26     7         91.0          -49995
2210.00        0.33     3         89.1          -49995
2211.00        0.26     7         55.1          -49995
2212.00        0.26     7         62.6          -49995
2213.00        0.66     7         90.5          -49995
2214.00        0.50     0        159.1          -49995
2215.00        0.30     0        192.0          -49995
2216.00        0.23     3        189.4          -49995
2217.00        0.36     7        188.7          -49995
2218.00        0.33     3        166.5          -49995
2219.00        0.31     7        151.4          -49995
2220.00        0.23     3        136.3          -49995
2221.00        0.23     3        134.5          -49995
2222.00        0.26     7         80.9          -49995
2223.00        0.30     0         92.7          -49995
2224.00        0.30     0         96.4          -49995
2225.00        0.23     3        100.2          -49995
