~Version Information
VERS.                      2.0: CWLS Log ASCII Standard - VERSION 2.0
WRAP.                       NO: One line per depth step
~Well Information Block
STRT.FT                 3.7500: 
STOP.FT               979.7500: 
STEP.FT                 0.2500: 
NULL.                -999.2500: 
COMP.          Pioneer Natural Resources: COMPANY
WELL.          Rising Star 22-11: WELL
FLD.           Purgatoire River: FIELD
LOC.           2152' FNL & 2105' FWL: LOCATION
PROV.                 Colorado: PROVINCE
CNTY.               Las Animas: COUNTRY
SRVC.                Patterson: SERVICE COMPANY
DATE.          Sat Apr 16 09:17:01 2005: LOG DATE
UWI.           05 071 08354 00: UNIQUE WELL ID
~Curve Information Block
DEPT.FT            0 000 00 00: Depth
GR.GAPI                       : Gamma Ray
CCL.                          : Casing Collar Locator
TT3.usec                      : CBL 3' Travel Time
AMP3.mV                       : CBL 3' Amplitude
~Parameter Information Block
~A  Depth        GR         CCL         TT3         AMP3    
# ...
   573.2500     49.3182      0.0000   1208.4475      8.1043
   573.5000     49.8663      0.0000   1239.8993      7.9897
   573.7500     50.6602      0.0000   1268.9963      7.8820
   574.0000     51.4030      0.0000   1288.6962      7.7777
   574.2500     51.8879      0.0000   1298.4116      7.6678
   574.5000     52.0745      0.0000   1304.5558      7.5511
   574.7500     52.4003      0.0000   1313.4982      7.4351
   575.0000     53.7548      0.0000   1325.3730      7.3335
   575.2500     56.7297      0.0000   1335.4865      7.2672
   575.5000     60.9209      0.0000   1339.4034      7.2593
   575.7500     65.2037      0.0000   1335.6016      7.3200
   576.0000     68.7560      0.0000   1325.8809      7.4306
   576.2500     71.8134      0.0000   1315.4543      7.5450
   576.5000     75.3179      0.0000   1310.9386      7.6116
   576.7500     79.6533      0.0000   1315.5400      7.6041
   577.0000     83.8728      0.0000   1326.3160      7.5367
   577.2500     86.4574      0.0000   1337.3229      7.4511
   577.5000     86.6523      0.0000   1344.7153      7.3928
   577.7500     84.7948      0.0000   1348.2843      7.3972
   578.0000     81.8321      0.0000   1349.5662      7.4830
   578.2500     79.0967      0.0000   1349.9146      7.6410
   578.5000     78.2191      0.0000   1349.9503      7.8264
   578.7500     80.4814      0.0000   1349.7612      7.9730
   579.0000     85.8851      0.0000   1348.7872      8.0269
   579.2500     92.7321      0.0000   1345.2034      7.9735
   579.5000     98.2674      0.0000   1335.2253      7.8374
   579.7500    100.4030      0.0000   1314.5575      7.6635
   580.0000     99.3347      0.0000   1283.7847      7.4952
   580.2500     97.3433      0.0000   1253.6572      7.3617
   580.5000     96.9559      0.0000   1240.8293      7.2736
   580.7500     99.3506      0.0000   1253.6572      7.2273
   581.0000    103.9999      0.0000   1283.7847      7.2113
   581.2500    108.9967      0.0000   1314.5575      7.2132
   581.5000    111.7128      0.0000   1335.2253      7.2239
   581.7500    110.1775      0.0000   1345.2034      7.2402
   582.0000    104.6143      0.0000   1348.7872      7.2625
   582.2500     97.4622      0.0000   1349.7612      7.2928
   582.5000     91.6036      0.0000   1349.9634      7.3312
   582.7500     88.7083      0.0000   1350.0000      7.3754
   583.0000     89.1879      0.0000   1350.0000      7.4210
   583.2500     92.9556      0.0000   1350.0000      7.4625
   583.5000     99.5676      0.0000   1350.0000      7.4923
   583.7500    107.8629      0.0000   1350.0000      7.4996
   584.0000    116.0602      0.0000   1350.0000      7.4757
   584.2500    122.3265      0.0000   1349.9634      7.4228
   584.5000    125.2698      0.0000   1349.7615      7.3563
   584.7500    124.3134      0.0000   1348.7886      7.2907
   585.0000    120.1030      0.0000   1345.2086      7.2268
   585.2500    114.5584      0.0000   1335.2250      7.1547
   585.5000    110.1683      0.0000   1314.4724      7.0679
   585.7500    108.8168      0.0000   1283.2052      6.9721
   586.0000    110.8740      0.0000   1251.0657      6.8838
   586.2500    115.0992      0.0000   1232.1696      6.8276
   586.5000    119.4338      0.0000   1231.2458      6.8348
   586.7500    122.0849      0.0000   1238.2944      6.9324
   587.0000    122.1357      0.0000   1241.7711      7.1228
   587.2500    119.6601      0.0000   1243.2155      7.3749
   587.5000    115.7227      0.0000   1253.2260      7.6434
   587.7500    112.0021      0.0000   1276.0653      7.8914
   588.0000    109.8016      0.0000   1304.3032      8.0913
   588.2500    109.3824      0.0000   1327.5009      8.2213
   588.5000    110.3062      0.0000   1341.1489      8.2858
   588.7500    111.8776      0.0000   1346.7601      8.3375
   589.0000    112.9613      0.0000   1347.1123      8.4656
   589.2500    112.0111      0.0000   1342.7661      8.7502
   589.5000    107.8315      0.0000   1332.0845      9.2213
   589.7500    100.3007      0.0000   1313.9692      9.8428
   590.0000     90.6415      0.0000   1291.3608     10.5268
   590.2500     81.3974      0.0000   1271.9426     11.1740
   590.5000     75.7041      0.0000   1264.2212     11.7234
   590.7500     75.6866      0.0000   1271.9026     12.1759
   591.0000     81.1983      0.0000   1291.3041     12.5759
   591.2500     90.1658      0.0000   1313.9213     12.9759
   591.5000    100.1255      0.0000   1332.0723     13.4249
   591.7500    109.4433      0.0000   1342.8765     13.9759
   592.0000    117.3370      0.0000   1347.7562     14.6700
   592.2500    123.2404      0.0000   1349.4432     15.4796
   592.5000    126.6650      0.0000   1349.8936     16.2734
   592.7500    127.5841      0.0000   1349.9836     16.8704
   593.0000    126.4339      0.0000   1350.0000     17.1450
   593.2500    123.6865      0.0000   1350.0000     17.0778
   593.5000    119.9624      0.0000   1349.9832     16.7307
   593.7500    116.6310      0.0000   1349.8738     16.2071
   594.0000    115.5747      0.0000   1349.3350     15.6264
   594.2500    117.7182      0.0000   1347.2120     15.0924
   594.5000    122.0235      0.0000   1340.7715     14.6615
   594.7500    126.3142      0.0000   1325.5818     14.3323
   595.0000    129.0380      0.0000   1297.4386     14.0533
   595.2500    130.2325      0.0000   1255.4913     13.7415
   595.5000    131.0375      0.0000   1202.5997     13.3217
   595.7500    132.4879      0.0000   1142.1859     12.7744
   596.0000    134.7139      0.0000   1077.7349     12.1454
   596.2500    136.9400      0.0000   1016.6014     11.5100
   596.5000    137.9718      0.0000    970.2099     10.9287
   596.7500    136.8728      0.0000    947.6769     10.4293
   597.0000    133.5777      0.0000    951.4327     10.0069
   597.2500    128.8827      0.0000    978.9381      9.6149
   597.5000    123.7425      0.0000   1025.1284      9.1619
   597.7500    118.6559      0.0000   1081.9862      8.5660
   598.0000    113.9080      0.0000   1136.6707      7.8460
   598.2500    110.1046      0.0000   1173.8103      7.1332
   598.5000    107.8113      0.0000   1185.3567      6.5657
   598.7500    106.7062      0.0000   1179.0515      6.1889
   599.0000    105.9878      0.0000   1173.0759      5.9674
   599.2500    105.8355      0.0000   1179.9148      5.8499
   599.5000    107.5391      0.0000   1195.8065      5.8033
   599.7500    111.6695      0.0000   1204.9677      5.8156
   600.0000    116.7727      0.0000   1192.5078      5.8901
   600.2500    120.3191      0.0000   1157.1421      6.0229
   600.5000    120.5446      0.0000   1117.2271      6.1966
   600.7500    117.2959      0.0000   1101.7526      6.4177
   601.0000    111.8161      0.0000   1128.2649      6.7286
   601.2500    106.1932      0.0000   1187.9332      7.1394
   601.5000    102.5520      0.0000   1254.1572      7.5776
   601.7500    101.8484      0.0000   1304.4719      7.9449
   602.0000    103.0684      0.0000   1332.7288      8.1959
   602.2500    104.0862      0.0000   1344.7914      8.3455
   602.5000    103.6962      0.0000   1348.7567      8.4302
   602.7500    102.5107      0.0000   1349.7690      8.4881
   603.0000    101.8813      0.0000   1349.9692      8.5597
   603.2500    102.6436      0.0000   1350.0000      8.6772
   603.5000    104.9509      0.0000   1350.0000      8.8414
   603.7500    108.3445      0.0000   1350.0000      9.0171
   604.0000    111.5795      0.0000   1350.0000      9.1637
   604.2500    113.1667      0.0000   1350.0000      9.2696
   604.5000    112.6409      0.0000   1350.0000      9.3536
   604.7500    110.9902      0.0000   1350.0000      9.4380
   605.0000    109.6321      0.0000   1349.9982      9.5249
   605.2500    109.1228      0.0000   1349.9879      9.5976
   605.5000    108.8070      0.0000   1349.9219      9.6427
   605.7500    107.5369      0.0000   1349.6321      9.6697
   606.0000    104.6590      0.0000   1348.5929      9.7072
   606.2500    100.4373      0.0000   1345.4607      9.7727
   606.5000     95.9565      0.0000   1337.6222      9.8464
