~Version Information
VERS.                      2.0: CWLS Log ASCII Standard - VERSION 2.0
WRAP.                       NO: One line per depth step
~Well Information Block
STRT.FT                -9.7500: 
STOP.FT              2612.5000: 
STEP.FT                 0.2500: 
NULL.                -999.2500: 
COMP.                         : COMPANY
WELL.                         : WELL
FLD.                          : FIELD
LOC.                          : LOCATION
CNTY.                         : COUNTY
SRVC.                         : SERVICE COMPANY
DATE.          Mon Nov 17 14:56:03 2003: LOG DATE
UWI.                          : UNIQUE WELL ID
STAT.                         : STATE
~Curve Information Block
DEPT.FT            0 000 00 00: Depth
CCL.                          : Casing Collar Locator
TT3.usec                      : CBL 3' Travel Time
AMP3.mV                       : CBL 3' Amplitude
GR.GAPI                       : Gamma Ray
~Parameter Information Block
~A  Depth       CCL         TT3         AMP3         GR     
# ...
  1028.7500      0.0000    262.0832     72.6882     31.3368
  1029.0000      0.0000    262.0269     72.6775     28.4017
  1029.2500      0.0000    261.9794     72.7184     28.4852
  1029.5000      0.0000    261.9633     72.7543     31.1546
  1029.7500      0.0000    261.9621     72.7808     36.5436
  1030.0000      0.0000    261.9391     72.8675     44.7438
  1030.2500      0.0000    261.8787     73.0841     55.1102
  1030.5000      0.0000    261.8034     73.4130     66.3030
  1030.7500      0.0000    261.7497     73.7461     77.0470
  1031.0000      0.0000    261.7326     73.9602     86.8648
  1031.2500      0.0000    261.7390     73.9960     96.1341
  1031.5000      0.0000    261.7473     73.8876    105.4647
  1031.7500      0.0000    261.7471     73.7351    115.0131
  1032.0000      0.0000    261.7422     73.6391    124.1836
  1032.2500      0.0000    261.7419     73.6435    131.8441
  1032.5000      0.0000    261.7482     73.7359    137.2810
  1032.7500      0.0000    261.7453     73.8933    141.2738
  1033.0000      0.0000    261.7063     74.1137    145.6338
  1033.2500      0.0000    261.6199     74.3939    151.2194
  1033.5000      0.0000    261.5115     74.6947    156.8708
  1033.7500      0.0000    261.4292     74.9444    160.4735
  1034.0000      0.0000    261.4005     75.0806    160.5711
  1034.2500      0.0000    261.4076     75.0908    157.0851
  1034.5000      0.0000    261.4086     75.0210    151.2354
  1034.7500      0.0000    261.3796     74.9456    144.9943
  1035.0000      0.0000    261.3310     74.9189    140.2754
  1035.2500      0.0000    261.2873     74.9458    138.1938
  1035.5000      0.0000    261.2604     74.9943    138.6767
  1035.7500      0.0000    261.2401     75.0332    140.7693
  1036.0000      0.0000    261.2077     75.0560    143.5170
  1036.2500      0.0000    261.1581     75.0741    146.5151
  1036.5000      0.0000    261.1111     75.0998    149.6684
  1036.7500      0.0000    261.0978     75.1369    152.8630
  1037.0000      0.0000    261.1323     75.1830    156.0909
  1037.2500      0.0000    261.1990     75.2388    159.3934
  1037.5000      0.0000    261.2669     75.3141    162.2913
  1037.7500      0.0000    261.3162     75.4106    163.8200
  1038.0000      0.0000    261.3495     75.4936    163.5402
  1038.2500      0.0000    261.3808     75.4992    161.9527
  1038.5000      0.0000    261.4174     75.3875    159.5598
  1038.7500      0.0000    261.4564     75.1860    156.2288
  1039.0000      0.0000    261.4958     74.9702    152.0802
  1039.2500      0.0000    261.5414     74.7951    148.4965
  1039.5000      0.0000    261.6080     74.6451    147.3325
  1039.7500      0.0000    261.7491     74.4365    149.0668
  1040.0000      0.0000    262.1838     74.0133    152.3194
  1040.2500      0.0000    263.4899     73.0685    155.2409
  1040.5000      0.0000    266.6562     71.0937    156.8548
  1040.7500      0.0000    272.5673     67.6587    157.0007
  1041.0000      0.0000    280.9404     62.9865    155.5321
  1041.2500      0.0000    289.8344     58.1104    152.1380
  1041.5000      0.0000    296.8717     54.1124    147.1896
  1041.7500      0.0000    301.1609     51.2578    142.3862
  1042.0000      0.0000    303.5770     49.1345    139.8819
  1042.2500      0.0000    305.2740     47.4128    140.6133
  1042.5000      0.0000    306.6169     46.1063    143.5596
  1042.7500      0.0000    307.4906     45.2685    146.2537
  1043.0000      0.0000    307.8737     44.7970    145.7449
  1043.2500      0.0000    307.8379     44.5272    139.7801
  1043.5000      0.0000    307.2210     44.4585    127.9971
  1043.7500      0.0000    305.4782     44.9413    112.1606
  1044.0000      0.0000    301.9408     46.5618     95.0694
  1044.2500      0.0000    296.3604     49.6340     79.3411
  1044.5000      0.0000    289.2426     53.8248     67.0999
  1044.7500      0.0000    281.6161     58.4349     60.0767
  1045.0000      0.0000    274.5758     62.8786     59.3374
  1045.2500      0.0000    268.9838     66.7382     64.8476
  1045.5000      0.0000    265.2566     69.6466     75.3912
  1045.7500      0.0000    263.2367     71.4270     88.8867
  1046.0000      0.0000    262.3656     72.2522    103.0393
  1046.2500      0.0000    262.0643     72.5234    115.9856
  1046.5000      0.0000    261.9746     72.6106    126.3708
  1046.7500      0.0000    261.9521     72.6994    133.2655
  1047.0000      0.0000    261.9545     72.8036    136.6851
  1047.2500      0.0000    261.9677     72.8706    138.0419
  1047.5000      0.0000    261.9811     72.8888    139.3065
  1047.7500      0.0000    261.9938     72.8977    141.5560
  1048.0000      0.0000    262.0130     72.9141    144.6165
  1048.2500      0.0000    262.0468     72.8884    147.6308
  1048.5000      0.0000    262.0959     72.7607    149.3778
  1048.7500      0.0000    262.1532     72.5462    148.6148
  1049.0000      0.0000    262.2089     72.3333    145.2521
  1049.2500      0.0000    262.2533     72.2012    141.3352
  1049.5000      0.0000    262.2755     72.1653    139.9906
  1049.7500      0.0000    262.2695     72.1885    142.5663
  1050.0000      0.0000    262.2436     72.2163    147.0015
  1050.2500      0.0000    262.2158     72.2127    149.6151
  1050.5000      0.0000    262.1917     72.1956    148.1713
  1050.7500      0.0000    262.1588     72.2223    142.6730
  1051.0000      0.0000    262.1106     72.3136    134.2048
  1051.2500      0.0000    262.0697     72.4061    124.4955
  1051.5000      0.0000    262.0685     72.4093    116.2071
  1051.7500      0.0000    262.1088     72.3067    112.0938
  1052.0000      0.0000    262.1565     72.1768    113.2945
  1052.2500      0.0000    262.1766     72.1084    118.7389
  1052.5000      0.0000    262.1637     72.1115    126.3134
  1052.7500      0.0000    262.1350     72.1280    134.2642
  1053.0000      0.0000    262.1064     72.1190    141.2555
  1053.2500      0.0000    262.0841     72.1129    145.5632
  1053.5000      0.0000    262.0711     72.1634    145.2853
  1053.7500      0.0000    262.0679     72.2852    139.7227
  1054.0000      0.0000    262.0686     72.4459    130.2188
  1054.2500      0.0000    262.0630     72.6019    119.4590
  1054.5000      0.0000    262.0449     72.7266    110.0086
  1054.7500      0.0000    262.0157     72.8193    103.4274
  1055.0000      0.0000    261.9780     72.9052    100.2642
  1055.2500      0.0000    261.9340     73.0214    100.2549
  1055.5000      0.0000    261.8920     73.1794    102.4713
  1055.7500      0.0000    261.8707     73.3384    105.7625
  1056.0000      0.0000    261.8848     73.4288    109.4310
  1056.2500      0.0000    261.9261     73.4133    113.5345
  1056.5000      0.0000    261.9680     73.3246    118.4227
  1056.7500      0.0000    261.9902     73.2347    123.9307
  1057.0000      0.0000    261.9938     73.1909    128.9450
  1057.2500      0.0000    261.9927     73.1901    131.8273
  1057.5000      0.0000    261.9950     73.2063    131.5308
  1057.7500      0.0000    261.9977     73.2222    128.4382
  1058.0000      0.0000    261.9906     73.2336    124.1673
  1058.2500      0.0000    261.9611     73.2488    120.7042
  1058.5000      0.0000    261.9009     73.2918    119.4701
  1058.7500      0.0000    261.8153     73.3866    120.7118
  1059.0000      0.0000    261.7246     73.5249    123.6871
  1059.2500      0.0000    261.6489     73.6564    127.4459
  1059.5000      0.0000    261.5937     73.7258    131.2122
  1059.7500      0.0000    261.5535     73.7176    134.2040
  1060.0000      0.0000    261.5277     73.6567    135.7984
  1060.2500      0.0000    261.5237     73.5703    136.1965
  1060.5000      0.0000    261.5450     73.4698    136.4200
  1060.7500      0.0000    261.5831     73.3691    137.0847
  1061.0000      0.0000    261.6222     73.2969    137.1438
  1061.2500      0.0000    261.6456     73.2760    134.3393
  1061.5000      0.0000    261.6429     73.3029    127.1919
  1061.7500      0.0000    261.6164     73.3577    116.4506
  1062.0000      0.0000    261.5808     73.4249    104.7280
