~Version Information
VERS.                      2.0: CWLS Log ASCII Standard - VERSION 2.0
WRAP.                       NO: One line per depth step
~Well Information Block
STRT.FT               553.0000: 
STOP.FT              1576.5000: 
STEP.FT                 0.2500: 
NULL.                -999.2500: 
COMP.          Pioneer Natural Resources: COMPANY
WELL.           Telna 24-22 Tr: WELL
FLD.           Purgatoire River: FIELD
LOC.           748' FSL & 1931' FWL: LOCATION
PROV.                 Colorado: PROVINCE
CNTY.               Las Animas: COUNTRY
SRVC.                Patterson: SERVICE COMPANY
DATE.          Mon May 02 07:15:29 2005: LOG DATE
UWI.           05 071 08304 00: UNIQUE WELL ID
~Curve Information Block
DEPT.FT            0 000 00 00: Depth
DCAL.in                       : CDL Caliper
RHOB.g/cc                     : CDL Bulk Density
RHOC.g/cc                     : CDL Density Correction
DPOR.pu                       : CDL Density Porosity
GR.GAPI                       : Gamma Ray
NPOR.pu                       : Neutron Porosity
~Parameter Information Block
~A  Depth       DCAL        RHOB        RHOC        DPOR         GR         NPOR    
# ...
  1561.0000      7.8448      2.4789      0.0691     10.3725   -999.2500     27.7613
  1561.2500      7.8429      2.4750      0.0260     10.6074   -999.2500     24.3832
  1561.5000      7.8359      2.4792      0.0611     10.3525   -999.2500     26.3287
  1561.7500      7.8307      2.4836      0.0711     10.0836   -999.2500     28.1381
  1562.0000      7.8281      2.4282      0.0091     13.4409   -999.2500     26.3874
  1562.2500      7.8231      2.4577      0.0682     11.6525   -999.2500     26.3596
  1562.5000      7.8187      2.5351      0.1018      6.9621   -999.2500     26.3593
  1562.7500      7.8222      2.5210      0.1569      7.8181   -999.2500     30.2776
  1563.0000      7.8428      2.4187      0.0844     14.0161   -999.2500     53.5564
  1563.2500      7.8580      2.3806     -0.0091     16.3266   -999.2500     55.9575
  1563.5000      7.8257      2.4790      0.1532     10.3649   -999.2500   -999.2500
  1563.7500      7.7646      2.5669      0.2117      5.0371   -999.2500   -999.2500
  1564.0000      7.7480      2.5525      0.2134      5.9084   -999.2500   -999.2500
  1564.2500      7.7847      2.4811      0.0843     10.2379   -999.2500   -999.2500
  1564.5000      7.8287      2.4442      0.0293     12.4723   -999.2500   -999.2500
  1564.7500      7.8509      2.4459     -0.0104     12.3714   -999.2500   -999.2500
  1565.0000      7.8548      2.5235      0.0823      7.6640   -999.2500   -999.2500
  1565.2500      7.8523      2.5182      0.0469      7.9882   -999.2500   -999.2500
  1565.5000      7.8503      2.5106      0.0490      8.4487   -999.2500   -999.2500
  1565.7500      7.8490      2.5187      0.0157      7.9580   -999.2500   -999.2500
  1566.0000      7.8449      2.5283      0.0543      7.3760   -999.2500   -999.2500
  1566.2500      7.8368      2.4917      0.0295      9.5966   -999.2500   -999.2500
  1566.5000      7.8290      2.4806      0.0329     10.2638   -999.2500   -999.2500
  1566.7500      7.8284      2.5108      0.0423      8.4380   -999.2500   -999.2500
  1567.0000      7.8339      2.4945      0.0719      9.4240   -999.2500   -999.2500
  1567.2500      7.8399      2.4430      0.0067     12.5427   -999.2500   -999.2500
  1567.5000      7.8404      2.4861      0.0567      9.9325   -999.2500   -999.2500
  1567.7500      7.8348      2.5290      0.0633      7.3315   -999.2500   -999.2500
  1568.0000      7.8300      2.5002      0.0222      9.0773   -999.2500   -999.2500
  1568.2500      7.8268      2.5032      0.0435      8.8955   -999.2500   -999.2500
  1568.5000      7.8205      2.4782     -0.0185     10.4099   -999.2500   -999.2500
  1568.7500      7.8114      2.4518     -0.0050     12.0128   -999.2500   -999.2500
  1569.0000      7.8065      2.4872      0.0426      9.8686   -999.2500   -999.2500
  1569.2500      7.8081      2.5251      0.0788      7.5707   -999.2500   -999.2500
  1569.5000      7.8136      2.4766      0.0417     10.5100   -999.2500   -999.2500
  1569.7500      7.8178      2.4696      0.0280     10.9345   -999.2500   -999.2500
  1570.0000      7.8190      2.4537      0.0250     11.8941   -999.2500   -999.2500
  1570.2500      7.8190      2.4257     -0.0013     13.5959   -999.2500   -999.2500
  1570.5000      7.8173      2.4769      0.0409     10.4927   -999.2500   -999.2500
  1570.7500      7.8087      2.4875      0.0432      9.8490   -999.2500   -999.2500
  1571.0000      7.7919      2.4309      0.0064     13.2814   -999.2500   -999.2500
  1571.2500      7.7649      2.4120      0.0202     14.4257   -999.2500   -999.2500
  1571.5000      7.7146      2.3694     -0.0241     17.0060   -999.2500   -999.2500
  1571.7500      7.6423      2.3630      0.0817     17.3925   -999.2500   -999.2500
  1572.0000      7.5658      2.2913      0.0405     21.7386   -999.2500   -999.2500
  1572.2500      7.4643      2.3477      0.1144     18.3185   -999.2500   -999.2500
  1572.5000      7.3132      2.5193      0.3091      7.9192   -999.2500   -999.2500
  1572.7500      7.0884      2.4892      0.3016      9.7447   -999.2500   -999.2500
  1573.0000      6.7958      2.3088      0.0860     20.6759   -999.2500   -999.2500
  1573.2500      6.4938      2.2781      0.1040     22.5375   -999.2500   -999.2500
  1573.5000      6.1868      2.3290      0.1406     19.4552   -999.2500   -999.2500
  1573.7500      5.7340      3.2385      0.1370    -35.6693   -999.2500   -999.2500
  1574.0000      4.8504      2.4678      0.0600     11.0424   -999.2500   -999.2500
  1574.2500      3.7380      0.1676   -999.2500    150.4491   -999.2500   -999.2500
  1574.5000      3.1226      0.0000   -999.2500    160.6061   -999.2500   -999.2500
  1574.7500      2.9897   -999.2500   -999.2500   -999.2500   -999.2500   -999.2500
  1575.0000      2.9789   -999.2500   -999.2500   -999.2500   -999.2500   -999.2500
  1575.2500   -999.2500   -999.2500   -999.2500   -999.2500   -999.2500   -999.2500
  1575.5000   -999.2500   -999.2500   -999.2500   -999.2500   -999.2500   -999.2500
  1575.7500   -999.2500   -999.2500   -999.2500   -999.2500   -999.2500   -999.2500
  1576.0000   -999.2500   -999.2500   -999.2500   -999.2500   -999.2500   -999.2500
  1576.2500   -999.2500   -999.2500   -999.2500   -999.2500   -999.2500   -999.2500
  1576.5000   -999.2500   -999.2500   -999.2500   -999.2500   -999.2500   -999.2500
