~Version Information
 VERS.                                  2.0 : CWLS LAS VERSION
 WRAP.                                   NO : WRAPING MODE
 SWARE .                 MController 2.5.0N : SOFTWARE VERSION
~Well Information
 WELL.                           Zink 44-10 : WELL
 COMP.    Pioneer Natural Resources USA Inc : COMPANY
 FLD.                      Purgatoire River : FIELD
 LOC.                SE/SE Sec 10 T32S R66W : LOCATION
 DATE.                              5/29/05 : DATE(S) LOGGED
 SRVC.       Blanco Geological Services LLC : SERVICE COMPANY
 STAT.                                   CO : STATE
 CNTY.                           Las Animas : COUNTY
 CTRY.                                  USA : COUNTRY
 API.                       05-071-08380-00 : API NUMBER
 STRT.FT                             620.00 : START DEPTH
 STOP.FT                            2635.00 : STOP DEPTH
 STEP.FT                               1.00 : DEPTH INCREMENT
 NULL.                                -9999 : NULL VALUE
~Curve information
 DEPTH.FT                                   :
 ROP.MIN/FT                                 :
 GAS.UNITS                                  :
~ASCII Log data
# ...
      2220.0         0.43       1197.5 
      2221.0         0.43       1039.5 
      2222.0         0.23        960.7 
      2223.0         0.30        901.5 
      2224.0         0.37        865.8 
      2225.0         0.20        833.1 
      2226.0         0.25        830.5 
      2227.0         0.27        860.9 
      2228.0         0.27        881.2 
      2229.0         0.20        895.9 
      2230.0         0.27        908.6 
      2231.0         0.27        910.6 
      2232.0         0.33        906.4 
      2233.0         0.37        892.9 
      2234.0         0.37        877.9 
      2235.0         0.37        867.1 
      2236.0         0.37        912.6 
      2237.0         0.28       1015.3 
      2238.0         0.30       1013.7 
      2239.0         0.27        956.1 
      2240.0         0.27        870.0 
      2241.0         0.27        780.4 
      2242.0         0.27        667.9 
      2243.0         0.23        578.2 
      2244.0         0.30        556.6 
      2245.0         0.33        659.0 
      2246.0         2.92       1960.8 
      2247.0         0.37       1554.8 
      2248.0         0.37       1410.2 
      2249.0         0.33       1282.6 
      2250.0         0.30       1174.6 
      2251.0         0.32       1096.1 
      2252.0         0.27       1029.0 
      2253.0         0.33        987.2 
      2254.0         0.30        962.6 
      2255.0         0.30        944.3 
      2256.0         0.27        924.0 
      2257.0         0.37        911.3 
      2258.0         0.37        881.2 
      2259.0         0.37        854.0 
      2260.0         0.33        842.2 
      2261.0         0.42        836.7 
      2262.0         0.37        832.7 
      2263.0         0.37        814.8 
      2264.0         0.37        799.4 
      2265.0         0.33        800.7 
      2266.0         0.33        912.9 
      2267.0         0.33        977.3 
      2268.0         0.33        964.3 
      2269.0         0.23        890.7 
      2270.0         0.20        826.2 
      2271.0         0.23        762.7 
      2272.0         0.22        684.2 
      2273.0         0.27        610.6 
      2274.0         0.17        603.4 
      2275.0         0.23        654.1 
      2276.0         2.82       2027.8 
      2277.0         0.50       1627.7 
      2278.0         0.40       1404.0 
      2279.0         0.33       1259.7 
      2280.0         0.37       1155.0 
      2281.0         0.30       1069.9 
      2282.0         0.37        996.7 
      2283.0         0.30        952.5 
      2284.0         0.30        928.3 
      2285.0         0.32        907.7 
      2286.0         0.30        897.5 
      2287.0         0.27        876.9 
      2288.0         0.37        862.8 
      2289.0         0.37        837.3 
      2290.0         0.33        823.6 
      2291.0         0.40        811.8 
      2292.0         0.33        811.8 
      2293.0         0.40        809.8 
      2294.0         0.37        812.5 
      2295.0         0.38        810.5 
      2296.0         0.33        797.7 
      2297.0         0.37        857.3 
      2298.0         0.40        908.6 
      2299.0         0.33        888.0 
      2300.0         0.37        831.8 
      2301.0         0.30        753.3 
      2302.0         0.27        643.7 
      2303.0         0.23        576.6 
      2304.0         0.17        582.2 
      2305.0         0.68        925.0 
      2306.0         3.52       2511.0 
      2307.0         0.20       1305.8 
      2308.0         0.20       1269.8 
      2309.0         0.33       1228.3 
      2310.0         0.33       1179.2 
      2311.0         0.13       1122.6 
      2312.0         0.20       1100.0 
      2313.0         0.23       1073.2 
      2314.0         0.23       1045.4 
      2315.0         0.30       1023.5 
      2316.0         0.27        987.5 
      2317.0         0.20        982.9 
      2318.0         0.18        997.6 
      2319.0         0.13       1006.1 
      2320.0         0.23       1006.1 
      2321.0         0.27        997.0 
      2322.0         0.30        973.8 
      2323.0         0.20        987.8 
      2324.0         0.27       1068.6 
      2325.0         0.27       1089.2 
      2326.0         0.23       1071.9 
      2327.0         0.20       1003.8 
      2328.0         0.13        935.5 
      2329.0         0.10        878.6 
      2330.0         0.20        840.9 
      2331.0         0.27        766.7 
      2332.0         0.23        674.4 
      2333.0         0.17        638.4 
      2334.0         0.12        642.7 
      2335.0         0.07        655.1 
      2336.0         1.97       1820.7 
      2337.0         0.20       1869.2 
      2338.0         0.43       1888.5 
      2339.0         0.40       1832.8 
      2340.0         0.38       1683.3 
      2341.0         0.37       1521.1 
      2342.0         0.43       1409.2 
      2343.0         0.40       1299.3 
      2344.0         0.43       1207.3 
      2345.0         0.33       1135.7 
      2346.0         0.33       1090.2 
      2347.0         0.30       1051.9 
      2348.0         0.33       1025.8 
      2349.0         0.32       1007.1 
      2350.0         0.30       1001.6 
      2351.0         0.27        975.1 
      2352.0         0.23        954.4 
      2353.0         0.27        941.0 
      2354.0         0.27        924.0 
      2355.0         0.37        942.3 
      2356.0         0.27       1094.5 
      2357.0         0.23       1101.3 
      2358.0         0.20       1043.8 
      2359.0         0.20       1003.8 
      2360.0         0.23        951.5 
      2361.0         0.27        886.4 
      2362.0         0.22        769.9 
      2363.0         0.23        675.4 
      2364.0         0.27        625.7 
      2365.0         0.27        661.7 
      2366.0         2.03       1633.3 
      2367.0         0.30       1626.7 
      2368.0         0.52       1571.1 
      2369.0         0.50       1420.0 
      2370.0         0.27       1292.7 
      2371.0         0.23       1226.0 
      2372.0         0.33       1190.0 
      2373.0         0.30       1141.9 
      2374.0         0.30       1079.4 
      2375.0         0.27       1053.6 
      2376.0         0.27       1027.7 
      2377.0         0.23        990.4 
      2378.0         0.25        975.7 
      2379.0         0.37        977.3 
      2380.0         0.30        994.0 
      2381.0         0.27        995.0 
      2382.0         0.23        996.0 
      2383.0         0.27        998.0 
      2384.0         0.23        994.0 
      2385.0         0.23        991.1 
      2386.0         0.27       1089.2 
      2387.0         0.27       1145.8 
      2388.0         0.33       1121.0 
      2389.0         0.27       1014.3 
      2390.0         0.23        925.7 
      2391.0         0.25        820.3 
      2392.0         0.23        690.8 
      2393.0         0.23        604.4 
      2394.0         0.20        588.7 
      2395.0         0.43        673.8 
      2396.0         2.58       1807.3 
      2397.0         0.57       1675.8 
      2398.0         0.50       1482.8 
      2399.0         0.43       1334.6 
      2400.0         0.43       1205.0 
      2401.0         0.43       1077.8 
      2402.0         0.42        984.9 
      2403.0         0.33        918.5 
      2404.0         0.17        928.6 
      2405.0         0.10        936.8 
      2406.0         0.27        951.5 
      2407.0         0.27        961.0 
      2408.0         0.20        967.5 
      2409.0         0.13        964.6 
      2410.0         0.27        967.5 
      2411.0         0.27        964.6 
      2412.0         0.20        961.0 
      2413.0         0.33        960.3 
      2414.0         0.27        957.1 
      2415.0         0.27        954.4 
      2416.0         0.28        986.5 
      2417.0         0.30       1082.0 
      2418.0         0.30       1092.5 
      2419.0         0.37       1065.4 
