~Version Information
VERS.                      2.0: CWLS Log ASCII Standard - VERSION 2.0
WRAP.                       NO: One line per depth step
~Well Information Block
STRT.FT               952.6000: 
STOP.FT              2511.5000: 
STEP.FT                 0.1000: 
NULL.                -999.2500: 
COMP.          Petrogulf Corporation: COMPANY
WELL.             Royal 8-33 V: WELL
FLD.           Purgatoire River: FIELD
LOC.           2365' FSL & 2336' FEL: LOCATION
PROV.                 Colorado: PROVINCE
CNTY.               Las Animas: COUNTRY
SRVC.                Patterson: SERVICE COMPANY
DATE.          Fri Dec 05 09:15:49 2003: LOG DATE
UWI.                          : UNIQUE WELL ID
~Curve Information Block
DEPT.FT            0 000 00 00: Depth
DCAL.in                       : CDL Caliper
RHOB.g/cc                     : CDL Bulk Density
RHOC.g/cc                     : CDL Density Correction
DPOR.pu                       : CDL Density Porosity
GR.GAPI                       : Gamma Ray
NPOR.pu                       : Neutron Porosity
~Parameter Information Block
~A  Depth       DCAL        RHOB        RHOC        DPOR         GR         NPOR    
# ...
   971.8000   -999.2500   -999.2500   -999.2500   -999.2500     44.8867     47.2744
   971.9000   -999.2500   -999.2500   -999.2500   -999.2500     50.5969     46.7430
   972.0000   -999.2500   -999.2500   -999.2500   -999.2500     52.9562     46.9904
   972.1000   -999.2500   -999.2500   -999.2500   -999.2500     51.7844     47.4419
   972.2000   -999.2500   -999.2500   -999.2500   -999.2500     49.4404     47.7897
   972.3000   -999.2500   -999.2500   -999.2500   -999.2500     46.0052     48.2770
   972.4000   -999.2500   -999.2500   -999.2500   -999.2500     43.4473     48.6055
   972.5000   -999.2500   -999.2500   -999.2500   -999.2500     43.8079     48.4034
   972.6000   -999.2500   -999.2500   -999.2500   -999.2500     44.7481     48.0062
   972.7000   -999.2500   -999.2500   -999.2500   -999.2500     44.1743     47.7365
   972.8000   -999.2500   -999.2500   -999.2500   -999.2500     42.8159     47.5595
   972.9000   -999.2500   -999.2500   -999.2500   -999.2500     41.6284     47.5722
   973.0000   -999.2500   -999.2500   -999.2500   -999.2500     42.8048     47.8648
   973.1000   -999.2500   -999.2500   -999.2500   -999.2500     46.5486     48.2582
   973.2000   -999.2500   -999.2500   -999.2500   -999.2500     49.6704     48.4375
   973.3000   -999.2500   -999.2500   -999.2500   -999.2500     51.1844     48.3812
   973.4000   -999.2500   -999.2500   -999.2500   -999.2500     52.3609     48.5080
   973.5000   -999.2500   -999.2500   -999.2500   -999.2500     53.5078     48.8963
   973.6000   -999.2500   -999.2500   -999.2500   -999.2500     53.2127     49.0012
   973.7000   -999.2500   -999.2500   -999.2500   -999.2500     50.4263     48.7010
   973.8000   -999.2500   -999.2500   -999.2500   -999.2500     47.6002     48.4894
   973.9000   -999.2500   -999.2500   -999.2500   -999.2500     45.7154     48.5687
   974.0000   -999.2500   -999.2500   -999.2500   -999.2500     42.3143     48.6811
   974.1000   -999.2500   -999.2500   -999.2500   -999.2500     38.7213     48.6694
   974.2000   -999.2500   -999.2500   -999.2500   -999.2500     39.2838     48.4895
   974.3000   -999.2500   -999.2500   -999.2500   -999.2500     43.7809     48.0585
   974.4000   -999.2500   -999.2500   -999.2500   -999.2500     47.6290     47.6431
   974.5000   -999.2500   -999.2500   -999.2500   -999.2500     47.9307     47.7085
   974.6000   -999.2500   -999.2500   -999.2500   -999.2500     44.5196     48.1983
   974.7000   -999.2500   -999.2500   -999.2500   -999.2500     39.4709     48.7950
   974.8000   -999.2500   -999.2500   -999.2500   -999.2500     36.9228     49.2029
   974.9000   -999.2500   -999.2500   -999.2500   -999.2500     37.3748     49.0300
   975.0000   -999.2500   -999.2500   -999.2500   -999.2500     37.9917     48.2951
   975.1000   -999.2500   -999.2500   -999.2500   -999.2500     39.0848     47.5244
   975.2000   -999.2500   -999.2500   -999.2500   -999.2500     40.8250     47.1475
   975.3000   -999.2500   -999.2500   -999.2500   -999.2500     41.1910     47.1777
   975.4000   -999.2500   -999.2500   -999.2500   -999.2500     40.8872     47.4341
   975.5000   -999.2500   -999.2500   -999.2500   -999.2500     40.3444     47.8831
   975.6000   -999.2500   -999.2500   -999.2500   -999.2500     36.9373     48.3531
   975.7000   -999.2500   -999.2500   -999.2500   -999.2500     31.2037     48.4448
   975.8000   -999.2500   -999.2500   -999.2500   -999.2500     27.8261     48.2979
   975.9000   -999.2500   -999.2500   -999.2500   -999.2500     29.3215     48.4032
   976.0000   -999.2500   -999.2500   -999.2500   -999.2500     34.3146     48.5382
   976.1000   -999.2500   -999.2500   -999.2500   -999.2500     39.2848     48.2988
   976.2000   -999.2500   -999.2500   -999.2500   -999.2500     41.4437     47.8085
   976.3000   -999.2500   -999.2500   -999.2500   -999.2500     40.3667     47.3309
   976.4000   -999.2500   -999.2500   -999.2500   -999.2500     37.2934     46.9878
   976.5000      8.3361   -999.2500     -0.4003   -999.2500     36.0680     46.8835
   976.6000      8.3361   -999.2500     -0.4831   -999.2500     38.0499     47.0814
   976.7000      8.3361   -999.2500     -0.4691   -999.2500     38.6738     47.3353
   976.8000      8.3376   -999.2500     -0.4993   -999.2500     36.2732     47.4759
   976.9000      8.3376   -999.2500     -0.3507   -999.2500     34.6322     47.4005
   977.0000      8.3368      2.0888     -0.4348     34.0144     35.3116     46.8019
   977.1000      8.3368      2.0834     -0.4077     34.3365     35.4004     45.7496
   977.2000      8.3368      2.0671     -0.4052     35.3296     33.7858     45.0051
   977.3000      8.3275      2.0405     -0.4559     36.9364     34.4834     45.1611
   977.4000      8.3275      2.0242     -0.5005     37.9300     37.1858     45.6858
   977.5000      8.3174      2.0275     -0.4831     37.7270     36.6939     45.4707
   977.6000      8.3174      2.0432     -0.5449     36.7734     33.3387     44.5638
   977.7000      8.3174      2.0667     -0.4064     35.3489     32.3618     43.9655
   977.8000      8.3269      2.0871     -0.4385     34.1153     35.3842     43.7929
   977.9000      8.3269      2.1022     -0.4991     33.1987     38.2110     43.5464
   978.0000      8.3317      2.1225     -0.4011     31.9720     37.9956     43.2851
   978.1000      8.3317      2.1432     -0.3941     30.7131     36.9955     43.3361
   978.2000      8.3317      2.1542     -0.3970     30.0465     37.2224     43.7157
   978.3000      8.3289      2.1590     -0.4530     29.7585     37.5979     44.0781
   978.4000      8.3289      2.1646     -0.4401     29.4191     35.9943     44.2698
   978.5000      8.3119      2.1684     -0.4383     29.1888     32.1588     44.5810
   978.6000      8.3119      2.1759     -0.3446     28.7343     28.8802     45.0142
   978.7000      8.3119      2.2021     -0.3869     27.1464     29.0256     45.2491
   978.8000      8.3220      2.2418     -0.3760     24.7389     31.5757     45.2718
   978.9000      8.3220      2.2684     -0.3289     23.1253     32.9100     45.2227
   979.0000      8.3326      2.2815     -0.4263     22.3316     31.7091     44.8247
   979.1000      8.3326      2.3023     -0.3918     21.0733     29.5966     43.9691
   979.2000      8.3326      2.3164     -0.2444     20.2168     28.4786     43.4681
   979.3000      8.3354      2.2944     -0.3305     21.5491     29.1883     43.5863
   979.4000      8.3354      2.2475     -0.4288     24.3953     30.6812     43.5766
   979.5000      8.3294      2.2024     -0.4102     27.1289     31.6436     43.0804
   979.6000      8.3294      2.1615     -0.3941     29.6074     33.0406     42.8013
   979.7000      8.3294      2.1350     -0.5429     31.2120     34.9097     43.4226
   979.8000      8.3402      2.1336     -0.3802     31.2989     35.7332     44.5914
   979.9000      8.3402      2.1367     -0.4647     31.1106     36.2102     45.6992
   980.0000      8.3452      2.1270     -0.4408     31.6954     37.6362     46.4560
   980.1000      8.3452      2.1017     -0.4257     33.2291     39.2701     46.7987
   980.2000      8.3452      2.0771     -0.4830     34.7212     39.5555     47.0605
   980.3000      8.3435      2.0676     -0.3855     35.2973     38.1280     47.3153
   980.4000      8.3435      2.0560     -0.4236     35.9974     37.3579     47.3093
   980.5000      8.3315      2.0249     -0.4175     37.8826     38.5368     47.4550
   980.6000      8.3315      1.9848     -0.4956     40.3172     39.8152     47.9935
   980.7000      8.3315      1.9597     -0.5761     41.8337     40.7664     48.3551
   980.8000      8.3563      1.9537     -0.5082     42.1977     40.4539     48.3513
   980.9000      8.3563      1.9580     -0.5121     41.9415     36.3913     48.3564
   981.0000      8.3589      1.9701     -0.4427     41.2053     32.1597     48.4797
   981.1000      8.3589      1.9838     -0.4616     40.3744     34.5416     48.6216
   981.2000      8.3589      1.9932     -0.4584     39.8058     41.0627     48.7927
   981.3000      8.3564      1.9887     -0.3756     40.0795     44.3290     49.0396
