~Version Information
VERS.                      2.0: CWLS Log ASCII Standard - VERSION 2.0
WRAP.                       NO: One line per depth step
~Well Information Block
STRT.FT                -8.2500: 
STOP.FT              1795.0000: 
STEP.FT                 0.2500: 
NULL.                -999.2500: 
COMP.          Petrogulf Corporation: COMPANY
WELL.           Montoya 7-21 R: WELL
FLD.           Purgatoire River: FIELD
LOC.           445' FNL & 1942' FWL----: LOCATION
PROV.                 Colorado: PROVINCE
CNTY.               Las Animas: COUNTRY
SRVC.                         : SERVICE COMPANY
DATE.          Fri Sep 30 15:33:54 2005: LOG DATE
UWI.                          : UNIQUE WELL ID
~Curve Information Block
DEPT.FT            0 000 00 00: Depth
GR.GAPI                       : Gamma Ray
CCL.                          : Casing Collar Locator
TT3.usec                      : CBL 3' Travel Time
AMP3.mV                       : CBL 3' Amplitude
~Parameter Information Block
~A  Depth        GR         CCL         TT3         AMP3    
# ...
  1298.2500    139.6261      0.0000    288.6732     26.9985
  1298.5000    130.3925      0.0000    285.4984     28.5798
  1298.7500    121.8398      0.0000    283.7817     29.9494
  1299.0000    116.2638      0.0000    282.9034     31.0292
  1299.2500    113.4217      0.0000    282.4534     31.8608
  1299.5000    112.0289      0.0000    282.2179     32.5601
  1299.7500    111.3463      0.0000    282.1393     33.1607
  1300.0000    111.1144      0.0000    282.3787     33.4877
  1300.2500    110.7435      0.0000    283.4270     33.2139
  1300.5000    109.5370      0.0000    286.0878     32.0730
  1300.7500    107.7862      0.0000    291.0749     30.0679
  1301.0000    106.7927      0.0000    298.2791     27.5144
  1301.2500    107.4859      0.0000    306.3940     24.8861
  1301.5000    109.5600      0.0000    313.5900     22.5769
  1301.7500    112.1586      0.0000    318.8178     20.7587
  1302.0000    114.8082      0.0000    322.7549     19.4057
  1302.2500    117.5857      0.0000    328.2520     18.4043
  1302.5000    120.9467      0.0000    340.6639     17.6371
  1302.7500    125.5178      0.0000    366.8634     17.0045
  1303.0000    131.6068      0.0000    410.3183     16.4233
  1303.2500    138.7220      0.0000    463.4685     15.8495
  1303.5000    145.6655      0.0000    506.4146     15.3261
  1303.7500    150.9914      0.0000    519.1389     15.0009
  1304.0000    153.4148      0.0000    497.8537     15.0703
  1304.2500    152.3449      0.0000    456.9014     15.6726
  1304.5000    148.3325      0.0000    414.6400     16.7977
  1304.7500    142.6287      0.0000    381.1858     18.2498
  1305.0000    136.3888      0.0000    358.8100     19.6687
  1305.2500    130.8201      0.0000    347.3468     20.6331
  1305.5000    127.6621      0.0000    345.4162     20.8312
  1305.7500    128.3470      0.0000    349.1180     20.2084
  1306.0000    132.3102      0.0000    354.0914     18.9826
  1306.2500    136.6992      0.0000    361.0464     17.5148
  1306.5000    138.1641      0.0000    378.1466     16.1303
  1306.7500    135.0580      0.0000    414.4332     14.9949
  1307.0000    128.1340      0.0000    468.7038     14.0950
  1307.2500    119.5300      0.0000    526.7830     13.3010
  1307.5000    111.3747      0.0000    572.8368     12.4658
  1307.7500    105.2106      0.0000    601.8770     11.5131
  1308.0000    102.0591      0.0000    618.4634     10.4901
  1308.2500    102.3653      0.0000    626.9260      9.5522
  1308.5000    105.8335      0.0000    628.1144      8.8773
  1308.7500    111.7145      0.0000    623.0689      8.5672
  1309.0000    119.3410      0.0000    615.0878      8.6181
  1309.2500    127.9356      0.0000    608.8577      8.9629
  1309.5000    135.8671      0.0000    608.2905      9.5161
  1309.7500    140.8240      0.0000    612.9737     10.1684
  1310.0000    141.4695      0.0000    617.4445     10.7573
  1310.2500    138.8345      0.0000    617.7514     11.0803
  1310.5000    135.4152      0.0000    617.7043     11.0022
  1310.7500    132.6715      0.0000    624.0334     10.5932
  1311.0000    129.9339      0.0000    635.7897     10.1281
  1311.2500    125.9868      0.0000    642.2735      9.8803
  1311.5000    120.9036      0.0000    632.7539      9.9159
  1311.7500    115.8235      0.0000    608.1333     10.1062
  1312.0000    111.7480      1.2201    583.0928     10.2924
  1312.2500    109.3289      0.0000    574.9283     10.3937
  1312.5000    109.1983      0.0000    589.2979     10.4059
  1312.7500    111.5602      0.0000    617.5016     10.3705
  1313.0000    115.5603      0.0000    645.8703     10.3504
  1313.2500    119.7086      0.0000    665.4910     10.3946
  1313.5000    123.1933      0.0000    674.5455     10.5049
  1313.7500    126.4948      0.0000    674.4654     10.6327
  1314.0000    130.4602      0.0000    664.8843     10.7084
  1314.2500    135.0392      0.0000    642.4405     10.6991
  1314.5000    139.2286      0.0000    604.8694     10.6569
  1314.7500    141.9798      0.0000    556.9114     10.6909
  1315.0000    142.8672      0.0000    511.9510     10.8684
  1315.2500    142.1323      0.0000    485.2955     11.1523
  1315.5000    140.4849      0.0000    483.4388     11.4433
  1315.7500    138.9642      0.0000    499.2793     11.6624
  1316.0000    138.7892      0.0000    517.6200     11.7863
  1316.2500    140.9947      0.0000    524.7067     11.8359
  1316.5000    145.6617      0.0000    514.2363     11.8597
  1316.7500    151.2381      0.0000    488.3029     11.9187
  1317.0000    155.1665      0.0000    455.2035     12.0606
  1317.2500    155.7877      0.0000    424.9573     12.3009
  1317.5000    153.5356      0.0000    403.7285     12.6339
  1317.7500    150.0968      0.0000    390.6509     13.0608
  1318.0000    146.8282      0.0000    380.0244     13.5906
  1318.2500    144.2863      0.0000    367.2116     14.2092
  1318.5000    142.7643      0.0000    352.4677     14.8596
  1318.7500    142.4281      0.0000    339.2784     15.4591
  1319.0000    142.8463      0.0000    330.3318     15.9345
  1319.2500    143.0570      0.0000    325.8197     16.2405
  1319.5000    142.2991      0.0000    324.7173     16.3577
  1319.7500    140.2326      0.0000    326.3396     16.2832
  1320.0000    136.6258      0.0000    330.4487     16.0281
  1320.2500    131.6831      0.0000    336.3736     15.6248
  1320.5000    126.6135      0.0000    342.6991     15.1212
  1320.7500    123.0583      0.0000    348.1907     14.5534
  1321.0000    121.7499      0.0000    352.7663     13.9257
  1321.2500    122.0138      0.0000    357.0667     13.2314
  1321.5000    122.5736      0.0000    361.4268     12.4920
  1321.7500    122.5667      0.0000    366.0014     11.7648
  1322.0000    121.7719      0.0000    372.1875     11.1146
  1322.2500    120.1487      0.0000    383.6493     10.5850
  1322.5000    117.4802      0.0000    405.4668     10.1895
  1322.7500    113.5614      0.0000    440.9101      9.9156
  1323.0000    108.6846      0.0000    487.4486      9.7348
  1323.2500    103.8488      0.0000    535.7740      9.6157
  1323.5000    100.3187      0.0000    573.9541      9.5411
  1323.7500     98.7969      0.0000    593.2169      9.5199
  1324.0000     98.9620      0.0000    589.9255      9.5834
  1324.2500     99.9898      0.0000    564.4611      9.7577
  1324.5000    101.6360      0.0000    521.4434     10.0356
  1324.7500    104.6506      0.0000    470.3473     10.3774
  1325.0000    109.8968      0.0000    422.4352     10.7418
  1325.2500    117.1306      0.0000    385.4234     11.1109
  1325.5000    124.7151      0.0000    360.8958     11.4914
  1325.7500    130.4399      0.0000    345.9793     11.8980
  1326.0000    132.7436      0.0000    336.8133     12.3443
  1326.2500    131.5887      0.0000    330.7966     12.8594
  1326.5000    128.5681      0.0000    326.6744     13.5300
  1326.7500    126.1834      0.0000    323.4616     14.5228
  1327.0000    126.4601      0.0000    319.8344     16.0432
  1327.2500    129.3674      0.0000    314.5320     18.2519
  1327.5000    132.3777      0.0000    307.2365     21.1943
  1327.7500    132.3266      0.0000    299.0186     24.7857
  1328.0000    128.1026      0.0000    291.6961     28.8616
  1328.2500    121.1098      0.0000    286.5743     33.2622
  1328.5000    113.3464      0.0000    283.7237     37.8729
  1328.7500    106.1235      0.0000    282.2624     42.5769
  1329.0000    100.6346      0.0000    280.9873     47.1974
  1329.2500     98.2882      0.0000    278.7607     51.5508
  1329.5000     99.6100      0.0000    274.7888     55.5734
  1329.7500    103.3461      0.0000    269.0571     59.3147
  1330.0000    107.1618      0.0000    262.5739     62.7386
  1330.2500    109.2558      0.0000    256.8954     65.5635
  1330.5000    109.5040      0.0000    253.2338     67.3531
  1330.7500    109.4481      0.0000    252.0669     67.7485
  1331.0000    111.1342      0.0000    253.4681     66.6075
  1331.2500    115.5702      0.0000    257.3870     64.0067
  1331.5000    121.9660      0.0000    263.3547     60.2228
