~Version Information
VERS.                      2.0: CWLS Log ASCII Standard - VERSION 2.0
WRAP.                       NO: One line per depth step
~Well Information Block
STRT.FT               546.0000: 
STOP.FT              1771.5000: 
STEP.FT                 0.2500: 
NULL.                -999.2500: 
COMP.          Petrogulf Corporation: COMPANY
WELL.             McLeod 9-42R: WELL
FLD.           Purgatorie River: FIELD
LOC.           1748' FNL & 372' FEL: LOCATION
PROV.                 Colorado: PROVINCE
CNTY.               Las Animas: COUNTRY
SRVC.                Patterson: SERVICE COMPANY
DATE.          Tue Aug 16 11:11:38 2005: LOG DATE
UWI.           071 08092  : UNIQUE WELL ID
~Curve Information Block
DEPT.FT            0 000 00 00: Depth
SP.mV                         : DIL Spontaneous Potential
RILD.Ohm-m                    : DIL Deep Resistivity
RILM.Ohm-m                    : DIL Medium Resistivity
RLL3.Ohm-m                    : DIL Shallow Resistivity
GR.GAPI                       : Gamma Ray
~Parameter Information Block
~A  Depth        SP         RILD        RILM        RLL3         GR     
# ...
   714.0000   -582.9360      1.0442     99.5200      4.1282     83.3840
   714.2500   -570.7955 100000.0000     59.9092      2.2192     87.4965
   714.5000   -552.7809 100000.0000     51.0245      1.4111     81.9827
   714.7500   -520.9483 100000.0000     56.2436      0.9154     81.2243
   715.0000   -490.5149 100000.0000     61.4568      1.5337     82.6862
   715.2500   -475.3531      2.0448    119.1489      1.7541     80.9659
   715.5000   -443.4954      0.1902 100000.0000      0.5423     92.6030
   715.7500   -372.3750      0.0657 100000.0000      0.3914    110.0105
   716.0000   -286.7365      0.0347      1.0481      0.9324    122.4803
   716.2500   -210.4469      0.0267      0.3594      4.9722    127.1174
   716.5000   -163.8472      0.0294      0.2223     14.2085    133.7668
   716.7500   -129.2362      0.0392      0.2007     27.0468    135.5655
   717.0000   -102.0261      0.0730      0.2124     35.0281    139.1315
   717.2500    -81.3036      0.1786      0.2488     33.6863    139.3029
   717.5000    -56.6831      0.7216      0.2903     29.5169    137.3852
   717.7500    -42.9100 100000.0000      0.3513     26.1944    132.0722
   718.0000    -33.5657 100000.0000      0.4522     23.4207    130.9910
   718.2500    -30.8752 100000.0000      0.6614     20.6734    129.7378
   718.5000    -36.4749 100000.0000      1.2756     18.9802    125.9829
   718.7500    -38.5059 100000.0000      3.6466     17.5195    118.1721
   719.0000    -40.9931 100000.0000 100000.0000     14.6387    121.1530
   719.2500    -40.3798 100000.0000 100000.0000     12.4084    120.8826
   719.5000    -29.5557 100000.0000 100000.0000     11.5887    123.3505
   719.7500    -27.1125 100000.0000 100000.0000     11.4848    127.4086
   720.0000    -27.2745 100000.0000 100000.0000     12.1457    120.4189
   720.2500    -27.6208 100000.0000 100000.0000     14.3853    116.5009
   720.5000    -27.4222 100000.0000 100000.0000     17.7663    113.4444
   720.7500    -26.6351 100000.0000 100000.0000     18.8939    115.0497
   721.0000    -26.2733 100000.0000 100000.0000     17.8206    117.8393
   721.2500    -26.1335    481.3600     18.0138     16.8711    114.2548
   721.5000    -26.2356     69.5651      6.8706     16.7837    121.3500
   721.7500    -25.6768     59.0297      5.0339     15.9296    121.5367
   722.0000    -24.0545     50.2945      4.2204     15.0920    121.2839
   722.2500    -22.9303     51.5533      4.1544     14.6429    120.3698
   722.5000    -23.8907     45.6545      4.4726     14.1487    123.4728
   722.7500    -24.9401     31.7285      5.1395     13.6741    124.5137
   723.0000    -25.2662     22.2765      5.8914     14.2914    102.6741
   723.2500    -21.7746     19.0573      7.0105     16.7274     99.8081
   723.5000    -22.0538     19.1137      8.5315     19.0249    111.0256
   723.7500    -26.2593     18.2413     10.5176     22.1715    117.0205
   724.0000    -32.2808     17.9094     12.2471     24.0210    118.2727
   724.2500    -35.2090     17.4766     13.8877     21.4910    114.5103
   724.5000    -40.7401     17.0732     15.8445     18.4823    114.2243
   724.7500    -45.7962     17.0532     16.3909     17.9958    114.5480
   725.0000    -49.4131     17.0590     17.6725     19.7048    101.3042
   725.2500    -48.3917     18.0216     17.9212     21.1166    100.0268
   725.5000    -50.8169     17.1410     17.0435     21.3916    109.6126
   725.7500    -56.5196     18.6197     16.7155     20.6457    115.6676
   726.0000    -55.3630     17.8629     16.5643     20.2025    107.5597
   726.2500    -54.2194     18.7547     15.8582     19.6952    107.1458
   726.5000    -50.2280     20.2625     16.1611     18.4620    102.3722
   726.7500    -53.4228     23.0381     16.3188     18.4452    105.8987
   727.0000    -60.6370     22.6857     16.6235     18.5686    109.5790
   727.2500    -66.1338     22.5880     16.7121     18.3963    108.9761
   727.5000    -69.8489     23.1517     17.4551     18.4659    104.9053
   727.7500    -74.0126     23.5058     17.1851     20.2364    105.6484
   728.0000    -76.5379     22.9722     17.2310     21.5213     98.4262
   728.2500    -78.5660     25.4011     17.8311     21.5856     99.5604
   728.5000    -79.7932     25.3364     19.0871     22.0954    102.5415
   728.7500    -82.2113     26.1714     18.9759     23.4756    106.7628
   729.0000    -83.6565     24.8541     18.7059     23.5667    102.9007
   729.2500    -83.5061     25.0232     19.0637     23.1164    103.0722
   729.5000    -83.5025     26.7434     19.0432     22.4112    102.8580
   729.7500    -83.7263     25.1428     19.0054     22.9025    101.7121
   730.0000    -84.7823     28.6258     19.3414     23.1355    114.4017
   730.2500    -84.7362     28.0506     18.4485     22.6158    114.0684
   730.5000    -85.9411     28.3694     17.3664     21.6347    107.1452
   730.7500    -86.2584     27.3251     18.3818     21.0797    104.1342
   731.0000    -85.7949     26.3084     17.0834     20.9719    111.7899
   731.2500    -85.4725     27.2700     17.6690     20.9289    112.1209
   731.5000    -84.5638     27.5165     17.9989     21.1131    105.2831
   731.7500    -84.5460     25.7069     18.3726     22.4567    102.5824
   732.0000    -82.0058     26.4582     19.0359     24.6203    108.4907
   732.2500    -80.6578     24.9934     18.2616     25.4842    106.7975
   732.5000    -79.6451     24.2380     19.5401     23.4317    100.9849
   732.7500    -78.5896     21.4993     19.6386     21.2236    100.1078
   733.0000    -77.4123     23.5233     19.7147     21.7397    108.1902
   733.2500    -76.2560     24.7154     19.0576     25.7676    112.4975
   733.5000    -74.7541     23.3902     19.9888     26.8605    115.4867
   733.7500    -74.0426     22.1883     19.8682     25.1600    115.6931
   734.0000    -74.3902     21.3731     19.4035     22.9981    119.2330
   734.2500    -76.1492     20.4242     19.2705     22.0138    113.6520
   734.5000    -77.1572     22.8773     19.3140     21.5886    104.7342
   734.7500    -78.3265     22.2234     20.0533     21.5779    104.6628
   735.0000    -79.7892     20.0875     19.6958     23.7674     98.4477
   735.2500    -80.5741     20.8392     20.1489     27.2388     98.4841
   735.5000    -81.3329     20.8102     19.3659     29.0177    106.8692
   735.7500    -82.2103     17.7201     18.8929     25.5092    110.0540
   736.0000    -82.9952     16.4394     19.4853     21.2637    106.2737
   736.2500    -83.3919     16.0194     20.1446     20.9453    104.3522
   736.5000    -85.0631     15.0290     19.4794     22.9901    109.4408
   736.7500    -85.3974     14.4111     18.5324     25.1920    111.1196
   737.0000    -83.8705     15.9496     18.3029     24.3944    107.0338
   737.2500    -84.7710     14.1624     17.0509     22.1370    106.9977
   737.5000    -86.4754     15.2710     17.7074     19.9244    106.3095
   737.7500    -87.0427     15.0102     17.6502     18.6706    107.4921
   738.0000    -87.6612     14.2921     17.1035     18.8097    101.2450
   738.2500    -88.2091     13.7272     15.8956     19.2027    114.3822
   738.5000    -88.4983     13.3010     15.5667     18.4224    123.0547
   738.7500    -88.5662     13.8220     15.2163     17.9864    120.2418
   739.0000    -89.0480     13.3715     14.9914     16.7694    115.0666
   739.2500    -89.9330     13.0955     14.1861     16.1633    107.5167
   739.5000    -90.4345     13.0209     14.7796     16.6382    110.8410
   739.7500    -91.7061     12.1412     15.0232     17.2503    108.2013
   740.0000    -90.7486     12.4496     14.5090     17.5891    124.1423
   740.2500    -91.3728     12.8415     14.0592     17.9603    120.8669
   740.5000    -92.4927     12.7038     13.9454     17.5150    114.7083
   740.7500    -93.2943     12.7895     12.7612     16.2278    124.3671
   741.0000    -94.1396     13.0275     13.3352     15.1471    125.8111
   741.2500    -95.5338     13.4757     12.6355     14.5369    116.6444
   741.5000    -96.8599     13.8160     12.9109     14.3192    127.6953
   741.7500    -98.5917     14.3627     13.8078     14.0878    126.1868
