~Version Information
VERS.                      2.0: CWLS Log ASCII Standard - VERSION 2.0
WRAP.                       NO: One line per depth step
~Well Information Block
STRT.FT               742.0000: 
STOP.FT              2582.0000: 
STEP.FT                 0.2500: 
NULL.                -999.2500: 
COMP.          Petrogulf Corporation: COMPANY
WELL.            Montoya 7-12V: WELL
FLD.           Purgatorie River: FIELD
LOC.           728' FWL & 1764' FNL: LOCATION
CNTY.               Las Animas: COUNTY
SRVC.                         : SERVICE COMPANY
DATE.          Thu Feb 19 20:58:32 2004: LOG DATE
UWI.           05-071-07887-00: UNIQUE WELL ID
STAT.                 Colorado: STATE
~Curve Information Block
DEPT.FT            0 000 00 00: Depth
SP.mV                         : DIL Spontaneous Potential
RILD.Ohm-m                    : DIL Deep Resistivity
RILM.Ohm-m                    : DIL Medium Resistivity
RLL3.Ohm-m                    : DIL Shallow Resistivity
GR.GAPI                       : Gamma Ray
~Parameter Information Block
~A  Depth        SP         RILD        RILM        RLL3         GR     
# ...
  2086.0000     -7.5907     16.8706     20.0099     40.4326     90.8293
  2086.2500     -7.2302     17.7013     22.3458     52.9036     87.8098
  2086.5000     -6.7419     18.4949     24.7981     68.5721     83.2000
  2086.7500     -6.1515     19.1710     27.1051     84.5236     79.8951
  2087.0000     -5.4878     19.6437     28.8961     96.4062     75.3456
  2087.2500     -4.7809     19.8409     29.7729    100.3157     73.1547
  2087.5000     -4.0639     19.7254     29.4803     94.7525     71.5160
  2087.7500     -3.3733     19.3085     28.0712     81.3527     71.4670
  2088.0000     -2.7453     18.6482     25.8995     63.9687     73.0748
  2088.2500     -2.2118     17.8295     23.4230     46.8162     75.4678
  2088.5000     -1.7971     16.9389     21.0014     32.8563     80.8148
  2088.7500     -1.5148     16.0448     18.8256     23.1696     84.9189
  2089.0000     -1.3648     15.1920     16.9555     17.3177     90.6954
  2089.2500     -1.3338     14.4045     15.3835     14.1481     94.0187
  2089.5000     -1.3979     13.6943     14.0818     12.4870     98.5027
  2089.7500     -1.5273     13.0678     13.0235     11.4914    101.4280
  2090.0000     -1.6882     12.5283     12.1869     10.7138    105.8487
  2090.2500     -1.8429     12.0758     11.5526     10.0147    108.6839
  2090.5000     -1.9507     11.7047     11.1008      9.4384    112.4353
  2090.7500     -1.9712     11.4037     10.8094      9.1122    114.3926
  2091.0000     -1.8693     11.1593     10.6538      9.1786    116.1151
  2091.2500     -1.6213     10.9603     10.6070      9.7230    116.2707
  2091.5000     -1.2244     10.8011     10.6394     10.6823    114.9337
  2091.7500     -0.7056     10.6808     10.7195     11.7988    113.0527
  2092.0000     -0.1224     10.6008     10.8161     12.7072    108.9840
  2092.2500      0.4508     10.5621     10.9037     13.1288    105.7738
  2092.5000      0.9475     10.5633     10.9666     13.0149    101.3768
  2092.7500      1.3276     10.5998     11.0013     12.5228     99.6035
  2093.0000      1.5782     10.6615     11.0136     11.8819     99.7609
  2093.2500      1.7028     10.7325     11.0137     11.2755    101.7490
  2093.5000      1.7104     10.7932     11.0106     10.7939    106.4451
  2093.7500      1.6113     10.8251     11.0089     10.4465    109.7792
  2094.0000      1.4197     10.8164     11.0086     10.2064    113.8446
  2094.2500      1.1566     10.7654     11.0047     10.0579    115.5543
  2094.5000      0.8476     10.6794     10.9896     10.0147    116.0982
  2094.7500      0.5140     10.5700     10.9546     10.0980    114.8166
  2095.0000      0.1634     10.4488     10.8920     10.2925    110.8115
  2095.2500     -0.2133     10.3253     10.7971     10.5227    107.8672
  2095.5000     -0.6335     10.2069     10.6701     10.6747    105.3303
  2095.7500     -1.1063     10.0990     10.5159     10.6529    105.2627
  2096.0000     -1.6217     10.0040     10.3447     10.4259    106.2205
  2096.2500     -2.1534      9.9199     10.1706     10.0250    106.7396
  2096.5000     -2.6720      9.8406     10.0100      9.5117    107.5609
  2096.7500     -3.1585      9.7574      9.8781      8.9801    108.6933
  2097.0000     -3.6075      9.6620      9.7835      8.6108    110.9482
  2097.2500     -4.0225      9.5499      9.7217      8.6714    111.6245
  2097.5000     -4.4109      9.4226      9.6713      9.3524    109.0089
  2097.7500     -4.7837      9.2878      9.5978     10.5187    104.3127
  2098.0000     -5.1609      9.1585      9.4656     11.6397     94.4995
  2098.2500     -5.5791      9.0497      9.2562     12.0631     88.2760
  2098.5000     -6.0885      8.9740      8.9811     11.4620     83.0830
  2098.7500     -6.7287      8.9370      8.6778     10.0644     83.2860
  2099.0000     -7.4968      8.9345      8.3930      8.4658     87.8009
  2099.2500     -8.3419      8.9550      8.1654      7.2249     91.9667
  2099.5000     -9.2007      8.9851      8.0172      6.5940     97.7069
  2099.7500    -10.0359      9.0167      7.9532      6.5222    100.7079
  2100.0000    -10.8351      9.0490      7.9659      6.8167    103.7748
  2100.2500    -11.5887      9.0867      8.0412      7.2980    104.7205
  2100.5000    -12.2840      9.1375      8.1653      7.8655    104.5243
  2100.7500    -12.9188      9.2097      8.3299      8.4833    103.7220
  2101.0000    -13.5082      9.3111      8.5329      9.1335    102.1925
  2101.2500    -14.0783      9.4481      8.7753      9.7827    100.8508
  2101.5000    -14.6560      9.6250      9.0556     10.3767     97.6574
  2101.7500    -15.2636      9.8434      9.3653     10.8578     94.8025
  2102.0000    -15.9167     10.1022      9.6883     11.1938     90.9493
  2102.2500    -16.6205     10.3967     10.0079     11.3979     89.7020
  2102.5000    -17.3664     10.7174     10.3196     11.5178     90.1490
  2102.7500    -18.1336     11.0502     10.6381     11.5971     91.2635
  2103.0000    -18.8955     11.3763     10.9887     11.6500     92.6768
  2103.2500    -19.6294     11.6750     11.3836     11.6799     93.0566
  2103.5000    -20.3264     11.9287     11.8034     11.7159     92.9429
  2103.7500    -20.9966     12.1278     12.1980     11.8109     92.6875
  2104.0000    -21.6655     12.2736     12.5106     11.9989     92.4026
  2104.2500    -22.3602     12.3774     12.7062     12.2593     92.2646
  2104.5000    -23.0924     12.4575     12.7824     12.5213     91.6822
  2104.7500    -23.8500     12.5354     12.7623     12.7007     90.8328
  2105.0000    -24.5994     12.6325     12.6808     12.7349     89.2721
  2105.2500    -25.2939     12.7662     12.5777     12.5994     88.6096
  2105.5000    -25.8815     12.9484     12.4956     12.3087     88.8347
  2105.7500    -26.3085     13.1841     12.4769     11.9250     89.7836
  2106.0000    -26.5208     13.4716     12.5622     11.5769     92.0683
  2106.2500    -26.4629     13.8015     12.7884     11.4599     93.8876
  2106.5000    -26.0792     14.1575     13.1868     11.8073     96.3548
  2106.7500    -25.3153     14.5167     13.7800     12.8503     97.2851
  2107.0000    -24.1198     14.8540     14.5769     14.8338     96.6009
  2107.2500    -22.4492     15.1484     15.5634     18.1058     94.2660
  2107.5000    -20.2807     15.3897     16.6909     23.2170     87.8115
  2107.7500    -17.6307     15.5785     17.8673     30.7588     82.1252
  2108.0000    -14.5693     15.7207     18.9604     40.5327     73.3777
  2108.2500    -11.2221     15.8179     19.8229     50.3591     68.5377
  2108.5000     -7.7570     15.8620     20.3402     56.1945     64.3663
  2108.7500     -4.3602     15.8365     20.4731     54.7267     64.3825
  2109.0000     -1.2126     15.7217     20.2634     46.3658     69.1828
  2109.2500      1.5327     15.5016     19.7946     35.1103     75.1282
  2109.5000      3.7764     15.1711     19.1417     25.3238     86.2716
  2109.7500      5.4950     14.7415     18.3458     19.0181     94.0182
  2110.0000      6.7392     14.2417     17.4211     15.8138    104.5683
  2110.2500      7.6042     13.7117     16.3811     14.3978    110.0694
  2110.5000      8.1912     13.1924     15.2622     13.6228    114.7695
  2110.7500      8.5832     12.7157     14.1292     12.8067    115.3372
  2111.0000      8.8393     12.2994     13.0611     11.6816    113.5568
  2111.2500      8.9978     11.9483     12.1301     10.2912    111.9981
  2111.5000      9.0822     11.6573     11.3869      8.8875    111.1644
  2111.7500      9.1081     11.4155     10.8559      7.8109    111.8013
  2112.0000      9.0894     11.2093     10.5372      7.3813    112.8442
  2112.2500      9.0399     11.0260     10.4097      7.8146    112.1510
  2112.5000      8.9706     10.8584     10.4322      9.1536    107.4713
  2112.7500      8.8851     10.7071     10.5447     11.1977    101.9850
  2113.0000      8.7769     10.5807     10.6765     13.4606     91.9117
  2113.2500      8.6309     10.4929     10.7639     15.2467     85.6561
  2113.5000      8.4263     10.4587     10.7719     15.9238     79.8992
  2113.7500      8.1380     10.4907     10.7056     15.2892     79.3750
