~Version Information
VERS.                      2.0: CWLS Log ASCII Standard - VERSION 2.0
WRAP.                       NO: One line per depth step
~Well Information Block
STRT.FT                -6.5000: 
STOP.FT              1719.0000: 
STEP.FT                 0.5000: 
NULL.                -999.2500: 
COMP.          Pioneer Natural Resources: COMPANY
WELL.             Tami J 23-18: WELL
FLD.           Purgatorie River: FIELD
LOC.           2250' FSL & 2400' FWL: LOCATION
PROV.                 Colorado: PROVINCE
CNTY.               Las Animas: COUNTRY
SRVC.          Patterson Wireline: SERVICE COMPANY
DATE.          Fri Dec 17 13:50:12 2004: LOG DATE
UWI.           05-071-08073-00: UNIQUE WELL ID
~Curve Information Block
DEPT.FT            0 000 00 00: Depth
CCL.                          : Casing Collar Locator
TT3.usec                      : CBL 3' Travel Time
AMP3.mV                       : CBL 3' Amplitude
GR.GAPI                       : Gamma Ray
~Parameter Information Block
~A  Depth       CCL         TT3         AMP3         GR     
# ...
  1534.5000      0.0000    773.4885      5.0443     44.1404
  1535.0000      0.0000    783.0933      4.6476     53.9927
  1535.5000      0.0000    793.2174      4.9758     67.3536
  1536.0000      0.0000    778.7340      5.1802     76.4902
  1536.5000      0.0000    741.5777      5.2550     78.5655
  1537.0000      0.0000    694.1559      5.5949     76.9815
  1537.5000      0.0000    654.7102      5.4538     80.0770
  1538.0000      0.0000    606.6356      5.3223     87.7496
  1538.5000      0.0000    573.1529      5.4851     93.6806
  1539.0000      0.0000    617.0629      5.3673     90.3811
  1539.5000      0.0000    730.4316      5.4422     81.1052
  1540.0000      0.0000    813.9301      5.4915     75.8052
  1540.5000      0.0000    812.3327      5.4828     71.8913
  1541.0000      0.0000    762.6671      5.3327     65.7001
  1541.5000      0.0000    729.1359      5.2718     66.8381
  1542.0000      0.0000    744.5432      5.4452     75.3480
  1542.5000      0.0000    791.3169      5.3884     81.2240
  1543.0000      0.0000    829.2383      5.3199     82.2493
  1543.5000      0.0000    848.8688      5.1846     85.5355
  1544.0000      0.0000    864.8632      5.0803     82.0675
  1544.5000      0.0000    880.8220      5.0015     66.8193
  1545.0000      0.0000    865.7086      5.0281     54.1246
  1545.5000      0.0000    833.2257      5.1470     52.8194
  1546.0000      0.0000    823.0289      5.1671     62.1358
  1546.5000      0.0000    801.8532      5.3319     78.0879
  1547.0000      0.0000    758.5419      5.6420     91.3489
  1547.5000      0.0000    729.5323      5.8270     94.2057
  1548.0000      0.0000    716.3835      5.6127     87.1380
  1548.5000      0.0000    706.7292      5.4518     78.2659
  1549.0000      0.0000    710.3022      5.2419     71.4041
  1549.5000      0.0000    716.2644      5.0654     62.5136
  1550.0000      0.0000    676.3329      5.1386     55.6865
  1550.5000      0.0000    605.5654      5.2816     53.9521
  1551.0000      0.0000    540.6619      5.3976     54.8883
  1551.5000      0.0000    503.7693      5.5713     57.6883
  1552.0000      0.0000    554.1519      5.6280     56.6088
  1552.5000      0.0000    645.6039      5.9231     50.1468
  1553.0000      0.0000    698.5809      6.0616     43.5347
  1553.5000      0.0000    702.0482      5.5565     39.8399
  1554.0000      0.0000    667.1941      5.2288     40.7257
  1554.5000      0.0000    584.2955      5.7092     45.1468
  1555.0000      0.0000    526.1640      6.3915     50.3204
  1555.5000      0.0000    559.8138      6.3659     57.6061
  1556.0000      0.0000    552.8404      6.0193     64.4624
  1556.5000      0.0000    469.7828      5.8658     68.0054
  1557.0000      0.0000    442.3699      5.6788     68.9456
  1557.5000      0.0000    506.4433      5.8535     76.1443
  1558.0000      0.0000    587.0078      6.3697     83.8003
  1558.5000      0.0000    638.7959      6.2586     82.3262
  1559.0000      0.0000    683.4705      5.4875     77.6986
  1559.5000      0.0000    736.2994      5.0273     70.9544
  1560.0000      0.0000    802.2062      5.0010     59.1217
  1560.5000      0.0000    827.2015      4.6761     46.8196
  1561.0000      0.0000    795.8788      4.1456     40.5376
  1561.5000      0.0000    769.6110      4.1882     39.6974
  1562.0000      0.0000    785.3454      4.6470     39.8547
  1562.5000      0.0000    803.9646      4.7861     45.4025
  1563.0000      0.0000    783.8378      4.8094     62.9325
  1563.5000      0.0000    764.3207      5.2197     83.0029
  1564.0000      0.0000    754.5051      5.8324     93.2949
  1564.5000      0.0000    726.4810      5.9629     88.9036
  1565.0000      0.0000    691.4691      5.7794     77.7654
  1565.5000      0.0000    688.5396      5.6487     71.7166
  1566.0000      0.0000    709.2896      5.9646     69.8301
  1566.5000      0.0000    699.6104      6.5293     73.2503
  1567.0000      0.0000    657.8802      6.6871     82.1424
  1567.5000      0.0000    599.3004      6.1165     88.3102
  1568.0000      0.0000    556.4263      5.1972     88.0359
  1568.5000      0.0000    542.5262      4.7519     84.9922
  1569.0000      0.0000    541.0057      4.9902     81.1737
  1569.5000      0.0000    556.2074      5.3595     79.0296
  1570.0000      0.0000    610.5412      5.5629     77.7936
  1570.5000      0.0000    680.1589      5.9807     73.8462
  1571.0000      0.0000    717.9125      6.3922     69.2926
  1571.5000      0.0000    735.4943      6.4295     64.8136
  1572.0000      0.0000    743.9700      6.3940     59.4089
  1572.5000      0.0000    735.8051      6.5372     56.5570
  1573.0000      0.0000    725.9841      6.7427     57.8960
  1573.5000      0.0000    727.3671      6.8933     64.5954
  1574.0000      0.0000    735.7458      6.9056     69.9321
  1574.5000      0.0000    744.0546      6.7831     64.2288
  1575.0000      0.0000    745.1951      6.7734     52.1888
  1575.5000      0.0000    736.0718      6.9520     47.0446
  1576.0000      0.0000    731.0909      6.9996     52.1065
  1576.5000      0.0000    730.8434      6.7007     58.7945
  1577.0000      0.0000    706.7418      6.5121     58.6203
  1577.5000      0.0000    629.6196      6.6470     53.2318
  1578.0000      0.0000    570.7544      6.5975     49.6672
  1578.5000      0.0000    619.4551      6.2213     50.9682
  1579.0000      0.0000    717.6534      5.9803     58.0694
  1579.5000      0.0000    768.1565      5.8947     66.7023
  1580.0000      0.0000    771.5167      5.7881     71.3089
  1580.5000      0.0000    770.9249      5.6217     70.0884
  1581.0000      0.0000    772.6155      5.5407     65.9020
  1581.5000      0.0000    760.2328      5.7280     65.6414
  1582.0000      0.0000    733.8273      5.9918     66.6651
  1582.5000      0.0000    713.2200      6.3838     63.4957
  1583.0000      0.0000    700.9727      7.3853     54.9022
  1583.5000      0.0000    682.3896      8.8433     46.6305
  1584.0000      0.0000    670.5709      9.6973     46.0686
  1584.5000      0.0000    698.4253      9.1601     49.3831
  1585.0000      0.0000    732.5601      7.4658     51.3858
  1585.5000      0.0000    750.1343      5.6769     52.4837
  1586.0000      0.0000    753.4157      4.5298     47.3501
  1586.5000      0.0000    746.4416      3.7268     41.7990
  1587.0000      0.0000    738.1434      3.1299     45.1764
  1587.5000      0.0000    735.4532      3.3001     58.9921
  1588.0000      0.0000    733.0297      4.4049     77.1849
  1588.5000      0.0000    714.6964      6.3767     88.9225
  1589.0000      0.0000    659.3491      8.2387     92.0784
  1589.5000      0.0000    589.6240      8.6119     91.6530
  1590.0000      0.0000    587.0535      7.4359     91.4904
  1590.5000      0.0000    652.9846      6.0919     87.4814
  1591.0000      0.0000    712.0261      5.4685     77.4552
  1591.5000      0.0000    730.4191      5.3107     71.1049
  1592.0000      0.0000    714.7945      5.4754     72.9059
  1592.5000      0.0000    689.0643      5.6097     77.9288
  1593.0000      0.0000    672.1652      5.0293     84.3833
  1593.5000      0.0000    651.6898      4.4461     87.4982
  1594.0000      5.0000    614.7480      4.3759     86.6596
  1594.5000      0.0000    579.4293      4.4299     89.8555
  1595.0000      0.0000    567.0963      5.1084     97.8258
  1595.5000      0.0000    590.6981      5.9756    101.6120
  1596.0000      0.0000    649.6609      6.1829     94.4849
  1596.5000      0.0000    704.6287      5.8856     84.9916
  1597.0000      0.0000    739.4692      6.0569     78.5499
  1597.5000      0.0000    769.0312      6.6628     72.6948
  1598.0000      0.0000    796.4312      6.6547     67.6569
  1598.5000      0.0000    805.9133      6.0876     71.6941
  1599.0000      0.0000    779.4991      5.7481     79.6812
  1599.5000      0.0000    698.1047      6.0078     84.0141
  1600.0000      0.0000    595.9990      6.1351     84.4961
  1600.5000      0.0000    537.6103      5.8279     81.3218
  1601.0000      0.0000    523.0987      5.9207     79.1176
