~Version Information
VERS.                      2.0: CWLS Log ASCII Standard - VERSION 2.0
WRAP.                       NO: One line per depth step
~Well Information Block
STRT.FT               953.8000: 
STOP.FT              2226.0000: 
STEP.FT                 0.1000: 
NULL.                -999.2500: 
COMP.          Petrogulf Corporation: COMPANY
WELL.             Burson 8-13R: WELL
FLD.           Purgatorie River: FIELD
LOC.           1045' FNL & 2189' FEL: LOCATION
CNTY.               Las Animas: COUNTY
SRVC.                         : SERVICE COMPANY
DATE.          Fri Apr 30 07:30:36 2004: LOG DATE
UWI.           05 071 08039 00: UNIQUE WELL ID
STAT.                 Colorado: STATE
~Curve Information Block
DEPT.FT            0 000 00 00: Depth
DCAL.in                       : CDL Caliper
RHOB.g/cc                     : CDL Bulk Density
RHOC.g/cc                     : CDL Density Correction
DPOR.pu                       : CDL Density Porosity
NPOR.pu                       : Neutron Porosity
GR.GAPI                       : Gamma Ray
~Parameter Information Block
~A  Depth       DCAL        RHOB        RHOC        DPOR        NPOR         GR     
# ...
  1529.8000      8.0136      2.3723      0.0946     16.8317     32.0975    146.0877
  1529.9000      8.0136      2.3580      0.0861     17.6978     32.0199    146.1642
  1530.0000      8.0058      2.3411      0.0686     18.7213     32.2521    146.0090
  1530.1000      8.0058      2.3233      0.0641     19.7981     32.8515    143.6792
  1530.2000      8.0058      2.3015      0.0948     21.1200     33.5403    140.8135
  1530.3000      8.0052      2.2684      0.0887     23.1290     33.8254    135.4717
  1530.4000      8.0052      2.2215      0.0576     25.9686     33.6743    128.4605
  1530.5000      8.0179      2.1797      0.0072     28.5012     33.4346    124.4257
  1530.6000      8.0179      2.1756     -0.0359     28.7518     33.0850    123.3949
  1530.7000      8.0179      2.2127      0.0542     26.5038     32.5070    122.2523
  1530.8000      8.0149      2.2621      0.0644     23.5121     31.9496    120.1993
  1530.9000      8.0149      2.3106      0.1027     20.5695     31.7566    120.4726
  1531.0000      8.0118      2.3646      0.1682     17.2976     31.7335    122.8180
  1531.1000      8.0118      2.4231      0.2076     13.7532     31.3264    124.3201
  1531.2000      8.0118      2.4706      0.2326     10.8702     30.8736    122.5846
  1531.3000      8.0072      2.4933      0.1840      9.4952     31.0630    117.0589
  1531.4000      8.0072      2.4995      0.1384      9.1203     31.4513    112.3316
  1531.5000      8.0112      2.4998      0.1901      9.1049     31.2685    109.0522
  1531.6000      8.0112      2.4901      0.1344      9.6911     30.8726    103.5309
  1531.7000      8.0112      2.4783      0.0331     10.4084     30.9407     99.1773
  1531.8000      8.0431      2.4824      0.0458     10.1550     31.3734    100.6729
  1531.9000      8.0431      2.4990      0.0654      9.1533     31.6113    106.9443
  1532.0000      8.0637      2.5074      0.1081      8.6396     31.5871    113.3474
  1532.1000      8.0637      2.4982      0.0803      9.2008     31.7557    117.7566
  1532.2000      8.0637      2.4796      0.0659     10.3272     32.1842    120.6964
  1532.3000      8.0797      2.4606      0.0794     11.4779     32.3681    121.7627
  1532.4000      8.0797      2.4359      0.1259     12.9779     32.0868    122.0020
  1532.5000      8.2377      2.3997      0.1228     15.1690     31.5781    121.4962
  1532.6000      8.2377      2.3720      0.0647     16.8473     30.8733    118.3535
  1532.7000      8.2377      2.3863      0.0799     15.9834     29.9201    114.0758
  1532.8000      8.4121      2.4539      0.1216     11.8869     29.4749    110.6209
  1532.9000      8.4121      2.5524      0.2040      5.9133     30.2025    107.7809
  1533.0000      8.4406      2.6423      0.2786      0.4686     31.2244    107.9228
  1533.1000      8.4406      2.7046      0.1963     -3.3072     31.2213    115.5033
  1533.2000      8.4406      2.7513      0.1886     -6.1399     30.3103    127.2709
  1533.3000      8.1631      2.7811      0.2070     -7.9428     29.7023    132.1758
  1533.4000      8.1631      2.7760      0.1665     -7.6335     30.0264    129.9762
  1533.5000      8.1415      2.7469      0.0872     -5.8699     30.7865    132.8601
  1533.6000      8.1415      2.7236      0.0620     -4.4583     31.4303    141.0964
  1533.7000      8.1415      2.7059      0.0653     -3.3876     31.8175    142.9187
  1533.8000      7.9988      2.6718      0.0507     -1.3230     31.6236    138.1462
  1533.9000      7.9988      2.6256     -0.0403      1.4817     30.8707    134.9539
  1534.0000      7.9638      2.5906      0.0191      3.5994     30.3431    135.4102
  1534.1000      7.9638      2.5693      0.0738      4.8914     30.5729    137.2140
  1534.2000      7.9638      2.5537      0.1067      5.8341     31.2627    138.7416
  1534.3000      8.0031      2.5470      0.1184      6.2430     31.5831    139.0390
  1534.4000      8.0031      2.5513      0.1464      5.9792     31.1721    136.4348
  1534.5000      8.0094      2.5539      0.1699      5.8270     30.7698    133.2814
  1534.6000      8.0094      2.5373      0.1745      6.8306     31.1106    133.3309
  1534.7000      8.0094      2.5030      0.1668      8.9119     32.0487    137.1641
  1534.8000      8.0166      2.4598      0.2062     11.5244     32.9281    144.7843
  1534.9000      8.0166      2.4013      0.2079     15.0736     32.9967    153.9700
  1535.0000      8.0021      2.3305      0.1248     19.3643     32.4390    158.1036
  1535.1000      8.0021      2.2771      0.0949     22.5980     32.3508    157.1142
  1535.2000      8.0021      2.2537      0.1764     24.0165     33.0089    154.8102
  1535.3000      8.0118      2.2436      0.1551     24.6292     33.7077    150.3063
  1535.4000      8.0118      2.2416      0.1353     24.7528     33.8598    145.0255
  1535.5000      8.0253      2.2626      0.1523     23.4769     33.4676    142.5862
  1535.6000      8.0253      2.3070      0.3327     20.7893     32.9276    141.7812
  1535.7000      8.0253      2.3515      0.3706     18.0903     32.4642    142.6516
  1535.8000      8.0597      2.3861      0.3542     15.9957     32.0195    146.6046
  1535.9000      8.0597      2.4168      0.3630     14.1323     31.7082    148.1663
  1536.0000      8.1445      2.4417      0.3694     12.6223     31.7255    142.8799
  1536.1000      8.1445      2.4534      0.3437     11.9154     32.0723    136.7795
  1536.2000      8.1445      2.4557      0.2931     11.7753     32.6492    135.4217
  1536.3000      8.4047      2.4578      0.3095     11.6492     32.9421    138.9300
  1536.4000      8.4047      2.4660      0.2401     11.1536     32.5630    144.5072
  1536.5000      8.3917      2.4837      0.2111     10.0795     31.9986    147.4626
  1536.6000      8.3917      2.5030      0.1725      8.9077     31.7775    142.6302
  1536.7000      8.3917      2.5091      0.1833      8.5415     31.8570    131.3295
  1536.8000      8.0368      2.4969      0.1495      9.2814     31.6194    127.5134
  1536.9000      8.0368      2.4763      0.1651     10.5268     30.6736    134.6769
  1537.0000      8.0246      2.4575      0.1605     11.6657     29.9219    136.5807
  1537.1000      8.0246      2.4520      0.1526     12.0002     30.0060    127.8136
  1537.2000      8.0246      2.4728      0.1866     10.7397     29.9282    123.0839
  1537.3000      8.0691      2.5228      0.2153      7.7106     29.0029    130.6669
  1537.4000      8.0691      2.6004      0.2168      3.0070     28.1795    139.9656
  1537.5000      8.1154      2.6978      0.2521     -2.8978     27.9248    136.6298
  1537.6000      8.1154      2.7924      0.2693     -8.6302     27.5283    122.8363
  1537.7000      8.1154      2.8706      0.2510    -13.3681     26.6382    112.0752
  1537.8000      8.0097      2.9375      0.2518    -17.4263     25.4982    105.8386
  1537.9000      8.0097      2.9930      0.2420    -20.7849     24.4366     96.0113
  1538.0000      7.9462      3.0301      0.1903    -23.0391     23.7242     82.2542
  1538.1000      7.9462      3.0475      0.1709    -24.0910     23.6536     70.6580
  1538.2000      7.9462      3.0512      0.1003    -24.3145     24.0481     65.2819
  1538.3000      7.9231      3.0557      0.0658    -24.5877     24.3590     64.5993
  1538.4000      7.9231      3.0633      0.0622    -25.0490     24.5413     65.0388
  1538.5000      7.9204      3.0478      0.0401    -24.1089     24.7920     65.7886
  1538.6000      7.9204      2.9835      0.0079    -20.2130     24.9128     67.9778
  1538.7000      7.9204      2.8883     -0.0142    -14.4406     24.7763     73.0349
  1538.8000      7.9224      2.8020      0.0125     -9.2107     25.0174     79.3731
  1538.9000      7.9224      2.7418     -0.0430     -5.5620     26.0089     83.4046
  1539.0000      7.9227      2.7041      0.0136     -3.2774     27.1849     86.2420
  1539.1000      7.9227      2.6748      0.0280     -1.5052     27.9966     90.3017
  1539.2000      7.9227      2.6419      0.0466      0.4890     28.3673     95.0544
  1539.3000      7.9191      2.6088      0.0331      2.4979     28.4785    100.1339
