~Version Information
VERS.                      2.0: CWLS Log ASCII Standard - VERSION 2.0
WRAP.                       NO: One line per depth step
~Well Information Block
STRT.FT               454.0000: 
STOP.FT              1392.0000: 
STEP.FT                 0.2500: 
NULL.                -999.2500: 
COMP.          Pioneer Natural Resources: COMPANY
WELL.          Lorencito 6-3-34-66: WELL
FLD.           Purgatoire River: FIELD
LOC.           2545' FNL & 1914' FWL: LOCATION
STAT.                 Colorado: State
CNTY.               Las Animas: COUNTY
CTRY. USA : Country
SECT. 3 : Section
TOWN. 34S : Township
RANG. 66W : Range
SRVC.                Patterson: SERVICE COMPANY
DATE.          Fri Sep 09 22:07:39 2005: LOG DATE
API.           05 071 08369 00: UNIQUE WELL ID
~Curve Information Block
DEPT.FT            0 000 00 00: Depth
SN.Ohm-m                      : IEL Short Normal
SP.mV                         : IEL Spontaneous Potential
DIR.Ohm-m                     : IEL Induction Resistivity
GR.GAPI                       : Gamma Ray
~Parameter Information Block
~A  Depth        SN          SP         DIR          GR     
# ...
   621.5000   2000.0000   2000.0000     12.7993    136.2765
   621.7500   2000.0000   2000.0000     13.0167    128.0267
   622.0000   2000.0000   2000.0000     13.2409    120.3255
   622.2500   2000.0000   2000.0000     13.4598    119.2022
   622.5000   2000.0000   2000.0000     13.6670    122.9541
   622.7500   2000.0000   2000.0000     13.8600    128.3007
   623.0000   2000.0000   2000.0000     14.0370    139.4974
   623.2500   2000.0000   2000.0000     14.1918    148.4436
   623.5000   2000.0000   2000.0000     14.3147    162.2040
   623.7500   2000.0000   2000.0000     14.3929    170.1254
   624.0000   2000.0000   2000.0000     14.4152    178.2153
   624.2500   2000.0000   2000.0000     14.3763    180.8288
   624.5000   2000.0000   2000.0000     14.2820    181.4104
   624.7500   2000.0000   2000.0000     14.1492    180.3746
   625.0000   2000.0000   2000.0000     14.0027    177.8000
   625.2500   2000.0000   2000.0000     13.8708    175.5895
   625.5000   2000.0000   2000.0000     13.7781    171.1099
   625.7500   2000.0000   2000.0000     13.7407    167.1140
   626.0000   2000.0000   2000.0000     13.7632    160.0947
   626.2500   2000.0000   2000.0000     13.8376    155.5646
   626.5000   2000.0000   2000.0000     13.9449    150.3958
   626.7500   2000.0000   2000.0000     14.0601    148.2296
   627.0000   2000.0000   2000.0000     14.1582    146.0845
   627.2500   2000.0000   2000.0000     14.2227    144.8395
   627.5000   2000.0000   2000.0000     14.2505    143.2567
   627.7500   2000.0000   2000.0000     14.2520    142.9888
   628.0000   2000.0000   2000.0000     14.2476    144.9069
   628.2500   2000.0000   2000.0000     14.2596    147.7911
   628.5000   2000.0000   2000.0000     14.3067    152.9534
   628.7500   2000.0000   2000.0000     14.4001    155.4257
   629.0000   2000.0000   2000.0000     14.5427    155.7587
   629.2500   2000.0000   2000.0000     14.7298    153.7552
   629.5000   2000.0000   2000.0000     14.9517    148.9367
   629.7500   2000.0000   2000.0000     15.1979    145.1432
   630.0000   2000.0000   2000.0000     15.4587    137.7805
   630.2500   2000.0000   2000.0000     15.7297    130.6784
   630.5000   2000.0000   2000.0000     16.0133    116.1023
   630.7500   2000.0000   2000.0000     16.3184    104.7339
   631.0000   2000.0000   2000.0000     16.6588     88.1295
   631.2500   2000.0000   2000.0000     17.0476     78.7839
   631.5000   2000.0000   2000.0000     17.4929     68.3789
   631.7500   2000.0000   2000.0000     17.9895     63.8701
   632.0000   2000.0000   2000.0000     18.5179     60.6049
   632.2500   2000.0000   2000.0000     19.0454     60.7090
   632.5000   2000.0000   2000.0000     19.5325     64.0005
   632.7500   2000.0000   2000.0000     19.9443     67.9252
   633.0000   2000.0000   2000.0000     20.2617     75.5450
   633.2500   2000.0000   2000.0000     20.4850     81.1622
   633.5000   2000.0000   2000.0000     20.6309     89.1510
   633.7500   2000.0000   2000.0000     20.7228     93.4330
   634.0000   2000.0000   2000.0000     20.7837     97.3731
   634.2500   2000.0000   2000.0000     20.8310     98.4133
   634.5000   2000.0000   2000.0000     20.8757     99.1421
   634.7500   2000.0000   2000.0000     20.9217    100.4169
   635.0000   2000.0000   2000.0000     20.9656    104.9716
   635.2500   2000.0000   2000.0000     20.9943    109.5846
   635.5000   2000.0000   2000.0000     20.9845    117.1743
   635.7500   2000.0000   2000.0000     20.9073    121.5123
   636.0000   2000.0000   2000.0000     20.7372    125.6427
   636.2500   2000.0000   2000.0000     20.4633    126.7319
   636.5000   2000.0000   2000.0000     20.0975    126.6010
   636.7500   2000.0000   2000.0000     19.6729    125.7869
   637.0000   2000.0000   2000.0000     19.2342    123.7132
   637.2500   2000.0000   2000.0000     18.8273    121.8084
   637.5000   2000.0000   2000.0000     18.4866    118.8154
   637.7500   2000.0000   2000.0000     18.2337    117.4316
   638.0000   2000.0000   2000.0000     18.0762    117.3024
   638.2500   2000.0000   2000.0000     18.0122    118.6278
   638.5000   2000.0000   2000.0000     18.0327    122.0030
   638.7500   2000.0000   2000.0000     18.1258    124.4202
   639.0000   2000.0000   2000.0000     18.2776    126.8908
   639.2500   2000.0000   2000.0000     18.4751    127.1443
   639.5000   2000.0000   2000.0000     18.7078    125.3270
   639.7500   2000.0000   2000.0000     18.9681    123.3761
   640.0000   2000.0000   2000.0000     19.2525    121.3865
   640.2500   2000.0000   2000.0000     19.5591    121.6873
   640.5000   2000.0000   2000.0000     19.8844    125.3629
   640.7500   2000.0000   2000.0000     20.2202    130.0443
   641.0000   2000.0000   2000.0000     20.5508    140.0251
   641.2500   2000.0000   2000.0000     20.8527    147.7477
   641.5000   2000.0000   2000.0000     21.0982    157.8229
   641.7500   2000.0000   2000.0000     21.2599    161.3238
   642.0000   2000.0000   2000.0000     21.3181    159.1536
   642.2500   2000.0000   2000.0000     21.2657    152.7996
   642.5000   2000.0000   2000.0000     21.1112    138.8902
   642.7500   2000.0000   2000.0000     20.8787    129.3264
   643.0000   2000.0000   2000.0000     20.6031    118.1293
   643.2500   2000.0000   2000.0000     20.3236    113.3775
   643.5000   2000.0000   2000.0000     20.0763    108.9731
   643.7500   2000.0000   2000.0000     19.8858    106.5928
   644.0000   2000.0000   2000.0000     19.7611    102.7380
   644.2500   2000.0000   2000.0000     19.6942    100.2589
   644.5000   2000.0000   2000.0000     19.6633     97.9897
   644.7500   2000.0000   2000.0000     19.6382     98.2416
   645.0000   2000.0000   2000.0000     19.5900    102.4351
   645.2500   2000.0000   2000.0000     19.4998    108.2534
   645.5000   2000.0000   2000.0000     19.3631    121.3631
   645.7500   2000.0000   2000.0000     19.1936    131.9707
   646.0000   2000.0000   2000.0000     19.0147    147.1071
   646.2500   2000.0000   2000.0000     18.8542    154.2052
   646.5000   2000.0000   2000.0000     18.7365    157.7692
   646.7500   2000.0000   2000.0000     18.6768    155.7225
   647.0000   2000.0000   2000.0000     18.6784    148.6261
   647.2500   2000.0000   2000.0000     18.7334    142.6096
   647.5000   2000.0000   2000.0000     18.8250    132.7047
   647.7500   2000.0000   2000.0000     18.9309    125.8472
   648.0000   2000.0000   2000.0000     19.0318    116.4485
   648.2500   2000.0000   2000.0000     19.1143    111.8443
   648.5000   2000.0000   2000.0000     19.1767    108.5371
   648.7500   2000.0000   2000.0000     19.2287    108.4033
   649.0000   2000.0000   2000.0000     19.2882    109.6760
   649.2500   2000.0000   2000.0000     19.3754    110.7875
   649.5000   2000.0000   2000.0000     19.5079    112.6003
   649.7500   2000.0000   2000.0000     19.6969    113.8368
   650.0000   2000.0000   2000.0000     19.9462    115.1033
   650.2500   2000.0000   2000.0000     20.2490    115.3356
   650.5000   2000.0000   2000.0000     20.5858    115.6721
   650.7500   2000.0000   2000.0000     20.9201    117.0170
   651.0000   2000.0000   2000.0000     21.1931    122.3892
   651.2500   2000.0000   2000.0000     21.3271    128.4108
   651.5000   2000.0000   2000.0000     21.2406    139.5726
   651.7500   2000.0000   2000.0000     20.8760    146.6228
   652.0000   2000.0000   2000.0000     20.2299    153.5405
   652.2500   2000.0000   2000.0000     19.3617    155.0099
   652.5000   2000.0000   2000.0000     18.3750    153.5641
   652.7500   2000.0000   2000.0000     17.3817    151.3801
   653.0000   2000.0000   2000.0000     16.4716    148.1686
   653.2500   2000.0000   2000.0000     15.6993    146.9374
   653.5000   2000.0000   2000.0000     15.0853    147.2325
   653.7500   2000.0000   2000.0000     14.6255    148.4891
   654.0000   2000.0000   2000.0000     14.2999    150.0013
   654.2500   2000.0000   2000.0000     14.0818    149.6723
   654.5000   2000.0000   2000.0000     13.9425    146.9711
   654.7500   2000.0000   2000.0000     13.8559    144.5994
