~Version Information
VERS.                      2.0: CWLS Log ASCII Standard - VERSION 2.0
WRAP.                       NO: One line per depth step
~Well Information Block
STRT.FT                 0.0000: 
STOP.FT              1439.5000: 
STEP.FT                 0.2500: 
NULL.                -999.2500: 
COMP.          Petrogulf Corporation: COMPANY
WELL.          Robinson 15-12R: WELL
FLD.           Purgatorie River: FIELD
LOC.           1752' FNL & 561' FWL: LOCATION
PROV.                 Colorado: PROVINCE
CNTY.               Las Animas: COUNTRY
SRVC.                Patterson: SERVICE COMPANY
DATE.          Tue Oct 04 09:17:52 2005: LOG DATE
UWI.                          : UNIQUE WELL ID
~Curve Information Block
DEPT.FT            0 000 00 00: Depth
GR.GAPI                       : Gamma Ray
CCL.                          : Casing Collar Locator
TT3.usec                      : CBL 3' Travel Time
AMP3.mV                       : CBL 3' Amplitude
~Parameter Information Block
~A  Depth        GR         CCL         TT3         AMP3    
# ...
   201.0000     60.4399      0.0000    682.1263      2.8947
   201.2500     59.3199      0.0000    653.6987      2.8283
   201.5000     58.4035      0.0000    636.2301      2.7830
   201.7500     58.7000      0.0000    628.9235      2.7572
   202.0000     60.6772      0.0000    622.8307      2.7201
   202.2500     64.1314      0.0000    613.9418      2.6555
   202.5000     68.3463      0.0000    605.6434      2.5756
   202.7500     72.2842      0.0000    601.1066      2.4964
   203.0000     74.9362      0.0000    599.3851      2.4299
   203.2500     75.8424      0.0000    597.6296      2.3849
   203.5000     75.4530      0.0000    593.3821      2.3602
   203.7500     75.0395      0.0000    586.1682      2.3540
   204.0000     76.0015      0.0000    576.2275      2.3666
   204.2500     78.8168      0.0000    558.2341      2.3928
   204.5000     82.5417      0.0000    523.9212      2.4352
   204.7500     85.5094      0.0000    478.7270      2.4999
   205.0000     86.6369      0.0000    443.1049      2.5811
   205.2500     86.0791      0.0000    431.7662      2.6684
   205.5000     84.7696      0.0000    440.3953      2.7499
   205.7500     83.6147      0.0000    451.9643      2.8112
   206.0000     83.1199      0.0000    460.0065      2.8405
   206.2500     83.3493      0.0000    478.7561      2.8343
   206.5000     83.9693      0.0000    517.2339      2.8047
   206.7500     84.5375      0.0000    564.0085      2.7713
   207.0000     84.8827      0.0000    603.2798      2.7450
   207.2500     85.1064      0.0000    627.6613      2.7378
   207.5000     85.2986      0.0000    638.5809      2.7730
   207.7500     85.4322      0.0000    641.3907      2.8543
   208.0000     85.3256      0.0000    638.0008      2.9528
   208.2500     84.4045      0.0000    624.1589      3.0343
   208.5000     81.6423      0.0000    599.9910      3.0782
   208.7500     76.2170      0.0000    583.2786      3.0811
   209.0000     68.4514      0.0000    593.5823      3.0638
   209.2500     59.9730      0.0000    624.3703      3.0590
   209.5000     52.8604      0.0000    652.0566      3.0800
   209.7500     48.5896      0.0000    659.7366      3.1160
   210.0000     47.5148      0.0000    639.3680      3.1660
   210.2500     48.9767      0.0000    593.3586      3.2453
   210.5000     51.8625      0.0000    545.6984      3.3661
   210.7500     55.2898      0.0000    524.7128      3.5546
   211.0000     58.9161      0.0000    528.5606      3.8551
   211.2500     62.6072      0.0000    541.7857      4.2442
   211.5000     65.8690      0.0000    568.5162      4.5949
   211.7500     67.7738      0.0000    611.1815      4.8062
   212.0000     67.5983      0.0000    652.0333      4.9056
   212.2500     65.6297      0.0000    680.0436      4.9765
   212.5000     63.2420      0.0000    704.1415      5.0503
   212.7500     61.9796      0.0000    730.3254      5.0968
   213.0000     62.5192      0.0000    745.9411      5.0814
   213.2500     64.6050      0.0000    739.0595      5.0093
   213.5000     67.6936      0.0000    717.1470      4.9138
   213.7500     71.1833      0.0000    690.9127      4.8116
   214.0000     74.1824      0.0000    658.8105      4.6819
   214.2500     75.7815      0.0000    619.4462      4.4918
   214.5000     75.8516      0.0000    584.5024      4.2407
   214.7500     75.2150      0.0000    564.6776      3.9831
   215.0000     74.9204      0.0000    555.3455      3.7976
   215.2500     75.5653      0.0000    548.9952      3.7232
   215.5000     77.1469      0.0000    545.1989      3.7387
   215.7500     79.1365      0.0000    543.3187      3.8001
   216.0000     80.6709      0.0000    536.6393      3.8784
   216.2500     81.0395      0.0000    516.0027      3.9614
   216.5000     80.2805      0.0000    480.0015      4.0405
   216.7500     79.3456      0.0000    441.9745      4.1085
   217.0000     79.4624      0.0000    416.6327      4.1627
   217.2500     81.0735      0.0000    406.6354      4.2085
   217.5000     83.2856      0.0000    406.9030      4.2602
   217.7500     84.5269      0.0000    410.9149      4.3227
   218.0000     83.8789      0.0000    413.9900      4.3722
   218.2500     81.6714      0.0000    414.9527      4.3878
   218.5000     78.8111      0.0000    414.7082      4.3869
   218.7500     75.7972      0.0000    414.2646      4.4043
   219.0000     72.4974      0.0000    413.9446      4.4479
   219.2500     68.8000      0.0000    413.6064      4.4942
   219.5000     65.4217      0.0000    413.1461      4.5277
   219.7500     63.9309      0.0000    412.6633      4.5556
   220.0000     65.7017      0.0000    412.3733      4.5781
   220.2500     70.6614      0.0000    412.4953      4.5775
   220.5000     77.0061      0.0000    413.3349      4.5469
   220.7500     82.2005      0.0000    416.7438      4.5017
   221.0000     84.5605      0.0000    429.6550      4.4591
   221.2500     84.4144      0.0000    462.3589      4.4313
   221.5000     83.9069      0.0000    508.6576      4.4403
   221.7500     85.1708      0.0000    532.9124      4.5078
   222.0000     88.2377      0.0000    510.2475      4.6188
   222.2500     90.9375      0.0000    464.4394      4.7195
   222.5000     91.0216      0.0000    430.9309      4.7757
   222.7500     88.0900      0.0000    416.0034      4.8077
   223.0000     83.4327      0.0000    408.3543      4.8512
   223.2500     78.6444      0.0000    399.7229      4.9162
   223.5000     74.8468      0.0000    389.5153      4.9892
   223.7500     72.8170      0.0000    381.0855      5.0502
   224.0000     73.0475      0.0000    376.3684      5.0883
   224.2500     75.3321      0.0000    374.4485      5.1148
   224.5000     78.5580      0.0000    373.7354      5.1489
   224.7500     81.3518      0.0000    373.3761      5.1892
   225.0000     83.0317      0.0000    373.1014      5.2149
   225.2500     83.9196      0.0000    372.8453      5.2163
   225.5000     84.8521      0.0000    372.5861      5.2046
   225.7500     86.3619      0.0000    372.3164      5.1908
   226.0000     88.0388      0.0000    372.0573      5.1806
   226.2500     88.6793      0.0000    371.8543      5.1856
   226.5000     87.3491      0.0000    371.7297      5.2190
   226.7500     84.2900      0.0000    371.6678      5.2846
   227.0000     80.6165      0.0000    371.6580      5.3736
   227.2500     77.3513      0.0000    371.7021      5.4730
   227.5000     74.9568      0.0000    371.7785      5.5749
   227.7500     73.5968      0.0000    371.8471      5.6775
   228.0000     73.4627      0.0000    371.8758      5.7787
   228.2500     74.5788      0.0000    371.8426      5.8758
   228.5000     76.3186      0.0000    371.7488      5.9672
   228.7500     77.5695      0.0000    371.6098      6.0500
   229.0000     77.6561      0.0000    371.2819      6.1200
   229.2500     76.8054      0.0000    370.0109      6.1811
   229.5000     75.5137      0.0000    366.1775      6.2468
   229.7500     73.9672      0.0000    358.6533      6.3233
   230.0000     72.3252      0.0000    349.1793      6.4008
   230.2500     70.9487      0.0000    341.5137      6.4670
   230.5000     69.8504      0.0000    337.5172      6.5211
   230.7500     68.1860      0.0000    336.1707      6.5699
   231.0000     64.8363      0.0000    335.8799      6.6163
   231.2500     59.7476      0.0000    335.8517      6.6483
   231.5000     54.4966      0.0000    335.8868      6.6558
   231.7500     51.2372      0.0000    335.9838      6.6593
   232.0000     51.1084      0.0000    336.1663      6.6980
   232.2500     53.7885      0.0000    336.4024      6.7828
   232.5000     58.2324      0.0000    336.6214      6.8853
   232.7500     63.4081      0.0000    336.8001      6.9787
   233.0000     68.4201      0.0000    336.9337      7.0614
   233.2500     72.4482      0.0000    336.9574      7.1308
   233.5000     74.8943      0.0000    336.8272      7.1743
   233.7500     75.6219      0.0000    336.6317      7.1933
   234.0000     74.9558      0.0000    336.5721      7.1993
   234.2500     73.4228      0.0000    337.1459      7.1644
