~Version Information
VERS.                      2.0: CWLS Log ASCII Standard - VERSION 2.0
WRAP.                       NO: One line per depth step
~Well Information Block
STRT.FT               395.0000: 
STOP.FT              1998.0000: 
STEP.FT                 0.2500: 
NULL.                -999.2500: 
COMP.          Pioneer Natural Resources: COMPANY
WELL.          Easton 12-30 Tr: WELL
FLD.           Purgatoire River: FIELD
LOC.           549' FWL & 2416' FNL--: LOCATION
PROV.                 Colorado: PROVINCE
CNTY.               Las Animas: COUNTRY
SRVC.                Patterson: SERVICE COMPANY
DATE.          Wed Jun 01 17:36:02 2005: LOG DATE
UWI.           05 071 08379 00: UNIQUE WELL ID
~Curve Information Block
DEPT.FT            0 000 00 00: Depth
SN.Ohm-m                      : IEL Short Normal
SP.mV                         : IEL Spontaneous Potential
DIR.Ohm-m                     : IEL Induction Resistivity
GR.GAPI                       : Gamma Ray
~Parameter Information Block
~A  Depth        SN          SP         DIR          GR     
# ...
  1333.0000   2000.0000   -999.2500      9.3377     90.8068
  1333.2500   2000.0000   -999.2500      8.7184     87.4775
  1333.5000   2000.0000   -999.2500      8.4873     84.0093
  1333.7500   2000.0000   -999.2500      8.4629     83.3574
  1334.0000   2000.0000   -999.2500      8.5582     85.0868
  1334.2500   2000.0000   -999.2500      8.7372     87.3788
  1334.5000   2000.0000   -999.2500      8.9920     90.7176
  1334.7500   2000.0000   -999.2500      9.3286     92.1401
  1335.0000   2000.0000   -999.2500      9.7566     93.0492
  1335.2500   2000.0000   -999.2500     10.2818     93.2619
  1335.5000   2000.0000   -999.2500     10.8997     93.5102
  1335.7500   2000.0000   -999.2500     11.5909     93.6331
  1336.0000   2000.0000   -999.2500     12.3202     93.5387
  1336.2500   2000.0000   -999.2500     13.0429     93.1362
  1336.5000   2000.0000   -999.2500     13.7166     91.7434
  1336.7500   2000.0000   -999.2500     14.3147     90.2492
  1337.0000   2000.0000   -999.2500     14.8323     87.6471
  1337.2500   2000.0000   -999.2500     15.2819     86.2856
  1337.5000   2000.0000   -999.2500     15.6817     85.9303
  1337.7500   2000.0000   -999.2500     16.0429     87.1296
  1338.0000   2000.0000   -999.2500     16.3653     90.5694
  1338.2500   2000.0000   -999.2500     16.6378     93.1388
  1338.5000   2000.0000   -999.2500     16.8427     95.8075
  1338.7500   2000.0000   -999.2500     16.9600     96.1732
  1339.0000   2000.0000   -999.2500     16.9726     94.4764
  1339.2500   2000.0000   -999.2500     16.8760     92.2800
  1339.5000   2000.0000   -999.2500     16.6859     88.5583
  1339.7500   2000.0000   -999.2500     16.4382     86.4812
  1340.0000   2000.0000   -999.2500     16.1803     84.8092
  1340.2500   2000.0000   -999.2500     15.9566     84.7989
  1340.5000   2000.0000   -999.2500     15.7962     86.0540
  1340.7500   2000.0000   -999.2500     15.7080     87.3857
  1341.0000   2000.0000   -999.2500     15.6814     89.9725
  1341.2500   2000.0000   -999.2500     15.6938     92.3631
  1341.5000   2000.0000   -999.2500     15.7183     97.3887
  1341.7500   2000.0000   -999.2500     15.7287    101.4559
  1342.0000   2000.0000   -999.2500     15.6987    107.2411
  1342.2500   2000.0000   -999.2500     15.6029    109.9785
  1342.5000   2000.0000   -999.2500     15.4232    111.6549
  1342.7500   2000.0000   -999.2500     15.1596    111.2644
  1343.0000   2000.0000   -999.2500     14.8365    108.9790
  1343.2500   2000.0000   -999.2500     14.4947    106.6098
  1343.5000   2000.0000   -999.2500     14.1748    102.3613
  1343.7500   2000.0000   -999.2500     13.9038     99.6782
  1344.0000   2000.0000   -999.2500     13.6910     97.4534
  1344.2500   2000.0000   -999.2500     13.5342     98.1261
  1344.5000   2000.0000   -999.2500     13.4265    103.2587
  1344.7500   2000.0000   -999.2500     13.3605    109.1503
  1345.0000   2000.0000   -999.2500     13.3284    119.7536
  1345.2500   2000.0000   -999.2500     13.3215    126.3844
  1345.5000   2000.0000   -999.2500     13.3320    133.2888
  1345.7500   2000.0000   -999.2500     13.3548    135.3419
  1346.0000   2000.0000   -999.2500     13.3887    135.4673
  1346.2500   2000.0000   -999.2500     13.4336    134.5559
  1346.5000   2000.0000   -999.2500     13.4888    132.7856
  1346.7500   2000.0000   -999.2500     13.5520    131.3899
  1347.0000   2000.0000   -999.2500     13.6239    128.6394
  1347.2500   2000.0000   -999.2500     13.7126    126.3005
  1347.5000   2000.0000   -999.2500     13.8340    122.2633
  1347.7500   2000.0000   -999.2500     14.0056    119.4142
  1348.0000   2000.0000   -999.2500     14.2399    115.1754
  1348.2500   2000.0000   -999.2500     14.5412    112.5355
  1348.5000   2000.0000   -999.2500     14.9090    109.1474
  1348.7500   2000.0000   -999.2500     15.3420    107.3686
  1349.0000   2000.0000   -999.2500     15.8373    105.3843
  1349.2500   2000.0000   -999.2500     16.3833    104.4237
  1349.5000   2000.0000   -999.2500     16.9508    103.2963
  1349.7500   2000.0000   -999.2500     17.4916    102.5582
  1350.0000   2000.0000   -999.2500     17.9490    101.1027
  1350.2500   2000.0000   -999.2500     18.2766     99.7841
  1350.5000   2000.0000   -999.2500     18.4527     97.3559
  1350.7500   2000.0000   -999.2500     18.4773     95.5141
  1351.0000   2000.0000   -999.2500     18.3598     92.3205
  1351.2500   2000.0000   -999.2500     18.1098     89.7625
  1351.5000   2000.0000   -999.2500     17.7398     85.3788
  1351.7500   2000.0000   -999.2500     17.2731     82.5373
  1352.0000   2000.0000   -999.2500     16.7471     79.5870
  1352.2500   2000.0000   -999.2500     16.2055     79.0866
  1352.5000   2000.0000   -999.2500     15.6843     81.0048
  1352.7500   2000.0000   -999.2500     15.2003     84.0705
  1353.0000   2000.0000   -999.2500     14.7492     91.1440
  1353.2500   2000.0000   -999.2500     14.3131     97.2534
  1353.5000   2000.0000   -999.2500     13.8726    107.5800
  1353.7500   2000.0000   -999.2500     13.4159    114.3551
  1354.0000   2000.0000   -999.2500     12.9411    122.6957
  1354.2500   2000.0000   -999.2500     12.4552    126.4182
  1354.5000   2000.0000   -999.2500     11.9718    129.1314
  1354.7500   2000.0000   -999.2500     11.5093    129.3736
  1355.0000   2000.0000   -999.2500     11.0882    128.2132
  1355.2500   2000.0000   -999.2500     10.7270    126.8858
  1355.5000   2000.0000   -999.2500     10.4382    124.7845
  1355.7500   2000.0000   -999.2500     10.2265    123.6735
  1356.0000   2000.0000   -999.2500     10.0885    122.6522
  1356.2500   2000.0000   -999.2500     10.0148    122.1121
  1356.5000   2000.0000   -999.2500      9.9922    120.7278
  1356.7500   2000.0000   -999.2500     10.0081    119.3570
  1357.0000   2000.0000   -999.2500     10.0527    117.4413
  1357.2500   2000.0000   -999.2500     10.1206    116.6664
  1357.5000   2000.0000   -999.2500     10.2083    115.7964
  1357.7500   2000.0000   -999.2500     10.3129    114.7315
  1358.0000   2000.0000   -999.2500     10.4303    111.8985
  1358.2500   2000.0000   -999.2500     10.5564    109.5200
  1358.5000   2000.0000   -999.2500     10.6883    106.0744
  1358.7500   2000.0000   -999.2500     10.8254    104.0555
  1359.0000   2000.0000   -999.2500     10.9697    101.2302
  1359.2500   2000.0000   -999.2500     11.1233     99.3084
  1359.5000   2000.0000   -999.2500     11.2872     96.4335
  1359.7500   2000.0000   -999.2500     11.4614     94.8349
  1360.0000   2000.0000   -999.2500     11.6472     93.6899
  1360.2500   2000.0000   -999.2500     11.8492     94.0760
  1360.5000   2000.0000   -999.2500     12.0753     96.2485
  1360.7500   2000.0000   -999.2500     12.3324     98.3198
  1361.0000   2000.0000   -999.2500     12.6206    101.5207
  1361.2500   2000.0000   -999.2500     12.9302    103.4822
  1361.5000   2000.0000   -999.2500     13.2434    106.3028
  1361.7500   2000.0000   -999.2500     13.5395    108.2967
  1362.0000   2000.0000   -999.2500     13.8010    111.5071
  1362.2500   2000.0000   -999.2500     14.0156    113.5322
  1362.5000   2000.0000   -999.2500     14.1767    115.5981
  1362.7500   2000.0000   -999.2500     14.2838    115.8802
  1363.0000   2000.0000   -999.2500     14.3444    114.2861
  1363.2500   2000.0000   -999.2500     14.3745    111.9009
  1363.5000   2000.0000   -999.2500     14.3970    106.6644
  1363.7500   2000.0000   -999.2500     14.4383    102.4811
  1364.0000   2000.0000   -999.2500     14.5239     96.4406
  1364.2500   2000.0000   -999.2500     14.6738     93.5141
  1364.5000   2000.0000   -999.2500     14.8976     91.9791
  1364.7500   2000.0000   -999.2500     15.1912     92.9024
  1365.0000   2000.0000   -999.2500     15.5370     96.1192
  1365.2500   2000.0000   -999.2500     15.9101     98.5805
  1365.5000   2000.0000   -999.2500     16.2861    101.4039
  1365.7500   2000.0000   -999.2500     16.6485    102.0419
  1366.0000   2000.0000   -999.2500     16.9911    100.2277
  1366.2500   2000.0000   -999.2500     17.3170     97.1341
