~Version Information
VERS.                      2.0: CWLS Log ASCII Standard - VERSION 2.0
WRAP.                       NO: One line per depth step
~Well Information Block
STRT.FT                -7.7500: 
STOP.FT              1383.2500: 
STEP.FT                 0.2500: 
NULL.                -999.2500: 
COMP.          Petrogulf Corporation: COMPANY
WELL.          Great Plains 22-22R: WELL
FLD.           Purgatoire River: FIELD
LOC.           2042' FNL & 1657' FWL SENW 22 33S 67W ----: LOCATION
PROV.                 Colorado: PROVINCE
CNTY.               Las Animas: COUNTRY
SRVC.                         : SERVICE COMPANY
DATE.          Thu Sep 22 14:55:58 2005: LOG DATE
UWI.             07108028     : UNIQUE WELL ID
~Curve Information Block
DEPT.FT            0 000 00 00: Depth
CCL.                          : Casing Collar Locator
TT3.usec                      : CBL 3' Travel Time
AMP3.mV                       : CBL 3' Amplitude
GR.GAPI                       : Gamma Ray
~Parameter Information Block
~A  Depth       CCL         TT3         AMP3         GR     
# ...
   461.2500      0.0000    334.7320     11.3183     96.5045
   461.5000      0.0000    335.0007     11.8114     96.1897
   461.7500      0.0000    335.4210     12.2437     93.0208
   462.0000      0.0000    336.2579     12.5358     89.0793
   462.2500      0.0000    338.0052     12.6499     85.8462
   462.5000      0.0000    341.3641     12.5778     83.7381
   462.7500      0.0000    346.9215     12.3448     82.4399
   463.0000      0.0000    354.5174     12.0204     81.3910
   463.2500      0.0000    362.9117     11.6960     80.2899
   463.5000      0.0000    370.4189     11.4349     79.2175
   463.7500      0.0000    376.1404     11.2446     78.2933
   464.0000      0.0000    380.6756     11.0985     77.3462
   464.2500      0.0000    385.9467     10.9750     75.9388
   464.5000      0.0000    394.5493     10.8683     73.7457
   464.7500      0.0000    408.8773     10.7703     71.1145
   465.0000      0.0000    429.5199     10.6615     69.1570
   465.2500      0.0000    452.9581     10.5307     68.9224
   465.5000      0.0000    470.9182     10.4056     70.5308
   465.7500      0.0000    474.9501     10.3548     73.1878
   466.0000      0.0000    464.5706     10.4449     75.7210
   466.2500      0.0000    450.6242     10.6798     77.1515
   466.5000      0.0000    448.9688     10.9756     77.2814
   466.7500      0.0000    470.1110     11.2074     76.7570
   467.0000      0.0000    513.0219     11.2929     76.2130
   467.2500      0.0000    566.1360     11.2426     75.5241
   467.5000      0.0000    614.4557     11.1356     74.1964
   467.7500      0.0000    648.2209     11.0594     72.2250
   468.0000      0.0000    666.5422     11.0676     70.1867
   468.2500      0.0000    674.2043     11.1692     68.6811
   468.5000      0.0000    676.3309     11.3357     68.0071
   468.7500      0.0000    675.5357     11.5222     68.2741
   469.0000      0.0000    671.7390     11.6978     69.4212
   469.2500      0.0000    663.4931     11.8640     70.9556
   469.5000      0.0000    650.4355     12.0372     71.9683
   469.7500      0.0000    635.5533     12.2188     71.7813
   470.0000      0.0000    624.3824     12.3937     70.5828
   470.2500      0.0000    621.1151     12.5548     69.1511
   470.5000      0.0000    625.9833     12.7097     68.0215
   470.7500      0.0000    636.3793     12.8626     67.2052
   471.0000      0.0000    648.8842     13.0012     66.6178
   471.2500      0.0000    659.8697     13.1087     66.3521
   471.5000      0.0000    665.7895     13.1749     66.3522
   471.7500      0.0000    663.5349     13.1983     66.0549
   472.0000      0.0000    650.6342     13.1825     64.7904
   472.2500      0.0000    626.3974     13.1326     62.6678
   472.5000      0.0000    593.9196     13.0516     60.6608
   472.7500      0.0000    560.2913     12.9451     59.5180
   473.0000      0.0000    534.0079     12.8161     58.9111
   473.2500      0.0000    521.3721     12.6232     57.9258
   473.5000      0.0000    523.1909     12.2353     56.0715
   473.7500      0.0000    534.1766     11.4706     53.5896
   474.0000      0.0000    548.1735     10.2360     51.0807
   474.2500      0.0000    564.1241      8.6544     49.0061
   474.5000      0.0000    583.9119      7.0361     47.2917
   474.7500      0.0000    605.7232      5.7002     45.4177
   475.0000      0.0000    624.0428      4.8034     43.2046
   475.2500     -2.0000    635.8278      4.3113     41.3923
   475.5000      2.0000    643.0487      4.0895     41.0396
   475.7500      2.0000    648.4833      4.0145     42.3566
   476.0000      0.0000    651.6088      4.0366     44.3558
   476.2500      0.0000    650.4515      4.1948     45.6623
   476.5000      0.0000    646.1186      4.5966     45.6834
   476.7500      0.0000    642.6976      5.3651     45.0031
   477.0000      0.0000    642.7990      6.5477     44.5578
   477.2500      0.0000    645.5790      8.0268     44.5104
   477.5000      0.0000    649.1110      9.5284     44.2531
   477.7500      0.0000    652.4377     10.7612     43.4456
   478.0000      0.0000    655.2186     11.5680     42.5009
   478.2500      0.0000    657.0075     11.9676     41.8253
   478.5000      0.0000    657.2418     12.0906     41.0874
   478.7500      0.0000    655.4816     12.0922     39.7405
   479.0000      0.0000    651.7732     12.0883     38.0884
   479.2500      0.0000    646.9524     12.1334     37.4144
   479.5000      0.0000    642.4547     12.2331     39.0687
   479.7500      0.0000    639.5236     12.3660     43.7680
   480.0000      0.0000    638.2756     12.4960     51.7480
   480.2500      0.0000    637.7512     12.5851     63.0675
   480.5000      0.0000    637.1633     12.6127     77.2570
   480.7500      0.0000    636.6471     12.5785     92.6048
   481.0000      0.0000    636.4330     12.4870    106.1937
   481.2500      0.0000    636.0961     12.3420    115.1742
   481.5000      0.0000    635.4638     12.1593    118.2545
   481.7500      0.0000    635.7337     11.9727    116.1797
   482.0000      0.0000    638.6974     11.8198    111.1721
   482.2500      0.0000    644.7273     11.7274    105.7554
   482.5000      0.0000    652.0723     11.7083    101.5044
   482.7500      0.0000    658.6049     11.7580     98.7430
   483.0000      0.0000    664.1158     11.8500     97.3402
   483.2500      0.0000    670.1294     11.9342     97.2473
   483.5000      0.0000    677.1312     11.9403     98.2657
   483.7500      0.0000    682.9779     11.8010    100.0693
   484.0000      0.0000    685.0416     11.4962    102.7931
   484.2500      0.0000    683.2468     11.0761    107.1132
   484.5000      0.0000    679.8618     10.6241    113.3793
   484.7500      0.0000    676.7320     10.1942    120.9389
   485.0000      0.0000    673.9489      9.7886    128.4901
   485.2500      0.0000    671.2173      9.3857    134.9580
   485.5000      0.0000    669.3990      8.9770    140.0364
   485.7500      0.0000    669.8325      8.5834    143.9974
   486.0000      0.0000    672.3900      8.2455    146.9999
   486.2500      0.0000    675.2042      7.9981    148.7306
   486.5000      0.0000    676.5234      7.8446    148.8549
   486.7500      0.0000    675.9677      7.7552    147.4077
   487.0000      0.0000    673.7397      7.6918    144.4264
   487.2500      0.0000    669.5620      7.6366    139.8089
   487.5000      0.0000    663.2465      7.5975    134.0932
   487.7500      0.0000    656.2350      7.5946    128.8174
   488.0000      0.0000    651.7101      7.6480    125.4611
   488.2500      0.0000    652.2517      7.7770    124.0387
   488.5000      0.0000    657.4115      7.9926    123.0739
   488.7500      0.0000    664.1578      8.2819    121.3072
   489.0000      0.0000    669.5818      8.6095    119.2820
   489.2500      0.0000    672.6845      8.9425    118.7424
   489.5000      0.0000    674.0108      9.2707    120.6928
   489.7500      0.0000    674.4852      9.6006    124.6614
   490.0000      0.0000    674.7527      9.9411    129.4154
   490.2500      0.0000    675.0724     10.3041    133.5704
   490.5000      0.0000    675.3825     10.7077    135.9095
   490.7500      0.0000    675.4061     11.1740    136.0775
   491.0000      0.0000    674.7851     11.7198    135.0454
   491.2500      0.0000    673.2523     12.3414    134.5033
   491.5000      0.0000    670.6907     12.9972    135.6234
   491.7500      0.0000    666.9555     13.6045    138.1740
   492.0000      0.0000    661.8822     14.0628    140.5725
   492.2500      0.0000    655.8743     14.2962    140.9945
   492.5000      0.0000    650.2740     14.2943    138.8360
   492.7500      0.0000    646.6169     14.1221    135.2376
   493.0000      0.0000    645.7644     13.8882    132.1234
   493.2500      0.0000    647.8480     13.6894    130.7788
   493.5000      0.0000    651.8504     13.5722    131.2776
   493.7500      0.0000    654.4645     13.5300    132.7832
   494.0000      0.0000    650.6565     13.5264    134.1730
   494.2500      0.0000    637.5422     13.5216    134.8752
   494.5000      0.0000    618.9269     13.4847    135.3776
