~Version Information
VERS.                      2.0: CWLS Log ASCII Standard - VERSION 2.0
WRAP.                       NO: One line per depth step
~Well Information Block
STRT.FT               400.0000: 
STOP.FT              2201.0000: 
STEP.FT                 0.1000: 
NULL.                -999.2500: 
COMP.          Evergreen Operating Corporation: COMPANY
WELL.            Triumph 13-10: WELL
FLD.           Purgatorie River: FIELD
LOC.           1551' FSL & 522' FWL: LOCATION
PROV.                 Colorado: PROVINCE
CNTY.               Las Animas: COUNTRY
SRVC.                Patterson: SERVICE COMPANY
DATE.          Mon Jul 26 07:55:18 2004: LOG DATE
UWI.           05 071 08108 00: UNIQUE WELL ID
~Curve Information Block
DEPT.FT            0 000 00 00: Depth
DCAL.in                       : CDL Caliper
RHOB.g/cc                     : CDL Bulk Density
RHOC.g/cc                     : CDL Density Correction
DPOR.pu                       : CDL Density Porosity
NPOR.pu                       : Neutron Porosity
GR.GAPI                       : Gamma Ray
~Parameter Information Block
~A  Depth       DCAL        RHOB        RHOC        DPOR        NPOR         GR     
# ...
  1110.4000      8.2065      2.4156      0.0302     14.2082     17.6442     60.5268
  1110.5000      8.2034      2.4301      0.0458     13.3271     17.7491     58.7485
  1110.6000      8.2034      2.4415      0.0864     12.6360     17.9428     56.9270
  1110.7000      8.2034      2.4320      0.0432     13.2142     18.3084     55.6655
  1110.8000      8.2087      2.4076      0.0602     14.6922     18.6295     51.9594
  1110.9000      8.2087      2.3781      0.0290     16.4796     18.5984     46.2762
  1111.0000      8.2099      2.3590      0.0087     17.6347     18.1649     43.3875
  1111.1000      8.2099      2.3657      0.0281     17.2274     17.7528     45.9081
  1111.2000      8.2099      2.3922      0.0701     15.6224     17.5720     50.0338
  1111.3000      8.2071      2.4163      0.0756     14.1623     17.5313     53.7228
  1111.4000      8.2071      2.4252      0.0487     13.6220     17.7564     59.1616
  1111.5000      8.2125      2.4227      0.0513     13.7730     18.2022     64.0089
  1111.6000      8.2125      2.4174      0.0530     14.0949     18.2952     64.5073
  1111.7000      8.2125      2.4183      0.0371     14.0437     17.9004     62.0309
  1111.8000      8.2066      2.4214      0.0921     13.8573     17.7235     58.6386
  1111.9000      8.2066      2.4140      0.0520     14.3058     18.1958     54.4706
  1112.0000      8.1996      2.4085      0.0010     14.6359     18.9390     51.4900
  1112.1000      8.1996      2.4210      0.0496     13.8770     19.3982     50.9718
  1112.2000      8.1996      2.4379      0.0418     12.8545     19.3246     50.7861
  1112.3000      8.2076      2.4413      0.0705     12.6470     18.8882     49.4530
  1112.4000      8.2076      2.4344      0.0221     13.0665     18.5878     47.4910
  1112.5000      8.2034      2.4311      0.0455     13.2696     18.7028     46.0649
  1112.6000      8.2034      2.4328      0.0435     13.1608     18.9456     45.7006
  1112.7000      8.2034      2.4379      0.0213     12.8559     18.8418     45.6221
  1112.8000      8.1836      2.4506      0.0118     12.0836     18.3800     44.4064
  1112.9000      8.1836      2.4624      0.0754     11.3667     18.0468     43.5679
  1113.0000      8.1842      2.4574      0.0635     11.6747     18.1315     45.9900
  1113.1000      8.1842      2.4458      0.0083     12.3730     18.4732     51.4876
  1113.2000      8.1842      2.4486      0.0083     12.2059     18.8799     58.1062
  1113.3000      8.1813      2.4638      0.0301     11.2875     19.2425     62.3548
  1113.4000      8.1813      2.4808      0.0185     10.2526     19.3801     62.2288
  1113.5000      8.1835      2.4956      0.0665      9.3563     19.3082     60.4548
  1113.6000      8.1835      2.5059      0.0612      8.7316     19.1307     60.5737
  1113.7000      8.1835      2.5133      0.0416      8.2819     18.7994     61.0758
  1113.8000      8.1828      2.5186      0.0466      7.9616     18.2055     59.2679
  1113.9000      8.1828      2.5111      0.0624      8.4175     17.7294     57.2889
  1114.0000      8.1821      2.4796      0.0598     10.3261     17.8340     58.7792
  1114.1000      8.1821      2.4343     -0.0137     13.0722     18.2257     62.2346
  1114.2000      8.1821      2.4004      0.0023     15.1302     18.7581     62.4818
  1114.3000      8.1842      2.3994     -0.0141     15.1885     19.4353     59.3018
  1114.4000      8.1842      2.4311      0.0273     13.2659     19.6103     56.2117
  1114.5000      8.1811      2.4595      0.0850     11.5461     19.2940     54.1461
  1114.6000      8.1811      2.4576      0.0027     11.6581     19.3484     53.2264
  1114.7000      8.1811      2.4424      0.0203     12.5803     19.7088     54.2853
  1114.8000      8.1902      2.4328      0.0221     13.1645     19.6440     55.1752
  1114.9000      8.1902      2.4301      0.0188     13.3274     19.3728     53.2786
  1115.0000      8.1931      2.4293      0.0340     13.3738     19.3643     50.7410
  1115.1000      8.1931      2.4219      0.0351     13.8217     19.4935     51.1691
  1115.2000      8.1931      2.4027      0.0318     14.9866     19.6512     54.9610
  1115.3000      8.1914      2.3826     -0.0073     16.2053     20.0177     57.9897
  1115.4000      8.1914      2.3786     -0.0111     16.4512     20.7220     57.6343
  1115.5000      8.1921      2.3907     -0.0016     15.7131     21.2323     57.5608
  1115.6000      8.1921      2.4084      0.0329     14.6419     20.6649     58.9694
  1115.7000      8.1921      2.4266      0.0396     13.5395     19.4183     58.1809
  1115.8000      8.2062      2.4445      0.0623     12.4529     18.8198     54.4637
  1115.9000      8.2062      2.4561      0.0681     11.7486     19.0174     52.7536
  1116.0000      8.2080      2.4590      0.0877     11.5742     19.2719     56.7875
  1116.1000      8.2080      2.4605      0.1113     11.4831     19.0705     63.6560
  1116.2000      8.2080      2.4619      0.1897     11.4001     18.5305     68.3628
  1116.3000      8.2068      2.4621      0.0988     11.3851     18.0914     71.2348
  1116.4000      8.2068      2.4697      0.0625     10.9298     17.6808     74.3665
  1116.5000      8.2026      2.4825      0.0825     10.1538     17.2200     73.7751
  1116.6000      8.2026      2.4926      0.0359      9.5371     17.0447     66.7717
  1116.7000      8.2026      2.5021      0.0638      8.9611     17.0917     58.6543
  1116.8000      8.1874      2.5061      0.0705      8.7236     16.9787     54.9604
  1116.9000      8.1874      2.4977      0.0340      9.2301     16.7843     55.6820
  1117.0000      8.1941      2.4863      0.0042      9.9229     16.6446     57.2669
  1117.1000      8.1941      2.4868      0.0015      9.8895     16.4444     57.0672
  1117.2000      8.1941      2.5010      0.0378      9.0303     16.3456     55.9207
  1117.3000      8.1963      2.5176      0.0482      8.0268     16.5753     55.7605
  1117.4000      8.1963      2.5265      0.0704      7.4824     16.8308     55.7743
  1117.5000      8.1839      2.5243      0.0640      7.6209     16.7722     52.6482
  1117.6000      8.1839      2.5148      0.0444      8.1927     16.8790     47.8773
  1117.7000      8.1839      2.5022      0.0082      8.9568     17.6123     45.9476
  1117.8000      8.1854      2.4846      0.0188     10.0240     18.4174     47.3722
  1117.9000      8.1854      2.4717     -0.0290     10.8037     18.4029     51.0711
  1118.0000      8.1822      2.4716      0.0244     10.8116     17.9544     55.6409
  1118.1000      8.1822      2.4683      0.0144     11.0093     18.1151     57.9248
  1118.2000      8.1822      2.4564      0.0162     11.7347     18.7540     57.8821
  1118.3000      8.1828      2.4515      0.0106     12.0319     19.0953     59.5511
  1118.4000      8.1828      2.4580      0.0586     11.6385     19.2613     63.8706
  1118.5000      8.1808      2.4635      0.0277     11.3031     19.6407     67.0281
  1118.6000      8.1808      2.4667      0.0073     11.1075     19.8877     67.7769
  1118.7000      8.1808      2.4766      0.0173     10.5114     19.8031     72.1144
  1118.8000      8.1608      2.4911      0.0667      9.6288     19.9059     82.9707
  1118.9000      8.1608      2.5046      0.0653      8.8146     20.3725     91.9440
  1119.0000      8.1775      2.5299      0.0369      7.2771     20.8156     92.0084
  1119.1000      8.1775      2.5841      0.1110      3.9927     21.0969     87.5736
  1119.2000      8.1775      2.6513      0.1342     -0.0789     21.1000     84.1955
  1119.3000      8.1866      2.6974      0.1289     -2.8738     20.7235     81.0779
  1119.4000      8.1866      2.7011      0.1554     -3.0968     20.2582     75.7446
  1119.5000      8.1880      2.6705      0.0454     -1.2419     19.9742     67.2876
  1119.6000      8.1880      2.6412      0.0020      0.5342     20.0574     58.6968
  1119.7000      8.1880      2.6307     -0.0176      1.1669     20.3127     54.6491
  1119.8000      8.1966      2.6251      0.0071      1.5079     20.2433     54.4634
  1119.9000      8.1966      2.6087      0.0245      2.5034     19.8640     53.7160
