~Version Information
VERS.                      2.0: CWLS Log ASCII Standard - VERSION 2.0
WRAP.                       NO: One line per depth step
~Well Information Block
STRT.FT                -4.5000: 
STOP.FT              1680.2500: 
STEP.FT                 0.2500: 
NULL.                -999.2500: 
COMP.          Pioneer Natural Resources: COMPANY
WELL.            Salty 42-6 Tr: WELL
FLD.           Purgatorie River: FIELD
LOC.           2409' FNL & 599' FEL--: LOCATION
PROV.                       CO: PROVINCE
CNTY.               Las Animas: COUNTRY
SRVC.                         : SERVICE COMPANY
DATE.          Mon Dec 20 13:36:48 2004: LOG DATE
UWI.           071-08238      : UNIQUE WELL ID
~Curve Information Block
DEPT.FT            0 000 00 00: Depth
HVOLTA.V                      : Head Voltage Apparent
GR.GAPI                       : Gamma Ray
CCL.                          : Casing Collar Locator
TT3.usec                      : CBL 3' Travel Time
AMP3.mV                       : CBL 3' Amplitude
~Parameter Information Block
~A  Depth      HVOLTA        GR         CCL         TT3         AMP3    
# ...
  1311.5000     97.2636    121.2673      0.0000    823.2252      6.3370
  1311.7500     97.2875    119.3642      0.0000    817.0720      6.3760
  1312.0000     97.0343    119.1749      0.0000    812.3914      6.4230
  1312.2500     97.2636    122.8785      0.0000    808.2671      6.4470
  1312.5000     97.2326    130.9355      0.0000    802.2909      6.4187
  1312.7500     97.1812    141.4195      0.0000    791.6493      6.3263
  1313.0000     97.0247    151.2214      0.0000    774.7862      6.1864
  1313.2500     97.1848    158.1420      0.0000    752.5546      6.0388
  1313.5000     97.0450    161.5146      0.0000    727.9390      5.9270
  1313.7500     97.1716    161.2100      0.0000    705.0334      5.8768
  1314.0000     97.2469    157.1428      0.0000    687.7842      5.8851
  1314.2500     97.2087    150.0697      0.0000    678.4792      5.9218
  1314.5000     97.1812    141.9113      0.0000    676.6674      5.9469
  1314.7500     96.9483    134.4987      0.0000    679.3282      5.9288
  1315.0000     97.2183    128.3511      0.0000    682.3486      5.8538
  1315.2500     97.2589    123.2068      0.0000    682.9645      5.7218
  1315.5000     97.2875    119.4450      0.0000    681.8635      5.5414
  1315.7500     97.3007    118.3130      0.0000    682.9883      5.3309
  1316.0000     97.2194    120.8054      0.0000    690.6884      5.1236
  1316.2500     97.2433    126.7793      0.0000    706.3676      4.9627
  1316.5000     97.2397    135.1821      0.0000    727.5396      4.8773
  1316.7500     97.2433    144.7441      0.0000    750.0482      4.8566
  1317.0000     97.1537    154.1694      0.0000    770.7372      4.8647
  1317.2500     97.1167    161.8680      0.0000    787.5650      4.8936
  1317.5000     97.2326    166.1256      0.0000    799.0371      4.9769
  1317.7500     97.1609    166.1576      0.0000    806.1492      5.1303
  1318.0000     97.0928    163.1241      0.0000    813.7717      5.3089
  1318.2500     97.1848    159.8051     -2.0000    826.4990      5.4461
  1318.5000     97.2015    158.9112     -2.0000    842.8915      5.5108
  1318.7500     97.2147    161.3421      0.0000    856.4658      5.5180
  1319.0000     97.0343    165.6816      0.0000    862.2797      5.5060
  1319.2500     97.1131    169.4653      0.0000    859.8540      5.5094
  1319.5000     97.3759    171.1646      0.0000    849.9448      5.5292
  1319.7500     97.3449    170.8555      0.0000    832.3055      5.5253
  1320.0000     97.1669    169.4521      0.0000    807.7011      5.4634
  1320.2500     97.1263    168.3339      0.0000    778.8239      5.3723
  1320.5000     97.1669    169.4639      0.0000    747.9202      5.3261
  1320.7500     96.9829    174.2936      0.0000    716.0214      5.3691
  1321.0000     97.2768    181.9380      0.0000    685.1344      5.4805
  1321.2500     97.2732    189.3890      0.0000    658.6954      5.6027
  1321.5000     96.9793    193.8469      0.0000    639.1025      5.6840
  1321.7500     97.2815    194.2030      0.0000    626.3118      5.7004
  1322.0000     96.9890    190.8840      0.0000    619.1127      5.6600
  1322.2500     97.3578    185.6825      0.0000    616.3153      5.5890
  1322.5000     96.6168    181.3832      0.0000    616.2457      5.5102
  1322.7500     96.8923    180.0739      0.0000    616.1948      5.4367
  1323.0000     97.1477    181.6121      0.0000    613.7883      5.3810
  1323.2500     97.0703    184.2032      0.0000    609.1682      5.3581
  1323.5000     97.2708    185.9957      0.0000    604.9445      5.3757
  1323.7500     97.2386    185.8551      0.0000    603.7351      5.4242
  1324.0000     97.3413    183.5969      0.0000    606.6000      5.4811
  1324.2500     97.0928    180.3223      0.0000    613.7385      5.5252
  1324.5000     97.1502    178.1123      0.0000    625.1512      5.5548
  1324.7500     97.1537    178.7986      0.0000    640.2834      5.5950
  1325.0000     97.2254    182.8058      0.0000    657.9233      5.6790
  1325.2500     97.1502    188.8450      0.0000    676.3142      5.8184
  1325.5000     97.1537    194.4182      0.0000    692.8336      5.9896
  1325.7500     97.1466    197.0307      0.0000    704.4899      6.1566
  1326.0000     97.1060    195.6116      0.0000    709.7281      6.3036
  1326.2500     97.1908    190.8920      0.0000    709.4947      6.4402
  1326.5000     97.3963    184.4010      0.0000    706.3873      6.5716
  1326.7500     97.3521    177.3412      0.0000    703.2413      6.6731
  1327.0000     97.1024    170.2986      0.0000    702.3522      6.7062
  1327.2500     97.1609    163.2117      0.0000    704.8649      6.6625
  1327.5000     97.2051    155.4385      0.0000    710.1075      6.5797
  1327.7500     97.0952    146.7762      0.0000    715.4583      6.5070
  1328.0000     97.1776    138.8188      0.0000    717.3255      6.4600
  1328.2500     97.3282    134.5158      0.0000    713.2526      6.4198
  1328.5000     97.2326    135.6719      0.0000    703.9728      6.3698
  1328.7500     97.0821    141.0531      0.0000    693.2991      6.3196
  1329.0000     97.1406    147.5176      0.0000    685.4061      6.2845
  1329.2500     97.0247    153.2377      0.0000    682.0905      6.2543
  1329.5000     97.1884    159.2899      0.0000    682.7149      6.2000
  1329.7500     97.2350    167.4158      0.0000    686.0648      6.1111
  1330.0000     97.2254    176.5269      0.0000    691.3372      6.0111
  1330.2500     96.9651    182.6671      0.0000    697.7898      5.9340
  1330.5000     97.0439    182.9399      0.0000    704.7949      5.8976
  1330.7500     97.3652    178.6642      0.0000    712.2394      5.8992
  1331.0000     97.2386    174.1501      0.0000    719.5671      5.9195
  1331.2500     97.0678    172.8803      0.0000    724.6477      5.9306
  1331.5000     97.0104    175.1664      0.0000    725.2180      5.9140
  1331.7500     97.1370    178.7807      0.0000    721.6779      5.8757
  1332.0000     97.0821    181.1729      0.0000    717.2463      5.8359
  1332.2500     97.1812    181.4276      0.0000    715.0613      5.8096
  1332.5000     97.1060    180.7606      0.0000    716.0281      5.8013
  1332.7500     97.2458    181.2867      0.0000    719.3970      5.8058
  1333.0000     97.1359    184.0039      0.0000    724.0438      5.8079
  1333.2500     97.2529    187.5743      0.0000    728.8279      5.7913
  1333.5000     97.2732    188.9753      0.0000    732.8529      5.7519
  1333.7500     97.2158    185.8786      0.0000    735.8439      5.6968
  1334.0000     97.2864    178.7303      0.0000    737.6837      5.6313
  1334.2500     97.0271    170.2808      0.0000    737.6334      5.5580
  1334.5000     97.2326    163.1578      0.0000    734.7880      5.4906
  1334.7500     97.1837    158.2560      0.0000    729.3371      5.4565
  1335.0000     97.1502    155.1782      0.0000    722.5702      5.4776
  1335.2500     96.9961    153.4532      0.0000    715.4207      5.5487
  1335.5000     97.2183    152.8222      0.0000    707.7925      5.6391
  1335.7500     97.1573    152.5512      0.0000    699.7072      5.7182
  1336.0000     97.1609    151.2518      0.0000    692.3633      5.7768
  1336.2500     97.2661    148.1042      0.0000    687.4431      5.8117
  1336.5000     97.3078    143.9627      0.0000    685.7061      5.7924
  1336.7500     97.2697    140.4766      0.0000    686.6465      5.6637
  1337.0000     97.0845    138.1429      0.0000    689.3929      5.3943
  1337.2500     97.0104    135.9235      0.0000    693.7196      5.0251
  1337.5000     97.1812    132.6850      0.0000    700.0242      4.6608
  1337.7500     96.9519    128.3732      0.0000    708.4751      4.4041
  1338.0000     97.1370    123.8438      0.0000    718.6134      4.2838
  1338.2500     97.3210    120.1512      0.0000    729.6336      4.2520
  1338.5000     97.1334    117.8723      0.0000    740.3981      4.2662
  1338.7500     97.1741    116.5846      0.0000    749.6537      4.3607
  1339.0000     97.1776    115.1876      0.0000    756.9925      4.6044
  1339.2500     97.0689    113.1334      0.0000    762.9565      4.9908
