~Version Information
VERS.                      2.0: CWLS Log ASCII Standard - VERSION 2.0
WRAP.                       NO: One line per depth step
~Well Information Block
STRT.FT               823.7000: 
STOP.FT              2444.0000: 
STEP.FT                 0.1000: 
NULL.                -999.2500: 
COMP.          Petrogulf Corporation: COMPANY
WELL.            Kraft 17-23 V: WELL
FLD.           Purgatorie River: FIELD
LOC.           1500' FSL & 1773' FWL: LOCATION
CNTY.               Las Animas: COUNTY
SRVC.                         : SERVICE COMPANY
DATE.          Thu Nov 20 07:09:00 2003: LOG DATE
UWI.                          : UNIQUE WELL ID
STAT.                 Colorado: STATE
~Curve Information Block
DEPT.FT            0 000 00 00: Depth
DCAL.in                       : CDL Caliper
RHOB.g/cc                     : CDL Bulk Density
RHOC.g/cc                     : CDL Density Correction
DPOR.pu                       : CDL Density Porosity
GR.GAPI                       : Gamma Ray
NPOR.pu                       : Neutron Porosity
~Parameter Information Block
~A  Depth       DCAL        RHOB        RHOC        DPOR         GR         NPOR    
# ...
  1687.7000      8.1887      2.5066      0.0868      8.6909     87.8061     19.8548
  1687.8000      8.2924      2.5223      0.0877      7.7385     93.7098     19.6740
  1687.9000      8.2924      2.5347      0.0950      6.9853     95.3086     19.2721
  1688.0000      8.2287      2.5514      0.1916      5.9747     89.0701     19.1551
  1688.1000      8.2287      2.5550      0.1302      5.7582     81.2734     18.8913
  1688.2000      8.2287      2.5459      0.0807      6.3065     79.9717     17.8952
  1688.3000      8.1563      2.5445      0.0952      6.3915     81.7498     16.5718
  1688.4000      8.1563      2.5570      0.0819      5.6358     78.9989     15.6521
  1688.5000      8.1787      2.5675      0.1280      4.9995     73.6466     15.6479
  1688.6000      8.1787      2.5535      0.0987      5.8496     69.8144     16.5592
  1688.7000      8.1787      2.5198      0.0756      7.8910     68.2248     17.7937
  1688.8000      8.1770      2.4931      0.0391      9.5095     66.1579     18.8423
  1688.9000      8.1770      2.4901      0.0392      9.6903     61.7845     19.1855
  1689.0000      8.1468      2.5144      0.0435      8.2176     59.9160     18.3938
  1689.1000      8.1468      2.5472      0.1844      6.2273     63.3507     17.3102
  1689.2000      8.1468      2.5555      0.1182      5.7269     66.5615     17.2537
  1689.3000      8.1454      2.5374      0.1198      6.8249     66.4438     18.1503
  1689.4000      8.1454      2.5241      0.0391      7.6300     67.3190     19.0393
  1689.5000      8.1080      2.5326      0.1237      7.1159     70.7611     19.1529
  1689.6000      8.1080      2.5485      0.0835      6.1497     73.5879     18.0142
  1689.7000      8.1080      2.5609      0.0566      5.3987     74.7185     16.3630
  1689.8000      8.0671      2.5642      0.0819      5.2016     76.6987     15.8793
  1689.9000      8.0671      2.5484      0.1018      6.1589     80.4336     17.0035
  1690.0000      8.1027      2.5231      0.0599      7.6917     81.4196     18.6053
  1690.1000      8.1027      2.5131     -0.0067      8.2973     76.2381     19.6763
  1690.2000      8.1027      2.5159      0.0415      8.1266     69.3749     20.1597
  1690.3000      8.1577      2.4990      0.0379      9.1540     67.2713     20.2333
  1690.4000      8.1577      2.4540     -0.0171     11.8789     68.5057     19.6843
  1690.5000      8.1674      2.4204     -0.0723     13.9165     69.0905     18.1942
  1690.6000      8.1674      2.4291     -0.0353     13.3849     69.6491     16.3807
  1690.7000      8.1674      2.4598      0.0433     11.5245     70.4861     15.1688
  1690.8000      8.1456      2.4828      0.0211     10.1331     72.2003     14.7258
  1690.9000      8.1456      2.5080     -0.0221      8.6074     73.7723     14.8674
  1691.0000      8.1572      2.5475      0.1058      6.2133     71.7033     15.3428
  1691.1000      8.1572      2.5751      0.1159      4.5372     68.6075     15.8058
  1691.2000      8.1572      2.5699      0.0911      4.8566     68.9809     15.8960
  1691.3000      8.1966      2.5410      0.0652      6.6040     68.7346     15.7341
  1691.4000      8.1966      2.5122     -0.0131      8.3495     65.6374     15.9423
  1691.5000      8.1851      2.5057     -0.0064      8.7480     66.2047     16.5214
  1691.6000      8.1851      2.5136      0.0660      8.2673     70.7349     16.8183
  1691.7000      8.1851      2.5130      0.0269      8.3020     72.6748     16.8268
  1691.8000      8.1688      2.5116      0.0004      8.3907     69.8966     16.9444
  1691.9000      8.1688      2.5171      0.0932      8.0543     65.7677     17.0360
  1692.0000      8.1850      2.5174      0.0156      8.0372     62.6707     16.5026
  1692.1000      8.1850      2.5270     -0.0238      7.4562     60.6018     15.3706
  1692.2000      8.1850      2.5555      0.1041      5.7280     59.9037     14.3482
  1692.3000      8.1848      2.5678      0.0749      4.9797     61.1991     13.8748
  1692.4000      8.1848      2.5511      0.0088      5.9954     63.5551     13.8578
  1692.5000      8.1443      2.5286      0.0137      7.3592     64.6978     13.8116
  1692.6000      8.1443      2.5117     -0.0135      8.3821     64.9046     13.4544
  1692.7000      8.1443      2.5124     -0.0590      8.3385     66.1424     12.9112
  1692.8000      8.1325      2.5421      0.0284      6.5409     67.0190     12.4314
  1692.9000      8.1325      2.5757      0.0887      4.5053     65.5473     12.2339
  1693.0000      8.1504      2.5712      0.1551      4.7748     63.2991     12.2770
  1693.1000      8.1504      2.5236      0.0324      7.6580     60.5204     12.3830
  1693.2000      8.1504      2.4755     -0.0138     10.5780     57.0666     12.9787
  1693.3000      8.1560      2.4661     -0.0118     11.1452     56.8590     14.6062
  1693.4000      8.1560      2.4947      0.0251      9.4110     60.8144     16.6363
  1693.5000      8.1264      2.5269      0.0604      7.4624     65.5308     17.8492
  1693.6000      8.1264      2.5306      0.0381      7.2392     67.3089     18.0302
  1693.7000      8.1264      2.5194     -0.0084      7.9127     63.3392     17.7105
  1693.8000      8.1032      2.5256      0.0105      7.5386     56.4409     17.2009
  1693.9000      8.1032      2.5369      0.0901      6.8516     52.1434     16.5092
  1694.0000      8.1366      2.5185      0.0656      7.9673     50.2847     15.7051
  1694.1000      8.1366      2.4735      0.0246     10.6940     48.4018     14.8613
  1694.2000      8.1366      2.4449     -0.0608     12.4294     49.5822     14.0797
  1694.3000      8.1559      2.4680      0.0080     11.0316     56.5707     13.5567
  1694.4000      8.1559      2.5257      0.0633      7.5332     63.3244     13.3681
  1694.5000      8.1310      2.5666      0.1558      5.0574     63.4512     13.6021
  1694.6000      8.1310      2.5698      0.1171      4.8619     59.2248     13.9283
  1694.7000      8.1310      2.5654      0.0349      5.1248     54.2706     13.6202
  1694.8000      8.0915      2.5788      0.1136      4.3156     48.9027     13.0757
  1694.9000      8.0915      2.6025      0.1094      2.8769     45.9169     13.0649
  1695.0000      8.0551      2.6316      0.1187      1.1170     47.1284     12.8204
  1695.1000      8.0551      2.6586      0.1558     -0.5226     49.1050     11.4288
  1695.2000      8.0551      2.6621      0.1620     -0.7322     47.4842      9.7511
  1695.3000      8.0453      2.6393      0.0550      0.6461     43.8073      8.8173
  1695.4000      8.0453      2.6084      0.1106      2.5208     44.2196      8.8113
  1695.5000      8.0884      2.5847      0.0519      3.9561     51.0297      9.5929
  1695.6000      8.0884      2.5785      0.0543      4.3330     59.6652     10.8015
  1695.7000      8.0884      2.5792      0.0907      4.2912     64.9520     11.8007
  1695.8000      8.1252      2.5728      0.0570      4.6810     65.9243     12.0803
  1695.9000      8.1252      2.5634      0.0304      5.2462     63.1585     11.8394
  1696.0000      8.1452      2.5434      0.0746      6.4583     58.9821     11.6313
  1696.1000      8.1452      2.5080      0.0406      8.6037     58.0567     11.6856
  1696.2000      8.1452      2.4886     -0.0449      9.7832     60.1674     11.9827
  1696.3000      8.1779      2.5018      0.0187      8.9813     63.7154     12.6703
  1696.4000      8.1779      2.5141      0.0412      8.2377     67.4055     13.5312
  1696.5000      8.1889      2.5038     -0.0190      8.8616     66.3488     14.1763
  1696.6000      8.1889      2.4944      0.0110      9.4330     61.9284     14.6876
  1696.7000      8.1889      2.5039      0.0193      8.8572     58.6312     15.2485
  1696.8000      8.1576      2.5219      0.0903      7.7656     54.6322     15.8058
  1696.9000      8.1576      2.5392      0.1226      6.7181     51.1922     15.9021
  1697.0000      8.1117      2.5617      0.1225      5.3485     54.0501     15.5090
  1697.1000      8.1117      2.5797      0.1749      4.2607     60.9481     15.2898
  1697.2000      8.1117      2.5707      0.1529      4.8031     64.5962     15.5019
