~Version Information
VERS.                      2.0: CWLS Log ASCII Standard - VERSION 2.0
WRAP.                       NO: One line per depth step
~Well Information Block
STRT.FT               250.0000: 
STOP.FT              1017.5000: 
STEP.FT                 0.1000: 
NULL.                -999.2500: 
COMP.          Pioneer Natural Resources: COMPANY
WELL.              Oscar 41-31: WELL
FLD.           Purgatoire River: FIELD
LOC.           412' FNL & 1216' FEL: LOCATION
PROV.                 Colorado: PROVINCE
CNTY.               Las Animas: COUNTRY
SRVC.                Patterson: SERVICE COMPANY
DATE.          Thu Feb 24 15:11:09 2005: LOG DATE
UWI.           05 071 08290 00: UNIQUE WELL ID
~Curve Information Block
DEPT.FT            0 000 00 00: Depth
DCAL.in                       : CDL Caliper
RHOB.g/cc                     : CDL Bulk Density
RHOC.g/cc                     : CDL Density Correction
DPOR.pu                       : CDL Density Porosity
GR.GAPI                       : Gamma Ray
NPOR.pu                       : Neutron Porosity
~Parameter Information Block
~A  Depth       DCAL        RHOB        RHOC        DPOR         GR         NPOR    
# ...
   701.2000      7.8809      2.4580      0.1220     11.6377    133.7949     21.6224
   701.3000      7.8801      2.4240      0.1094     13.6981    132.0785     22.4812
   701.4000      7.8801      2.3974      0.0860     15.3091    124.6249     23.1556
   701.5000      7.8806      2.3872      0.0993     15.9260    123.1060     23.6126
   701.6000      7.8806      2.3788      0.1244     16.4340    129.3400     24.3001
   701.7000      7.8806      2.3618      0.1109     17.4693    130.4063     24.9267
   701.8000      7.8808      2.3513      0.0758     18.1054    122.6061     25.5510
   701.9000      7.8808      2.3626      0.1130     17.4181    115.3204     26.3108
   702.0000      7.8807      2.3898      0.1269     15.7677    113.0610     26.8717
   702.1000      7.8807      2.4184      0.1219     14.0366    113.1530     27.3294
   702.2000      7.8807      2.4426      0.1158     12.5678    116.4192     28.0482
   702.3000      7.8810      2.4705      0.0852     10.8760    121.5889     28.3672
   702.4000      7.8810      2.5074      0.1334      8.6431    121.9961     27.2768
   702.5000      7.8811      2.5417      0.1399      6.5658    118.4619     25.7723
   702.6000      7.8811      2.5577      0.1460      5.5923    120.3113     25.2732
   702.7000      7.8811      2.5493      0.1446      6.1046    126.9680     25.5716
   702.8000      7.8802      2.5263      0.0965      7.4967    128.9380     25.9499
   702.9000      7.8802      2.5114      0.0997      8.4030    127.5579     26.1470
   703.0000      7.8792      2.5156      0.1050      8.1446    131.8248     26.3243
   703.1000      7.8792      2.5287      0.1193      7.3532    138.5702     26.6719
   703.2000      7.8792      2.5390      0.0762      6.7250    138.6987     26.8822
   703.3000      7.8772      2.5469      0.0630      6.2456    132.8445     26.6139
   703.4000      7.8772      2.5516      0.1251      5.9633    127.4386     26.2995
   703.5000      7.8739      2.5448      0.1454      6.3757    124.9625     26.0384
   703.6000      7.8739      2.5256      0.1031      7.5375    124.2408     25.5747
   703.7000      7.8739      2.5123      0.0632      8.3459    123.1296     25.5436
   703.8000      7.8735      2.5227      0.0945      7.7156    119.9254     26.2320
   703.9000      7.8735      2.5482      0.1005      6.1686    115.1260     26.6795
   704.0000      7.8770      2.5622      0.0970      5.3208    110.6472     26.3316
   704.1000      7.8770      2.5516      0.0820      5.9646    110.1766     25.8223
   704.2000      7.8770      2.5313      0.0383      7.1965    115.5256     25.4827
   704.3000      7.8796      2.5122      0.0834      8.3489    122.5660     25.4816
   704.4000      7.8796      2.4887      0.0805      9.7752    125.4963     25.8557
   704.5000      7.8799      2.4662      0.0189     11.1376    123.3427     25.9152
   704.6000      7.8799      2.4567      0.0303     11.7140    121.9297     25.7153
   704.7000      7.8799      2.4574      0.0099     11.6731    124.8541     25.6166
   704.8000      7.8800      2.4571      0.0412     11.6906    127.9547     25.2463
   704.9000      7.8800      2.4528      0.0067     11.9543    126.9779     25.0653
   705.0000      7.8796      2.4527      0.0695     11.9546    124.0453     25.7292
   705.1000      7.8796      2.4599      0.0761     11.5238    124.3665     26.4627
   705.2000      7.8796      2.4655      0.0821     11.1801    127.7255     26.2522
   705.3000      7.8818      2.4624      0.0732     11.3702    129.4884     25.0817
   705.4000      7.8818      2.4505      0.0845     12.0904    128.8749     23.4701
   705.5000      7.8910      2.4330      0.0828     13.1507    128.3049     22.1569
   705.6000      7.8910      2.4140      0.0728     14.3052    126.5150     21.7438
   705.7000      7.8910      2.3991      0.0847     15.2078    123.3400     21.9535
   705.8000      7.9016      2.3974      0.0889     15.3084    124.1784     22.2676
   705.9000      7.9016      2.4141      0.1078     14.2951    128.9161     22.6283
   706.0000      7.9097      2.4403      0.1277     12.7099    131.6486     23.0215
   706.1000      7.9097      2.4669      0.1275     11.0965    130.5851     23.0038
   706.2000      7.9097      2.4981      0.1713      9.2082    128.7163     22.2605
   706.3000      7.9140      2.5307      0.2681      7.2323    129.1060     21.4800
   706.4000      7.9140      2.5476      0.2508      6.2070    131.2787     21.5489
   706.5000      7.9113      2.5415      0.2206      6.5728    133.8012     22.0864
   706.6000      7.9113      2.5182      0.2406      7.9859    134.6572     21.9807
   706.7000      7.9113      2.4872      0.1973      9.8650    132.4884     21.2201
   706.8000      7.9080      2.4547      0.1659     11.8363    130.1558     20.6885
   706.9000      7.9080      2.4175      0.1310     14.0937    131.0864     20.3978
   707.0000      7.9074      2.3808      0.0926     16.3178    132.8995     19.4045
   707.1000      7.9074      2.3566      0.1028     17.7835    131.8305     17.9271
   707.2000      7.9074      2.3385      0.1095     18.8789    129.2959     17.4209
   707.3000      7.9075      2.3126      0.1143     20.4500    125.2888     18.3495
   707.4000      7.9075      2.2863      0.0940     22.0406    118.1618     19.9692
   707.5000      7.9076      2.2775      0.1271     22.5775    112.8308     21.0869
   707.6000      7.9076      2.2772      0.2240     22.5934    112.8793     21.3833
   707.7000      7.9076      2.2618      0.1942     23.5243    115.2761     21.5256
   707.8000      7.9075      2.2387      0.0999     24.9287    117.8628     22.2449
   707.9000      7.9075      2.2311      0.2307     25.3889    121.2926     23.7426
   708.0000      7.9073      2.2397      0.1927     24.8680    125.1785     25.4430
   708.1000      7.9073      2.2630      0.1504     23.4520    126.6154     26.6355
   708.2000      7.9073      2.3059      0.2412     20.8561    126.7849     27.6131
   708.3000      7.9068      2.3603      0.2413     17.5559    128.6032     28.6934
   708.4000      7.9068      2.4111      0.1716     14.4812    131.2853     29.1992
   708.5000      7.9061      2.4480      0.1346     12.2445    133.3103     28.9064
   708.6000      7.9061      2.4703      0.1415     10.8912    134.1021     28.4539
   708.7000      7.9061      2.4794      0.1130     10.3402    135.2047     28.0868
   708.8000      7.9051      2.4767      0.0955     10.5051    135.7399     27.4622
   708.9000      7.9051      2.4684      0.1099     11.0065    133.3266     26.7231
   709.0000      7.9066      2.4669      0.0692     11.0943    131.5918     26.5513
   709.1000      7.9066      2.4742      0.1437     10.6547    134.7055     26.8703
   709.2000      7.9066      2.4678      0.1520     11.0450    138.8861     26.5584
   709.3000      7.9164      2.4382      0.0487     12.8381    138.6157     24.9738
   709.4000      7.9164      2.4131      0.0417     14.3599    135.7408     23.3416
   709.5000      7.9317      2.4089      0.1250     14.6147    135.1032     23.0106
   709.6000      7.9317      2.4082      0.1164     14.6574    136.9376     23.6637
   709.7000      7.9317      2.4052      0.0733     14.8349    138.6128     23.6505
   709.8000      7.9404      2.4179      0.0480     14.0660    140.3016     22.2752
   709.9000      7.9404      2.4477      0.1274     12.2593    143.4293     20.9657
   710.0000      7.9419      2.4699      0.1912     10.9163    145.8654     20.9302
   710.1000      7.9419      2.4794      0.1568     10.3419    143.8804     21.9853
   710.2000      7.9419      2.5007      0.2090      9.0455    139.4312     23.0740
   710.3000      7.9423      2.5293      0.2959      7.3166    139.4749     23.2703
   710.4000      7.9423      2.5310      0.1863      7.2130    143.7227     22.7119
   710.5000      7.9421      2.5045      0.1664      8.8156    146.8641     22.3637
   710.6000      7.9421      2.4767      0.0998     10.5043    147.2792     22.6946
   710.7000      7.9421      2.4568      0.1203     11.7069    144.8816     23.1286
