~Version Information
VERS.                      2.0: CWLS Log ASCII Standard - VERSION 2.0
WRAP.                       NO: One line per depth step
~Well Information Block
STRT.FT                -8.2500: 
STOP.FT               871.5000: 
STEP.FT                 0.2500: 
NULL.                -999.2500: 
COMP.          Pioneer Natural Resources: COMPANY
WELL.             Tomcat 32-10: WELL
FLD.           Purgatorie River: FIELD
LOC.           2286' FNL & 2463' FEL------: LOCATION
PROV.                       CO: PROVINCE
CNTY.               Las Animas: COUNTRY
SRVC.          Patterson Wireline: SERVICE COMPANY
DATE.          Mon Mar 28 09:03:25 2005: LOG DATE
UWI.           05 071 08301 00: UNIQUE WELL ID
~Curve Information Block
DEPT.FT            0 000 00 00: Depth
CCL.                          : Casing Collar Locator
TT3.usec                      : CBL 3' Travel Time
AMP3.mV                       : CBL 3' Amplitude
GR.GAPI                       : Gamma Ray
~Parameter Information Block
~A  Depth       CCL         TT3         AMP3         GR     
# ...
   159.2500      0.0000    785.5026      6.8946     84.8764
   159.5000      0.0000    774.8430      6.8753     86.7387
   159.7500      0.0000    767.4908      6.8690     88.3046
   160.0000      0.0000    764.3045      6.8998     87.9216
   160.2500      0.0000    765.2540      6.9715     85.2679
   160.5000      0.0000    769.4236      7.0748     81.9452
   160.7500      0.0000    774.6828      7.2012     80.1111
   161.0000      0.0000    778.6874      7.3455     80.7691
   161.2500      0.0000    780.5803      7.4915     83.4827
   161.5000      0.0000    781.1818      7.5996     87.2132
   161.7500      0.0000    781.2322      7.6245     91.0666
   162.0000      0.0000    779.8812      7.5508     94.5466
   162.2500      0.0000    775.7446      7.4042     97.3908
   162.5000      0.0000    769.9314      7.2235     99.2204
   162.7500      0.0000    767.8271      7.0290     99.4754
   163.0000      0.0000    776.8240      6.8246     97.7690
   163.2500      0.0000    801.0789      6.6193     94.1892
   163.5000      0.0000    837.6870      6.4403     89.3250
   163.7500      0.0000    877.5010      6.3174     84.0867
   164.0000      0.0000    909.6114      6.2551     79.3413
   164.2500      0.0000    926.4428      6.2272     75.7088
   164.5000     -2.0000    926.5729      6.2017     73.6711
   164.7500     -2.0000    913.7371      6.1754     73.3430
   165.0000      0.0000    893.1459      6.1959     73.8814
   165.2500      0.0000    868.3658      6.3495     73.8823
   165.5000      0.0000    841.3911      6.6913     72.9166
   165.7500      0.0000    814.9719      7.1583     72.1824
   166.0000      0.0000    793.3023      7.5772     73.1640
   166.2500      0.0000    779.6063      7.7963     75.8426
   166.5000      0.0000    773.8077      7.8009     78.4243
   166.7500      0.0000    773.1574      7.6882     78.7320
   167.0000      0.0000    774.6202      7.5597     75.9721
   167.2500      0.0000    776.5320      7.4595     71.3969
   167.5000      0.0000    778.5990      7.3844     67.2908
   167.7500      0.0000    780.8419      7.3198     65.1770
   168.0000      0.0000    782.6165      7.2644     65.0135
   168.2500      0.0000    782.7617      7.2303     66.0083
   168.5000      0.0000    780.6668      7.2293     67.7228
   168.7500      0.0000    777.1974      7.2599     70.1480
   169.0000      0.0000    774.5060      7.3093     73.1864
   169.2500      0.0000    774.5358      7.3629     76.6385
   169.5000      0.0000    777.4262      7.4083     80.4834
   169.7500      0.0000    781.5157      7.4364     84.7073
   170.0000      0.0000    784.9103      7.4434     88.8735
   170.2500      0.0000    786.8087      7.4288     92.2001
   170.5000      0.0000    787.4861      7.3886     94.1451
   170.7500      0.0000    787.5562      7.3140     94.9158
   171.0000      0.0000    787.4459      7.1973     95.4091
   171.2500      0.0000    787.2784      7.0368     96.4141
   171.5000      0.0000    786.8913      6.8312     97.6641
   171.7500      0.0000    785.7906      6.5784     97.9211
   172.0000      0.0000    783.1431      6.2853     96.2971
   172.2500      0.0000    778.1477      5.9738     93.2438
   172.5000      0.0000    770.8370      5.6692     89.9706
   172.7500      0.0000    762.5597      5.3838     87.1763
   173.0000      0.0000    755.3198      5.1127     84.6933
   173.2500      0.0000    750.4652      4.8446     82.1484
   173.5000      0.0000    748.1190      4.5759     79.4770
   173.7500      0.0000    747.8022      4.3234     76.8024
   174.0000      0.0000    749.2515      4.1253     74.2615
   174.2500      0.0000    752.5087      4.0253     72.0963
   174.5000      0.0000    757.4374      4.0486     70.6437
   174.7500      0.0000    763.4232      4.1896     70.2247
   175.0000      0.0000    769.4818      4.4210     71.1492
   175.2500      0.0000    774.4780      4.7106     73.5751
   175.5000      0.0000    777.5660      5.0298     77.1495
   175.7500      0.0000    778.9318      5.3546     80.9855
   176.0000      0.0000    779.8717      5.6700     84.2646
   176.2500      0.0000    781.5526      5.9767     86.8140
   176.5000      0.0000    783.7775      6.2886     88.8697
   176.7500      0.0000    785.1734      6.6207     90.2733
   177.0000      0.0000    784.2322      6.9800     90.2815
   177.2500      0.0000    780.1058      7.3614     88.4346
   177.5000      0.0000    773.0902      7.7418     85.4321
   177.7500      0.0000    764.8315      8.0800     82.9242
   178.0000      0.0000    757.7433      8.3373     82.4847
   178.2500      0.0000    753.9908      8.5042     84.8301
   178.5000      0.0000    755.1622      8.6017     89.6946
   178.7500      0.0000    762.8369      8.6561     95.9257
   179.0000      0.0000    778.6721      8.6804    101.6333
   179.2500      0.0000    802.9087      8.6788    104.9680
   179.5000      0.0000    831.9984      8.6553    105.5816
   179.7500      0.0000    857.9749      8.6120    105.2570
   180.0000      0.0000    871.9755      8.5459    106.3517
   180.2500      0.0000    870.4705      8.4535    109.3367
   180.5000      0.0000    858.3094      8.3366    112.3308
   180.7500      0.0000    844.6465      8.2055    113.2140
   181.0000      0.0000    835.8049      8.0786    111.7808
   181.2500      0.0000    832.3936      7.9752    109.5836
   181.5000      0.0000    831.5253      7.9029    108.0688
   181.7500      0.0000    829.5575      7.8538    107.2762
   182.0000      0.0000    823.6977      7.8160    106.1659
   182.2500      0.0000    814.0066      7.7872    103.7833
   182.5000      0.0000    804.3087      7.7763    100.0873
   182.7500      0.0000    799.1664      7.7908     95.9164
   183.0000      0.0000    799.3082      7.8252     92.2474
   183.2500      0.0000    801.2295      7.8644     89.5794
   183.5000      0.0000    801.1674      7.9000     88.1613
   183.7500      0.0000    797.9749      7.9398     88.5444
   184.0000      0.0000    792.6370      8.0012     91.4263
   184.2500      0.0000    787.1047      8.0941     96.7707
   184.5000      0.0000    783.6624      8.2105    103.2008
   184.7500      0.0000    783.6514      8.3293    108.4641
   185.0000      0.0000    786.0779      8.4276    110.8241
   185.2500      0.0000    787.8210      8.4891    110.2585
   185.5000      0.0000    785.8297      8.5032    108.2226
   185.7500      0.0000    779.9612      8.4665    106.0229
   186.0000      0.0000    773.5983      8.3894    103.4953
   186.2500      0.0000    770.7090      8.2953     99.5052
   186.5000      0.0000    772.4346      8.2098     93.6217
   186.7500      0.0000    777.0828      8.1485     86.8980
   187.0000      0.0000    782.9108      8.1158     80.9584
   187.2500      0.0000    790.1458      8.1058     76.7544
   187.5000      0.0000    800.3802      8.1007     74.3654
   187.7500      0.0000    814.2397      8.0731     73.5163
   188.0000      0.0000    829.4162      7.9972     73.9186
   188.2500      0.0000    840.8152      7.8637     75.3320
   188.5000      0.0000    843.1702      7.6901     77.5954
   188.7500      0.0000    834.5803      7.5188     80.5613
   189.0000      0.0000    818.3227      7.3983     83.8437
   189.2500      0.0000    800.9985      7.3575     86.6643
   189.5000      0.0000    788.1293      7.3940     88.1386
   189.7500      0.0000    780.9658      7.4778     87.8808
   190.0000      0.0000    777.0156      7.5651     86.2625
   190.2500      0.0000    772.9462      7.6145     83.8822
   190.5000      0.0000    766.8255      7.6042     80.8215
   190.7500      0.0000    758.6702      7.5416     76.8315
   191.0000      0.0000    750.3796      7.4535     72.3644
   191.2500      0.0000    745.1918      7.3696     68.8822
   191.5000      0.0000    745.6282      7.3114     67.7456
   191.7500      0.0000    750.8959      7.2897     69.0285
   192.0000      0.0000    756.7527      7.3068     71.5893
   192.2500      0.0000    758.7490      7.3587     74.0712
   192.5000      0.0000    755.7716      7.4375     75.7446
