~Version Information
VERS.                      2.0: CWLS Log ASCII Standard - VERSION 2.0
WRAP.                       NO: One line per depth step
~Well Information Block
STRT.FT               866.0000: 
STOP.FT              2029.0000: 
STEP.FT                 0.2500: 
NULL.                -999.2500: 
COMP.          Petrogulf Corporation: COMPANY
WELL.             State 16-21R: WELL
FLD.           Purgatorie River: FIELD
LOC.           203' FNL & 1560' FWL: LOCATION
PROV.                 Colorado: PROVINCE
CNTY.               Las Animas: COUNTRY
SRVC.                Patterson: SERVICE COMPANY
DATE.          Tue Aug 16 12:55:36 2005: LOG DATE
UWI.                071 08313 : UNIQUE WELL ID
~Curve Information Block
DEPT.FT            0 000 00 00: Depth
SP.mV                         : DIL Spontaneous Potential
RILD.Ohm-m                    : DIL Deep Resistivity
RILM.Ohm-m                    : DIL Medium Resistivity
RLL3.Ohm-m                    : DIL Shallow Resistivity
GR.GAPI                       : Gamma Ray
~Parameter Information Block
~A  Depth        SP         RILD        RILM        RLL3         GR     
# ...
  1622.0000    132.0360     16.3815     19.6492     26.3468    116.5850
  1622.2500    132.0936     15.8255     18.8919     29.1916    113.5993
  1622.5000    132.7013     15.3032     18.3021     27.5629    121.4471
  1622.7500    133.5091     14.7743     17.3981     23.6377    117.7440
  1623.0000    134.6585     14.4760     16.7781     20.4719    117.5712
  1623.2500    135.5400     14.0211     16.3829     19.3202    120.0100
  1623.5000    135.8727     13.6581     15.9135     19.7242    123.4129
  1623.7500    135.9225     13.3692     15.4794     20.0341    126.8526
  1624.0000    135.2184     13.0604     15.0011     19.2001    121.3425
  1624.2500    134.4044     12.6487     14.3329     17.9327    127.3094
  1624.5000    133.4812     12.2016     13.6607     17.0677    131.0951
  1624.7500    132.7596     11.6856     13.0414     16.3323    134.9046
  1625.0000    131.8970     11.3850     12.5013     15.2586    144.9794
  1625.2500    131.2980     10.8595     12.1661     14.6941    130.5930
  1625.5000    130.8744     10.6681     11.7666     14.2487    132.1714
  1625.7500    130.2325     10.4363     11.3289     13.8560    137.8928
  1626.0000    129.6340     10.3513     10.9873     13.7503    133.7353
  1626.2500    129.2225     10.3575     10.6083     13.1831    136.2529
  1626.5000    129.1299     10.4399     10.3068     11.9554    144.3351
  1626.7500    129.3064     10.5431     10.2764     10.4837    139.3269
  1627.0000    129.0671     10.5752     10.4568     10.0704    142.9516
  1627.2500    128.8804     10.7074     10.8940     10.7457    131.7605
  1627.5000    128.8639     10.6451     11.6587     13.2513    114.2970
  1627.7500    129.4383     10.5777     12.5193     19.7182     97.4009
  1628.0000    129.9975     10.3458     13.3807     31.2708     97.5183
  1628.2500    130.0959     10.1293     13.7539     42.5036     93.0315
  1628.5000    129.7655      9.9834     13.6224     45.9052     93.6122
  1628.7500    128.9377      9.7706     13.0153     39.6112    103.9814
  1629.0000    127.7557      9.8572     12.0941     28.8957    122.5788
  1629.2500    126.5835      9.9492     11.3235     18.4553    133.9111
  1629.5000    125.2975     10.0169     10.7444     11.9858    145.5903
  1629.7500    123.9758     10.1982     10.6013      9.8608    150.7991
  1630.0000    122.8677     10.0684     10.4819     10.7606    145.7019
  1630.2500    121.4319      9.9955     10.5197     12.3893    140.3177
  1630.5000    120.3460      9.7171     10.5490     12.5688    142.9973
  1630.7500    119.2643      9.4208     10.5519     12.7631    138.0071
  1631.0000    118.6100      9.0758     10.2019     13.2405    139.4901
  1631.2500    117.9121      8.7782      9.9260     12.8316    137.1732
  1631.5000    117.4061      8.5093      9.5842     12.3340    134.7735
  1631.7500    116.9400      8.3429      9.3503     11.5375    137.0477
  1632.0000    116.6484      8.2347      9.2081     11.1053    148.9212
  1632.2500    116.5941      8.1127      9.1507     11.7320    155.5126
  1632.5000    116.9165      8.1066      9.1070     11.7764    142.3796
  1632.7500    116.9744      8.0100      9.0688     11.7393    144.3666
  1633.0000    116.7907      7.9660      9.0469     11.8256    139.5711
  1633.2500    116.7078      7.8858      8.8800     11.8279    138.9705
  1633.5000    116.6779      7.7239      8.9047     11.4802    128.2089
  1633.7500    117.1340      7.6044      8.8697     11.7747    124.9762
  1634.0000    117.7444      7.5603      8.7726     12.4928    141.6529
  1634.2500    117.9691      7.5415      8.5950     12.8453    144.2440
  1634.5000    118.0138      7.4539      8.3896     12.7598    137.0543
  1634.7500    117.7568      7.3646      8.1885     11.4271    144.9820
  1635.0000    117.4834      7.4336      8.0324     10.2543    159.9837
  1635.2500    117.0318      7.4402      7.9244      9.6814    152.5550
  1635.5000    117.0485      7.5431      7.8812      9.4776    145.4772
  1635.7500    117.4828      7.6144      7.8952      9.0161    138.5045
  1636.0000    118.9244      7.5990      8.0500      8.8167    144.4760
  1636.2500    121.0330      7.5717      8.2438      8.8718    151.1046
  1636.5000    123.7876      7.5345      8.5355     10.5608    122.5546
  1636.7500    127.0599      7.4825      8.7769     15.4741    119.7925
  1637.0000    131.2462      7.5354      8.8581     21.6877    142.7317
  1637.2500    135.3969      7.6844      8.8743     18.7519    146.8711
  1637.5000    138.5143      7.7476      8.8359     12.7659    146.2276
  1637.7500    140.6525      7.8220      8.7644     11.0053    142.8936
  1638.0000    142.1210      7.9383      8.9495     10.7645    139.0885
  1638.2500    142.5202      8.0978      9.2141     11.7199    133.9350
  1638.5000    142.8567      8.2821      9.5518     13.1460    140.2561
  1638.7500    143.0295      8.3188      9.8207     14.1053    142.0061
  1639.0000    143.9217      8.2370     10.0534     14.3287    135.8588
  1639.2500    144.5497      8.2241     10.1252     14.2018    130.0069
  1639.5000    145.0328      7.9955     10.0862     13.8520    129.7353
  1639.7500    145.6864      7.8939      9.8815     14.6249    127.4353
  1640.0000    145.6708      7.8858      9.6286     15.6377    133.8572
  1640.2500    145.2381      7.7586      9.4224     14.6739    133.2099
  1640.5000    144.8061      7.7090      9.1003     12.5811    132.6643
  1640.7500    144.8411      7.6126      8.8354     10.8053    147.6385
  1641.0000    145.4716      7.4734      8.5939     10.3802    153.5416
  1641.2500    146.5586      7.3862      8.3832      9.9230    153.7844
  1641.5000    147.1780      7.2486      8.2957      9.2514    148.1725
  1641.7500    147.0569      7.1777      8.2044      9.3308    135.6080
  1642.0000    146.6141      7.0579      8.1291      9.4105    134.8237
  1642.2500    146.3921      6.8920      8.0450     10.2971    137.5231
  1642.5000    145.6343      6.7568      7.9450     11.5337    134.0785
  1642.7500    144.2202      6.6624      7.8020     11.4172    135.1758
  1643.0000    142.7294      6.6216      7.6509     10.9094    137.1738
  1643.2500    141.0030      6.5580      7.5041     10.4643    131.0492
  1643.5000    139.9019      6.5099      7.3595     10.1264    117.8054
  1643.7500    139.1824      6.4606      7.3225     10.1016    113.7814
  1644.0000    138.2711      6.4137      7.2912      9.5948    118.3811
  1644.2500    137.6893      6.3821      7.2469      9.5363    120.7297
  1644.5000    137.2099      6.3716      7.1977      9.6284    118.9965
  1644.7500    137.4231      6.3788      7.1937      9.6657    124.4224
  1645.0000    137.4000      6.3280      7.2100      9.5244    128.6221
  1645.2500    137.1291      6.3358      7.1478      9.3598    133.5520
  1645.5000    137.3482      6.3685      7.0682      9.2474    149.9358
  1645.7500    137.1308      6.3731      7.1189      9.3954    147.4178
  1646.0000    136.6861      6.3979      7.1768      8.6926    145.4859
  1646.2500    136.5584      6.4739      7.2836      8.3532    142.3579
  1646.5000    136.8179      6.5350      7.4938      9.1754    143.5652
  1646.7500    137.1140      6.6182      7.6489     10.3506    142.1908
  1647.0000    137.1348      6.6770      7.7786     11.1839    138.6132
  1647.2500    136.0945      6.7969      7.9023     11.9925    137.9828
  1647.5000    134.5153      6.9363      7.9759     12.3571    128.7455
  1647.7500    133.3011      7.0693      8.0493     12.4377    137.3083
  1648.0000    132.2018      7.2369      8.1873     12.0886    129.5285
  1648.2500    130.2992      7.4436      8.3188     11.6156    136.0383
  1648.5000    128.9543      7.5648      8.5828     11.5339    137.7285
  1648.7500    128.6732      7.7366      8.9718     11.4794    138.3833
  1649.0000    128.6952      7.9047      9.3238     12.9234    131.7908
  1649.2500    129.4126      8.0189      9.5636     17.8991    133.5441
  1649.5000    130.1223      8.1596      9.6341     21.1629    137.0106
  1649.7500    130.4280      8.3075      9.6034     18.5668    137.8881
