~Version Information
VERS.                      2.0: CWLS Log ASCII Standard - VERSION 2.0
WRAP.                       NO: One line per depth step
~Well Information Block
STRT.FT               259.0000: 
STOP.FT              2382.0000: 
STEP.FT                 0.2500: 
NULL.                -999.2500: 
COMP.          Pioneer Natural Resources: COMPANY
WELL.          Foothills 12-36: WELL
FLD.           Purgatoire River: FIELD
LOC.           2450' FNL & 201' FWL: LOCATION
PROV.                 Colorado: PROVINCE
CNTY.               Las Animas: COUNTRY
SRVC.                Patterson: SERVICE COMPANY
DATE.          Thu Apr 21 03:00:58 2005: LOG DATE
UWI.           05 071 08339 00: UNIQUE WELL ID
~Curve Information Block
DEPT.FT            0 000 00 00: Depth
SN.Ohm-m                      : IEL Short Normal
SP.mV                         : IEL Spontaneous Potential
DIR.Ohm-m                     : IEL Induction Resistivity
GR.GAPI                       : Gamma Ray
~Parameter Information Block
~A  Depth        SN          SP         DIR          GR     
# ...
   393.0000   2000.0000   2000.0000     27.6451    102.9383
   393.2500   2000.0000   2000.0000     28.7827    101.4212
   393.5000   2000.0000   2000.0000     30.1404     99.4369
   393.7500   2000.0000   2000.0000     31.7837     98.1839
   394.0000   2000.0000   2000.0000     33.6832     96.1632
   394.2500   2000.0000   2000.0000     35.7243     94.7081
   394.5000   2000.0000   2000.0000     37.7821     92.4974
   394.7500   2000.0000   2000.0000     39.8053     91.1758
   395.0000   2000.0000   2000.0000     41.8231     89.9393
   395.2500   2000.0000   2000.0000     43.8467     89.8798
   395.5000   2000.0000   2000.0000     45.7412     90.8018
   395.7500   2000.0000   2000.0000     47.1918     91.5914
   396.0000   2000.0000   2000.0000     47.8458     91.8954
   396.2500   2000.0000   2000.0000     47.5350     91.0370
   396.5000   2000.0000   2000.0000     46.3612     88.2409
   396.7500   2000.0000   2000.0000     44.5917     85.9777
   397.0000   2000.0000   2000.0000     42.5152     83.3875
   397.2500   2000.0000   2000.0000     40.3672     82.8062
   397.5000   2000.0000   2000.0000     38.2993     84.0718
   397.7500   2000.0000   2000.0000     36.3754     86.3377
   398.0000   2000.0000   2000.0000     34.5986     91.5441
   398.2500   2000.0000   2000.0000     32.9611     95.8332
   398.5000   2000.0000   2000.0000     31.4772    102.6486
   398.7500   2000.0000   2000.0000     30.1781    106.9648
   399.0000   2000.0000   2000.0000     29.0720    112.4329
   399.2500   2000.0000   2000.0000     28.1101    115.2554
   399.5000   2000.0000   2000.0000     27.1952    118.5547
   399.7500   2000.0000   2000.0000     26.2384    120.3779
   400.0000   2000.0000   2000.0000     25.2188    122.5713
   400.2500   2000.0000   2000.0000     24.1892    123.5974
   400.5000   2000.0000   2000.0000     23.2307    124.6857
   400.7500   2000.0000   2000.0000     22.4034    125.3530
   401.0000   2000.0000   2000.0000     21.7318    126.5885
   401.2500   2000.0000   2000.0000     21.2141    127.7637
   401.5000   2000.0000   2000.0000     20.8351    130.2742
   401.7500   2000.0000   2000.0000     20.5739    132.1194
   402.0000   2000.0000   2000.0000     20.4056    133.6150
   402.2500   2000.0000   2000.0000     20.3013    132.9274
   402.5000   2000.0000   2000.0000     20.2306    129.4353
   402.7500   2000.0000   2000.0000     20.1694    126.3730
   403.0000   2000.0000   2000.0000     20.1068    122.2175
   403.2500   2000.0000   2000.0000     20.0488    119.9929
   403.5000   2000.0000   2000.0000     20.0119    117.3204
   403.7500   2000.0000   2000.0000     20.0139    116.2162
   404.0000   2000.0000   2000.0000     20.0669    116.4580
   404.2500   2000.0000   2000.0000     20.1742    117.9022
   404.5000   2000.0000   2000.0000     20.3287    120.5523
   404.7500   2000.0000   2000.0000     20.5082    121.6292
   405.0000   2000.0000   2000.0000     20.6724    121.7144
   405.2500   2000.0000   2000.0000     20.7751    121.1429
   405.5000   2000.0000   2000.0000     20.7922    119.9838
   405.7500   2000.0000   2000.0000     20.7446    119.0102
   406.0000   2000.0000   2000.0000     20.6861    116.9219
   406.2500   2000.0000   2000.0000     20.6609    115.0426
   406.5000   2000.0000   2000.0000     20.6724    111.8795
   406.7500   2000.0000   2000.0000     20.6920    109.9396
   407.0000   2000.0000   2000.0000     20.6982    107.6959
   407.2500   2000.0000   2000.0000     20.7099    106.6249
   407.5000   2000.0000   2000.0000     20.7810    105.7814
   407.7500   2000.0000   2000.0000     20.9682    106.1701
   408.0000   2000.0000   2000.0000     21.3024    108.9599
   408.2500   2000.0000   2000.0000     21.7823    112.1383
   408.5000   2000.0000   2000.0000     22.3854    117.3165
   408.7500   2000.0000   2000.0000     23.0759    119.8747
   409.0000   2000.0000   2000.0000     23.8059    120.9486
   409.2500   2000.0000   2000.0000     24.5262    119.4502
   409.5000   2000.0000   2000.0000     25.2152    113.8993
   409.7500   2000.0000   2000.0000     25.9056    108.4295
   410.0000   2000.0000   2000.0000     26.6755     98.9427
   410.2500   2000.0000   2000.0000     27.6046     92.5824
   410.5000   2000.0000   2000.0000     28.7377     83.7472
   410.7500   2000.0000   2000.0000     30.0909     78.3719
   411.0000   2000.0000   2000.0000     31.6974     70.9538
   411.2500   2000.0000   2000.0000     33.6441     66.4593
   411.5000   2000.0000   2000.0000     36.0534     60.6094
   411.7500   2000.0000   2000.0000     39.0149     57.4051
   412.0000   2000.0000   2000.0000     42.5242     53.4951
   412.2500   2000.0000   2000.0000     46.4782     51.2184
   412.5000   2000.0000   2000.0000     50.7178     48.0604
   412.7500   2000.0000   2000.0000     55.0466     46.4094
   413.0000   2000.0000   2000.0000     59.1721     45.5003
   413.2500   2000.0000   2000.0000     62.6580     46.1292
   413.5000   2000.0000   2000.0000     65.0324     48.1676
   413.7500   2000.0000   2000.0000     66.0537     49.5213
   414.0000   2000.0000   2000.0000     65.9177     50.7694
   414.2500   2000.0000   2000.0000     65.1660     51.0688
   414.5000   2000.0000   2000.0000     64.3956     50.9910
   414.7500   2000.0000   2000.0000     64.0263     50.6659
   415.0000   2000.0000   2000.0000     64.2504     49.6752
   415.2500   2000.0000   2000.0000     65.0855     48.5741
   415.5000   2000.0000   2000.0000     66.4164     46.3077
   415.7500   2000.0000   2000.0000     67.9958     44.6913
   416.0000   2000.0000   2000.0000     69.4555     42.8732
   416.2500   2000.0000   2000.0000     70.3835     42.3237
   416.5000   2000.0000   2000.0000     70.4345     42.3791
   416.7500   2000.0000   2000.0000     69.4281     42.8526
   417.0000   2000.0000   2000.0000     67.4167     44.3594
   417.2500   2000.0000   2000.0000     64.6851     46.2211
   417.5000   2000.0000   2000.0000     61.6454     50.7095
   417.7500   2000.0000   2000.0000     58.6584     54.6764
   418.0000   2000.0000   2000.0000     55.8979     61.1741
   418.2500   2000.0000   2000.0000     53.3329     65.2854
   418.5000   2000.0000   2000.0000     50.8133     70.7074
   418.7500   2000.0000   2000.0000     48.2241     74.0825
   419.0000   2000.0000   2000.0000     45.6086     79.8123
   419.2500   2000.0000   2000.0000     43.1610     84.6836
   419.5000   2000.0000   2000.0000     41.0890     93.9588
   419.7500   2000.0000   2000.0000     39.4657    101.0200
   420.0000   2000.0000   2000.0000     38.1735    110.9599
   420.2500   2000.0000   2000.0000     36.9574    115.7100
   420.5000   2000.0000   2000.0000     35.5579    118.5134
   420.7500   2000.0000   2000.0000     33.8592    117.7214
   421.0000   2000.0000   2000.0000     31.9434    114.3648
   421.2500   2000.0000   2000.0000     30.0105    111.8492
   421.5000   2000.0000   2000.0000     28.2503    108.8378
   421.7500   2000.0000   2000.0000     26.7720    107.5061
   422.0000   2000.0000   2000.0000     25.6037    106.5444
   422.2500   2000.0000   2000.0000     24.7212    106.8358
   422.5000   2000.0000   2000.0000     24.0739    109.4939
   422.7500   2000.0000   2000.0000     23.5977    112.9876
   423.0000   2000.0000   2000.0000     23.2230    119.9454
   423.2500   2000.0000   2000.0000     22.8840    124.6002
   423.5000   2000.0000   2000.0000     22.5317    129.8739
   423.7500   2000.0000   2000.0000     22.1468    131.9296
   424.0000   2000.0000   2000.0000     21.7436    133.2160
   424.2500   2000.0000   2000.0000     21.3614    133.0665
   424.5000   2000.0000   2000.0000     21.0473    131.1093
   424.7500   2000.0000   2000.0000     20.8433    128.5557
   425.0000   2000.0000   2000.0000     20.7790    123.5875
   425.2500   2000.0000   2000.0000     20.8730    120.4500
   425.5000   2000.0000   2000.0000     21.1382    117.5539
   425.7500   2000.0000   2000.0000     21.5912    117.1890
   426.0000   2000.0000   2000.0000     22.2568    118.3794
   426.2500   2000.0000   2000.0000     23.1606    119.4105
