~Version Information
VERS.                      2.0: CWLS Log ASCII Standard - VERSION 2.0
WRAP.                       NO: One line per depth step
~Well Information Block
STRT.FT               480.0000: 
STOP.FT              1994.2500: 
STEP.FT                 0.2500: 
NULL.                -999.2500: 
COMP.          Evergreen Operating Corporation: COMPANY
WELL.          McCullough 34-32 Tr: WELL
FLD.           Purgatoire River: FIELD
LOC.           394' FSL & 2077' FEL: LOCATION
PROV.                 Colorado: PROVINCE
CNTY.               Las Animas: COUNTRY
SRVC.                Patterson: SERVICE COMPANY
DATE.          Sun Sep 19 05:48:59 2004: LOG DATE
UWI.           05 071 08157 00: UNIQUE WELL ID
~Curve Information Block
DEPT.FT            0 000 00 00: Depth
SN.Ohm-m                      : IEL Short Normal
SP.mV                         : IEL Spontaneous Potential
DIR.Ohm-m                     : IEL Induction Resistivity
GR.GAPI                       : Gamma Ray
~Parameter Information Block
~A  Depth        SN          SP         DIR          GR     
# ...
  1183.5000     14.2434    277.1087     14.5855    119.7108
  1183.7500     14.2826    277.1670     14.0949    123.7869
  1184.0000     14.3179    277.2450     13.6719    130.2990
  1184.2500     14.2605    277.3454     13.3171    133.4850
  1184.5000     14.0829    277.4628     13.0240    134.7979
  1184.7500     13.8023    277.5844     12.7822    133.6119
  1185.0000     13.4527    277.6914     12.5814    131.0905
  1185.2500     13.0726    277.7648     12.4150    130.3365
  1185.5000     12.7078    277.7917     12.2823    131.2200
  1185.7500     12.4079    277.7744     12.1865    132.3771
  1186.0000     12.2129    277.7352     12.1293    133.1507
  1186.2500     12.1349    277.7164     12.1075    132.5145
  1186.5000     12.1516    277.7675     12.1130    130.1719
  1186.7500     12.2193    277.9263     12.1363    128.1624
  1187.0000     12.2987    278.1987     12.1714    125.0359
  1187.2500     12.3795    278.5483     12.2180    122.9736
  1187.5000     12.4832    278.9038     12.2822    119.9782
  1187.7500     12.6431    279.1816     12.3756    118.2309
  1188.0000     12.8751    279.3148     12.5126    116.5297
  1188.2500     13.1643    279.2744     12.7073    116.1703
  1188.5000     13.4760    279.0749     12.9674    116.3932
  1188.7500     13.7820    278.7627     13.2907    116.5798
  1189.0000     14.0799    278.3959     13.6647    116.3810
  1189.2500     14.3947    278.0253     14.0731    115.9069
  1189.5000     14.7680    277.6843     14.5035    114.7780
  1189.7500     15.2386    277.3906     14.9520    113.6674
  1190.0000     15.8208    277.1530     15.4213    111.1495
  1190.2500     16.4884    276.9778     15.9155    108.8325
  1190.5000     17.1750    276.8706     16.4337    104.7481
  1190.7500     17.7947    276.8333     16.9651    102.0021
  1191.0000     18.2773    276.8609     17.4851     98.4131
  1191.2500     18.6033    276.9400     17.9601     96.5960
  1191.5000     18.8166    277.0529     18.3624     95.2396
  1191.7500     19.0079    277.1832     18.6885     95.6343
  1192.0000     19.2752    277.3214     18.9646     98.3445
  1192.2500     19.6821    277.4663     19.2337    101.0285
  1192.5000     20.2273    277.6216     19.5339    104.5929
  1192.7500     20.8391    277.7912     19.8769    105.7380
  1193.0000     21.4066    277.9751     20.2381    105.4196
  1193.2500     21.8287    278.1688     20.5601    104.6427
  1193.5000     22.0531    278.3655     20.7721    104.2298
  1193.7500     22.0854    278.5594     20.8229    104.6561
  1194.0000     21.9760    278.7475     20.7104    105.3059
  1194.2500     21.7978    278.9299     20.4902    105.0595
  1194.5000     21.6242    279.1095     20.2543    103.6783
  1194.7500     21.5124    279.2908     20.0946    102.9457
  1195.0000     21.4963    279.4797     20.0737    104.2303
  1195.2500     21.5832    279.6806     20.2129    107.2707
  1195.5000     21.7543    279.8936     20.4907    113.4960
  1195.7500     21.9701    280.1115     20.8467    116.6354
  1196.0000     22.1841    280.3194     21.1917    116.9443
  1196.2500     22.3605    280.4990     21.4389    114.1354
  1196.5000     22.4842    280.6341     21.5475    107.4948
  1196.7500     22.5579    280.7155     21.5460    102.8977
  1197.0000     22.5949    280.7434     21.5073     97.4103
  1197.2500     22.6177    280.7254     21.4980     95.1803
  1197.5000     22.6546    280.6743     21.5407     94.2067
  1197.7500     22.7266    280.6059     21.6064     94.9400
  1198.0000     22.8281    280.5380     21.6297     97.4653
  1198.2500     22.9163    280.4891     21.5340     99.7315
  1198.5000     22.9210    280.4756     21.2570    103.4524
  1198.7500     22.7795    280.5080     20.7725    105.8731
  1199.0000     22.4781    280.5876     20.1033    109.4198
  1199.2500     22.0665    280.7055     19.3208    112.0839
  1199.5000     21.6315    280.8465     18.5267    116.9909
  1199.7500     21.2470    280.9950     17.8248    120.5469
  1200.0000     20.9348    281.1422     17.2917    124.7204
  1200.2500     20.6587    281.2896     16.9617    125.6275
  1200.5000     20.3493    281.4477     16.8290    122.9310
  1200.7500     19.9437    281.6300     16.8590    118.4287
  1201.0000     19.4234    281.8443     17.0028    108.9212
  1201.2500     18.8387    282.0862     17.2089    101.9701
  1201.5000     18.3094    282.3360     17.4307     92.7586
  1201.7500     17.9869    282.5618     17.6302     88.3449
  1202.0000     17.9744    282.7252     17.7807     84.9849
  1202.2500     18.2485    282.7904     17.8661     84.9369
  1202.5000     18.6532    282.7312     17.8795     88.1642
  1202.7500     18.9861    282.5369     17.8162     92.5077
  1203.0000     19.1064    282.2148     17.6672    101.6075
  1203.2500     18.9806    281.7902     17.4172    108.5546
  1203.5000     18.6515    281.3032     17.0542    119.0352
  1203.7500     18.1854    280.8029     16.5846    125.6061
  1204.0000     17.6452    280.3376     16.0412    133.7157
  1204.2500     17.0922    279.9469     15.4750    137.0569
  1204.5000     16.5890    279.6538     14.9388    138.6008
  1204.7500     16.1857    279.4633     14.4739    138.3588
  1205.0000     15.9022    279.3641     14.1059    138.6537
  1205.2500     15.7207    279.3346     13.8459    139.9732
  1205.5000     15.5962    279.3503     13.6926    142.6691
  1205.7500     15.4817    279.3910     13.6343    143.8373
  1206.0000     15.3587    279.4451     13.6511    143.6795
  1206.2500     15.2531    279.5107     13.7198    142.6652
  1206.5000     15.2216    279.5928     13.8205    140.9299
  1206.7500     15.3192    279.6972     13.9435    139.7998
  1207.0000     15.5749    279.8253     14.0931    137.5165
  1207.2500     15.9934    279.9704     14.2880    135.3046
  1207.5000     16.5779    280.1179     14.5560    131.0045
  1207.7500     17.3507    280.2502     14.9273    127.5221
  1208.0000     18.3506    280.3523     15.4290    121.1934
  1208.2500     19.6077    280.4184     16.0812    116.1947
  1208.5000     21.1116    280.4547     16.8935    107.6606
  1208.7500     22.7869    280.4783     17.8587    101.3543
  1209.0000     24.4907    280.5133     18.9442     91.2501
  1209.2500     26.0490    280.5827     20.0874     84.5513
  1209.5000     27.3244    280.7016     21.2027     75.7986
  1209.7500     28.2663    280.8723     22.2000     71.5648
  1210.0000     28.8953    281.0841     23.0020     68.6545
  1210.2500     29.2379    281.3171     23.5518     69.4794
  1210.5000     29.2800    281.5480     23.8132     75.1663
  1210.7500     28.9825    281.7567     23.7719     81.5414
  1211.0000     28.3309    281.9300     23.4374     93.4494
  1211.2500     27.3644    282.0641     22.8442    102.0072
  1211.5000     26.1671    282.1637     22.0485    114.6625
  1211.7500     24.8464    282.2416     21.1232    122.4343
  1212.0000     23.5213    282.3159     20.1506    131.8662
  1212.2500     22.3028    282.4049     19.2125    136.0509
  1212.5000     21.2598    282.5219     18.3753    139.3937
  1212.7500     20.3999    282.6685     17.6776    140.6806
  1213.0000     19.6945    282.8330     17.1284    143.2248
  1213.2500     19.1226    282.9931     16.7163    145.8414
  1213.5000     18.6835    283.1261     16.4238    150.5900
  1213.7500     18.3821    283.2213     16.2368    153.5706
  1214.0000     18.2184    283.2899     16.1465    156.2649
  1214.2500     18.1943    283.3662     16.1463    155.8854
  1214.5000     18.3176    283.4962     16.2313    151.0016
  1214.7500     18.5963    283.7180     16.4000    145.3138
  1215.0000     19.0354    284.0422     16.6551    135.5040
  1215.2500     19.6435    284.4423     17.0017    129.4365
  1215.5000     20.4368    284.8608     17.4452    121.7884
  1215.7500     21.4225    285.2272     17.9895    117.3718
  1216.0000     22.5780    285.4801     18.6369    111.2506
  1216.2500     23.8524    285.5852     19.3866    107.5330
  1216.5000     25.1838    285.5412     20.2359    102.5927
  1216.7500     26.5041    285.3758     21.1801     99.4188
