~Version Information
VERS.                      2.0: CWLS Log ASCII Standard - VERSION 2.0
WRAP.                       NO: One line per depth step
~Well Information Block
STRT.FT               395.0000: 
STOP.FT              1998.0000: 
STEP.FT                 0.1000: 
NULL.                -999.2500: 
COMP.          Pioneer Natural Resources: COMPANY
WELL.          Easton 12-30 Tr: WELL
FLD.           Purgatoire River: FIELD
LOC.           549' FWL & 2416' FNL--: LOCATION
PROV.                 Colorado: PROVINCE
CNTY.               Las Animas: COUNTRY
SRVC.                Patterson: SERVICE COMPANY
DATE.          Thu Jun 02 09:14:44 2005: LOG DATE
UWI.           05 071 08379 00: UNIQUE WELL ID
~Curve Information Block
DEPT.FT            0 000 00 00: Depth
DCAL.in                       : CDL Caliper
RHOB.g/cc                     : CDL Bulk Density
RHOC.g/cc                     : CDL Density Correction
DPOR.pu                       : CDL Density Porosity
NPOR.pu                       : Neutron Porosity
GR.GAPI                       : Gamma Ray
~Parameter Information Block
~A  Depth       DCAL        RHOB        RHOC        DPOR        NPOR         GR     
   395.0000      8.1553      2.4938     -0.2254      9.4688     44.0712     76.7258
   395.1000      8.1553      2.4942     -0.2372      9.4433     43.7781     73.1244
   395.2000      8.1553      2.4948     -0.1951      9.4038     43.5454     71.1232
   395.3000      8.1551      2.4872     -0.2497      9.8691     43.3431     71.0618
   395.4000      8.1551      2.4864     -0.3053      9.9171     43.3333     69.6691
   395.5000      8.1558      2.5071     -0.1981      8.6604     43.4862     68.1213
   395.6000      8.1558      2.5360     -0.2363      6.9065     43.5147     68.2016
   395.7000      8.1558      2.5573     -0.1560      5.6169     43.3903     66.4480
   395.8000      8.1567      2.5640     -0.1715      5.2117     43.2028     61.5556
   395.9000      8.1567      2.5649     -0.2176      5.1550     42.9397     57.1675
   396.0000      8.1566      2.5745     -0.2145      4.5767     42.6410     55.7228
   396.1000      8.1566      2.5916     -0.1984      3.5402     42.5516     56.4939
   396.2000      8.1566      2.6100     -0.2209      2.4214     42.8930     57.1138
   396.3000      8.1573      2.6203     -0.1370      1.8004     43.4778     57.1840
   396.4000      8.1573      2.6061     -0.1531      2.6612     43.9296     59.4841
   396.5000      8.1596      2.5801     -0.2210      4.2350     44.1752     65.5289
   396.6000      8.1596      2.5751     -0.2155      4.5397     44.5672     71.6371
   396.7000      8.1596      2.5972     -0.1929      3.2030     45.0962     73.0081
   396.8000      8.1621      2.6246     -0.1845      1.5402     45.2074     70.3351
   396.9000      8.1621      2.6284     -0.1482      1.3108     44.7645     67.2686
   397.0000      8.1620      2.5991     -0.1828      3.0852     44.4505     66.6453
   397.1000      8.1620      2.5599     -0.2411      5.4582     44.6891     69.6928
   397.2000      8.1620      2.5351     -0.2333      6.9618     45.2998     74.2988
   397.3000      8.1598      2.5313     -0.2478      7.1936     46.0889     78.6305
   397.4000      8.1598      2.5534     -0.2310      5.8518     46.5675     81.2361
   397.5000      8.1588      2.5939     -0.1569      3.4014     46.2866     79.3370
   397.6000      8.1588      2.6245     -0.1749      1.5467     45.7878     76.4874
   397.7000      8.1588      2.6235     -0.1713      1.6080     45.6860     78.1776
   397.8000      8.1605      2.5929     -0.2431      3.4587     45.5985     83.3589
   397.9000      8.1605      2.5560     -0.2220      5.6979     45.2098     87.9400
   398.0000      8.1611      2.5297     -0.1722      7.2924     44.8435     88.4205
   398.1000      8.1611      2.5081     -0.2286      8.5998     44.8398     82.8298
   398.2000      8.1611      2.4848     -0.2335     10.0148     45.1839     73.8928
   398.3000      8.1593      2.4714     -0.3310     10.8228     45.5694     68.5388
   398.4000      8.1593      2.4797     -0.2560     10.3192     45.7335     71.7558
   398.5000      8.1571      2.4940     -0.2175      9.4553     45.6650     78.9665
   398.6000      8.1571      2.4954     -0.2071      9.3721     45.7215     79.3446
   398.7000      8.1571      2.4910     -0.2253      9.6380     46.0651     72.4435
   398.8000      8.1569      2.4997     -0.2531      9.1099     46.4190     67.2861
   398.9000      8.1569      2.5264     -0.1989      7.4889     46.6375     66.5211
   399.0000      8.1572      2.5557     -0.2017      5.7142     46.6317     67.0016
   399.1000      8.1572      2.5685     -0.1801      4.9417     46.2926     68.0009
   399.2000      8.1572      2.5637     -0.2027      5.2305     45.8809     69.3570
   399.3000      8.1567      2.5592     -0.2267      5.5040     45.7471     70.0389
   399.4000      8.1567      2.5565     -0.1934      5.6656     45.8156     71.5903
   399.5000      8.1568      2.5340     -0.1894      7.0289     45.8268     74.6274
   399.6000      8.1568      2.4932     -0.3046      9.5026     45.5937     77.6582
   399.7000      8.1568      2.4662     -0.3093     11.1415     45.1109     80.9562
   399.8000      8.1570      2.4716     -0.2486     10.8151     44.7634     83.1426
   399.9000      8.1570      2.5030     -0.2447      8.9090     44.9109     81.2097
   400.0000      8.1564      2.5432     -0.1909      6.4750     45.2511     75.2234
   400.1000      8.1564      2.5717     -0.1963      4.7424     45.3617     68.6273
   400.2000      8.1564      2.5789     -0.2195      4.3115     45.5268     65.3067
   400.3000      8.1564      2.5644     -0.2001      5.1880     45.9000     66.5985
   400.4000      8.1564      2.5272     -0.2420      7.4401     45.9314     71.1650
   400.5000      8.1573      2.4581     -0.2337     11.6329     45.3038     76.8318
   400.6000      8.1573      2.3554     -0.2796     17.8564     44.0801     81.4856
   400.7000      8.1573      2.2482     -0.3570     24.3508     42.4727     83.9780
   400.8000      8.1574      2.1738     -0.3656     28.8588     40.8638     84.4279
   400.9000      8.1574      2.1492     -0.3998     30.3502     39.2185     84.2979
   401.0000      8.1581      2.1694     -0.3036     29.1296     37.1256     86.8048
   401.1000      8.1581      2.2065     -0.2302     26.8775     34.6690     93.9642
   401.2000      8.1581      2.2277     -0.1492     25.5941     32.2118     99.5920
   401.3000      8.1680      2.2191     -0.1290     26.1175     29.8393     98.0020
   401.4000      8.1680      2.1969     -0.0659     27.4594     27.6767     95.7306
   401.5000      8.2046      2.2008      0.0140     27.2270     25.7159     99.5372
   401.6000      8.2046      2.2548      0.1743     23.9533     23.7731    105.6409
   401.7000      8.2046      2.3360      0.3903     19.0276     22.3334    110.4410
   401.8000      8.2660      2.4030      0.4077     14.9723     21.9536    113.0442
   401.9000      8.2660      2.4438      0.4064     12.4989     22.0773    111.3306
   402.0000      8.3157      2.4730      0.3750     10.7254     21.7917    107.2417
   402.1000      8.3157      2.5028      0.3551      8.9182     21.1640    104.2054
   402.2000      8.3157      2.5307      0.3677      7.2320     20.8776    103.2680
   402.3000      8.3357      2.5502      0.3383      6.0479     21.1120    104.8223
   402.4000      8.3357      2.5595      0.3399      5.4867     21.3013    106.6303
   402.5000      8.3401      2.5550      0.2960      5.7553     21.0785    105.4098
   402.6000      8.3401      2.5384      0.2870      6.7662     20.7992    102.4661
   402.7000      8.3401      2.5146      0.2216      8.2075     21.0017    102.8904
   402.8000      8.3430      2.4924      0.1839      9.5514     21.5595    107.5047
   402.9000      8.3430      2.4859      0.1687      9.9454     21.6073    112.8906
   403.0000      8.3467      2.4961      0.1890      9.3259     20.9901    116.1773
   403.1000      8.3467      2.5043      0.2022      8.8293     20.4848    116.9570
   403.2000      8.3467      2.5028      0.1118      8.9239     20.3516    117.2000
   403.3000      8.3469      2.5019      0.1428      8.9743     20.3841    119.4876
   403.4000      8.3469      2.4951      0.1965      9.3869     20.5214    123.7573
   403.5000      8.3439      2.4703      0.1724     10.8936     20.5326    127.4921
   403.6000      8.3439      2.4393      0.1361     12.7712     20.1927    127.0423
   403.7000      8.3439      2.4184      0.1281     14.0386     19.8166    121.4946
   403.8000      8.3424      2.4061      0.1285     14.7797     19.4738    116.3038
   403.9000      8.3424      2.3927      0.1434     15.5958     18.9176    114.5743
   404.0000      8.3413      2.3781      0.1100     16.4795     18.4392    115.4720
   404.1000      8.3413      2.3721      0.1306     16.8420     18.2385    118.5630
   404.2000      8.3413      2.3759      0.1732     16.6102     17.9494    122.3723
   404.3000      8.4327      2.3816      0.1840     16.2683     17.5708    123.9717
   404.4000      8.4327      2.3829      0.1684     16.1881     17.4140    121.8736
   404.5000      8.4288      2.3759      0.1647     16.6101     17.4995    117.9408
