~Version Information
VERS.                      2.0: CWLS Log ASCII Standard - VERSION 2.0
WRAP.                       NO: One line per depth step
~Well Information Block
STRT.FT               575.0000: 
STOP.FT              2016.2000: 
STEP.FT                 0.1000: 
NULL.                -999.2500: 
COMP.          Pioneer Natural Resources: COMPANY
WELL.          Bucksnort 41-35: WELL
FLD.           Purgatoire River: FIELD
LOC.           117' FNL & 463' FEL--: LOCATION
PROV.                 Colorado: PROVINCE
CNTY.               Las Animas: COUNTRY
SRVC.                Patterson: SERVICE COMPANY
DATE.          Thu Jul 21 15:01:23 2005: LOG DATE
UWI.           05 071 08401 00: UNIQUE WELL ID
~Curve Information Block
DEPT.FT            0 000 00 00: Depth
DCAL.in                       : CDL Caliper
RHOB.g/cc                     : CDL Bulk Density
RHOC.g/cc                     : CDL Density Correction
DPOR.pu                       : CDL Density Porosity
NPOR.pu                       : Neutron Porosity
GR.GAPI                       : Gamma Ray
~Parameter Information Block
~A  Depth       DCAL        RHOB        RHOC        DPOR        NPOR         GR     
# ...
  1890.2000      7.8744      2.5422      0.0412      6.5335     24.7604    372.7069
  1890.3000      7.8738      2.5539      0.0360      5.8257     24.3169    405.6067
  1890.4000      7.8738      2.5670      0.0768      5.0298     23.9249    452.7955
  1890.5000      7.8722      2.5841      0.0764      3.9957     24.2577    492.4121
  1890.6000      7.8722      2.6007      0.0546      2.9885     24.8142    513.4067
  1890.7000      7.8722      2.6057      0.0776      2.6864     24.7542    515.4041
  1890.8000      7.8718      2.5885      0.0587      3.7290     24.3561    501.3193
  1890.9000      7.8718      2.5589      0.0042      5.5212     24.2545    487.1963
  1891.0000      7.8727      2.5312      0.0664      7.2023     24.3538    475.4835
  1891.1000      7.8727      2.5052      0.0066      8.7780     24.3762    447.8257
  1891.2000      7.8727      2.4905      0.0004      9.6649     24.3291    400.6541
  1891.3000      7.8739      2.4974      0.0267      9.2462     24.2075    352.2116
  1891.4000      7.8739      2.5132      0.0549      8.2897     24.0195    318.1418
  1891.5000      7.8728      2.5132      0.0922      8.2928     23.9797    297.2633
  1891.6000      7.8728      2.4917      0.0297      9.5910     24.0373    286.7774
  1891.7000      7.8728      2.4731      0.0233     10.7237     23.8956    286.1442
  1891.8000      7.8693      2.4759      0.0436     10.5545     23.4702    286.0833
  1891.9000      7.8693      2.4935      0.0520      9.4822     23.0082    276.3321
  1892.0000      7.8643      2.5025      0.0921      8.9404     22.9150    260.3213
  1892.1000      7.8643      2.4825      0.0605     10.1508     23.3018    246.3141
  1892.2000      7.8643      2.4489      0.0030     12.1876     23.7126    236.8815
  1892.3000      7.8589      2.4364      0.0074     12.9434     23.6948    228.6018
  1892.4000      7.8589      2.4496      0.0349     12.1429     23.5586    216.0804
  1892.5000      7.8541      2.4621      0.0431     11.3882     23.8085    203.1011
  1892.6000      7.8541      2.4562      0.0375     11.7473     24.0988    194.5027
  1892.7000      7.8541      2.4412      0.0271     12.6516     23.8736    185.3572
  1892.8000      7.8522      2.4368      0.0094     12.9197     23.2045    168.0260
  1892.9000      7.8522      2.4466      0.0493     12.3281     22.6031    147.8360
  1893.0000      7.8519      2.4578      0.0114     11.6476     22.4099    136.4394
  1893.1000      7.8519      2.4585      0.0630     11.6041     22.3347    133.0547
  1893.2000      7.8519      2.4452      0.0586     12.4135     22.1339    130.0070
  1893.3000      7.8503      2.4298     -0.0013     13.3466     22.1316    122.2674
  1893.4000      7.8503      2.4255      0.0245     13.6069     22.2226    107.9293
  1893.5000      7.8479      2.4264      0.0576     13.5522     21.8730     92.8139
  1893.6000      7.8479      2.4259      0.0381     13.5837     21.2729     85.3055
  1893.7000      7.8479      2.4333      0.0359     13.1312     20.9768     84.9420
  1893.8000      7.8473      2.4512      0.0848     12.0509     21.1808     85.9827
  1893.9000      7.8473      2.4664      0.0753     11.1243     21.5113     84.4967
  1894.0000      7.8477      2.4759      0.0679     10.5521     21.6022     80.9469
  1894.1000      7.8477      2.4811      0.0736     10.2355     21.7108     78.8106
  1894.2000      7.8477      2.4767      0.0775     10.5025     21.8499     75.6620
  1894.3000      7.8486      2.4592      0.1056     11.5649     21.9818     68.9862
  1894.4000      7.8486      2.4344      0.0671     13.0645     22.2725     65.8589
  1894.5000      7.8487      2.4187      0.0282     14.0186     22.4228     73.6330
  1894.6000      7.8487      2.4198      0.0356     13.9514     22.0773     86.8673
  1894.7000      7.8487      2.4285      0.0564     13.4226     21.4076     92.2073
  1894.8000      7.8474      2.4362      0.0367     12.9582     20.8939     87.8193
  1894.9000      7.8474      2.4403      0.0344     12.7075     20.7295     85.1272
  1895.0000      7.8472      2.4374      0.0727     12.8854     20.9712     88.8691
  1895.1000      7.8472      2.4316      0.0289     13.2382     21.4594     93.4523
  1895.2000      7.8472      2.4321      0.0513     13.2060     21.6173     93.0005
  1895.3000      7.8491      2.4340      0.0774     13.0909     21.3368     87.8483
  1895.4000      7.8491      2.4345      0.0095     13.0587     21.0903     82.4966
  1895.5000      7.8497      2.4412      0.0243     12.6530     21.1183     79.2213
  1895.6000      7.8497      2.4488      0.0494     12.1962     21.0544     80.0730
  1895.7000      7.8497      2.4477      0.0624     12.2580     20.5657     83.7705
  1895.8000      7.8487      2.4437      0.0482     12.5030     20.3504     84.8068
  1895.9000      7.8487      2.4470      0.0501     12.3029     20.8448     82.9853
  1896.0000      7.8480      2.4560      0.0555     11.7571     21.2306     81.9144
  1896.1000      7.8480      2.4647      0.0649     11.2280     21.4906     81.0166
  1896.2000      7.8480      2.4717      0.0548     10.8070     22.2775     77.5046
  1896.3000      7.8471      2.4724      0.0640     10.7646     22.6990     73.5926
  1896.4000      7.8471      2.4660      0.0014     11.1538     21.9215     74.1516
  1896.5000      7.8468      2.4594      0.0531     11.5511     21.1363     80.8228
  1896.6000      7.8468      2.4543      0.0530     11.8594     21.3634     88.4900
  1896.7000      7.8468      2.4492      0.0863     12.1681     21.9235     89.9401
  1896.8000      7.8467      2.4469      0.0374     12.3072     21.7591     84.5562
  1896.9000      7.8467      2.4556      0.0361     11.7841     20.7169     80.0156
  1897.0000      7.8446      2.4719      0.0835     10.7948     19.7301     80.2225
  1897.1000      7.8446      2.4813      0.0837     10.2232     19.7117     82.7354
  1897.2000      7.8446      2.4818      0.0732     10.1966     20.5222     86.0472
  1897.3000      7.8428      2.4841      0.0456     10.0529     21.1839     88.9705
  1897.4000      7.8428      2.4900      0.0869      9.6987     21.1185     91.7608
  1897.5000      7.8414      2.4925      0.0244      9.5457     21.0226     96.7010
  1897.6000      7.8414      2.4959      0.0402      9.3413     21.3577    101.0591
  1897.7000      7.8414      2.4997      0.0732      9.1085     21.5677     99.9550
  1897.8000      7.8381      2.4981      0.0578      9.2040     21.5058     94.9050
  1897.9000      7.8381      2.4952      0.0316      9.3810     21.6069     90.0491
  1898.0000      7.8318      2.4956      0.0552      9.3588     21.7088     87.1296
  1898.1000      7.8318      2.4992      0.0842      9.1397     21.4096     88.0000
  1898.2000      7.8318      2.5050      0.0596      8.7868     21.0270     92.7872
  1898.3000      7.8267      2.5030      0.0992      8.9064     21.0766     96.8539
  1898.4000      7.8267      2.4883      0.0324      9.8003     21.3754     95.5528
  1898.5000      7.8257      2.4767      0.0209     10.5003     21.4912     91.1730
  1898.6000      7.8257      2.4772      0.0539     10.4741     21.5237     90.0961
  1898.7000      7.8257      2.4787      0.0754     10.3844     21.6432     93.4916
  1898.8000      7.8243      2.4790      0.0481     10.3658     21.6846     96.1028
  1898.9000      7.8243      2.4823      0.0850     10.1635     21.4990     95.9668
  1899.0000      7.8226      2.4815      0.0552     10.2145     21.3561     95.6987
  1899.1000      7.8226      2.4789      0.0351     10.3690     21.5500     93.6846
  1899.2000      7.8226      2.4866      0.0397      9.9060     21.7472     87.9090
  1899.3000      7.8234      2.5006      0.1035      9.0517     21.5103     81.7654
  1899.4000      7.8234      2.5065      0.0806      8.6978     20.9849     76.7234
  1899.5000      7.8254      2.4990      0.0930      9.1492     20.5043     74.6604
  1899.6000      7.8254      2.4855      0.0792      9.9719     20.1089     81.6754
  1899.7000      7.8254      2.4781      0.0695     10.4159     19.6978     92.4657
