~Version Information
VERS.                      2.0: CWLS Log ASCII Standard - VERSION 2.0
WRAP.                       NO: One line per depth step
~Well Information Block
STRT.FT               510.0000: 
STOP.FT              1845.5000: 
STEP.FT                 0.1000: 
NULL.                -999.2500: 
COMP.          Pioneer Natural Resources: COMPANY
WELL.           Stampede 42-18: WELL
FLD.           Purgatoire River: FIELD
LOC.           2479' FNL & 160' FEL--: LOCATION
CNTY.               Las Animas: COUNTY
SRVC.          Superior Well Services: SERVICE COMPANY
DATE.          Sat Jun 09 02:39:23 2007: LOG DATE
UWI.           05 071 08237 00: UNIQUE WELL ID
STAT.                 Colorado: STATE
~Curve Information Block
DEPT.FT            0 000 00 00: Depth
DCAL.in                       : CDL Caliper
RHOB.g/cc                     : CDL Bulk Density
RHOC.g/cc                     : CDL Density Correction
DPOR.pu                       : CDL Density Porosity
GR.GAPI                       : Gamma Ray
~Parameter Information Block
~A  Depth       DCAL        RHOB        RHOC        DPOR         GR     
# ...
   857.2000      8.0297      2.4377      0.1133     12.8643    128.0791
   857.3000      8.0328      2.4302      0.1018     13.3203    130.8877
   857.4000      8.0328      2.4200      0.0991     13.9381    131.6176
   857.5000      8.0274      2.4181      0.0811     14.0545    129.1207
   857.6000      8.0274      2.4302      0.0683     13.3241    129.3586
   857.7000      8.0274      2.4603      0.0577     11.4984    132.1106
   857.8000      8.0019      2.5046      0.0764      8.8143    130.4445
   857.9000      8.0019      2.5443      0.1142      6.4036    123.9141
   858.0000      7.9732      2.5641      0.0699      5.2055    120.3502
   858.1000      7.9732      2.5708      0.0717      4.7996    121.7536
   858.2000      7.9732      2.5743      0.0922      4.5884    123.9000
   858.3000      7.9548      2.5686      0.0987      4.9352    124.7231
   858.4000      7.9548      2.5497      0.0808      6.0805    123.5503
   858.5000      7.9472      2.5307      0.0967      7.2278    120.3179
   858.6000      7.9472      2.5267      0.0617      7.4704    116.3031
   858.7000      7.9472      2.5370      0.0805      6.8455    114.2687
   858.8000      7.9449      2.5499      0.0587      6.0687    116.1177
   858.9000      7.9449      2.5547      0.0382      5.7756    120.6404
   859.0000      7.9439      2.5457      0.0715      6.3203    124.9438
   859.1000      7.9439      2.5263      0.0478      7.4970    127.8709
   859.2000      7.9439      2.5108      0.0502      8.4390    130.3119
   859.3000      7.9437      2.5046      0.1138      8.8145    131.0999
   859.4000      7.9437      2.4972      0.0623      9.2592    129.8132
   859.5000      7.9440      2.4865      0.0239      9.9097    130.9658
   859.6000      7.9440      2.4804      0.0482     10.2758    134.2788
   859.7000      7.9440      2.4770      0.0734     10.4826    135.3521
   859.8000      7.9442      2.4675      0.0459     11.0586    136.1267
   859.9000      7.9442      2.4580      0.0269     11.6361    138.1752
   860.0000      7.9420      2.4691     -0.0008     10.9633    137.0952
   860.1000      7.9420      2.5013      0.0928      9.0134    131.0840
   860.2000      7.9420      2.5296      0.0640      7.2978    123.9165
   860.3000      7.9362      2.5490      0.0824      6.1191    119.7796
   860.4000      7.9362      2.5735      0.0772      4.6382    118.1791
   860.5000      7.9321      2.5985      0.1207      3.1200    115.5956
   860.6000      7.9321      2.6027      0.1185      2.8691    112.6906
   860.7000      7.9321      2.5819      0.0558      4.1303    112.4773
   860.8000      7.9316      2.5521      0.0558      5.9322    114.2165
   860.9000      7.9316      2.5270      0.0032      7.4521    113.9726
   861.0000      7.9319      2.5139     -0.0120      8.2467    111.2807
   861.1000      7.9319      2.5119     -0.0173      8.3711    111.5695
   861.2000      7.9319      2.5111      0.0107      8.4181    117.9980
   861.3000      7.9293      2.4977      0.0289      9.2277    126.8016
   861.4000      7.9293      2.4647      0.0145     11.2308    130.3911
   861.5000      7.9196      2.4223     -0.0199     13.7984    125.1071
   861.6000      7.9196      2.3842      0.0037     16.1077    119.7173
   861.7000      7.9196      2.3524     -0.0115     18.0364    124.2066
   861.8000      7.9035      2.3382     -0.0454     18.8993    134.7807
   861.9000      7.9035      2.3507      0.0144     18.1397    140.7043
   862.0000      7.8867      2.3686      0.0282     17.0548    137.1522
   862.1000      7.8867      2.3833      0.0322     16.1634    129.2823
   862.2000      7.8867      2.4165      0.0812     14.1504    122.6253
   862.3000      7.8729      2.4660      0.2132     11.1530    118.9758
   862.4000      7.8729      2.5001      0.2054      9.0820    121.6523
   862.5000      7.8688      2.5094      0.1808      8.5199    125.3107
   862.6000      7.8688      2.5138      0.1424      8.2529    123.2522
   862.7000      7.8688      2.5282      0.1306      7.3828    119.5845
   862.8000      7.8756      2.5503      0.1292      6.0443    112.8243
   862.9000      7.8756      2.5769      0.1337      4.4323     98.4249
   863.0000      7.8900      2.6106      0.1365      2.3908     84.1217
   863.1000      7.8900      2.6456      0.1756      0.2662     78.4464
   863.2000      7.8900      2.6622      0.1789     -0.7385     80.9660
   863.3000      7.9025      2.6500      0.1356     -0.0025     86.0746
   863.4000      7.9025      2.6220      0.1152      1.6947     88.7536
   863.5000      7.9068      2.5920      0.0712      3.5123     88.4830
   863.6000      7.9068      2.5511      0.1260      5.9966     86.8628
   863.7000      7.9068      2.4881      0.0235      9.8125     85.6721
   863.8000      7.9052      2.4234     -0.0217     13.7328     87.9835
   863.9000      7.9052      2.3719     -0.0377     16.8526     94.6729
   864.0000      7.8992      2.3187     -0.0143     20.0768    104.2169
   864.1000      7.8992      2.2664     -0.0607     23.2460    113.8171
   864.2000      7.8992      2.2487     -0.0006     24.3232    122.2141
   864.3000      7.8957      2.2773      0.1575     22.5872    130.3955
   864.4000      7.8957      2.3308      0.2256     19.3430    135.9411
   864.5000      7.9072      2.3937      0.2376     15.5360    136.5845
   864.6000      7.9072      2.4601      0.2569     11.5093    132.2538
   864.7000      7.9072      2.5198      0.3003      7.8909    126.2080
   864.8000      7.9232      2.5621      0.3050      5.3262    122.2119
   864.9000      7.9232      2.5751      0.2996      4.5364    119.3934
   865.0000      7.9323      2.5484      0.2575      6.1592    116.1858
   865.1000      7.9323      2.4901      0.2084      9.6896    113.7851
   865.2000      7.9323      2.4222      0.1049     13.8051    110.7509
   865.3000      7.9564      2.3505      0.1005     18.1496    105.9006
   865.4000      7.9564      2.2655      0.0178     23.3033    102.5814
   865.5000      7.9984      2.1707      0.0372     29.0475    100.9412
   865.6000      7.9984      2.0738      0.0398     34.9226     98.0071
   865.7000      7.9984      1.9724      0.0278     41.0658     95.5827
   865.8000      8.0284      1.8719      0.0605     47.1598     96.1959
   865.9000      8.0284      1.7799      0.0661     52.7320     96.1795
   866.0000      8.0424      1.6924      0.1141     58.0382     93.3298
   866.1000      8.0424      1.6152      0.1183     62.7146     91.4350
   866.2000      8.0424      1.5765      0.0889     65.0618     95.0381
   866.3000      8.0597      1.5924      0.1219     64.0942    103.8837
   866.4000      8.0597      1.6473      0.1526     60.7702    109.8016
   866.5000      8.0923      1.7218      0.1543     56.2521    107.8694
   866.6000      8.0923      1.8132      0.1842     50.7180    106.2235
   866.7000      8.0923      1.9149      0.2091     44.5485    114.2821
   866.8000      8.1391      2.0177      0.2115     38.3183    129.6792
   866.9000      8.1391      2.1256      0.2245     31.7811    143.9386
   867.0000      8.1633      2.2408      0.1923     24.8018    150.3377
   867.1000      8.1633      2.3432      0.2365     18.5925    147.9293
   867.2000      8.1633      2.4108      0.1575     14.4985    143.2200
   867.3000      8.1208      2.4452      0.1282     12.4147    140.3937
   867.4000      8.1208      2.4597      0.1538     11.5308    139.6733
   867.5000      8.0288      2.4669      0.1251     11.0981    143.0661
   867.6000      8.0288      2.4781      0.0941     10.4202    150.2582
   867.7000      8.0288      2.4947      0.1167      9.4113    159.9293
   867.8000      7.9712      2.5101      0.1122      8.4801    169.6957
   867.9000      7.9712      2.5240      0.0732      7.6352    171.3143
   868.0000      7.9572      2.5389      0.0932      6.7336    161.5877
   868.1000      7.9572      2.5531      0.0842      5.8725    149.7525
   868.2000      7.9572      2.5633      0.0955      5.2518    144.6499
   868.3000      7.9511      2.5669      0.0585      5.0390    140.4220
