~Version Information
VERS.                      2.0: CWLS Log ASCII Standard - VERSION 2.0
WRAP.                       NO: One line per depth step
~Well Information Block
STRT.FT               682.0000: 
STOP.FT              2190.5000: 
STEP.FT                 0.1000: 
NULL.                -999.2500: 
COMP.          Pioneer Natural Resources: COMPANY
WELL.               King 22-13: WELL
FLD.           Purgatoire River: FIELD
LOC.           2419' FNL & 1806' FWL----: LOCATION
PROV.                 Colorado: PROVINCE
CNTY.               Las Animas: COUNTRY
SRVC.                Patterson: SERVICE COMPANY
DATE.          Fri Apr 01 07:38:12 2005: LOG DATE
UWI.           05 071 08318 00: UNIQUE WELL ID
~Curve Information Block
DEPT.FT            0 000 00 00: Depth
DCAL.in                       : CDL Caliper
RHOB.g/cc                     : CDL Bulk Density
RHOC.g/cc                     : CDL Density Correction
DPOR.pu                       : CDL Density Porosity
NPOR.pu                       : Neutron Porosity
GR.GAPI                       : Gamma Ray
~Parameter Information Block
~A  Depth       DCAL        RHOB        RHOC        DPOR        NPOR         GR     
# ...
   979.6000      8.0169      2.5576     -0.0070      5.5987     19.8259     90.5571
   979.7000      8.0169      2.6024      0.0634      2.8828     19.8982     92.8878
   979.8000      8.0188      2.6371      0.0944      0.7844     20.6175     95.6943
   979.9000      8.0188      2.6353      0.0618      0.8882     21.7721     98.6304
   980.0000      8.0195      2.6132      0.0590      2.2275     22.7868     99.9137
   980.1000      8.0195      2.5990      0.0021      3.0922     22.9257     97.7421
   980.2000      8.0195      2.5980      0.0576      3.1521     22.2019     94.1360
   980.3000      8.0180      2.5934      0.0744      3.4288     21.5523     95.0072
   980.4000      8.0180      2.5796      0.0732      4.2675     21.6284     97.9530
   980.5000      8.0179      2.5662      0.0248      5.0807     22.1953     97.5374
   980.6000      8.0179      2.5542      0.0253      5.8085     22.4994    101.3184
   980.7000      8.0179      2.5407      0.0167      6.6226     22.0469    113.5621
   980.8000      8.0192      2.5303      0.0432      7.2529     21.4087    122.5319
   980.9000      8.0192      2.5268      0.0112      7.4694     21.3821    118.3975
   981.0000      8.0194      2.5328      0.0291      7.1050     21.6747    105.9817
   981.1000      8.0194      2.5459      0.0483      6.3107     21.5714     95.9724
   981.2000      8.0194      2.5527      0.0834      5.8977     21.1270     94.7438
   981.3000      8.0168      2.5531      0.0454      5.8717     20.8158     99.5530
   981.4000      8.0168      2.5773      0.0162      4.4056     20.4381     99.7047
   981.5000      8.0094      2.6409      0.0846      0.5516     19.4140     89.0565
   981.6000      8.0094      2.7122      0.1655     -3.7717     18.0568     73.5071
   981.7000      8.0094      2.7593      0.1400     -6.6263     17.0946     63.0910
   981.8000      8.0004      2.7810      0.1853     -7.9423     16.8662     60.0767
   981.9000      8.0004      2.7802      0.1497     -7.8883     17.2846     59.9775
   982.0000      7.9981      2.7631      0.1003     -6.8516     17.8851     60.0670
   982.1000      7.9981      2.7429      0.0896     -5.6330     18.2293     60.1614
   982.2000      7.9981      2.7251      0.0529     -4.5544     18.2046     61.7885
   982.3000      8.0081      2.7170      0.0426     -4.0607     18.3292     66.0783
   982.4000      8.0081      2.7257      0.0429     -4.5869     19.0139     71.8525
   982.5000      8.0318      2.7347      0.0722     -5.1317     19.5478     76.9887
   982.6000      8.0318      2.7191      0.0663     -4.1892     19.0787     78.7912
   982.7000      8.0318      2.6847      0.0183     -2.1052     18.2014     75.9345
   982.8000      8.0578      2.6601     -0.0046     -0.6139     18.1096     71.7430
   982.9000      8.0578      2.6539      0.0594     -0.2376     18.6471     69.6334
   983.0000      8.0699      2.6418      0.0477      0.4981     18.8525     69.3256
   983.1000      8.0699      2.6074      0.0355      2.5823     18.5153     70.2796
   983.2000      8.0699      2.5697     -0.0291      4.8684     17.9403     71.1151
   983.3000      8.0673      2.5528      0.0183      5.8892     17.3572     70.0384
   983.4000      8.0673      2.5524      0.0266      5.9174     17.0873     68.7094
   983.5000      8.0580      2.5525     -0.0026      5.9079     17.1994     69.5897
   983.6000      8.0580      2.5521     -0.0114      5.9329     17.1779     70.1843
   983.7000      8.0580      2.5612      0.0211      5.3794     16.8542     69.3350
   983.8000      8.0489      2.5882      0.0118      3.7465     16.7130     68.5907
   983.9000      8.0489      2.6258      0.0836      1.4696     17.0078     69.1375
   984.0000      8.0445      2.6488      0.1173      0.0703     17.4109     69.8682
   984.1000      8.0445      2.6423      0.0783      0.4637     17.6434     69.1791
   984.2000      8.0445      2.6248      0.0312      1.5256     17.6941     69.6301
   984.3000      8.0431      2.6135      0.0707      2.2146     17.7228     71.5463
   984.4000      8.0431      2.5999      0.0087      3.0342     17.8984     72.6264
   984.5000      8.0398      2.5834      0.0556      4.0354     18.0226     74.5679
   984.6000      8.0398      2.5744      0.0344      4.5819     17.7742     77.2383
   984.7000      8.0398      2.5744      0.0382      4.5799     17.3828     77.7126
   984.8000      8.0363      2.5754      0.0367      4.5221     17.4113     77.3042
   984.9000      8.0363      2.5691      0.0684      4.9032     17.9904     78.1577
   985.0000      8.0357      2.5522      0.0598      5.9273     18.8664     79.0110
   985.1000      8.0357      2.5351     -0.0031      6.9631     19.4587     80.5564
   985.2000      8.0357      2.5322     -0.0036      7.1403     19.2727     84.3422
   985.3000      8.0354      2.5392      0.0539      6.7135     18.9824     87.3823
   985.4000      8.0354      2.5547      0.0134      5.7730     19.1760     86.5963
   985.5000      8.0360      2.5862      0.0770      3.8694     19.2622     82.3145
   985.6000      8.0360      2.6187      0.1183      1.8942     18.7934     76.0560
   985.7000      8.0360      2.6343      0.0913      0.9510     18.4066     72.3674
   985.8000      8.0397      2.6363      0.0766      0.8291     18.7212     74.7214
   985.9000      8.0397      2.6318      0.0745      1.1059     19.5029     81.5101
   986.0000      8.0423      2.6225      0.0545      1.6651     20.6625     89.0486
   986.1000      8.0423      2.6122      0.1114      2.2896     22.2132     93.6444
   986.2000      8.0423      2.6037      0.0758      2.8084     23.4959     94.9530
   986.3000      8.0431      2.5932      0.0896      3.4447     23.9179     97.0343
   986.4000      8.0431      2.5766      0.0661      4.4488     23.9456    101.5477
   986.5000      8.0437      2.5629      0.0376      5.2788     23.9771    103.4254
   986.6000      8.0437      2.5546      0.0268      5.7823     23.9619     97.9500
   986.7000      8.0437      2.5381      0.0541      6.7828     24.0344     91.1973
   986.8000      8.0441      2.5189     -0.0011      7.9434     24.1141     93.2688
   986.9000      8.0441      2.5195     -0.0009      7.9073     23.8754    102.6238
   987.0000      8.0439      2.5328      0.0209      7.1036     23.2399    112.5052
   987.1000      8.0439      2.5313      0.0579      7.1928     22.8257    118.9965
   987.2000      8.0439      2.5159     -0.0090      8.1298     23.2627    119.6862
   987.3000      8.0439      2.5118      0.0061      8.3749     23.8674    115.1752
   987.4000      8.0439      2.5281      0.0446      7.3885     23.7382    107.4603
   987.5000      8.0437      2.5553      0.0347      5.7400     22.9275     99.2924
   987.6000      8.0437      2.5846      0.0836      3.9646     21.8351     92.1473
   987.7000      8.0437      2.6004      0.1290      3.0040     21.1322     85.8323
   987.8000      8.0441      2.5868      0.1113      3.8274     20.9289     79.6210
   987.9000      8.0441      2.5490      0.0605      6.1188     20.6740     72.9397
   988.0000      8.0441      2.5071      0.0544      8.6605     20.4551     69.4718
   988.1000      8.0441      2.4885     -0.0003      9.7875     20.5611     71.6501
   988.2000      8.0441      2.5010      0.0888      9.0274     20.6841     76.5410
   988.3000      8.0430      2.5105      0.0920      8.4515     20.8378     77.7260
   988.4000      8.0430      2.4908      0.0841      9.6504     20.9939     72.1080
   988.5000      8.0416      2.4602      0.0494     11.5058     20.8025     65.0093
   988.6000      8.0416      2.4543      0.0128     11.8602     20.3878     63.4586
   988.7000      8.0416      2.4830      0.0659     10.1218     19.9543     67.3492
   988.8000      8.0406      2.5234      0.0929      7.6716     19.7314     69.8624
   988.9000      8.0406      2.5482      0.0895      6.1693     19.7433     67.6991
   989.0000      8.0407      2.5475      0.0737      6.2149     19.6738     65.8969
   989.1000      8.0407      2.5351      0.0748      6.9614     19.7189     69.2174
