~Version Information
 VERS.                                  2.0 : CWLS LAS VERSION
 WRAP.                                   NO : WRAPING MODE
 SWARE .                 MController 2.5.0E : SOFTWARE VERSION
~Well Information
 WELL.                                  N/A : WELL
 COMP.                                  N/A : COMPANY
 FLD.                                   N/A : FIELD
 LOC.                                   N/A : LOCATION
 DATE.                                  N/A : DATE(S) LOGGED
 SRVC.                                  N/A : SERVICE COMPANY
 STAT.                                  N/A : STATE
 CNTY.                                  N/A : COUNTY
 CTRY.                                  N/A : COUNTRY
 API.                                   N/A : API NUMBER
 STRT.FT                            1016.00 : START DEPTH
 STOP.FT                            2595.00 : STOP DEPTH
 STEP.FT                               1.00 : DEPTH INCREMENT
 NULL.                                -9999 : NULL VALUE
~Curve information
 DEPTH.FT                                   :
 ROP.MIN/FT                                 :
 GAS.UNITS                                  :
~ASCII Log data
# ...
     1416.00        0.300         65.7 
     1417.00        0.267         56.4 
     1418.00        0.233         55.5 
     1419.00        0.233         52.4 
     1420.00        0.283         50.2 
     1421.00        0.300         49.5 
     1422.00        0.267         51.2 
     1423.00        0.267         51.5 
     1424.00        0.267         52.3 
     1425.00        0.233         51.6 
     1426.00        0.233         50.8 
     1427.00        0.233         51.1 
     1428.00        0.267         53.1 
     1429.00        0.267         54.4 
     1430.00        0.233         58.2 
     1431.00        0.267         58.3 
     1432.00        0.267         56.2 
     1433.00        0.250         53.9 
     1434.00        0.233         51.2 
     1435.00        0.200         48.4 
     1436.00        6.233         48.0 
     1437.00        0.433         42.3 
     1438.00        0.467         40.5 
     1439.00        0.533         38.7 
     1440.00        0.667         34.8 
     1441.00        1.250         38.7 
     1442.00        0.367         67.0 
     1443.00        0.267         71.6 
     1444.00        0.300         72.8 
     1445.00        0.200         66.4 
     1446.00        0.200         60.3 
     1447.00        0.233         55.2 
     1448.00        0.267         53.8 
     1449.00        0.233         51.7 
     1450.00        0.267         48.3 
     1451.00        0.333         48.8 
     1452.00        0.433         53.3 
     1453.00        0.250         55.3 
     1454.00        0.267         55.5 
     1455.00        0.233         54.3 
     1456.00        0.233         53.3 
     1457.00        0.300         53.3 
     1458.00        0.267         52.1 
     1459.00        0.300         51.7 
     1460.00        0.233         52.1 
     1461.00        0.300         50.8 
     1462.00        0.233         48.0 
     1463.00        0.233         48.3 
     1464.00        0.333         45.5 
     1465.00        0.383         45.3 
     1466.00        5.483         43.7 
     1467.00        0.533         21.8 
     1468.00        1.350         20.4 
     1469.00        0.433         13.1 
     1470.00        0.300         12.8 
     1471.00        0.400         12.4 
     1472.00        0.333         14.7 
     1473.00        0.433         34.5 
     1474.00        0.400         46.3 
     1475.00        0.517         49.4 
     1476.00        0.333         41.2 
     1477.00        0.333         36.1 
     1478.00        0.267         28.9 
     1479.00        0.267         28.1 
     1480.00        0.267         24.6 
     1481.00        0.267         23.2 
     1482.00        0.267         24.1 
     1483.00        0.200         26.9 
     1484.00        0.267         28.1 
     1485.00        0.233         33.6 
     1486.00        0.267         38.1 
     1487.00        0.283         37.8 
     1488.00        0.233         34.6 
     1489.00        0.267         34.1 
     1490.00        0.267         34.6 
     1491.00        0.267         32.7 
     1492.00        0.267         31.9 
     1493.00        0.267         30.7 
     1494.00        0.300         29.5 
     1495.00        0.267         27.8 
     1496.00        6.567         27.4 
     1497.00        0.500         24.3 
     1498.00        1.183         21.1 
     1499.00        0.833         14.4 
     1500.00        0.467         14.5 
     1501.00        0.267         15.0 
     1502.00        0.267         19.9 
     1503.00        0.267         37.0 
     1504.00        0.267         56.1 
     1505.00        0.233         61.7 
     1506.00        0.183         53.6 
     1507.00        0.367         49.7 
     1508.00        0.233         38.3 
     1509.00        0.233         38.3 
     1510.00        0.333         35.4 
     1511.00        0.333         31.9 
     1512.00        0.367         31.7 
     1513.00        0.333         34.1 
     1514.00        0.267         36.6 
     1515.00        0.400         38.6 
     1516.00        0.550         36.6 
     1517.00        0.300         32.0 
     1518.00        0.200         26.3 
     1519.00        0.267         25.2 
     1520.00        0.200         23.8 
     1521.00        0.300         23.0 
     1522.00        0.400         22.5 
     1523.00        0.400         20.2 
     1524.00        0.433         18.3 
     1525.00        0.400         17.3 
     1526.00        4.800         17.4 
     1527.00        0.533         16.4 
     1528.00        0.533         13.0 
     1529.00        0.133          9.2 
     1530.00        0.533          7.8 
     1531.00        0.333          6.3 
     1532.00        0.650          6.1 
     1533.00        0.467          7.4 
     1534.00        0.267          8.1 
     1535.00        0.367         34.3 
     1536.00        0.267         71.6 
     1537.00        0.367         98.2 
     1538.00        0.533         96.3 
     1539.00        0.233         59.4 
     1540.00        0.267         51.0 
     1541.00        0.417         45.7 
     1542.00        0.400         40.7 
     1543.00        0.267         36.1 
     1544.00        0.267         36.4 
     1545.00        0.267         38.4 
     1546.00        0.367         39.8 
     1547.00        0.533         38.8 
     1548.00        0.267         35.8 
     1549.00        0.267         34.8 
     1550.00        0.550         33.0 
     1551.00        0.267         30.9 
     1552.00        0.267         29.8 
     1553.00        0.533         28.5 
     1554.00        0.533         26.3 
     1555.00        0.800         22.4 
     1556.00        5.433         18.4 
     1557.00        1.067         15.8 
     1558.00        0.600         13.0 
     1559.00        0.550          6.9 
     1560.00        0.567          5.2 
     1561.00        0.800          6.2 
     1562.00        0.667         41.7 
     1563.00        0.433         45.5 
     1564.00        0.267         43.0 
     1565.00        0.300         36.9 
     1566.00        0.317         25.7 
     1567.00        0.267         23.2 
     1568.00        0.300         22.9 
     1569.00        0.267         20.5 
     1570.00        0.233         20.1 
     1571.00        0.233         20.1 
     1572.00        0.333         22.9 
     1573.00        0.367         31.6 
     1574.00        0.267         33.6 
     1575.00        0.267         32.9 
     1576.00        0.267         31.5 
     1577.00        0.167         28.4 
     1578.00        0.350         28.0 
     1579.00        0.400         24.2 
     1580.00        0.367         21.0 
     1581.00        0.300         19.8 
     1582.00        0.300         18.9 
     1583.00        0.367         18.5 
     1584.00        0.333         18.1 
     1585.00        0.333         17.5 
     1586.00        5.667         16.6 
     1587.00        1.367         16.9 
     1588.00        1.017         16.0 
     1589.00        0.667          8.6 
     1590.00        0.433          5.9 
     1591.00        0.400          5.9 
     1592.00        0.400          6.4 
     1593.00        0.400         16.9 
     1594.00        0.367         34.8 
     1595.00        0.383         52.2 
     1596.00        0.367         52.1 
     1597.00        0.367         43.0 
     1598.00        0.367         29.6 
     1599.00        0.433         29.1 
     1600.00        0.367         21.3 
     1601.00        0.400         20.5 
     1602.00        0.367         21.3 
     1603.00        0.350         27.2 
     1604.00        0.367         28.8 
     1605.00        0.367         33.5 
     1606.00        0.400         33.9 
     1607.00        0.400         31.4 
     1608.00        0.367         29.3 
     1609.00        0.400         26.1 
     1610.00        0.367         23.0 
     1611.00        0.233         19.8 
     1612.00        0.200         17.6 
     1613.00        0.183         17.6 
     1614.00        0.167         17.2 
     1615.00        0.200         16.3 
