~Version Information
 VERS.                                  2.0 : CWLS LAS VERSION
 WRAP.                                   NO : WRAPING MODE
 SWARE .                 MController 2.5.0E : SOFTWARE VERSION
~Well Information
 WELL.                        Rangely 22-28 : WELL
 COMP.             Evergreen Operating Corp : COMPANY
 FLD.                      Purgatorie River : FIELD
 LOC.                SE/NW Sec 28 T32S R67W : LOCATION
 DATE.                09/14/2004-09/15/2004 : DATE(S) LOGGED
 SRVC.       Blanco Geological Services LLC : SERVICE COMPANY
 STAT.                                   CO : STATE
 CNTY.                           Las Animas : COUNTY
 CTRY.                                  USA : COUNTRY
 API.                       05-071-08044-00 : API NUMBER
 STRT.FT                             858.00 : START DEPTH
 STOP.FT                            2847.00 : STOP DEPTH
 STEP.FT                               1.00 : DEPTH INCREMENT
 NULL.                                -9999 : NULL VALUE
~Curve information
 DEPTH.FT                                   :
 ROP.MIN/FT                                 :
 GAS.UNITS                                  :
~ASCII Log data
# ...
     2458.00        0.467       2504.1 
     2459.00        0.467       2478.2 
     2460.00        0.467       2056.0 
     2461.00        0.367       1778.4 
     2462.00        0.300       1651.0 
     2463.00        0.267       1521.7 
     2464.00        0.300       1522.7 
     2465.00        0.233       1554.0 
     2466.00        0.267       1614.7 
     2467.00        0.283       1675.3 
     2468.00        0.333       1737.6 
     2469.00        0.400       1739.0 
     2470.00        0.367       1691.8 
     2471.00        0.500       1666.2 
     2472.00        0.533       1641.6 
     2473.00        0.367       1528.1 
     2474.00        0.400       1456.0 
     2475.00        0.450       1495.7 
     2476.00        0.467       1543.2 
     2477.00        0.367       1496.4 
     2478.00        0.400       1487.0 
     2479.00        0.433       1502.1 
     2480.00        0.433       1542.6 
     2481.00        0.433       1604.5 
     2482.00        0.467       1621.7 
     2483.00        0.417       1616.0 
     2484.00        0.400       1563.4 
     2485.00        0.267       1448.6 
     2486.00        4.617       2648.3 
     2487.00        0.333       2608.6 
     2488.00        0.267       2362.6 
     2489.00        0.267       2224.8 
     2490.00        0.233       1998.7 
     2491.00        0.250       1960.3 
     2492.00        0.267       1803.3 
     2493.00        0.333       1791.2 
     2494.00        0.400       1634.9 
     2495.00        0.400       1520.7 
     2496.00        0.333       1540.9 
     2497.00        0.300       1590.7 
     2498.00        0.367       1615.0 
     2499.00        0.267       1614.7 
     2500.00        0.300       1595.1 
     2501.00        0.350       1585.0 
     2502.00        0.333       1583.0 
     2503.00        0.300       1542.9 
     2504.00        0.300       1520.0 
     2505.00        0.300       1489.3 
     2506.00        0.300       1468.4 
     2507.00        0.367       1457.7 
     2508.00        0.367       1463.0 
     2509.00        0.367       1483.6 
     2510.00        0.333       1485.3 
     2511.00        0.350       1531.1 
     2512.00        0.400       1546.9 
     2513.00        0.467       1519.0 
     2514.00        0.467       1468.4 
     2515.00        0.433       1447.9 
     2516.00        5.633       2668.9 
     2517.00        0.533       2113.3 
     2518.00        0.533       2198.5 
     2519.00        0.500       2068.8 
     2520.00        0.467       1904.7 
     2521.00        0.333       1516.6 
     2522.00        0.283       1412.8 
     2523.00        0.367       1431.7 
     2524.00        0.400       1520.0 
     2525.00        0.367       1540.5 
     2526.00        0.433       1539.5 
     2527.00        0.467       1513.2 
     2528.00        0.467       1473.2 
     2529.00        0.567       1451.6 
     2530.00        0.450       1496.7 
     2531.00        0.500       1531.4 
     2532.00        0.533       1601.2 
     2533.00        0.400       1699.9 
     2534.00        0.367       1690.5 
     2535.00        0.367       1570.5 
     2536.00        0.333       1521.3 
     2537.00        0.367       1470.8 
     2538.00        0.383       1462.4 
     2539.00        0.367       1435.8 
     2540.00        0.400       1456.0 
     2541.00        0.433       1459.0 
     2542.00        0.367       1449.9 
     2543.00        0.400       1448.9 
     2544.00        0.567       1417.9 
     2545.00        0.567       1374.8 
     2546.00        6.233       2618.3 
     2547.00        0.950       1916.5 
     2548.00        0.967       1583.0 
     2549.00        0.567       1655.1 
     2550.00        0.600       1654.4 
     2551.00        0.633       1537.2 
     2552.00        0.583       1487.3 
     2553.00        0.600       1488.3 
     2554.00        0.533       1434.1 
     2555.00        0.333       1318.8 
     2556.00        0.367       1427.7 
     2557.00        0.467       1567.1 
     2558.00        0.533       1595.8 
     2559.00        0.517       1523.0 
     2560.00        0.467       1406.1 
     2561.00        0.833       1426.7 
     2562.00        0.567       1425.6 
     2563.00        0.467       1381.8 
     2564.00        0.683       1491.3 
     2565.00        0.667       1550.0 
     2566.00        0.867       1480.2 
     2567.00        0.967       1454.6 
     2568.00        0.767       1548.6 
     2569.00        0.850       1513.6 
     2570.00        0.833       1464.1 
     2571.00        0.533       1331.0 
     2572.00        0.300       1469.4 
     2573.00        0.267       1536.8 
     2574.00        0.333       1773.0 
     2575.00        0.383       1664.9 
     2576.00        5.983       2844.1 
     2577.00        0.883       1985.3 
     2578.00        0.767       1642.3 
     2579.00        0.700       1475.5 
     2580.00        0.733       1442.8 
     2581.00        0.700       1430.0 
     2582.00        0.783       1480.2 
     2583.00        0.933       1486.3 
     2584.00        1.033       1375.1 
     2585.00        0.783       1478.5 
     2586.00        0.733       1485.6 
     2587.00        0.767       1435.4 
     2588.00        0.967       1342.8 
     2589.00        1.683       1386.9 
     2590.00        2.167       1425.3 
     2591.00        2.283       1520.0 
     2592.00        1.950       1391.6 
     2593.00        2.267       1418.6 
     2594.00        1.750       1416.5 
     2595.00        1.333       1445.9 
     2596.00        1.483       1577.6 
     2597.00        0.767       1811.4 
     2598.00        0.967       1716.1 
     2599.00        1.783       1345.5 
     2600.00        1.200       1378.1 
     2601.00        0.867       1553.7 
     2602.00        0.683       1600.8 
     2603.00        0.500       1650.7 
     2604.00        0.467       1620.4 
     2605.00        0.433       1472.1 
     2606.00        7.167       2677.6 
     2607.00        0.900       1509.9 
     2608.00        1.383       1506.2 
     2609.00        1.067       1502.8 
     2610.00        1.033       1415.5 
     2611.00        0.350       1421.9 
     2612.00        1.267       1536.2 
     2613.00        1.267       1392.0 
     2614.00        0.583       1398.7 
     2615.00        0.333       1305.4 
     2616.00        0.300       1272.3 
     2617.00        0.267       1347.5 
     2618.00        0.333       1455.3 
     2619.00        0.433       1576.9 
     2620.00        0.467       1618.0 
     2621.00        1.067       1573.2 
     2622.00        1.250       1433.1 
     2623.00        0.800       1439.1 
     2624.00        0.733       1362.0 
     2625.00        0.750       1299.6 
     2626.00        0.700       1243.0 
     2627.00        0.800       1303.7 
     2628.00        1.033       1375.1 
     2629.00        0.567       1316.5 
     2630.00        0.650       1220.1 
     2631.00        0.633       1285.2 
     2632.00        0.767       1375.1 
     2633.00        0.833       1373.8 
     2634.00        0.750       1344.1 
     2635.00        0.667       1304.4 
     2636.00        5.517       2942.1 
     2637.00        0.383       2086.3 
     2638.00        0.333       2039.2 
     2639.00        0.267       2089.7 
     2640.00        0.300       2115.3 
     2641.00        0.567       2113.3 
     2642.00        0.567       1866.7 
     2643.00        0.533       1664.9 
     2644.00        0.567       1425.3 
     2645.00        0.550       1357.6 
     2646.00        0.600       1375.1 
     2647.00        0.667       1399.0 
     2648.00        0.633       1398.4 
     2649.00        1.383       1344.8 
     2650.00        0.767       1340.4 
     2651.00        0.767       1314.8 
     2652.00        1.067       1303.0 
     2653.00        1.017       1348.2 
     2654.00        0.900       1337.0 
     2655.00        0.700       1320.9 
     2656.00        0.867       1321.5 
     2657.00        1.083       1332.7 
