~Version Information
VERS.                      2.0: CWLS Log ASCII Standard - VERSION 2.0
WRAP.                       NO: One line per depth step
~Well Information Block
STRT.FT               866.0000: 
STOP.FT              2027.5000: 
STEP.FT                 0.1000: 
NULL.                -999.2500: 
COMP.          Petrogulf Corporation: COMPANY
WELL.             State 16-21R: WELL
FLD.           Purgatorie River: FIELD
LOC.           203' FNL & 1560' FWL: LOCATION
PROV.                 Colorado: PROVINCE
CNTY.               Las Animas: COUNTRY
SRVC.                Patterson: SERVICE COMPANY
DATE.          Tue Aug 16 13:32:09 2005: LOG DATE
UWI.                071 08313 : UNIQUE WELL ID
~Curve Information Block
DEPT.FT            0 000 00 00: Depth
DCAL.in                       : CDL Caliper
RHOB.g/cc                     : CDL Bulk Density
RHOC.g/cc                     : CDL Density Correction
DPOR.pu                       : CDL Density Porosity
GR.GAPI                       : Gamma Ray
NPOR.pu                       : Neutron Porosity
~Parameter Information Block
~A  Depth       DCAL        RHOB        RHOC        DPOR         GR         NPOR    
# ...
  1173.2000      7.9959      2.6277      0.1108      1.3505    120.2934     27.9647
  1173.3000      8.0236      2.6320      0.1300      1.0920    118.2516     27.9603
  1173.4000      8.0236      2.6490      0.0911      0.0606    116.8650     27.8368
  1173.5000      8.0521      2.6770      0.1151     -1.6334    115.9304     27.8096
  1173.6000      8.0521      2.6913      0.1190     -2.5005    114.2337     27.8913
  1173.7000      8.0521      2.6833      0.0679     -2.0162    111.5593     28.0181
  1173.8000      8.0447      2.6677      0.0790     -1.0715    108.9076     28.2153
  1173.9000      8.0447      2.6509      0.0504     -0.0547    106.1188     28.2564
  1174.0000      8.0311      2.6301      0.0705      1.2043    103.5287     27.9074
  1174.1000      8.0311      2.6089     -0.0089      2.4895    104.0519     27.3095
  1174.2000      8.0311      2.5961      0.0022      3.2660    108.2056     26.8483
  1174.3000      8.0353      2.5914     -0.0158      3.5494    111.9650     26.5622
  1174.4000      8.0353      2.5917      0.0030      3.5332    113.2583     26.1868
  1174.5000      8.0417      2.5955      0.0655      3.3027    113.6579     25.7835
  1174.6000      8.0417      2.5982      0.1059      3.1381    113.7563     25.6895
  1174.7000      8.0417      2.6014      0.1027      2.9483    113.2141     25.9464
  1174.8000      8.0442      2.6218      0.0486      1.7072    111.3937     26.2588
  1174.9000      8.0442      2.6772      0.0781     -1.6508    107.6610     26.4453
  1175.0000      8.0234      2.7623      0.0973     -6.8047    104.6626     26.4890
  1175.1000      8.0234      2.8599      0.1519    -12.7182    104.8824     26.6586
  1175.2000      8.0234      2.9624      0.1911    -18.9330    106.8350     27.1704
  1175.3000      7.9770      3.0584      0.2641    -24.7527    108.2195     27.5915
  1175.4000      7.9770      3.1183      0.2756    -28.3827    107.4209     27.5741
  1175.5000      7.9553      3.1329      0.2111    -29.2674    104.1148     27.5535
  1175.6000      7.9553      3.1287      0.1240    -29.0132     99.9266     27.8256
  1175.7000      7.9553      3.1097      0.1436    -27.8595     96.6146     27.8857
  1175.8000      7.9637      3.0437      0.0776    -23.8596     94.7460     27.2479
  1175.9000      7.9637      2.9305     -0.0631    -17.0009     94.0994     26.3901
  1176.0000      7.9916      2.8123     -0.1140     -9.8377     94.6268     26.0720
  1176.1000      7.9916      2.7220     -0.0703     -4.3620     95.9948     26.0489
  1176.2000      7.9916      2.6701     -0.0267     -1.2171     98.4167     25.7401
  1176.3000      8.0448      2.6533     -0.0007     -0.1979    100.4512     25.2490
  1176.4000      8.0448      2.6532      0.1099     -0.1941    100.5275     25.0693
  1176.5000      8.0996      2.6508      0.1322     -0.0456    100.8300     25.3158
  1176.6000      8.0996      2.6415      0.1389      0.5130    103.3939     25.6087
  1176.7000      8.0996      2.6314      0.1460      1.1270    106.3793     25.7152
  1176.8000      8.0844      2.6287      0.1019      1.2936    109.0512     25.8633
  1176.9000      8.0844      2.6335      0.1094      0.9984    112.7786     26.2085
  1177.0000      8.1065      2.6313      0.0966      1.1310    115.7190     26.4942
  1177.1000      8.1065      2.6122      0.0439      2.2893    115.2963     26.6284
  1177.2000      8.1065      2.5867      0.0597      3.8376    114.1403     26.9036
  1177.3000      8.0834      2.5741      0.0552      4.5975    115.5038     27.3139
  1177.4000      8.0834      2.5813      0.0903      4.1666    117.3571     27.5912
  1177.5000      8.0519      2.5982      0.1138      3.1410    116.9488     27.7700
  1177.6000      8.0519      2.6177      0.1183      1.9570    115.1820     27.8539
  1177.7000      8.0519      2.6382      0.1107      0.7179    114.2443     27.7000
  1177.8000      8.0226      2.6556      0.1118     -0.3402    114.2996     27.5129
  1177.9000      8.0226      2.6671      0.1401     -1.0377    114.1267     27.5352
  1178.0000      8.0124      2.6728      0.1468     -1.3836    114.0119     27.4702
  1178.1000      8.0124      2.6747      0.1331     -1.4958    115.1678     27.2365
  1178.2000      8.0124      2.6726      0.1300     -1.3725    117.7179     27.1182
  1178.3000      8.0187      2.6629      0.1200     -0.7833    119.2914     27.1061
  1178.4000      8.0187      2.6516      0.0527     -0.0951    117.0514     27.2513
  1178.5000      8.0204      2.6522      0.0495     -0.1334    112.9417     27.5005
  1178.6000      8.0204      2.6580      0.0586     -0.4868    111.8311     27.4890
  1178.7000      8.0204      2.6527      0.0694     -0.1616    113.4206     27.3651
  1178.8000      8.0509      2.6433      0.0559      0.4071    113.9028     27.5097
  1178.9000      8.0509      2.6468      0.1462      0.1968    111.9947     27.6212
  1179.0000      8.0253      2.6573      0.1524     -0.4408    109.3706     27.4057
  1179.1000      8.0253      2.6594      0.1518     -0.5697    108.0263     27.1287
  1179.2000      8.0253      2.6529      0.1084     -0.1774    107.7036     26.9559
  1179.3000      7.9656      2.6515      0.0854     -0.0939    108.5224     26.8716
  1179.4000      7.9656      2.6605      0.1106     -0.6355    111.4930     26.7685
  1179.5000      7.9720      2.6661      0.1124     -0.9755    114.0134     26.4512
  1179.6000      7.9720      2.6571      0.1015     -0.4333    113.4018     26.0311
  1179.7000      7.9720      2.6379      0.1076      0.7356    112.3192     25.8570
  1179.8000      7.9622      2.6171      0.0811      1.9950    113.4606     25.8481
  1179.9000      7.9622      2.6042      0.0243      2.7784    114.1740     25.7053
  1180.0000      8.0199      2.6125      0.0429      2.2742    111.6831     25.4525
  1180.1000      8.0199      2.6416      0.1200      0.5113    107.5134     25.3183
  1180.2000      8.0199      2.6724      0.1131     -1.3560    104.5484     25.3733
  1180.3000      8.0555      2.6920      0.1052     -2.5471    104.4469     25.4294
  1180.4000      8.0555      2.6974      0.1249     -2.8742    107.7311     25.5179
  1180.5000      8.0605      2.6900      0.0981     -2.4262    111.4083     25.8996
  1180.6000      8.0605      2.6814      0.0466     -1.9030    110.9112     26.2321
  1180.7000      8.0605      2.6854      0.0576     -2.1428    107.5974     26.1041
  1180.8000      8.1222      2.7001      0.0775     -3.0364    107.4145     25.7832
  1180.9000      8.1222      2.7031      0.0880     -3.2157    109.9136     25.6318
  1181.0000      8.1857      2.6750      0.0866     -1.5164    110.1507     25.6482
  1181.1000      8.1857      2.6285      0.0507      1.3039    109.0690     25.6022
  1181.2000      8.1857      2.5926      0.0261      3.4792    110.7473     25.4265
  1181.3000      8.2712      2.5797      0.0180      4.2579    115.4106     25.4812
  1181.4000      8.2712      2.5831      0.0420      4.0537    119.7885     25.8444
  1181.5000      8.3262      2.5898      0.0877      3.6474    120.9192     26.0626
  1181.6000      8.3262      2.5853      0.0821      3.9220    118.5844     25.9297
  1181.7000      8.3262      2.5591      0.0470      5.5106    115.3057     25.7575
  1181.8000      8.3466      2.5163      0.0127      8.1017    113.2223     25.8012
  1181.9000      8.3466      2.4727      0.0164     10.7466    111.7769     26.0420
  1182.0000      8.3614      2.4335      0.0116     13.1197    109.3226     26.4023
  1182.1000      8.3614      2.3996     -0.0215     15.1763    106.4531     26.7924
  1182.2000      8.3614      2.3794     -0.0044     16.3972    106.3614     27.2961
  1182.3000      8.3785      2.3782      0.0187     16.4728    111.6407     27.9102
  1182.4000      8.3785      2.3884      0.0379     15.8531    119.7010     28.3706
  1182.5000      8.3638      2.3969      0.0989     15.3388    122.8224     28.6366
  1182.6000      8.3638      2.3976      0.0594     15.2965    117.8187     28.9539
  1182.7000      8.3638      2.3954      0.1095     15.4318    111.9786     29.2721
