~Version Information
VERS.                      2.0: CWLS Log ASCII Standard - VERSION 2.0
WRAP.                       NO: One line per depth step
~Well Information Block
STRT.FT               710.0000: 
STOP.FT              2304.5000: 
STEP.FT                 0.2500: 
NULL.                -999.2500: 
COMP.          Pioneer Natural Resources: COMPANY
WELL.           Ogallela 44-12: WELL
FLD.           Purgatoire River: FIELD
LOC.           610' FSL & 671' FEL: LOCATION
PROV.                 Colorado: PROVINCE
CNTY.               Las Animas: COUNTRY
SRVC.                Patterson: SERVICE COMPANY
DATE.          Wed Feb 23 00:14:59 2005: LOG DATE
UWI.           05 071 08283 00: UNIQUE WELL ID
~Curve Information Block
DEPT.FT            0 000 00 00: Depth
SN.Ohm-m                      : IEL Short Normal
SP.mV                         : IEL Spontaneous Potential
DIR.Ohm-m                     : IEL Induction Resistivity
GR.GAPI                       : Gamma Ray
~Parameter Information Block
~A  Depth        SN          SP         DIR          GR     
# ...
  1983.0000     17.0392     -6.5159     12.2864     90.4406
  1983.2500     16.8917     -6.4519     12.1831     89.7391
  1983.5000     16.4520     -6.3802     12.1208     88.2964
  1983.7500     15.6906     -6.3046     12.1073     86.7136
  1984.0000     14.7143     -6.2299     12.1492     83.0649
  1984.2500     13.7926     -6.1687     12.2422     80.0168
  1984.5000     13.2247     -6.1438     12.3717     75.3976
  1984.7500     13.1923     -6.1752     12.5213     72.6932
  1985.0000     13.7161     -6.2644     12.6846     69.5226
  1985.2500     14.6480     -6.3921     12.8678     68.1151
  1985.5000     15.7138     -6.5316     13.0817     67.0795
  1985.7500     16.6418     -6.6670     13.3288     66.8775
  1986.0000     17.2956     -6.8032     13.5965     66.8095
  1986.2500     17.7118     -6.9645     13.8604     66.8744
  1986.5000     18.0052     -7.1863     14.0973     67.3666
  1986.7500     18.2727     -7.5065     14.2994     67.9034
  1987.0000     18.5968     -7.9585     14.4794     68.4061
  1987.2500     19.0295     -8.5701     14.6626     68.2054
  1987.5000     19.5444     -9.3652     14.8733     67.1635
  1987.7500     20.0698    -10.3649     15.1230     66.3287
  1988.0000     20.5557    -11.5804     15.4064     65.5591
  1988.2500     20.9815    -12.9980     15.7069     65.6785
  1988.5000     21.3197    -14.5659     16.0055     66.9783
  1988.7500     21.5165    -16.1941     16.2875     68.3639
  1989.0000     21.5097    -17.7656     16.5445     70.4304
  1989.2500     21.2536    -19.1543     16.7743     71.4709
  1989.5000     20.7563    -20.2468     16.9799     72.6611
  1989.7500     20.1355    -20.9678     17.1700     73.5806
  1990.0000     19.6202    -21.3004     17.3546     75.7750
  1990.2500     19.4686    -21.2898     17.5402     77.9345
  1990.5000     19.8506    -21.0250     17.7278     81.8994
  1990.7500     20.7425    -20.6057     17.9149     84.5020
  1991.0000     21.9198    -20.1095     18.0986     87.2958
  1991.2500     23.0916    -19.5750     18.2750     88.0977
  1991.5000     24.0594    -19.0078     18.4378     87.8897
  1991.7500     24.7917    -18.4033     18.5813     87.0485
  1992.0000     25.3919    -17.7671     18.7082     84.8053
  1992.2500     25.9727    -17.1202     18.8362     82.5892
  1992.5000     26.5528    -16.4904     18.9931     78.4402
  1992.7500     27.0748    -15.8987     19.1968     75.5235
  1993.0000     27.4859    -15.3518     19.4296     71.6041
  1993.2500     27.7795    -14.8452     19.6262     69.5452
  1993.5000     27.9510    -14.3753     19.6951     67.6230
  1993.7500     27.9499    -13.9516     19.5707     67.3437
  1994.0000     27.7485    -13.5996     19.2602     68.6753
  1994.2500     27.4103    -13.3517     18.8359     70.5920
  1994.5000     27.0086    -13.2294     18.3807     74.2317
  1994.7500     26.5446    -13.2296     17.9378     76.6683
  1995.0000     25.9699    -13.3226     17.5040     80.0901
  1995.2500     25.2309    -13.4637     17.0583     82.5156
  1995.5000     24.3102    -13.6112     16.5930     87.0493
  1995.7500     23.2666    -13.7412     16.1228     90.7358
  1996.0000     22.2236    -13.8519     15.6740     96.5282
  1996.2500     21.2894    -13.9551     15.2725     99.8402
  1996.5000     20.4779    -14.0622     14.9404    102.9238
  1996.7500     19.7314    -14.1751     14.6973    103.5206
  1997.0000     18.9995    -14.2831     14.5574    102.5286
  1997.2500     18.2652    -14.3675     14.5232    100.7713
  1997.5000     17.5777    -14.4118     14.5803     96.1772
  1997.7500     17.0955    -14.4131     14.7023     91.4651
  1998.0000     16.9913    -14.3906     14.8625     81.9349
  1998.2500     17.3405    -14.3831     15.0490     74.5662
  1998.5000     18.1820    -14.4260     15.2670     63.8159
  1998.7500     19.5560    -14.5175     15.5252     57.9513
  1999.0000     21.4075    -14.6020     15.8142     52.5128
  1999.2500     23.5662    -14.5950     16.0935     51.4897
  1999.5000     25.8146    -14.4298     16.2992     53.2671
  1999.7500     27.8509    -14.0890     16.3701     55.5180
  2000.0000     29.2724    -13.6038     16.2723     58.0777
  2000.2500     29.7481    -13.0237     16.0062     58.4340
  2000.5000     29.1545    -12.3740     15.5991     57.4280
  2000.7500     27.5875    -11.6322     15.0970     56.7875
  2001.0000     25.3709    -10.7492     14.5554     57.7533
  2001.2500     22.9560     -9.7047     14.0275     60.3049
  2001.5000     20.7136     -8.5489     13.5491     67.1104
  2001.7500     18.8336     -7.3944     13.1318     73.3424
  2002.0000     17.3450     -6.3630     12.7672     84.2195
  2002.2500     16.1777     -5.5302     12.4390     91.4995
  2002.5000     15.2576     -4.9037     12.1335    100.4518
  2002.7500     14.5709     -4.4421     11.8449    104.3646
  2003.0000     14.1594     -4.0908     11.5747    107.2915
  2003.2500     14.0949     -3.8106     11.3311    107.8993
  2003.5000     14.4078     -3.5876     11.1274    107.9177
  2003.7500     15.0051     -3.4270     10.9813    107.8761
  2004.0000     15.7189     -3.3410     10.9129    108.4145
  2004.2500     16.4208     -3.3373     10.9414    109.2617
  2004.5000     17.0555     -3.4126     11.0806    110.7587
  2004.7500     17.6050     -3.5482     11.3358    111.4904
  2005.0000     18.0556     -3.7118     11.7028    111.8282
  2005.2500     18.4040     -3.8659     12.1695    111.5861
  2005.5000     18.6782     -3.9805     12.7177    110.8183
  2005.7500     18.9177     -4.0396     13.3208    110.2285
  2006.0000     19.1297     -4.0415     13.9374    109.3650
  2006.2500     19.2829     -3.9962     14.5125    108.7112
  2006.5000     19.3577     -3.9201     14.9946    107.3711
  2006.7500     19.3739     -3.8284     15.3625    106.2063
  2007.0000     19.3526     -3.7272     15.6346    104.1353
  2007.2500     19.3032     -3.6125     15.8480    102.5119
  2007.5000     19.2557     -3.4778     16.0276     99.4262
  2007.7500     19.2525     -3.3221     16.1740     96.7519
  2008.0000     19.3061     -3.1498     16.2762     91.7836
  2008.2500     19.4076     -2.9647     16.3306     88.0224
  2008.5000     19.5657     -2.7664     16.3464     82.3000
  2008.7500     19.7906     -2.5546     16.3316     78.8983
  2009.0000     20.0503     -2.3350     16.2760     75.3484
  2009.2500     20.2832     -2.1186     16.1488     74.4687
  2009.5000     20.4318     -1.9157     15.9163     75.4338
  2009.7500     20.4298     -1.7388     15.5666     77.0933
  2010.0000     20.2117     -1.6093     15.1219     79.9879
  2010.2500     19.7755     -1.5496     14.6305     81.9940
  2010.5000     19.1945     -1.5593     14.1465     85.7412
  2010.7500     18.5611     -1.6039     13.7118     89.0249
  2011.0000     17.9418     -1.6357     13.3491     94.5396
  2011.2500     17.3791     -1.6273     13.0613     97.8973
  2011.5000     16.9023     -1.5853     12.8376    101.6649
  2011.7500     16.5064     -1.5387     12.6594    103.1981
  2012.0000     16.1457     -1.5185     12.5080    103.8153
  2012.2500     15.7850     -1.5391     12.3699    102.9545
  2012.5000     15.4387     -1.5897     12.2394     99.8764
  2012.7500     15.1329     -1.6418     12.1169     96.9963
  2013.0000     14.8652     -1.6701     12.0061     92.3355
  2013.2500     14.6334     -1.6701     11.9122     89.6103
  2013.5000     14.4709     -1.6598     11.8409     87.1129
  2013.7500     14.4177     -1.6660     11.7995     86.7711
  2014.0000     14.4716     -1.7078     11.7962     87.5526
  2014.2500     14.5935     -1.7929     11.8386     88.0237
  2014.5000     14.7442     -1.9266     11.9308     87.4530
  2014.7500     14.8903     -2.1261     12.0710     86.2917
  2015.0000     14.9960     -2.4285     12.2514     84.5311
  2015.2500     15.0583     -2.8849     12.4631     83.9393
  2015.5000     15.1349     -3.5389     12.7003     84.0146
  2015.7500     15.2961     -4.4014     12.9604     84.3594
  2016.0000     15.5686     -5.4378     13.2395     84.6356
  2016.2500     15.9275     -6.5792     13.5274     84.3628
