~Version Information
VERS.                      2.0: CWLS Log ASCII Standard - VERSION 2.0
WRAP.                       NO: One line per depth step
~Well Information Block
STRT.FT               640.0000: 
STOP.FT               927.0000: 
STEP.FT                 0.1000: 
NULL.                -999.2500: 
COMP.          Pioneer Natural Resources: COMPANY
WELL.          Claim Jumper 41-22: WELL
FLD.           Purgatoire River: FIELD
LOC.           1120' FNL & 977' FEL: LOCATION
PROV.                 Colorado: PROVINCE
CNTY.               Las Animas: COUNTRY
SRVC.                Patterson: SERVICE COMPANY
DATE.          Thu Jun 23 08:35:14 2005: LOG DATE
UWI.           05-071-08405-00: UNIQUE WELL ID
~Curve Information Block
DEPT.FT            0 000 00 00: Depth
DCAL.in                       : CDL Caliper
RHOB.g/cc                     : CDL Bulk Density
RHOC.g/cc                     : CDL Density Correction
DPOR.pu                       : CDL Density Porosity
GR.GAPI                       : Gamma Ray
NPOR.pu                       : Neutron Porosity
~Parameter Information Block
~A  Depth       DCAL        RHOB        RHOC        DPOR         GR         NPOR    
# ...
   678.4000      7.9365      2.6370      0.0808      0.7903     70.2135     22.4959
   678.5000      7.9398      2.6069      0.0922      2.6134     62.2965     21.1218
   678.6000      7.9398      2.5822      0.0548      4.1087     53.6917     20.2914
   678.7000      7.9398      2.5776      0.0758      4.3902     52.3026     20.2807
   678.8000      7.9519      2.5891      0.1021      3.6887     60.4734     20.5283
   678.9000      7.9519      2.6030      0.0573      2.8461     65.0021     20.5360
   679.0000      7.9610      2.6125      0.1052      2.2731     62.5593     20.3792
   679.1000      7.9610      2.6055      0.1090      2.6991     64.7164     20.1704
   679.2000      7.9610      2.5775      0.1421      4.3943     71.4927     20.0378
   679.3000      7.9524      2.5521      0.0818      5.9319     71.9993     20.2521
   679.4000      7.9524      2.5554      0.1135      5.7318     65.2384     20.6095
   679.5000      7.9335      2.5852      0.0880      3.9298     56.4053     20.6700
   679.6000      7.9335      2.6270      0.1511      1.3925     49.2859     20.5803
   679.7000      7.9335      2.6817      0.1694     -1.9205     48.1042     20.6389
   679.8000      7.9260      2.7561      0.2493     -6.4309     51.4337     20.8084
   679.9000      7.9260      2.8310      0.3294    -10.9705     54.0468     21.0356
   680.0000      7.9298      2.8631      0.3638    -12.9133     57.3993     21.1257
   680.1000      7.9298      2.8300      0.2618    -10.9113     62.0009     21.0178
   680.2000      7.9298      2.7550      0.2007     -6.3652     64.2825     20.9452
   680.3000      7.9345      2.6671      0.1573     -1.0365     66.1629     20.9813
   680.4000      7.9345      2.5778      0.0445      4.3730     69.4328     21.0679
   680.5000      7.9320      2.5055      0.0188      8.7604     71.0879     21.2575
   680.6000      7.9320      2.4666      0.0328     11.1154     68.9374     21.6913
   680.7000      7.9320      2.4608      0.0342     11.4654     66.7121     22.1233
   680.8000      7.9246      2.4880      0.0393      9.8175     70.0649     21.9445
   680.9000      7.9246      2.5439      0.1118      6.4328     76.9941     21.2257
   681.0000      7.9163      2.6012      0.1452      2.9567     80.9201     20.6646
   681.1000      7.9163      2.6313      0.1645      1.1330     81.2574     20.4334
   681.2000      7.9163      2.6299      0.1326      1.2155     78.4072     19.8924
   681.3000      7.9101      2.6086      0.0950      2.5067     75.3640     18.4433
   681.4000      7.9101      2.5726      0.1235      4.6934     74.6912     16.3563
   681.5000      7.9153      2.5203      0.0768      7.8597     72.6764     14.5242
   681.6000      7.9153      2.4493      0.0421     12.1645     69.7849     13.3649
   681.7000      7.9153      2.3484      0.0728     18.2797     67.1536     12.6900
   681.8000      7.9358      2.2138      0.0130     26.4346     62.5131     12.2754
   681.9000      7.9358      2.0645     -0.0391     35.4845     56.7505     12.0351
   682.0000      7.9685      1.9153     -0.0773     44.5248     54.2743     11.9367
   682.1000      7.9685      1.7836     -0.1841     52.5091     55.7652     12.0657
   682.2000      7.9685      1.6995     -0.1178     57.6083     56.2890     12.5770
   682.3000      8.0185      1.6710     -0.0880     59.3352     52.9153     13.6003
   682.4000      8.0185      1.6908      0.0037     58.1319     47.9927     14.9761
   682.5000      8.0757      1.7554      0.0886     54.2165     44.6346     16.1332
   682.6000      8.0757      1.8515      0.1768     48.3938     45.1301     16.9634
   682.7000      8.0757      1.9605      0.1979     41.7900     52.0700     18.0854
   682.8000      8.1173      2.0770      0.1826     34.7257     64.4491     19.6902
   682.9000      8.1173      2.1962      0.2636     27.5052     77.6841     21.1680
   683.0000      8.1362      2.2969      0.2431     21.3978     87.8034     22.2061
   683.1000      8.1362      2.3668      0.2380     17.1653     92.1452     22.9296
   683.2000      8.1362      2.4091      0.1936     14.6022     91.7261     23.2480
   683.3000      8.1372      2.4315      0.1713     13.2450     93.6210     23.2518
   683.4000      8.1372      2.4497      0.1483     12.1395     99.2566     23.1114
   683.5000      8.1299      2.4750      0.1989     10.6084    102.0567     23.0089
   683.6000      8.1299      2.4974      0.2336      9.2495     99.9708     23.0691
   683.7000      8.1299      2.5084      0.2083      8.5835     99.3573     23.0005
   683.8000      8.1277      2.5124      0.2062      8.3371    106.2477     22.5611
   683.9000      8.1277      2.5174      0.1904      8.0342    117.4154     22.0678
   684.0000      8.1375      2.5342      0.1898      7.0168    120.2328     21.9733
   684.1000      8.1375      2.5677      0.1825      4.9855    109.8199     22.1991
   684.2000      8.1375      2.6098      0.1782      2.4374     97.3120     22.2764
   684.3000      8.1512      2.6433      0.2426      0.4089     91.1157     22.2818
   684.4000      8.1512      2.6605      0.1523     -0.6361     88.9820     22.6243
   684.5000      8.1435      2.6701      0.1920     -1.2197     88.0633     23.1304
   684.6000      8.1435      2.6656      0.2256     -0.9474     88.2573     23.4542
   684.7000      8.1435      2.6407      0.1637      0.5644     91.2177     23.5264
   684.8000      8.1125      2.6133      0.1377      2.2257     97.7579     23.4777
   684.9000      8.1125      2.5927      0.1449      3.4741    101.5287     23.6268
   685.0000      8.0640      2.5729      0.0663      4.6742     98.7347     24.1474
   685.1000      8.0640      2.5557      0.0783      5.7133     96.1424     24.5390
   685.2000      8.0640      2.5432      0.0402      6.4706     97.2859     24.1869
   685.3000      8.0004      2.5284      0.0092      7.3684     99.4495     23.4419
   685.4000      8.0004      2.5095      0.0406      8.5163    100.0278     22.8926
   685.5000      7.9587      2.4995      0.0388      9.1233     97.1388     22.6379
   685.6000      7.9587      2.5101      0.0584      8.4769     92.6158     22.5380
   685.7000      7.9587      2.5346      0.0735      6.9963     90.0547     22.2527
   685.8000      7.9428      2.5563      0.1262      5.6795     91.2549     21.5912
   685.9000      7.9428      2.5604      0.1536      5.4292     96.9043     20.7785
   686.0000      7.9331      2.5305      0.1629      7.2436    102.2638     20.1432
   686.1000      7.9331      2.4614      0.0580     11.4329    103.1253     19.6422
   686.2000      7.9331      2.3695      0.0700     17.0030    103.9034     19.0566
   686.3000      7.9160      2.2670      0.0715     23.2150    108.9122     18.3819
   686.4000      7.9160      2.1575      0.0437     29.8488    115.7540     17.8819
   686.5000      7.8905      2.0520      0.0253     36.2429    121.5910     17.7496
   686.6000      7.8905      1.9727     -0.0030     41.0490    129.0586     17.8712
   686.7000      7.8905      1.9463     -0.0227     42.6467    142.5158     18.0168
   686.8000      7.8768      1.9772      0.0410     40.7732    153.9449     18.1871
   686.9000      7.8768      2.0426      0.1324     36.8125    152.6814     18.7337
   687.0000      7.8822      2.1248      0.1426     31.8280    145.9173     19.7108
   687.1000      7.8822      2.2201      0.2581     26.0564    143.2665     20.7105
   687.2000      7.8822      2.3190      0.3023     20.0624    140.0216     21.5810
   687.3000      7.8959      2.4095      0.3690     14.5757    133.3244     22.4305
   687.4000      7.8959      2.4872      0.3309      9.8639    128.8711     23.1251
   687.5000      7.9141      2.5469      0.3029      6.2509    127.3933     23.6400
   687.6000      7.9141      2.5716      0.2430      4.7525    125.0486     24.1934
   687.7000      7.9141      2.5552      0.2106      5.7446    122.3247     24.5470
   687.8000      7.9423      2.5223      0.0842      7.7388    121.8210     24.3938
   687.9000      7.9423      2.5061      0.0775      8.7212    121.4923     24.1140
