~Version Information
 VERS.                      2.0: CWLS Log ASCII Standard - VERSION 2.0
 WRAP.                       NO: One line per depth step
 ~Well Information Block
 STRT.FT               130.0000: 
 STOP.FT              1766.9000: 
 STEP.FT                 0.1000: 
 NULL.                -999.2500: 
 COMP.          Petrogulf Corporation: COMPANY
 WELL.           Parsons 23-15V: WELL
 FLD.           Purgatorie River: FIELD
 LOC.           2095' FSL & 1817' FWL--API 05 071 07556 00----: LOCATION
 CNTY.               Las Animas: COUNTY
 SRVC.                         : SERVICE COMPANY
 DATE.          Fri Apr 19 17:40:55 2002: LOG DATE
 UWI.                          : UNIQUE WELL ID
 STAT.                       CO: STATE
 PROV.                         :Province
 ~Curve Information Block
 DEPT.FT            0 000 00 00: Depth
 DCAL.in                       : CDL Caliper
 RHOB.g/cc                     : CDL Bulk Density
 RHOC.g/cc                     : CDL Density Correction
 DPOR.pu                       : CDL Density Porosity
 GR.GAPI                       : Gamma Ray
 NPOR.pu                       : Neutron Porosity
 ~Parameter Information Block
 ~A  Depth       DCAL        RHOB        RHOC        DPOR         GR         NPOR    
# ...
  1224.4000      7.8499      2.5707      0.0466      4.8044    119.6705     22.0177
  1224.5000      7.8557      2.5710      0.0467      4.7899    118.3307     22.0332
  1224.6000      7.8557      2.5714      0.0473      4.7636    117.3343     22.0457
  1224.7000      7.8557      2.5720      0.0481      4.7274    116.6828     22.0517
  1224.8000      7.8558      2.5727      0.0491      4.6830    116.3537     22.0467
  1224.9000      7.8558      2.5736      0.0501      4.6321    116.3021     22.0260
  1225.0000      7.8458      2.5745      0.0510      4.5758    116.4723     21.9854
  1225.1000      7.8458      2.5755      0.0518      4.5155    116.7975     21.9217
  1225.2000      7.8458      2.5765      0.0525      4.4520    117.2103     21.8334
  1225.3000      7.8375      2.5776      0.0529      4.3866    117.6418     21.7220
  1225.4000      7.8375      2.5787      0.0532      4.3204    118.0327     21.5912
  1225.5000      7.8426      2.5798      0.0534      4.2554    118.3296     21.4465
  1225.6000      7.8426      2.5808      0.0534      4.1939    118.4970     21.2946
  1225.7000      7.8426      2.5817      0.0535      4.1388    118.5215     21.1427
  1225.8000      7.8489      2.5825      0.0534      4.0931    118.4098     20.9967
  1225.9000      7.8489      2.5830      0.0532      4.0604    118.1959     20.8616
  1226.0000      7.8381      2.5833      0.0529      4.0437    117.9300     20.7409
  1226.1000      7.8381      2.5832      0.0524      4.0459    117.6788     20.6370
  1226.2000      7.8381      2.5829      0.0516      4.0688    117.5151     20.5523
  1226.3000      7.8138      2.5821      0.0506      4.1133    117.5077     20.4894
  1226.4000      7.8138      2.5810      0.0493      4.1789    117.7158     20.4521
  1226.5000      7.7989      2.5796      0.0478      4.2639    118.1823     20.4459
  1226.6000      7.7989      2.5780      0.0460      4.3655    118.9332     20.4766
  1226.7000      7.7989      2.5761      0.0441      4.4792    119.9720     20.5516
  1226.8000      7.8010      2.5741      0.0420      4.6003    121.2816     20.6770
  1226.9000      7.8010      2.5721      0.0399      4.7232    122.8290     20.8571
  1227.0000      7.8146      2.5701      0.0379      4.8423    124.5638     21.0930
  1227.1000      7.8146      2.5683      0.0359      4.9521    126.4242     21.3815
  1227.2000      7.8146      2.5667      0.0342      5.0476    128.3410     21.7142
  1227.3000      7.8284      2.5654      0.0327      5.1249    130.2379     22.0777
  1227.4000      7.8284      2.5645      0.0315      5.1811    132.0336     22.4538
  1227.5000      7.8298      2.5640      0.0307      5.2143    133.6484     22.8209
  1227.6000      7.8298      2.5638      0.0304      5.2243    135.0033     23.1558
  1227.7000      7.8298      2.5640      0.0304      5.2118    136.0264     23.4366
  1227.8000      7.8198      2.5645      0.0309      5.1788    136.6630     23.6450
  1227.9000      7.8198      2.5654      0.0318      5.1285    136.8811     23.7687
  1228.0000      7.8157      2.5664      0.0329      5.0647    136.6817     23.8043
  1228.1000      7.8157      2.5676      0.0342      4.9917    136.1011     23.7557
  1228.2000      7.8157      2.5689      0.0356      4.9143    135.2121     23.6353
  1228.3000      7.8171      2.5702      0.0370      4.8369    134.1188     23.4605
  1228.4000      7.8171      2.5714      0.0383      4.7636    132.9424     23.2506
  1228.5000      7.8166      2.5725      0.0394      4.6982    131.8082     23.0242
  1228.6000      7.8166      2.5734      0.0403      4.6434    130.8285     22.7966
  1228.7000      7.8166      2.5741      0.0409      4.6011    130.0914     22.5791
  1228.8000      7.8125      2.5746      0.0413      4.5720    129.6465     22.3796
  1228.9000      7.8125      2.5748      0.0414      4.5562    129.5108     22.2036
  1229.0000      7.8045      2.5749      0.0413      4.5527    129.6635     22.0573
  1229.1000      7.8045      2.5748      0.0410      4.5597    130.0547     21.9484
  1229.2000      7.8045      2.5745      0.0407      4.5752    130.6220     21.8861
  1229.3000      7.7950      2.5742      0.0404      4.5968    131.2952     21.8806
  1229.4000      7.7950      2.5737      0.0403      4.6221    132.0120     21.9394
  1229.5000      7.7902      2.5733      0.0404      4.6489    132.7270     22.0654
  1229.6000      7.7902      2.5729      0.0409      4.6754    133.4134     22.2541
  1229.7000      7.7902      2.5724      0.0418      4.7004    134.0631     22.4930
  1229.8000      7.7966      2.5721      0.0431      4.7230    134.6793     22.7625
  1229.9000      7.7966      2.5717      0.0447      4.7430    135.2695     23.0380
  1230.0000      7.8114      2.5715      0.0466      4.7604    135.8336     23.2950
  1230.1000      7.8114      2.5712      0.0486      4.7756    136.3613     23.5131
  1230.2000      7.8114      2.5710      0.0506      4.7888    136.8239     23.6804
  1230.3000      7.8181      2.5708      0.0525      4.8007    137.1908     23.7949
  1230.4000      7.8181      2.5706      0.0542      4.8115    137.4291     23.8657
  1230.5000      7.8085      2.5704      0.0556      4.8215    137.5211     23.9101
  1230.6000      7.8085      2.5703      0.0566      4.8309    137.4727     23.9504
  1230.7000      7.8085      2.5701      0.0574      4.8397    137.3153     24.0095
  1230.8000      7.7896      2.5700      0.0578      4.8481    137.1099     24.1067
  1230.9000      7.7896      2.5699      0.0579      4.8562    136.9326     24.2551
  1231.0000      7.7796      2.5697      0.0577      4.8641    136.8608     24.4595
  1231.1000      7.7796      2.5696      0.0572      4.8725    136.9574     24.7157
  1231.2000      7.7796      2.5695      0.0564      4.8818    137.2557     25.0114
  1231.3000      7.7854      2.5693      0.0551      4.8926    137.7496     25.3284
  1231.4000      7.7854      2.5691      0.0533      4.9058    138.3920     25.6447
  1231.5000      7.7938      2.5688      0.0511      4.9218    139.1013     25.9376
  1231.6000      7.7938      2.5685      0.0483      4.9412    139.7772     26.1857
  1231.7000      7.7938      2.5681      0.0452      4.9642    140.3238     26.3717
  1231.8000      7.8015      2.5677      0.0417      4.9908    140.6679     26.4835
  1231.9000      7.8015      2.5672      0.0380      5.0207    140.7758     26.5151
  1232.0000      7.8110      2.5666      0.0343      5.0532    140.6650     26.4680
  1232.1000      7.8110      2.5661      0.0307      5.0876    140.3974     26.3487
  1232.2000      7.8110      2.5655      0.0274      5.1228    140.0661     26.1708
  1232.3000      7.8156      2.5649      0.0246      5.1576    139.7745     25.9516
  1232.4000      7.8156      2.5644      0.0222      5.1908    139.6138     25.7118
  1232.5000      7.8135      2.5639      0.0205      5.2211    139.6425     25.4739
  1232.6000      7.8135      2.5634      0.0193      5.2475    139.8783     25.2591
  1232.7000      7.8135      2.5631      0.0189      5.2685    140.2996     25.0858
  1232.8000      7.8076      2.5628      0.0190      5.2833    140.8533     24.9677
  1232.9000      7.8076      2.5627      0.0198      5.2904    141.4748     24.9122
  1233.0000      7.8044      2.5627      0.0210      5.2884    142.0987     24.9195
  1233.1000      7.8044      2.5629      0.0226      5.2758    142.6748     24.9828
  1233.2000      7.8044      2.5634      0.0244      5.2505    143.1684     25.0895
  1233.3000      7.8090      2.5640      0.0261      5.2097    143.5588     25.2231
  1233.4000      7.8090      2.5650      0.0277      5.1499    143.8345     25.3657
  1233.5000      7.8144      2.5664      0.0290      5.0668    143.9861     25.5008
  1233.6000      7.8144      2.5682      0.0298      4.9552    143.9982     25.6145
  1233.7000      7.8144      2.5706      0.0303      4.8094    143.8555     25.6988
  1233.8000      7.8122      2.5737      0.0304      4.6233    143.5420     25.7501
  1233.9000      7.8122      2.5775      0.0304      4.3909    143.0474     25.7700
