~Version Information
 VERS.                                  2.0 : CWLS LAS VERSION
 WRAP.                                   NO : WRAPING MODE
 SWARE .                 MController 2.5.0E : SOFTWARE VERSION
~Well Information
 WELL.                                  N/A : WELL
 COMP.                                  N/A : COMPANY
 FLD.                                   N/A : FIELD
 LOC.                                   N/A : LOCATION
 DATE.                                  N/A : DATE(S) LOGGED
 SRVC.                                  N/A : SERVICE COMPANY
 STAT.                                  N/A : STATE
 CNTY.                                  N/A : COUNTY
 CTRY.                                  N/A : COUNTRY
 API.                                   N/A : API NUMBER
 STRT.FT                            1016.00 : START DEPTH
 STOP.FT                            2595.00 : STOP DEPTH
 STEP.FT                               1.00 : DEPTH INCREMENT
 NULL.                                -9999 : NULL VALUE
~Curve information
 DEPTH.FT                                   :
 ROP.MIN/FT                                 :
 GAS.UNITS                                  :
~ASCII Log data
     1016.00    24391.666        166.1 
     1017.00        1.133          8.9 
     1018.00        0.400          8.3 
     1019.00        0.200          7.2 
     1020.00        0.233          6.3 
     1021.00        0.167          6.4 
     1022.00        0.200          6.0 
     1023.00        0.167          4.7 
     1024.00        0.217          5.4 
     1025.00        0.133          0.5 
     1026.00        0.133         20.4 
     1027.00        0.200         20.5 
     1028.00        0.167         19.6 
     1029.00        0.100         19.0 
     1030.00        0.100         19.0 
     1031.00        0.200         19.9 
     1032.00        0.267         18.8 
     1033.00        0.267         18.5 
     1034.00        0.233         18.6 
     1035.00        0.333         21.2 
     1036.00        0.317         17.7 
     1037.00        0.300         14.7 
     1038.00        0.267         11.3 
     1039.00        0.233         41.9 
     1040.00        0.200         25.0 
     1041.00        0.167         25.0 
     1042.00        0.167          1.7 
     1043.00        0.167          1.0 
     1044.00        0.200          1.0 
     1045.00        0.317          1.7 
     1046.00        2.400          5.8 
     1047.00        0.450          7.0 
     1048.00        0.267          7.1 
     1049.00        0.267          6.6 
     1050.00        0.267          6.1 
     1051.00        0.267          5.4 
     1052.00        0.200          5.1 
     1053.00        0.200          4.8 
     1054.00        0.267          4.2 
     1055.00        0.233          4.0 
     1056.00        0.200          4.0 
     1057.00        0.200          3.8 
     1058.00        0.167          3.9 
     1059.00        0.167          3.7 
     1060.00        0.217          3.7 
     1061.00        0.200          3.5 
     1062.00        0.167          2.9 
     1063.00        0.200          2.9 
     1064.00        0.200          4.2 
     1065.00        0.233          3.8 
     1066.00        0.200          2.9 
     1067.00        0.200          3.7 
     1068.00        0.200          3.7 
     1069.00        0.167          3.9 
     1070.00        0.200          2.6 
     1071.00        0.267          2.8 
     1072.00        0.200          2.7 
     1073.00        0.167          2.7 
     1074.00        0.217          3.8 
     1075.00        0.167          3.8 
     1076.00        3.183          3.8 
     1077.00        0.433          2.0 
     1078.00        0.333          1.3 
     1079.00        0.400          0.1 
     1080.00        0.300          0.7 
     1081.00        0.333          1.0 
     1082.00        0.300          0.5 
     1083.00        0.300          0.7 
     1084.00        0.233          0.6 
     1085.00        0.250          0.9 
     1086.00        0.233          0.6 
     1087.00        0.200          0.3 
     1088.00        0.233          0.9 
     1089.00        0.200          0.9 
     1090.00        0.233          1.1 
     1091.00        0.233          0.7 
     1092.00        0.267          1.3 
     1093.00        0.267          0.7 
     1094.00        0.400          0.9 
     1095.00        0.417          1.0 
     1096.00        0.333          0.4 
     1097.00        0.233          0.6 
     1098.00        0.267          0.4 
     1099.00        0.267          0.7 
     1100.00        0.267          0.1 
     1101.00        0.300          1.1 
     1102.00        0.267          1.3 
     1103.00        0.233          8.6 
     1104.00        0.200         12.9 
     1105.00        0.617         15.6 
     1106.00        3.067         24.3 
     1107.00        0.250         24.5 
     1108.00        0.400         24.6 
     1109.00        0.333         26.8 
     1110.00        0.400         21.6 
     1111.00        0.300         19.3 
     1112.00        0.300         20.0 
     1113.00        0.233         27.8 
     1114.00        0.267         16.0 
     1115.00        0.233         15.3 
     1116.00        0.267         14.4 
     1117.00        0.233         13.1 
     1118.00        0.233         11.4 
     1119.00        0.250         11.7 
     1120.00        0.233          9.4 
     1121.00        0.233          8.2 
     1122.00        0.167          8.2 
     1123.00        0.233          7.7 
     1124.00        0.233          7.3 
     1125.00        0.200          6.5 
     1126.00        0.233          6.1 
     1127.00        0.200          5.3 
     1128.00        0.233          4.8 
     1129.00        0.200          5.3 
     1130.00        0.233          4.3 
     1131.00        0.200          4.2 
     1132.00        0.167          4.2 
     1133.00        0.200          5.3 
     1134.00        0.200          5.5 
     1135.00        0.217          4.9 
     1136.00        4.250         21.4 
     1137.00        0.300         16.2 
     1138.00        0.333         14.6 
     1139.00        0.333         12.4 
     1140.00        0.267         12.6 
     1141.00        0.300         20.2 
     1142.00        0.267         12.5 
     1143.00        0.233         12.2 
     1144.00        0.283         27.5 
     1145.00        0.233         21.3 
     1146.00        0.200         16.4 
     1147.00        0.133         16.4 
     1148.00        0.200         15.5 
     1149.00        0.200         13.7 
     1150.00        0.167         13.3 
     1151.00        0.167         12.6 
     1152.00        0.233         12.6 
     1153.00        0.233         11.8 
     1154.00        0.233         11.0 
     1155.00        0.200         10.8 
     1156.00        0.200          9.2 
     1157.00        0.200          9.8 
     1158.00        0.200          9.1 
     1159.00        0.233          8.8 
     1160.00        0.200          8.8 
     1161.00        0.250          8.5 
     1162.00        0.233          9.9 
     1163.00        0.200         11.7 
     1164.00        0.200         11.7 
     1165.00        0.233         14.5 
     1166.00        3.917         15.5 
     1167.00        0.300         10.7 
     1168.00        0.300         12.3 
     1169.00        0.200         34.3 
     1170.00        0.200         34.3 
     1171.00        0.233         48.1 
     1172.00        0.200         44.6 
     1173.00        0.267         43.3 
     1174.00        0.283         26.5 
     1175.00        0.233         13.4 
     1176.00        0.233         11.6 
     1177.00        0.233          9.0 
     1178.00        0.233          6.3 
     1179.00        0.233          6.1 
     1180.00        0.167          5.0 
     1181.00        0.167          4.2 
     1182.00        0.233          4.7 
     1183.00        0.200          4.6 
     1184.00        0.233          4.1 
     1185.00        0.200          4.4 
     1186.00        0.233          4.0 
     1187.00        0.233          3.7 
     1188.00        0.200          4.1 
     1189.00        0.250          5.5 
     1190.00        0.233          3.7 
     1191.00        0.267          4.5 
     1192.00        0.267          4.5 
     1193.00        0.267          4.8 
     1194.00        0.267          4.8 
     1195.00        0.267          4.9 
     1196.00        6.400         70.0 
     1197.00        0.733         98.4 
     1198.00        0.533         88.4 
     1199.00        0.500         73.4 
     1200.00        0.417         62.1 
     1201.00        0.300         57.3 
     1202.00        0.233         57.3 
     1203.00        0.233         59.3 
     1204.00        0.267         58.6 
     1205.00        0.267         56.1 
     1206.00        0.167         55.2 
     1207.00        0.200         51.8 
     1208.00        0.233         47.8 
     1209.00        0.233         45.8 
     1210.00        0.200         38.9 
     1211.00        0.233         38.1 
     1212.00        0.300         33.7 
     1213.00        0.283         33.0 
     1214.00        0.233         31.8 
     1215.00        0.233         30.3 
