~Version Information
VERS.                      2.0: CWLS Log ASCII Standard - VERSION 2.0
WRAP.                       NO: One line per depth step
~Well Information Block
STRT.FT               770.0000: 
STOP.FT              1718.7000: 
STEP.FT                 0.1000: 
NULL.                -999.2500: 
COMP.          Pioneer Natural Resources: COMPANY
WELL.            Salty 42-6 Tr: WELL
FLD.           Purgatoire River: FIELD
LOC.           2409' FNL & 599' FEL: LOCATION
PROV.                 Colorado: PROVINCE
CNTY.               Las Animas: COUNTRY
SRVC.                Patterson: SERVICE COMPANY
DATE.          Thu Dec 16 09:30:36 2004: LOG DATE
UWI.           05 071 08238 00: UNIQUE WELL ID
~Curve Information Block
DEPT.FT            0 000 00 00: Depth
DCAL.in                       : CDL Caliper
RHOB.g/cc                     : CDL Bulk Density
RHOC.g/cc                     : CDL Density Correction
DPOR.pu                       : CDL Density Porosity
NPOR.pu                       : Neutron Porosity
GR.GAPI                       : Gamma Ray
~Parameter Information Block
~A  Depth       DCAL        RHOB        RHOC        DPOR        NPOR         GR     
# ...
  1442.0000      7.9411      2.3204      0.0323     19.9768     22.6382    150.1256
  1442.1000      7.9411      2.3153      0.0378     20.2843     23.0684    153.0239
  1442.2000      7.9411      2.3290      0.0794     19.4521     23.3783    160.1510
  1442.3000      7.9357      2.3478      0.1106     18.3161     22.9509    165.7698
  1442.4000      7.9357      2.3527      0.1276     18.0200     22.0884    168.9812
  1442.5000      7.9236      2.3422      0.1122     18.6560     21.4449    167.9600
  1442.6000      7.9236      2.3338      0.0716     19.1613     21.0564    163.4483
  1442.7000      7.9236      2.3410      0.1084     18.7288     20.7355    159.2729
  1442.8000      7.9135      2.3579      0.1288     17.7049     20.5901    156.6843
  1442.9000      7.9135      2.3737      0.1389     16.7473     20.7128    154.1154
  1443.0000      7.9085      2.3894      0.0882     15.7943     21.1100    154.1927
  1443.1000      7.9085      2.4120      0.1023     14.4259     21.6860    157.4206
  1443.2000      7.9085      2.4412      0.1020     12.6562     22.3140    157.2582
  1443.3000      7.9051      2.4763      0.1037     10.5283     22.8035    155.5793
  1443.4000      7.9051      2.5161      0.1497      8.1170     22.9392    157.6037
  1443.5000      7.8982      2.5458      0.1838      6.3153     22.7896    158.4948
  1443.6000      7.8982      2.5489      0.1675      6.1289     22.7435    154.5073
  1443.7000      7.8982      2.5324      0.1309      7.1284     22.9372    149.7164
  1443.8000      7.8917      2.5178      0.1072      8.0122     23.0782    147.1062
  1443.9000      7.8917      2.5065      0.1000      8.6992     23.1997    144.6374
  1444.0000      7.8893      2.4871      0.0639      9.8722     23.5395    140.1064
  1444.1000      7.8893      2.4678      0.0153     11.0426     24.0065    133.6531
  1444.2000      7.8893      2.4630      0.0452     11.3320     24.3203    127.7753
  1444.3000      7.8874      2.4764      0.0265     10.5206     24.3270    123.6180
  1444.4000      7.8874      2.5079      0.0147      8.6092     24.2222    120.5647
  1444.5000      7.8855      2.5389      0.0886      6.7329     24.2267    122.0326
  1444.6000      7.8855      2.5415      0.0741      6.5766     24.3492    130.1039
  1444.7000      7.8855      2.5244      0.0279      7.6101     24.5258    137.6882
  1444.8000      7.8847      2.5197      0.0447      7.8974     24.7564    138.3460
  1444.9000      7.8847      2.5346      0.0718      6.9937     25.1678    135.0676
  1445.0000      7.8845      2.5506      0.0871      6.0252     25.6401    131.4585
  1445.1000      7.8845      2.5524      0.0619      5.9139     25.6219    128.3371
  1445.2000      7.8845      2.5394      0.0578      6.7051     24.9950    128.5048
  1445.3000      7.8844      2.5203      0.0434      7.8608     24.3138    132.7858
  1445.4000      7.8844      2.5027      0.0579      8.9285     24.0624    137.3025
  1445.5000      7.8831      2.4827      0.0410     10.1413     24.3447    138.9329
  1445.6000      7.8831      2.4578      0.0263     11.6505     24.9369    136.7340
  1445.7000      7.8831      2.4328      0.0163     13.1624     25.3328    131.7796
  1445.8000      7.8806      2.4122      0.0149     14.4103     25.1896    127.1100
  1445.9000      7.8806      2.4052     -0.0340     14.8338     24.6882    125.2916
  1446.0000      7.8751      2.4187      0.0262     14.0193     24.3256    126.0144
  1446.1000      7.8751      2.4448      0.0361     12.4358     24.4126    126.6666
  1446.2000      7.8751      2.4763      0.0703     10.5281     24.5469    126.3761
  1446.3000      7.8670      2.5129      0.0826      8.3118     24.2159    125.2279
  1446.4000      7.8670      2.5441      0.1336      6.4161     23.6523    123.2146
  1446.5000      7.8624      2.5538      0.1156      5.8305     23.3672    123.3712
  1446.6000      7.8624      2.5482      0.0992      6.1667     23.4512    126.4370
  1446.7000      7.8624      2.5460      0.1017      6.3050     23.6783    127.4460
  1446.8000      7.8625      2.5510      0.1070      5.9984     23.9191    124.3079
  1446.9000      7.8625      2.5606      0.0942      5.4186     23.9767    119.7073
  1447.0000      7.8635      2.5737      0.0887      4.6236     23.6193    114.4508
  1447.1000      7.8635      2.5844      0.1080      3.9776     23.1459    109.8399
  1447.2000      7.8635      2.5848      0.0655      3.9518     23.1984    109.0911
  1447.3000      7.8597      2.5739      0.0717      4.6147     23.7244    109.1664
  1447.4000      7.8597      2.5548      0.0634      5.7685     24.1007    107.3029
  1447.5000      7.8506      2.5328      0.0744      7.1022     24.2644    106.6886
  1447.6000      7.8506      2.5142      0.0473      8.2319     24.5686    106.6945
  1447.7000      7.8506      2.5074      0.0499      8.6441     24.9077    105.0940
  1447.8000      7.8425      2.5175      0.0647      8.0304     24.7933    103.2727
  1447.9000      7.8425      2.5392      0.0746      6.7144     24.4406     99.1830
  1448.0000      7.8450      2.5651      0.0968      5.1482     24.5192     91.1936
  1448.1000      7.8450      2.5900      0.1116      3.6376     24.9966     85.9687
  1448.2000      7.8450      2.6012      0.1064      2.9573     25.2307     87.4981
  1448.3000      7.8557      2.5852      0.0691      3.9243     25.0449     89.3829
  1448.4000      7.8557      2.5521      0.0616      5.9315     24.7813     85.4487
  1448.5000      7.8625      2.5296      0.0420      7.2963     24.5069     78.8828
  1448.6000      7.8625      2.5268      0.0777      7.4654     24.1531     76.3788
  1448.7000      7.8625      2.5295      0.0654      7.3049     23.7871     77.7411
  1448.8000      7.8676      2.5273      0.0893      7.4380     23.4070     76.7505
  1448.9000      7.8676      2.5201      0.0586      7.8697     22.9462     71.7669
  1449.0000      7.8776      2.5092      0.0571      8.5335     22.4224     67.0712
  1449.1000      7.8776      2.4935      0.0602      9.4847     22.1274     65.6860
  1449.2000      7.8776      2.4815      0.0488     10.2134     22.3190     66.7559
  1449.3000      7.8845      2.4858      0.0451      9.9539     22.7741     69.8732
  1449.4000      7.8845      2.4970      0.0968      9.2745     22.9974     74.6270
  1449.5000      7.8877      2.4937      0.0565      9.4752     22.9179     77.8475
  1449.6000      7.8877      2.4746      0.0792     10.6310     22.7903     79.0562
  1449.7000      7.8877      2.4521      0.0560     11.9952     22.5603     80.0743
  1449.8000      7.8900      2.4383      0.0465     12.8295     22.2217     81.3582
  1449.9000      7.8900      2.4387      0.0540     12.8087     22.0465     84.4606
  1450.0000      7.8887      2.4408      0.0869     12.6783     21.9681     89.4269
  1450.1000      7.8887      2.4297      0.0503     13.3516     21.3585     90.6477
  1450.2000      7.8887      2.4100      0.0303     14.5459     20.1238     84.5527
  1450.3000      7.8866      2.3938      0.0301     15.5284     19.3600     76.2913
  1450.4000      7.8866      2.3854      0.0211     16.0333     19.6510     72.4626
  1450.5000      7.8869      2.3841      0.0233     16.1124     20.3154     72.2588
  1450.6000      7.8869      2.3854      0.0487     16.0359     20.4316     72.7315
  1450.7000      7.8869      2.3897      0.0146     15.7776     19.7428     74.0077
  1450.8000      7.8873      2.4020      0.0277     15.0302     18.9010     74.6453
  1450.9000      7.8873      2.4163      0.0534     14.1659     18.4044     74.0751
  1451.0000      7.8868      2.4207      0.0755     13.8997     18.1006     76.0877
  1451.1000      7.8868      2.4151      0.0726     14.2363     17.7253     79.6236
  1451.2000      7.8868      2.4102      0.0500     14.5353     17.3435     79.9017
  1451.3000      7.8882      2.4098      0.0321     14.5597     17.3902     78.3006
  1451.4000      7.8882      2.4052      0.0785     14.8381     17.9195     75.9538
  1451.5000      7.8906      2.3949      0.0474     15.4603     18.3050     70.2994
