~Version Information
VERS.                      2.0: CWLS Log ASCII Standard - VERSION 2.0
WRAP.                       NO: One line per depth step
~Well Information Block
STRT.FT              2246.0000: 
STOP.FT              2472.6000: 
STEP.FT                 0.1000: 
NULL.                -999.2500: 
COMP.          Petrogulf Corporation: COMPANY
WELL.           Schedler 9-23V: WELL
FLD.           Purgatorie River: FIELD
LOC.           2185' FSL & 2328' FWL: LOCATION
CNTY.               Las Animas: COUNTY
SRVC.                         : SERVICE COMPANY
DATE.          Thu Jul 10 10:29:30 2003: LOG DATE
UWI.           05 071 07876 00: UNIQUE WELL ID
STAT.                 Colorado: STATE
~Curve Information Block
DEPT.FT            0 000 00 00: Depth
DCAL.in                       : CDL Caliper
RHOB.g/cc                     : CDL Bulk Density
RHOC.g/cc                     : CDL Density Correction
DPOR.pu                       : CDL Density Porosity
GR.GAPI                       : Gamma Ray
NPOR.pu                       : Neutron Porosity
~Parameter Information Block
~A  Depth       DCAL        RHOB        RHOC        DPOR         GR         NPOR    
# ...
  2399.6000      7.9005      2.4979      0.0660      9.2211     71.2118     18.4909
  2399.7000      7.9005      2.4977      0.0669      9.2305     70.6251     18.4656
  2399.8000      7.9015      2.4979      0.0684      9.2182     70.0821     18.4150
  2399.9000      7.9015      2.4985      0.0704      9.1818     69.6134     18.3495
  2400.0000      7.9011      2.4995      0.0730      9.1205     69.2432     18.2815
  2400.1000      7.9011      2.5009      0.0760      9.0348     68.9878     18.2238
  2400.2000      7.9011      2.5027      0.0792      8.9268     68.8531     18.1880
  2400.3000      7.8977      2.5048      0.0824      8.8000     68.8306     18.1827
  2400.4000      7.8977      2.5071      0.0854      8.6587     68.9012     18.2120
  2400.5000      7.8912      2.5096      0.0880      8.5080     69.0363     18.2757
  2400.6000      7.8912      2.5122      0.0901      8.3532     69.2011     18.3692
  2400.7000      7.8912      2.5147      0.0916      8.2002     69.3627     18.4841
  2400.8000      7.8866      2.5171      0.0923      8.0540     69.4946     18.6099
  2400.9000      7.8866      2.5193      0.0924      7.9194     69.5783     18.7358
  2401.0000      7.8850      2.5213      0.0918      7.8005     69.6141     18.8523
  2401.1000      7.8850      2.5229      0.0906      7.7005     69.6169     18.9529
  2401.2000      7.8850      2.5242      0.0891      7.6214     69.6197     19.0346
  2401.3000      7.8856      2.5252      0.0872      7.5647     69.6704     19.0990
  2401.4000      7.8856      2.5257      0.0851      7.5305     69.8287     19.1501
  2401.5000      7.8846      2.5260      0.0829      7.5182     70.1578     19.1934
  2401.6000      7.8846      2.5258      0.0806      7.5266     70.7211     19.2351
  2401.7000      7.8846      2.5254      0.0783      7.5538     71.5728     19.2802
  2401.8000      7.8780      2.5246      0.0759      7.5975     72.7507     19.3320
  2401.9000      7.8780      2.5237      0.0735      7.6551     74.2684     19.3923
  2402.0000      7.8690      2.5226      0.0710      7.7236     76.1138     19.4617
  2402.1000      7.8690      2.5213      0.0686      7.7999     78.2450     19.5407
  2402.2000      7.8690      2.5200      0.0662      7.8808     80.5918     19.6297
  2402.3000      7.8673      2.5186      0.0639      7.9628     83.0628     19.7293
  2402.4000      7.8673      2.5173      0.0618      8.0425     85.5486     19.8397
  2402.5000      7.8689      2.5161      0.0599      8.1162     87.9350     19.9594
  2402.6000      7.8689      2.5150      0.0582      8.1802     90.1112     20.0841
  2402.7000      7.8689      2.5142      0.0569      8.2307     91.9786     20.2060
  2402.8000      7.8615      2.5136      0.0560      8.2645     93.4605     20.3134
  2402.9000      7.8615      2.5134      0.0556      8.2782     94.5067     20.3915
  2403.0000      7.8515      2.5136      0.0559      8.2694     95.0961     20.4240
  2403.1000      7.8515      2.5141      0.0570      8.2361     95.2372     20.3954
  2403.2000      7.8515      2.5151      0.0588      8.1778     94.9630     20.2937
  2403.3000      7.8475      2.5164      0.0614      8.0948     94.3294     20.1127
  2403.4000      7.8475      2.5182      0.0647      7.9888     93.4052     19.8536
  2403.5000      7.8492      2.5203      0.0686      7.8630     92.2653     19.5255
  2403.6000      7.8492      2.5226      0.0729      7.7214     90.9803     19.1444
  2403.7000      7.8492      2.5251      0.0772      7.5688     89.6114     18.7315
  2403.8000      7.8468      2.5277      0.0814      7.4108     88.2063     18.3101
  2403.9000      7.8468      2.5303      0.0852      7.2529     86.7957     17.9032
  2404.0000      7.8346      2.5329      0.0883      7.0999     85.3993     17.5303
  2404.1000      7.8346      2.5352      0.0907      6.9559     84.0276     17.2058
  2404.2000      7.8346      2.5374      0.0921      6.8233     82.6908     16.9382
  2404.3000      7.8297      2.5394      0.0927      6.7031     81.4020     16.7298
  2404.4000      7.8297      2.5412      0.0924      6.5944     80.1840     16.5791
  2404.5000      7.8254      2.5428      0.0914      6.4947     79.0666     16.4815
  2404.6000      7.8254      2.5444      0.0899      6.4003     78.0874     16.4319
  2404.7000      7.8254      2.5459      0.0882      6.3066     77.2848     16.4259
  2404.8000      7.8077      2.5476      0.0866      6.2086     76.6961     16.4605
  2404.9000      7.8077      2.5493      0.0853      6.1021     76.3542     16.5345
  2405.0000      7.7935      2.5513      0.0846      5.9839     76.2863     16.6474
  2405.1000      7.7935      2.5534      0.0847      5.8524     76.5123     16.7983
  2405.2000      7.7935      2.5558      0.0856      5.7079     77.0487     16.9859
  2405.3000      7.7890      2.5584      0.0871      5.5527     77.9052     17.2069
  2405.4000      7.7890      2.5610      0.0892      5.3910     79.0866     17.4563
  2405.5000      7.7886      2.5637      0.0914      5.2285     80.5897     17.7278
  2405.6000      7.7886      2.5663      0.0937      5.0715     82.3993     18.0145
  2405.7000      7.7886      2.5687      0.0955      4.9268     84.4837     18.3082
  2405.8000      7.7902      2.5708      0.0969      4.8007     86.7959     18.6017
  2405.9000      7.7902      2.5725      0.0975      4.6983     89.2723     18.8876
  2406.0000      7.7906      2.5737      0.0974      4.6235     91.8355     19.1592
  2406.1000      7.7906      2.5745      0.0966      4.5780     94.4030     19.4111
  2406.2000      7.7906      2.5747      0.0952      4.5620     96.8904     19.6396
  2406.3000      7.7894      2.5745      0.0934      4.5738     99.2226     19.8427
  2406.4000      7.7894      2.5739      0.0912      4.6100    101.3362     20.0209
  2406.5000      7.7896      2.5730      0.0889      4.6664    103.1839     20.1771
  2406.6000      7.7896      2.5718      0.0865      4.7378    104.7349     20.3155
  2406.7000      7.7896      2.5705      0.0841      4.8189    105.9740     20.4416
  2406.8000      7.7912      2.5691      0.0819      4.9043    106.9014     20.5607
  2406.9000      7.7912      2.5677      0.0799      4.9891    107.5292     20.6769
  2407.0000      7.7916      2.5664      0.0783      5.0688    107.8821     20.7925
  2407.1000      7.7916      2.5652      0.0770      5.1396    107.9956     20.9080
  2407.2000      7.7916      2.5642      0.0763      5.1984    107.9129     21.0223
  2407.3000      7.7917      2.5635      0.0759      5.2426    107.6842     21.1332
  2407.4000      7.7917      2.5630      0.0761      5.2703    107.3591     21.2384
  2407.5000      7.7923      2.5629      0.0766      5.2797    106.9846     21.3361
  2407.6000      7.7923      2.5630      0.0776      5.2697    106.5944     21.4259
  2407.7000      7.7923      2.5636      0.0790      5.2393    106.2061     21.5078
  2407.8000      7.7947      2.5644      0.0807      5.1879    105.8180     21.5828
  2407.9000      7.7947      2.5656      0.0830      5.1153    105.4082     21.6507
  2408.0000      7.7979      2.5671      0.0857      5.0221    104.9363     21.7098
  2408.1000      7.7979      2.5690      0.0889      4.9091    104.3523     21.7560
  2408.2000      7.7979      2.5712      0.0925      4.7782    103.6032     21.7823
  2408.3000      7.8107      2.5736      0.0964      4.6319    102.6407     21.7796
  2408.4000      7.8107      2.5762      0.1004      4.4735    101.4304     21.7380
  2408.5000      7.8303      2.5789      0.1042      4.3070     99.9576     21.6477
  2408.6000      7.8303      2.5817      0.1074      4.1366     98.2315     21.5013
  2408.7000      7.8303      2.5845      0.1098      3.9668     96.2858     21.2937
  2408.8000      7.8277      2.5873      0.1110      3.8021     94.1781     21.0235
  2408.9000      7.8277      2.5898      0.1108      3.6464     91.9826     20.6923
  2409.0000      7.8060      2.5922      0.1091      3.5030     89.7821     20.3051
  2409.1000      7.8060      2.5943      0.1061      3.3741     87.6613     19.8684
