~Version Information
VERS.                      2.0: CWLS Log ASCII Standard - VERSION 2.0
WRAP.                       NO: One line per depth step
~Well Information Block
STRT.FT                -4.2500: 
STOP.FT              2218.5000: 
STEP.FT                 0.2500: 
NULL.                -999.2500: 
COMP.          Pioneer Natural Resources: COMPANY
WELL.             Warrior 32-1: WELL
FLD.           Purgatorie River: FIELD
LOC.           2624' FNL & 2392' FEL--: LOCATION
PROV.                       CO: PROVINCE
CNTY.               Las Animas: COUNTRY
SRVC.                         : SERVICE COMPANY
DATE.          Tue Oct 12 10:54:12 2004: LOG DATE
UWI.           005 071 08176 : UNIQUE WELL ID
~Curve Information Block
DEPT.FT            0 000 00 00: Depth
GR.GAPI                       : Gamma Ray
CCL.                          : Casing Collar Locator
TT3.usec                      : CBL 3' Travel Time
AMP3.mV                       : CBL 3' Amplitude
~Parameter Information Block
~A  Depth        GR         CCL         TT3         AMP3    
# ...
  1603.7500    124.4364      0.0000    676.8146      4.1348
  1604.0000    124.3135      0.0000    638.5247      4.0812
  1604.2500    125.3566      0.0000    597.1740      4.0295
  1604.5000    126.4129      0.0000    558.3207      3.9909
  1604.7500    125.9568      0.0000    526.4928      3.9616
  1605.0000    123.8221      0.0000    504.0825      3.9344
  1605.2500    121.3235      0.0000    490.7672      3.9125
  1605.5000    119.4391      0.0000    484.1204      3.9021
  1605.7500    117.8902      0.0000    481.2093      3.9002
  1606.0000    116.3014      0.0000    479.9335      3.8995
  1606.2500    115.1523      0.0000    479.5691      3.9005
  1606.5000    114.8717      0.0000    481.0611      3.9113
  1606.7500    114.5215      0.0000    487.5510      3.9387
  1607.0000    112.2424      0.0000    504.2607      3.9851
  1607.2500    107.1773      0.0000    536.0166      4.0479
  1607.5000    100.5897      0.0000    582.5970      4.1117
  1607.7500     94.9255      0.0000    635.7335      4.1454
  1608.0000     92.0579      0.0000    682.0041      4.1202
  1608.2500     92.4481      0.0000    710.3328      4.0374
  1608.5000     95.1791      0.0000    717.5104      3.9300
  1608.7500     98.1728      0.0000    707.2510      3.8316
  1609.0000     98.9864      0.0000    685.1937      3.7445
  1609.2500     96.4967      0.0000    655.9944      3.6465
  1609.5000     92.0956      0.0000    624.8296      3.5307
  1609.7500     88.6302      0.0000    599.3912      3.4305
  1610.0000     87.8494      0.0000    587.6620      3.3945
  1610.2500     89.2073      0.0000    592.4835      3.4419
  1610.5000     91.1688      0.0000    609.4335      3.5504
  1610.7500     92.9509      0.0000    631.2771      3.6825
  1611.0000     94.6263      0.0000    653.5415      3.8113
  1611.2500     96.2120      0.0000    674.9756      3.9237
  1611.5000     97.5277      0.0000    694.2132      4.0150
  1611.7500     98.7031      0.0000    707.8444      4.0874
  1612.0000     99.9609      0.0000    712.1512      4.1508
  1612.2500    100.8037      0.0000    706.4517      4.2153
  1612.5000    100.0997      0.0000    694.3282      4.2798
  1612.7500     97.2912      0.0000    680.8634      4.3249
  1613.0000     93.2597      0.0000    668.8810      4.3217
  1613.2500     90.0169      0.0000    658.9022      4.2580
  1613.5000     89.5589      0.0000    651.6807      4.1589
  1613.7500     92.3901      0.0000    648.5156      4.0690
  1614.0000     96.7432      0.0000    649.2278      4.0101
  1614.2500     99.6787      0.0000    651.6521      3.9667
  1614.5000     99.4373      0.0000    653.4523      3.9144
  1614.7500     96.6864      0.0000    653.4148      3.8509
  1615.0000     93.4035      0.0000    651.2275      3.7974
  1615.2500     90.7115      0.0000    647.5135      3.7780
  1615.5000     87.8992      0.0000    644.2913      3.8001
  1615.7500     83.4160      0.0000    644.1730      3.8480
  1616.0000     76.6422      0.0000    648.4476      3.8954
  1616.2500     68.7012      0.0000    656.0430      3.9291
  1616.5000     61.7059      0.0000    664.4048      3.9571
  1616.7500     57.1384      0.0000    671.4592      3.9886
  1617.0000     54.7548      0.0000    676.9602      4.0162
  1617.2500     53.0659      0.0000    681.9471      4.0254
  1617.5000     50.8834      0.0000    686.9324      4.0150
  1617.7500     48.3503      0.0000    690.9361      3.9971
  1618.0000     46.6319      0.0000    692.3608      3.9834
  1618.2500     46.9907      0.0000    690.5793      3.9795
  1618.5000     50.2923      0.0000    686.6611      3.9871
  1618.7500     56.9217      0.0000    682.5870      4.0038
  1619.0000     66.4980      0.0000    679.7049      4.0208
  1619.2500     77.7420      0.0000    678.0505      4.0240
  1619.5000     89.2711      0.0000    676.7068      3.9983
  1619.7500    100.6961      0.0000    673.7972      3.9353
  1620.0000    112.4670      0.0000    666.0778      3.8433
  1620.2500    124.3922      0.0000    649.8657      3.7457
  1620.5000    134.8356      0.0000    624.2502      3.6628
  1620.7500    141.9549      0.0000    594.7314      3.5906
  1621.0000    145.5698      0.0000    572.8704      3.5007
  1621.2500    147.3189      0.0000    569.1782      3.3680
  1621.5000    149.0122      0.0000    584.7192      3.2054
  1621.7500    151.1359      0.0000    610.4525      3.0710
  1622.0000    152.7941      0.0000    634.4771      3.0358
  1622.2500    152.4778      0.0000    648.9379      3.1301
  1622.5000    148.8493      0.0000    652.2448      3.3178
  1622.7500    141.6372      0.0000    648.4944      3.5260
  1623.0000    132.4218      2.0000    645.1196      3.6947
  1623.2500    124.1883      0.0000    648.3719      3.7929
  1623.5000    119.3456      0.0000    659.2480      3.8038
  1623.7500    117.8882      0.0000    673.4948      3.7210
  1624.0000    117.5212      0.0000    685.0737      3.5630
  1624.2500    115.4220      0.0000    689.6885      3.3824
  1624.5000    109.9827      0.0000    686.6739      3.2557
  1624.7500    101.6000      0.0000    678.8756      3.2530
  1625.0000     92.6853      0.0000    670.5341      3.3980
  1625.2500     86.9046      0.0000    664.6215      3.6464
  1625.5000     87.3494      0.0000    661.9138      3.9168
  1625.7500     94.6685      0.0000    662.0111      4.1453
  1626.0000    107.0629      0.0000    664.6438      4.3055
  1626.2500    121.8500      0.0000    669.8782      4.3895
  1626.5000    136.4292      0.0000    677.3685      4.3923
  1626.7500    148.4104      0.0000    685.7415      4.3164
  1627.0000    156.3446      0.0000    693.0586      4.1814
  1627.2500    160.6743      0.0000    697.9160      4.0271
  1627.5000    163.2000      0.0000    699.9246      3.9060
  1627.7500    165.2396      0.0000    699.1644      3.8622
  1628.0000    166.5978      0.0000    695.6811      3.9021
  1628.2500    166.4597      0.0000    690.0669      3.9811
  1628.5000    164.7623      0.0000    684.4422      4.0229
  1628.7500    162.2534      0.0000    681.8996      3.9695
  1629.0000    159.6037      0.0000    684.1678      3.8264
  1629.2500    156.8133      0.0000    690.2043      3.6652
  1629.5000    153.3004      0.0000    697.5419      3.5760
  1629.7500    148.4563      0.0000    704.4050      3.6048
  1630.0000    142.3580      0.0000    710.2021      3.7289
  1630.2500    136.0377      0.0000    715.0406      3.8907
  1630.5000    130.8183      0.0000    719.5884      4.0516
  1630.7500    127.3053      0.0000    724.7417      4.2017
  1631.0000    125.2844      0.0000    730.6226      4.3242
  1631.2500    124.5724      0.0000    736.1436      4.3711
  1631.5000    125.3719      0.0000    739.8500      4.2942
  1631.7500    127.5649      0.0000    740.7653      4.1030
  1632.0000    130.3191      0.0000    738.0980      3.8813
  1632.2500    132.8469      0.0000    730.5236      3.7327
  1632.5000    134.8369      0.0000    716.6015      3.7063
  1632.7500    135.7767      0.0000    696.5696      3.7757
  1633.0000    134.7653      0.0000    673.5461      3.8787
  1633.2500    131.4763      0.0000    652.2519      3.9609
  1633.5000    126.6482      0.0000    636.4641      3.9960
  1633.7500    121.6016      0.0000    627.9569      3.9881
  1634.0000    117.8713      0.0000    626.8431      3.9596
  1634.2500    116.7298      0.0000    631.3566      3.9304
  1634.5000    118.0765      0.0000    637.4315      3.9092
  1634.7500    120.1880      0.0000    640.2839      3.8999
  1635.0000    121.3562      0.0000    637.8282      3.9020
  1635.2500    121.4913      0.0000    632.7413      3.9056
  1635.5000    121.7553      0.0000    630.3871      3.9024
  1635.7500    123.0432      0.0000    633.9432      3.9048
  1636.0000    125.1446      0.0000    641.8222      3.9366
  1636.2500    127.1999      0.0000    650.1645      4.0015
  1636.5000    128.6305      0.0000    656.9995      4.0741
  1636.7500    129.4801      0.0000    663.4484      4.1276
  1637.0000    129.9742      0.0000    671.6573      4.1567
