~Version Information
VERS.                      2.0: CWLS Log ASCII Standard - VERSION 2.0
WRAP.                       NO: One line per depth step
~Well Information Block
STRT.FT               650.0000: 
STOP.FT              2000.5000: 
STEP.FT                 0.1000: 
NULL.                -999.2500: 
COMP.          Pioneer Natural Resources: COMPANY
WELL.           Firehawk 34-26: WELL
FLD.           Purgatoire River: FIELD
LOC.           1196' FSL & 1595' FEL--: LOCATION
STAT.                 Colorado: State
CNTY.               Las Animas: COUNTY
CTRY. USA : Country
SECT. 26 : Section
TOWN. 32S : Township
RANG. 66W : Range
SRVC.                Patterson: SERVICE COMPANY
DATE.          Mon Oct 17 07:23:34 2005: LOG DATE
API.           05 071 08389 00: UNIQUE WELL ID
~Curve Information Block
DEPT.FT            0 000 00 00: Depth
DCAL.in                       : CDL Caliper
RHOB.g/cc                     : CDL Bulk Density
RHOC.g/cc                     : CDL Density Correction
DPOR.pu                       : CDL Density Porosity
NPOR.pu                       : Neutron Porosity
GR.GAPI                       : Gamma Ray
~Parameter Information Block
~A  Depth       DCAL        RHOB        RHOC        DPOR        NPOR         GR     
# ...
  1264.4000      7.9873      2.4738      0.0342     10.6767     20.9953     45.7773
  1264.5000      7.9847      2.4692      0.0039     10.9577     20.6201     42.7697
  1264.6000      7.9847      2.4751      0.0301     10.6018     20.2654     42.5728
  1264.7000      7.9847      2.4855      0.0577      9.9678     20.0939     42.8902
  1264.8000      7.9816      2.4843      0.0505     10.0444     20.0595     42.1872
  1264.9000      7.9816      2.4721      0.0338     10.7800     20.0882     40.5932
  1265.0000      7.9816      2.4614      0.0244     11.4327     20.1585     39.0152
  1265.1000      7.9816      2.4541     -0.0008     11.8743     20.1150     38.0492
  1265.2000      7.9816      2.4450      0.0011     12.4243     19.9191     37.2343
  1265.3000      7.9845      2.4302      0.0351     13.3230     19.8221     37.2053
  1265.4000      7.9845      2.4165      0.0179     14.1491     19.9427     39.4013
  1265.5000      7.9861      2.4198     -0.0000     13.9500     20.1412     42.5230
  1265.6000      7.9861      2.4397      0.0489     12.7445     20.1910     44.1657
  1265.7000      7.9861      2.4558      0.0500     11.7711     19.9652     44.7838
  1265.8000      7.9847      2.4578      0.0219     11.6490     19.6107     44.9009
  1265.9000      7.9847      2.4558      0.0240     11.7683     19.3953     44.0502
  1266.0000      7.9839      2.4559      0.0504     11.7651     19.3525     43.3267
  1266.1000      7.9839      2.4559      0.0255     11.7626     19.3384     44.4295
  1266.2000      7.9839      2.4573      0.0325     11.6809     19.3067     45.6256
  1266.3000      7.9854      2.4597      0.0433     11.5331     19.3174     45.0006
  1266.4000      7.9854      2.4626      0.0337     11.3548     19.4695     43.7993
  1266.5000      7.9867      2.4721      0.0255     10.7818     19.7001     41.7992
  1266.6000      7.9867      2.4866      0.0759      9.9023     19.7762     38.9623
  1266.7000      7.9867      2.4949      0.0641      9.3998     19.7164     37.0164
  1266.8000      7.9870      2.4941      0.0478      9.4465     19.6317     35.8502
  1266.9000      7.9870      2.4926      0.0347      9.5423     19.4999     34.4550
  1267.0000      7.9867      2.4980      0.0509      9.2118     19.4246     34.0465
  1267.1000      7.9867      2.5051      0.0555      8.7832     19.6495     36.3134
  1267.2000      7.9867      2.5039      0.0493      8.8547     20.0919     40.0494
  1267.3000      7.9858      2.4948      0.0631      9.4033     20.3675     42.3099
  1267.4000      7.9858      2.4824      0.0631     10.1565     20.3932     42.1045
  1267.5000      7.9862      2.4701      0.0474     10.9049     20.3331     40.6948
  1267.6000      7.9862      2.4562      0.0409     11.7459     20.2405     39.4945
  1267.7000      7.9862      2.4363      0.0092     12.9485     20.2231     40.5454
  1267.8000      7.9862      2.4157      0.0087     14.1973     20.4758     44.4461
  1267.9000      7.9862      2.4043     -0.0040     14.8885     20.7755     48.7212
  1268.0000      7.9851      2.4060      0.0218     14.7857     20.7590     51.5627
  1268.1000      7.9851      2.4199      0.0022     13.9458     20.6080     54.5066
  1268.2000      7.9851      2.4376      0.0705     12.8739     20.5857     58.4196
  1268.3000      7.9843      2.4449      0.0810     12.4284     20.5531     61.1278
  1268.4000      7.9843      2.4429      0.0529     12.5545     20.3565     61.2961
  1268.5000      7.9842      2.4446      0.0411     12.4506     20.0853     59.7957
  1268.6000      7.9842      2.4530      0.0555     11.9371     19.9765     59.0264
  1268.7000      7.9842      2.4586      0.0894     11.5997     20.1238     58.7907
  1268.8000      7.9857      2.4590      0.0330     11.5784     20.3918     56.4042
  1268.9000      7.9857      2.4642      0.0537     11.2614     20.6970     53.8893
  1269.0000      7.9874      2.4711      0.0556     10.8429     21.0824     55.5655
  1269.1000      7.9874      2.4653      0.0557     11.1922     21.6258     61.5254
  1269.2000      7.9874      2.4377      0.0587     12.8673     22.3124     68.7049
  1269.3000      7.9897      2.3848     -0.0000     16.0750     23.1645     73.4692
  1269.4000      7.9897      2.3120      0.0011     20.4854     24.3260     73.9024
  1269.5000      7.9954      2.2286     -0.0528     25.5422     25.7454     72.0633
  1269.6000      7.9954      2.1406     -0.0476     30.8750     26.9800     72.3843
  1269.7000      7.9954      2.0499     -0.0748     36.3706     27.6314     74.5959
  1269.8000      8.0022      1.9562     -0.0858     42.0461     27.8658     75.2298
  1269.9000      8.0022      1.8639     -0.0958     47.6448     27.9860     73.8410
  1270.0000      8.0028      1.7881     -0.0921     52.2390     28.0462     71.6199
  1270.1000      8.0028      1.7378     -0.0195     55.2846     28.0138     69.8016
  1270.2000      8.0028      1.7006      0.0820     57.5423     27.7828     71.1279
  1270.3000      8.0014      1.6759      0.0325     59.0384     27.3265     74.4355
  1270.4000      8.0014      1.6895      0.0809     58.2097     26.9778     75.7376
  1270.5000      8.0062      1.7482      0.1693     54.6553     26.8858     75.8495
  1270.6000      8.0062      1.8301      0.2223     49.6927     26.7785     75.6692
  1270.7000      8.0062      1.9167      0.2551     44.4454     26.5027     73.5908
  1270.8000      8.0210      1.9919      0.3066     39.8853     26.1518     72.9456
  1270.9000      8.0210      2.0394      0.2291     37.0041     25.8614     77.9805
  1271.0000      8.0337      2.0649      0.1573     35.4627     25.6879     84.5072
  1271.1000      8.0337      2.0858      0.1245     34.1964     25.5202     86.6953
  1271.2000      8.0337      2.1070      0.1051     32.9109     25.1719     86.8455
  1271.3000      8.0276      2.1311      0.0127     31.4488     24.7162     89.8583
  1271.4000      8.0276      2.1663      0.0008     29.3159     24.4269     93.4376
  1271.5000      8.0176      2.2040      0.0698     27.0294     24.3783     92.2462
  1271.6000      8.0176      2.2298      0.0576     25.4652     24.5199     90.3188
  1271.7000      8.0176      2.2526      0.0520     24.0847     24.5710     94.7777
  1271.8000      8.0123      2.2880      0.1202     21.9365     24.1519    102.5041
  1271.9000      8.0123      2.3290      0.2036     19.4523     23.4473    105.0041
  1272.0000      8.0073      2.3592      0.1301     17.6228     22.9129    102.2865
  1272.1000      8.0073      2.3817      0.1046     16.2597     22.6849    100.1217
  1272.2000      8.0073      2.4057      0.0991     14.8076     22.6385     98.9373
  1272.3000      8.0002      2.4334      0.0992     13.1260     22.6868     95.8841
  1272.4000      8.0002      2.4639      0.1006     11.2805     22.8580     91.0026
  1272.5000      7.9929      2.4879      0.1103      9.8257     23.1735     87.1379
  1272.6000      7.9929      2.4965      0.0938      9.3047     23.5751     86.8426
  1272.7000      7.9929      2.4949      0.1175      9.4018     23.8472     92.3271
  1272.8000      7.9889      2.4946      0.0947      9.4205     23.6744    102.2412
  1272.9000      7.9889      2.5020      0.0915      8.9721     23.1286    108.8407
  1273.0000      7.9873      2.5129      0.1296      8.3116     22.7168    106.7810
  1273.1000      7.9873      2.5181      0.1452      7.9954     22.6602    101.3213
  1273.2000      7.9873      2.5224      0.1219      7.7341     22.7208    100.3636
  1273.3000      7.9856      2.5406      0.0945      6.6327     22.5800    102.2906
  1273.4000      7.9856      2.5725      0.0741      4.6994     22.1908    101.2457
  1273.5000      7.9853      2.6009      0.1076      2.9732     21.7553     98.4651
  1273.6000      7.9853      2.6168      0.0574      2.0103     21.5181     97.7322
  1273.7000      7.9853      2.6241      0.1262      1.5710     21.4564     97.9358
  1273.8000      7.9919      2.6277      0.0999      1.3513     21.3734     95.1962
  1273.9000      7.9919      2.6369      0.1426      0.7940     21.2492     89.9336
