~Version Information
VERS.                      2.0: CWLS Log ASCII Standard - VERSION 2.0
WRAP.                       NO: One line per depth step
~Well Information Block
STRT.FT               550.0000: 
STOP.FT              1577.7000: 
STEP.FT                 0.1000: 
NULL.                -999.2500: 
COMP.          Pioneer Natural Resources: COMPANY
WELL.          Kristin 22-23 Tr: WELL
FLD.           Purgatoire River: FIELD
LOC.           2273' FNL & 2029' FWL: LOCATION
PROV.                 Colorado: PROVINCE
CNTY.               Las Animas: COUNTRY
SRVC.                Patterson: SERVICE COMPANY
DATE.          Fri Jan 21 06:58:50 2005: LOG DATE
UWI.           05 071 08259 00: UNIQUE WELL ID
~Curve Information Block
DEPT.FT            0 000 00 00: Depth
DCAL.in                       : CDL Caliper
RHOB.g/cc                     : CDL Bulk Density
RHOC.g/cc                     : CDL Density Correction
DPOR.pu                       : CDL Density Porosity
NPOR.pu                       : Neutron Porosity
GR.GAPI                       : Gamma Ray
~Parameter Information Block
~A  Depth       DCAL        RHOB        RHOC        DPOR        NPOR         GR     
# ...
  1279.6000      8.0009      2.6075      0.0282      2.5785     27.2520    147.4302
  1279.7000      8.0009      2.5896      0.0253      3.6634     27.2461    148.9439
  1279.8000      8.0058      2.5849     -0.0285      3.9442     26.5011    149.4633
  1279.9000      8.0058      2.5972      0.0071      3.1994     25.6036    148.9128
  1280.0000      8.0138      2.6134      0.0502      2.2201     25.8273    147.5119
  1280.1000      8.0138      2.6097      0.0685      2.4423     26.7691    146.5821
  1280.2000      8.0138      2.5771      0.0346      4.4194     27.1996    149.7860
  1280.3000      8.0167      2.5341      0.0087      7.0269     27.1574    156.9270
  1280.4000      8.0167      2.5035      0.0036      8.8810     27.2071    162.9345
  1280.5000      8.0171      2.4918     -0.0014      9.5879     26.9955    164.6088
  1280.6000      8.0171      2.4958     -0.0090      9.3471     26.2342    165.4841
  1280.7000      8.0171      2.5103      0.0185      8.4645     25.6491    168.7625
  1280.8000      8.0178      2.5227      0.0507      7.7161     25.9523    172.5646
  1280.9000      8.0178      2.5231     -0.0021      7.6880     26.8623    173.3740
  1281.0000      8.0167      2.5236      0.0130      7.6577     27.3939    172.4478
  1281.1000      8.0167      2.5380      0.0200      6.7887     26.9668    173.9092
  1281.2000      8.0167      2.5583      0.0662      5.5552     26.0267    177.0449
  1281.3000      8.0149      2.5712      0.0451      4.7747     25.4366    179.5054
  1281.4000      8.0149      2.5716      0.0741      4.7516     25.3648    181.9142
  1281.5000      8.0159      2.5558      0.0803      5.7110     25.3768    183.5098
  1281.6000      8.0159      2.5362      0.0398      6.8945     25.2746    182.2394
  1281.7000      8.0159      2.5347      0.0328      6.9863     25.2810    179.1798
  1281.8000      8.0183      2.5476      0.0751      6.2066     25.7107    177.5504
  1281.9000      8.0183      2.5544      0.0707      5.7969     26.1239    179.4738
  1282.0000      8.0171      2.5506      0.0450      6.0237     26.1115    183.1241
  1282.1000      8.0171      2.5477      0.0416      6.2019     26.0408    187.7460
  1282.2000      8.0171      2.5506      0.0348      6.0259     26.0943    189.4500
  1282.3000      8.0131      2.5516      0.0832      5.9630     25.9065    179.4992
  1282.4000      8.0131      2.5420      0.0672      6.5449     25.2359    164.0925
  1282.5000      8.0065      2.5325      0.0114      7.1190     24.3722    157.2728
  1282.6000      8.0065      2.5448      0.0277      6.3740     23.6625    162.8001
  1282.7000      8.0065      2.5768      0.0341      4.4387     23.0130    171.2242
  1282.8000      8.0002      2.5973      0.0765      3.1957     22.3248    174.0677
  1282.9000      8.0002      2.5893      0.0246      3.6776     21.8690    175.3360
  1283.0000      7.9939      2.5733      0.0234      4.6513     21.9002    176.9454
  1283.1000      7.9939      2.5643      0.0534      5.1935     22.2069    177.2868
  1283.2000      7.9939      2.5548      0.0317      5.7713     22.2695    173.6977
  1283.3000      7.9849      2.5479      0.0166      6.1889     22.1091    162.8490
  1283.4000      7.9849      2.5550      0.0353      5.7596     22.2398    151.1521
  1283.5000      7.9789      2.5665      0.0715      5.0617     22.6899    149.1926
  1283.6000      7.9789      2.5704      0.0224      4.8266     23.0986    157.9007
  1283.7000      7.9789      2.5712      0.0227      4.7759     23.1327    165.7172
  1283.8000      7.9771      2.5673      0.0235      5.0120     22.4568    160.6624
  1283.9000      7.9771      2.5560      0.0060      5.6963     21.3271    143.4461
  1284.0000      7.9751      2.5457      0.0300      6.3229     20.3984    126.8389
  1284.1000      7.9751      2.5404      0.0306      6.6424     20.2068    122.8574
  1284.2000      7.9751      2.5385      0.0227      6.7571     20.4500    129.8708
  1284.3000      7.9697      2.5361      0.0480      6.9005     20.4189    135.0594
  1284.4000      7.9697      2.5323      0.0139      7.1357     20.2270    132.8847
  1284.5000      7.9637      2.5374     -0.0036      6.8222     20.2938    127.7244
  1284.6000      7.9637      2.5560      0.0474      5.6954     20.6384    124.4591
  1284.7000      7.9637      2.5729      0.0450      4.6751     20.8461    126.3483
  1284.8000      7.9601      2.5774      0.0195      4.4027     20.4801    128.8567
  1284.9000      7.9601      2.5749      0.0284      4.5513     19.7913    128.0632
  1285.0000      7.9605      2.5749      0.0078      4.5516     19.3871    126.9311
  1285.1000      7.9605      2.5785      0.0296      4.3320     19.4610    126.8748
  1285.2000      7.9605      2.5776      0.0147      4.3853     19.6926    128.3130
  1285.3000      7.9622      2.5694      0.0092      4.8849     19.8085    129.0479
  1285.4000      7.9622      2.5566     -0.0234      5.6578     19.7987    124.0865
  1285.5000      7.9586      2.5425      0.0109      6.5171     19.9560    117.2435
  1285.6000      7.9586      2.5326     -0.0514      7.1176     20.5796    114.3155
  1285.7000      7.9586      2.5312     -0.0155      7.1986     21.2404    112.6516
  1285.8000      7.9544      2.5323     -0.0213      7.1338     21.4722    111.5671
  1285.9000      7.9544      2.5299      0.0021      7.2782     21.4574    115.2861
  1286.0000      7.9518      2.5292      0.0020      7.3241     21.4019    122.7100
  1286.1000      7.9518      2.5377      0.0290      6.8045     21.4876    130.3904
  1286.2000      7.9518      2.5479      0.0740      6.1874     21.8719    139.0733
  1286.3000      7.9500      2.5457      0.0352      6.3224     22.4800    145.7448
  1286.4000      7.9500      2.5325      0.0322      7.1217     23.2634    144.6221
  1286.5000      7.9497      2.5170      0.0447      8.0590     24.0107    135.7142
  1286.6000      7.9497      2.5136      0.0261      8.2697     24.3307    128.8433
  1286.7000      7.9497      2.5343      0.0322      7.0101     24.1427    136.0990
  1286.8000      7.9495      2.5717      0.0457      4.7448     23.7414    152.8065
  1286.9000      7.9495      2.6030      0.0670      2.8459     23.2638    160.2877
  1287.0000      7.9509      2.6111      0.0625      2.3550     22.7297    151.7323
  1287.1000      7.9509      2.5995      0.0301      3.0587     22.6207    140.8227
  1287.2000      7.9509      2.5804      0.0499      4.2202     23.1375    141.1579
  1287.3000      7.9526      2.5653      0.0271      5.1361     23.4549    150.4826
  1287.4000      7.9526      2.5656      0.0524      5.1169     22.9729    158.2270
  1287.5000      7.9544      2.5771      0.0726      4.4169     22.3170    153.5785
  1287.6000      7.9544      2.5880      0.0554      3.7557     21.9405    141.0397
  1287.7000      7.9544      2.5987      0.0238      3.1120     21.6842    136.0954
  1287.8000      7.9551      2.6081      0.0099      2.5374     21.4341    139.5517
  1287.9000      7.9551      2.6106     -0.0010      2.3896     20.9364    142.4908
  1288.0000      7.9518      2.6078      0.0194      2.5558     20.0481    142.0519
  1288.1000      7.9518      2.6056      0.0225      2.6896     19.3073    137.8137
  1288.2000      7.9518      2.6043      0.0339      2.7670     19.4684    133.4813
  1288.3000      7.9490      2.5971      0.0354      3.2051     20.5345    136.4423
  1288.4000      7.9490      2.5862     -0.0100      3.8639     21.6245    143.2823
  1288.5000      7.9502      2.5843      0.0430      3.9791     21.9959    145.7719
  1288.6000      7.9502      2.5923     -0.0043      3.4987     21.9667    148.2533
  1288.7000      7.9502      2.6010      0.0416      2.9668     22.1887    153.8152
  1288.8000      7.9530      2.6013      0.0432      2.9506     22.7779    157.1640
  1288.9000      7.9530      2.5922      0.0335      3.5058     23.4692    157.6693
  1289.0000      7.9538      2.5851      0.0133      3.9361     23.6659    156.4398
  1289.1000      7.9538      2.5878      0.0423      3.7681     23.5461    152.7287
