~Version Information
VERS.                      2.0: CWLS Log ASCII Standard - VERSION 2.0
WRAP.                       NO: One line per depth step
~Well Information Block
STRT.FT               250.0000: 
STOP.FT              1687.7000: 
STEP.FT                 0.1000: 
NULL.                -999.2500: 
COMP.          Pioneer Natural Resources: COMPANY
WELL.          Moneypenny 31-36: WELL
FLD.           Purgatoire River: FIELD
LOC.           280' FNL & 1976' FEL: LOCATION
PROV.                 Colorado: PROVINCE
CNTY.               Las Animas: COUNTRY
SRVC.                Patterson: SERVICE COMPANY
DATE.          Fri Oct 01 13:54:40 2004: LOG DATE
UWI.           05 071 08183 00: UNIQUE WELL ID
~Curve Information Block
DEPT.FT            0 000 00 00: Depth
DCAL.in                       : CDL Caliper
RHOB.g/cc                     : CDL Bulk Density
RHOC.g/cc                     : CDL Density Correction
DPOR.pu                       : CDL Density Porosity
NPOR.pu                       : Neutron Porosity
GR.GAPI                       : Gamma Ray
~Parameter Information Block
~A  Depth       DCAL        RHOB        RHOC        DPOR        NPOR         GR     
# ...
   816.4000      8.1424      2.4233      0.0094     13.7401     26.9849    136.3905
   816.5000      8.1425      2.4181      0.0148     14.0563     26.6649    130.5505
   816.6000      8.1425      2.4205      0.0183     13.9095     26.6331    126.7157
   816.7000      8.1425      2.4188      0.0256     14.0131     26.8291    130.1116
   816.8000      8.1435      2.4059      0.0583     14.7927     26.7007    138.6801
   816.9000      8.1435      2.3843      0.0838     16.1021     26.1524    148.5352
   817.0000      8.1442      2.3707      0.0793     16.9255     25.5550    158.2261
   817.1000      8.1442      2.3900      0.1032     15.7600     25.3086    165.2350
   817.2000      8.1442      2.4440      0.2335     12.4855     25.5872    168.3826
   817.3000      8.1443      2.4971      0.2806      9.2692     26.1942    169.4480
   817.4000      8.1443      2.5162      0.2429      8.1106     26.5965    166.7285
   817.5000      8.1431      2.5030      0.2049      8.9073     26.3778    159.2495
   817.6000      8.1431      2.4788      0.1638     10.3766     25.6063    149.8683
   817.7000      8.1431      2.4700      0.1485     10.9089     24.5697    145.7146
   817.8000      8.1435      2.4997      0.1537      9.1112     23.6328    151.7119
   817.9000      8.1435      2.5573      0.2761      5.6158     23.2125    160.2912
   818.0000      8.1446      2.6003      0.2611      3.0094     23.2422    160.4897
   818.1000      8.1446      2.6130      0.1870      2.2430     23.3501    153.0264
   818.2000      8.1446      2.6157      0.1854      2.0812     23.6041    144.7067
   818.3000      8.1443      2.6176      0.1610      1.9663     23.9296    136.8543
   818.4000      8.1443      2.6154      0.1509      2.0976     23.9818    129.6836
   818.5000      8.1431      2.6139      0.1292      2.1891     23.8484    126.3414
   818.6000      8.1431      2.6182      0.1056      1.9283     23.7394    125.1997
   818.7000      8.1431      2.6273      0.0758      1.3728     23.6404    120.0123
   818.8000      8.1427      2.6339      0.0756      0.9754     23.5923    112.7337
   818.9000      8.1427      2.6236      0.0734      1.6014     23.6253    110.3822
   819.0000      8.1437      2.6045     -0.0173      2.7590     23.8186    109.6677
   819.1000      8.1437      2.6076     -0.0363      2.5699     24.0307    102.6087
   819.2000      8.1437      2.6372      0.0259      0.7734     23.9397     91.1270
   819.3000      8.1444      2.6709      0.0089     -1.2665     23.6097     83.3097
   819.4000      8.1444      2.6910      0.0541     -2.4840     23.3444     81.0455
   819.5000      8.1449      2.6838      0.0348     -2.0511     23.2598     81.4187
   819.6000      8.1449      2.6428      0.0340      0.4387     23.4689     82.5190
   819.7000      8.1449      2.5805     -0.0017      4.2108     23.9070     83.6193
   819.8000      8.1451      2.5282     -0.0457      7.3798     24.2953     84.8724
   819.9000      8.1451      2.5064     -0.0404      8.7013     24.5500     87.0625
   820.0000      8.1451      2.5047     -0.0188      8.8071     24.6305     89.9539
   820.1000      8.1451      2.5048     -0.0411      8.8026     24.4656     92.2017
   820.2000      8.1451      2.5047     -0.0328      8.8070     24.1780     93.3788
   820.3000      8.1449      2.5116      0.0137      8.3852     23.8719     93.3798
   820.4000      8.1449      2.5279     -0.0164      7.3992     23.4891     94.7692
   820.5000      8.1435      2.5524      0.0214      5.9150     23.0637    100.3971
   820.6000      8.1435      2.5755      0.0495      4.5154     22.7148    108.7268
   820.7000      8.1435      2.5747      0.0627      4.5622     22.6057    117.7895
   820.8000      8.1377      2.5421      0.0351      6.5374     22.7969    127.2936
   820.9000      8.1377      2.5068      0.0129      8.6800     23.1352    134.4689
   821.0000      8.1326      2.4992      0.0028      9.1397     23.3558    136.4828
   821.1000      8.1326      2.5007      0.1457      9.0515     23.4517    134.4620
   821.2000      8.1326      2.4790      0.0493     10.3647     23.7087    129.1811
   821.3000      8.1374      2.4550      0.0067     11.8210     24.1535    122.0620
   821.4000      8.1374      2.4597     -0.0058     11.5310     24.4321    118.4337
   821.5000      8.1429      2.4805      0.0273     10.2715     24.3351    122.1904
   821.6000      8.1429      2.4850      0.0497     10.0022     23.8405    129.4800
   821.7000      8.1429      2.4600      0.0531     11.5137     23.3222    133.5550
   821.8000      8.1448      2.4196      0.0415     13.9628     23.3534    133.2560
   821.9000      8.1448      2.3927      0.0097     15.5932     23.7049    134.7068
   822.0000      8.1456      2.4034      0.0376     14.9469     23.8388    138.7150
   822.1000      8.1456      2.4512      0.0854     12.0469     23.8543    139.1172
   822.2000      8.1456      2.5141      0.1675      8.2349     23.9278    135.6736
   822.3000      8.1441      2.5622      0.2171      5.3207     23.9553    131.9376
   822.4000      8.1441      2.5798      0.1966      4.2552     23.7758    130.5820
   822.5000      8.1449      2.5800      0.1561      4.2437     23.3913    134.7617
   822.6000      8.1449      2.5908      0.1205      3.5855     23.0955    142.4229
   822.7000      8.1449      2.6147      0.1699      2.1401     22.9253    146.5912
   822.8000      8.1471      2.6206      0.1469      1.7816     22.6452    142.1165
   822.9000      8.1471      2.5990      0.0795      3.0917     22.3211    130.3710
   823.0000      8.1464      2.5747      0.0848      4.5658     22.2672    116.4228
   823.1000      8.1464      2.5705      0.0161      4.8200     22.4513    104.2742
   823.2000      8.1464      2.5856      0.0830      3.9037     22.5893     96.5533
   823.3000      8.1427      2.6004      0.0506      3.0034     22.7797     92.5596
   823.4000      8.1427      2.6074      0.0414      2.5804     23.2246     88.8780
   823.5000      8.1347      2.6091      0.0325      2.4766     23.9355     84.8931
   823.6000      8.1347      2.6024      0.0356      2.8860     24.5609     83.6888
   823.7000      8.1347      2.5852      0.0194      3.9249     24.5362     84.9690
   823.8000      8.1229      2.5624     -0.0080      5.3079     24.0283     84.6267
   823.9000      8.1229      2.5331      0.0195      7.0843     23.8442     83.9456
   824.0000      8.1159      2.4888     -0.0015      9.7680     24.2069     86.9092
   824.1000      8.1159      2.4366     -0.0569     12.9346     24.5848     91.8076
   824.2000      8.1159      2.3954     -0.0442     15.4279     24.5933     96.7872
   824.3000      8.1149      2.3727     -0.0344     16.8038     24.4216    103.9115
   824.4000      8.1149      2.3734     -0.0639     16.7639     24.3554    113.3394
   824.5000      8.1135      2.4031     -0.0312     14.9657     24.3135    121.0547
   824.6000      8.1135      2.4459      0.0394     12.3727     24.1840    125.8674
   824.7000      8.1135      2.4690      0.0600     10.9675     24.0987    131.4295
   824.8000      8.1112      2.4634      0.0449     11.3104     24.0925    140.0916
   824.9000      8.1112      2.4556      0.0557     11.7844     23.8817    147.4156
   825.0000      8.1122      2.4750      0.0926     10.6045     23.4430    147.5705
   825.1000      8.1122      2.5208      0.1802      7.8283     23.2466    144.0741
   825.2000      8.1122      2.5669      0.1987      5.0357     23.2873    143.1801
   825.3000      8.1151      2.5909      0.2013      3.5806     23.1823    144.3481
   825.4000      8.1151      2.5887      0.1328      3.7144     23.0412    145.7607
   825.5000      8.1180      2.5716      0.1097      4.7531     23.0203    146.2327
   825.6000      8.1180      2.5559      0.0940      5.7033     23.1919    144.1887
   825.7000      8.1180      2.5550      0.1100      5.7552     23.6457    137.5257
   825.8000      8.1189      2.5692      0.1258      4.8949     24.2321    128.1879
   825.9000      8.1189      2.5844      0.1083      3.9772     24.5550    121.3860
