~Version Information
 VERS.                                  2.0 : CWLS LAS VERSION
 WRAP.                                   NO : WRAPING MODE
 SWARE .                 MController 2.5.0E : SOFTWARE VERSION
~Well Information
 WELL.                       Montoya 12 44v : WELL
 COMP.                       Petrogulf Corp : COMPANY
 FLD.                      Purgatorie River : FIELD
 LOC.               SE/SE Sec 12 T33S R66W  : LOCATION
 DATE.                             8/7 8/04 : DATE(S) LOGGED
 SRVC.       Blanco Geological Services LLC : SERVICE COMPANY
 STAT.                                   CO : STATE
 CNTY.                           Las Animas : COUNTY
 CTRY.                                  USA : COUNTRY
 API.                       05 071 08094 00 : API NUMBER
 STRT.FT                             804.00 : START DEPTH
 STOP.FT                            2469.00 : STOP DEPTH
 STEP.FT                               1.00 : DEPTH INCREMENT
 NULL.                                 9999 : NULL VALUE
~Curve information
 DEPTH.FT                                   :
 ROP.MIN/FT                                 :
 GAS.UNITS                                  :
~ASCII Log data
# ...
     1604.00        0.467          2.1 
     1605.00        0.100          2.6 
     1606.00        0.133          2.6 
     1607.00        0.383          2.5 
     1608.00        0.200          2.3 
     1609.00        0.233          2.0 
     1610.00        0.233          2.1 
     1611.00        0.333          2.1 
     1612.00        0.333          2.0 
     1613.00        0.233          2.0 
     1614.00        0.233          2.0 
     1615.00        0.367          2.0 
     1616.00        0.333          2.3 
     1617.00        0.300          2.4 
     1618.00        0.383          2.4 
     1619.00        0.233          2.1 
     1620.00        5.850          4.3 
     1621.00        0.200          3.5 
     1622.00        0.383          3.6 
     1623.00        0.433          4.0 
     1624.00        0.333          3.9 
     1625.00        0.333          3.8 
     1626.00        0.300          3.7 
     1627.00        0.267          3.5 
     1628.00        0.267          3.5 
     1629.00        0.267          3.4 
     1630.00        0.233          3.4 
     1631.00        0.267          3.0 
     1632.00        0.267          2.6 
     1633.00        0.267          3.2 
     1634.00        0.283          3.2 
     1635.00        0.233          3.2 
     1636.00        0.233          2.8 
     1637.00        0.300          3.0 
     1638.00        0.200          2.9 
     1639.00        0.333          3.0 
     1640.00        0.333          3.1 
     1641.00        0.300          3.1 
     1642.00        0.367          3.0 
     1643.00        0.300          2.9 
     1644.00        0.300          3.1 
     1645.00        0.233          3.1 
     1646.00        0.217          2.8 
     1647.00        0.267          3.0 
     1648.00        0.267          3.2 
     1649.00        0.167          3.4 
     1650.00        3.850          3.9 
     1651.00        0.367          4.0 
     1652.00        0.333          4.0 
     1653.00        0.333          3.3 
     1654.00        0.333          3.1 
     1655.00        0.367          3.2 
     1656.00        0.350          3.0 
     1657.00        0.367          3.5 
     1658.00        0.333          3.2 
     1659.00        0.333          3.6 
     1660.00        0.333          3.3 
     1661.00        0.267          3.2 
     1662.00        0.233          3.1 
     1663.00        0.233          2.8 
     1664.00        0.433          2.9 
     1665.00        0.400          2.7 
     1666.00        0.483          2.5 
     1667.00        0.433          2.6 
     1668.00        0.433          2.7 
     1669.00        0.333          2.8 
     1670.00        0.267          2.4 
     1671.00        0.233          2.8 
     1672.00        0.233          2.7 
     1673.00        0.233          2.8 
     1674.00        0.200          2.5 
     1675.00        0.233          2.6 
     1676.00        0.233          2.3 
     1677.00        0.383          2.7 
     1678.00        0.267          2.8 
     1679.00        0.233          2.6 
     1680.00        3.650          3.7 
     1681.00        0.400          4.1 
     1682.00        0.400          4.2 
     1683.00        0.367          3.9 
     1684.00        0.400          3.7 
     1685.00        0.367          3.1 
     1686.00        0.433          3.9 
     1687.00        0.383          3.9 
     1688.00        0.467          3.6 
     1689.00        0.567          3.5 
     1690.00        0.367          3.2 
     1691.00        0.333          3.0 
     1692.00        0.433          2.6 
     1693.00        0.433          2.6 
     1694.00        0.400          2.8 
     1695.00        0.383          2.1 
     1696.00        0.367          2.6 
     1697.00        0.367          2.6 
     1698.00        0.400          2.7 
     1699.00        0.367          2.4 
     1700.00        0.333          2.2 
     1701.00        0.300          2.4 
     1702.00        0.233          2.3 
     1703.00        0.267          2.2 
     1704.00        0.233          1.4 
     1705.00        0.283          2.4 
     1706.00        0.267          2.3 
     1707.00        0.233          1.7 
     1708.00        0.267          2.2 
     1709.00        0.267          2.2 
     1710.00        4.283          4.1 
     1711.00        0.367          3.6 
     1712.00        0.333          3.8 
     1713.00        0.300          3.1 
     1714.00        0.283          2.8 
     1715.00        0.300          2.4 
     1716.00        0.300          2.5 
     1717.00        0.300          3.0 
     1718.00        0.567          3.1 
     1719.00        0.867          2.9 
     1720.00        0.700          2.9 
     1721.00        0.783          2.6 
     1722.00        0.300          2.4 
     1723.00        0.333          1.9 
     1724.00        0.300          1.5 
     1725.00        0.300          1.9 
     1726.00        0.267          2.1 
     1727.00        0.300          1.9 
     1728.00        0.333          2.2 
     1729.00        0.300          2.3 
     1730.00        0.300          2.1 
     1731.00        0.250          1.7 
     1732.00        0.200          1.9 
     1733.00        0.167          2.3 
     1734.00        0.267          2.3 
     1735.00        0.300          2.3 
     1736.00        0.233          2.2 
     1737.00        0.267          2.1 
     1738.00        0.300          2.1 
     1739.00        0.200          2.0 
     1740.00        4.150          4.4 
     1741.00        0.300          4.1 
     1742.00        0.317          4.1 
     1743.00        0.267          3.5 
     1744.00        0.333          3.3 
     1745.00        0.433          3.2 
     1746.00        0.567          3.7 
     1747.00        0.633          3.7 
     1748.00        0.600          3.2 
     1749.00        0.717          3.0 
     1750.00        0.633          3.0 
     1751.00        0.833          2.8 
     1752.00        0.167          2.6 
     1753.00        0.433          2.4 
     1754.00        0.400          2.3 
     1755.00        0.333          2.6 
     1756.00        0.450          2.3 
     1757.00        0.433          2.5 
     1758.00        0.333          2.5 
     1759.00        0.333          2.5 
     1760.00        0.267          2.5 
     1761.00        0.267          1.9 
     1762.00        0.267          2.5 
     1763.00        0.233          2.5 
     1764.00        0.267          2.3 
     1765.00        0.267          2.5 
     1766.00        0.383          2.3 
     1767.00        0.367          2.4 
     1768.00        0.367          2.2 
     1769.00        0.400          2.6 
     1770.00        4.617          4.5 
     1771.00        0.467          4.0 
     1772.00        0.517          3.4 
     1773.00        0.200          3.5 
     1774.00        0.333          3.4 
     1775.00        0.300          3.9 
     1776.00        0.267          3.8 
     1777.00        0.167          3.6 
     1778.00        0.233          3.9 
     1779.00        0.267          3.9 
     1780.00        0.267          3.8 
     1781.00        0.267          3.7 
     1782.00        0.267          3.1 
     1783.00        0.267          3.5 
     1784.00        0.267          3.3 
     1785.00        0.350          2.9 
     1786.00        0.200          3.3 
     1787.00        0.167          3.0 
     1788.00        0.267          3.2 
     1789.00        0.300          3.6 
     1790.00        0.233          3.6 
     1791.00        0.267          3.2 
     1792.00        0.267          3.7 
     1793.00        0.267          3.6 
     1794.00        0.200          3.7 
     1795.00        0.267          3.7 
     1796.00        0.267          3.5 
     1797.00        0.267          3.4 
     1798.00        0.250          2.8 
     1799.00        0.233          3.0 
     1800.00        3.683          4.4 
     1801.00        0.467          5.7 
     1802.00        0.367          5.7 
     1803.00        0.400          4.9 
