~Version Information
VERS.                      2.0: CWLS Log ASCII Standard - VERSION 2.0
WRAP.                       NO: One line per depth step
~Well Information Block
STRT.FT               480.0000: 
STOP.FT              1994.2000: 
STEP.FT                 0.1000: 
NULL.                -999.2500: 
COMP.          Evergreen Operating Corporation: COMPANY
WELL.          McCullough 34-32 Tr: WELL
FLD.           Purgatoire River: FIELD
LOC.           394' FSL & 2077' FEL: LOCATION
PROV.                 Colorado: PROVINCE
CNTY.               Las Animas: COUNTRY
SRVC.                Patterson: SERVICE COMPANY
DATE.          Mon Sep 20 07:30:00 2004: LOG DATE
UWI.           05 071 08157 00: UNIQUE WELL ID
~Curve Information Block
DEPT.FT            0 000 00 00: Depth
DCAL.in                       : CDL Caliper
RHOB.g/cc                     : CDL Bulk Density
RHOC.g/cc                     : CDL Density Correction
DPOR.pu                       : CDL Density Porosity
NPOR.pu                       : Neutron Porosity
GR.GAPI                       : Gamma Ray
~Parameter Information Block
~A  Depth       DCAL        RHOB        RHOC        DPOR        NPOR         GR     
# ...
   681.6000      8.1766      2.4716      0.0470     10.8116     16.2445     61.7577
   681.7000      8.1766      2.4674      0.0126     11.0650     15.9943     65.0771
   681.8000      8.1929      2.4749      0.0352     10.6109     16.0391     67.4032
   681.9000      8.1929      2.4799      0.0563     10.3104     16.1381     69.0688
   682.0000      8.2039      2.4636      0.0746     11.2995     16.3818     68.2376
   682.1000      8.2039      2.4316      0.0232     13.2334     17.0067     63.6269
   682.2000      8.2039      2.4106     -0.0012     14.5092     17.7852     59.6508
   682.3000      8.2156      2.4113      0.0218     14.4670     18.4600     60.6722
   682.4000      8.2156      2.4205      0.0140     13.9111     19.0963     65.7301
   682.5000      8.2332      2.4264      0.0348     13.5545     19.7738     70.9372
   682.6000      8.2332      2.4302      0.0436     13.3212     20.5525     75.2764
   682.7000      8.2332      2.4365      0.0419     12.9424     21.4062     81.3019
   682.8000      8.2492      2.4389      0.0770     12.7948     22.2558     88.3616
   682.9000      8.2492      2.4278      0.0262     13.4671     23.1376     93.8723
   683.0000      8.2540      2.4017      0.0283     15.0470     23.9975    100.6643
   683.1000      8.2540      2.3568      0.0315     17.7678     24.5938    113.0689
   683.2000      8.2540      2.2822      0.0309     22.2923     24.8738    126.7857
   683.3000      8.2525      2.1750     -0.0481     28.7854     24.8270    132.6773
   683.4000      8.2525      2.0565     -0.1077     35.9719     24.1317    131.7711
   683.5000      8.2515      1.9532     -0.1445     42.2274     22.8111    132.0236
   683.6000      8.2515      1.8679     -0.1010     47.4020     21.3815    132.7657
   683.7000      8.2515      1.7857     -0.1276     52.3819     20.0992    130.4537
   683.8000      8.2556      1.7071     -0.1244     57.1480     18.6660    127.3693
   683.9000      8.2556      1.6417     -0.0750     61.1062     16.6090    123.4534
   684.0000      8.2651      1.5886     -0.0379     64.3255     14.1438    115.5966
   684.1000      8.2651      1.5388      0.0030     67.3447     12.0581    104.3171
   684.2000      8.2651      1.4852      0.0198     70.5926     10.6983     95.5388
   684.3000      8.2862      1.4326     -0.0299     73.7841      9.6721     94.4013
   684.4000      8.2862      1.3978     -0.0434     75.8933      8.7471     96.4439
   684.5000      8.3397      1.3950     -0.0072     76.0584      8.1609     94.0802
   684.6000      8.3397      1.4274      0.0102     74.0962      8.0289     88.4248
   684.7000      8.3397      1.4919      0.0749     70.1888      8.2018     85.4230
   684.8000      8.4198      1.5860      0.1042     64.4832      8.4904     86.9138
   684.9000      8.4198      1.7073      0.1642     57.1331      8.9274     89.1140
   685.0000      8.4540      1.8457      0.2205     48.7426      9.6483     91.5931
   685.1000      8.4540      1.9910      0.2573     39.9411     10.4739     97.6220
   685.2000      8.4540      2.1428      0.2969     30.7403     11.2602    106.1221
   685.3000      8.4077      2.2940      0.3536     21.5767     12.2591    111.1237
   685.4000      8.4077      2.4153      0.3398     14.2238     13.7020    110.9286
   685.5000      8.3041      2.4756      0.3007     10.5713     15.3725    112.4421
   685.6000      8.3041      2.4723      0.1573     10.7712     16.9362    119.5513
   685.7000      8.3041      2.4415      0.0488     12.6356     18.4125    125.2225
   685.8000      8.1837      2.4194      0.0528     13.9787     19.8688    124.5919
   685.9000      8.1837      2.4101      0.0355     14.5372     21.0199    123.1601
   686.0000      8.1178      2.4049      0.0369     14.8575     21.5513    125.7596
   686.1000      8.1178      2.3998     -0.0024     15.1627     21.4832    127.7358
   686.2000      8.1178      2.4009     -0.0136     15.0954     21.0962    125.0596
   686.3000      8.1036      2.4070      0.0393     14.7272     20.7016    122.8929
   686.4000      8.1036      2.4077      0.0357     14.6847     20.5403    124.7907
   686.5000      8.1040      2.4101      0.0256     14.5402     20.6474    125.5219
   686.6000      8.1040      2.4227      0.0716     13.7729     20.6586    121.7980
   686.7000      8.1040      2.4308      0.0905     13.2873     20.3936    119.0936
   686.8000      8.1071      2.4311      0.0420     13.2671     20.1134    120.8899
   686.9000      8.1071      2.4474      0.0267     12.2759     20.1450    121.6083
   687.0000      8.1087      2.4800      0.0950     10.3036     20.6116    115.7986
   687.1000      8.1087      2.4958      0.1188      9.3473     21.2117    108.5789
   687.2000      8.1087      2.4896     -0.0020      9.7194     21.6508    105.7449
   687.3000      8.1045      2.4906      0.0297      9.6578     22.0031    105.2143
   687.4000      8.1045      2.5068      0.0588      8.6781     22.2221    103.7612
   687.5000      8.0989      2.5256      0.0378      7.5385     22.0429    100.2267
   687.6000      8.0989      2.5397      0.0707      6.6865     21.4240     96.7759
   687.7000      8.0989      2.5449      0.0437      6.3703     20.7302     95.0594
   687.8000      8.0976      2.5395      0.0419      6.6972     20.4575     93.0006
   687.9000      8.0976      2.5253      0.0187      7.5563     20.8165     90.3424
   688.0000      8.0993      2.5103      0.0233      8.4662     21.5215     89.7086
   688.1000      8.0993      2.5033      0.0157      8.8932     22.0073     91.1277
   688.2000      8.0993      2.4997      0.0272      9.1117     22.1315     91.6138
   688.3000      8.1038      2.4856      0.0443      9.9640     22.2992     93.2948
   688.4000      8.1038      2.4694     -0.0633     10.9442     22.5971     98.4020
   688.5000      8.1141      2.4740     -0.0020     10.6674     22.6324    103.6109
   688.6000      8.1141      2.4867      0.0011      9.8951     22.4558    107.1522
   688.7000      8.1141      2.4618      0.0221     11.4085     22.4020    108.7541
   688.8000      8.1260      2.3868     -0.0314     15.9500     22.3447    109.0333
   688.9000      8.1260      2.3343     -0.1605     19.1303     22.1886    109.8646
   689.0000      8.1301      2.3666     -0.0168     17.1775     22.0890    112.2708
   689.1000      8.1301      2.4339      0.0028     13.0952     21.9170    114.0743
   689.2000      8.1301      2.4730      0.0074     10.7292     21.5054    114.2428
   689.3000      8.1293      2.4870      0.0084      9.8772     21.1197    114.4822
   689.4000      8.1293      2.4989      0.0158      9.1565     20.8171    114.0005
   689.5000      8.1292      2.5184     -0.0361      7.9779     20.3708    112.2620
   689.6000      8.1292      2.5436      0.0307      6.4507     20.0417    111.7794
   689.7000      8.1292      2.5629      0.0612      5.2806     19.9501    113.1781
   689.8000      8.1309      2.5697      0.0392      4.8650     19.8357    113.7089
   689.9000      8.1309      2.5668      0.0347      5.0444     19.8143    110.8216
   690.0000      8.1312      2.5519      0.0539      5.9466     20.0871    103.9710
   690.1000      8.1312      2.5268      0.0115      7.4637     20.5898     98.2578
   690.2000      8.1312      2.5119     -0.0432      8.3676     21.0465     94.9412
   690.3000      8.1296      2.5217     -0.0251      7.7747     21.2488     90.3457
   690.4000      8.1296      2.5409      0.0385      6.6132     21.1599     86.3076
   690.5000      8.1284      2.5504      0.0272      6.0392     20.9038     87.0330
   690.6000      8.1284      2.5510      0.0330      5.9986     20.8633     91.4989
   690.7000      8.1284      2.5446      0.0574      6.3902     20.9764     92.7026
   690.8000      8.1273      2.5371      0.0189      6.8439     20.8024     88.0173
   690.9000      8.1273      2.5429      0.0479      6.4928     20.4052     83.9190
   691.0000      8.1260      2.5522      0.0689      5.9261     19.9968     83.5462
   691.1000      8.1260      2.5503      0.0391      6.0396     19.6766     83.1447
