~Version Information
VERS.                      2.0: CWLS Log ASCII Standard - VERSION 2.0
WRAP.                       NO: One line per depth step
~Well Information Block
STRT.FT                -7.5000: 
STOP.FT               872.5000: 
STEP.FT                 0.5000: 
NULL.                -999.2500: 
COMP.          Pioneer Natural Resources: COMPANY
WELL.          New Mexico 21-5: WELL
FLD.           Purgatorie River: FIELD
LOC.           175' FNL & 1700' FWL: LOCATION
PROV.                 Colorado: PROVINCE
CNTY.               Las Animas: COUNTRY
SRVC.          Patterson Wireline: SERVICE COMPANY
DATE.          Fri Dec 17 09:32:01 2004: LOG DATE
UWI.           05-071-08234-00: UNIQUE WELL ID
~Curve Information Block
DEPT.FT            0 000 00 00: Depth
CCL.                          : Casing Collar Locator
TT3.usec                      : CBL 3' Travel Time
AMP3.mV                       : CBL 3' Amplitude
GR.GAPI                       : Gamma Ray
~Parameter Information Block
~A  Depth       CCL         TT3         AMP3         GR     
# ...
   729.5000      0.0000    794.1741      6.3966     66.0967
   730.0000      0.0000    798.8496      6.5061     56.4856
   730.5000      0.0000    806.9494      6.6176     57.8170
   731.0000      0.0000    814.8167      6.7811     74.7848
   731.5000      0.0000    821.3486      7.0208     92.0266
   732.0000      0.0000    822.8732      7.2048     98.0363
   732.5000      0.0000    816.9525      7.3162     92.8348
   733.0000      0.0000    817.3554      7.4237     78.7220
   733.5000      0.0000    821.4704      7.4995     67.5560
   734.0000      0.0000    813.2671      7.5357     63.0485
   734.5000      0.0000    805.9509      7.5296     59.6857
   735.0000      0.0000    810.7733      7.4512     52.2210
   735.5000      0.0000    814.3106      7.3515     44.1763
   736.0000      0.0000    807.2944      7.2807     44.2584
   736.5000      0.0000    802.3135      7.1808     49.6669
   737.0000      0.0000    805.3827      6.9840     52.0682
   737.5000      0.0000    810.4603      6.6894     52.1742
   738.0000      0.0000    814.6141      6.4940     56.6408
   738.5000      0.0000    815.5743      6.6516     66.2977
   739.0000      0.0000    815.7834      7.0781     79.5726
   739.5000      0.0000    811.6874      7.4549     85.0264
   740.0000      0.0000    804.5148      7.6824     77.4844
   740.5000      0.0000    811.2484      7.8716     72.8689
   741.0000      0.0000    825.1640      7.9706     74.4352
   741.5000      0.0000    830.4016      7.9772     78.2311
   742.0000      0.0000    828.3692      7.9334     83.6176
   742.5000      0.0000    812.8960      7.8132     88.3543
   743.0000      0.0000    780.9222      7.7136     87.7195
   743.5000      0.0000    759.8307      7.6834     83.7951
   744.0000      0.0000    774.0085      7.6464     81.0747
   744.5000      0.0000    803.6000      7.7260     81.2351
   745.0000      0.0000    808.8349      7.9585     83.8778
   745.5000      0.0000    802.1926      8.1060     85.1931
   746.0000      0.0000    808.1787      8.1554     86.4322
   746.5000      0.0000    810.6877      8.2116     82.5183
   747.0000      0.0000    776.8893      8.1911     73.7390
   747.5000      0.0000    697.8834      8.1006     74.1323
   748.0000      0.0000    627.8375      7.9953     79.5725
   748.5000      0.0000    583.6489      7.8390     82.6473
   749.0000      0.0000    615.7008      7.6994     84.1100
   749.5000      0.0000    714.7280      7.6013     86.4230
   750.0000      0.0000    748.3155      7.4595     89.2641
   750.5000      0.0000    697.1983      7.3555     92.3432
   751.0000      0.0000    624.3370      7.3153     93.1574
   751.5000      0.0000    559.4207      7.2731     88.8984
   752.0000      0.0000    509.7335      7.1820     83.0542
   752.5000      0.0000    490.4762      7.0848     77.9049
   753.0000      0.0000    448.0309      7.0814     73.6225
   753.5000      0.0000    419.6517      7.0688     68.1354
   754.0000      0.0000    467.4426      6.8205     58.4254
   754.5000      0.0000    586.3060      6.4166     52.4108
   755.0000      0.0000    685.7598      6.1399     54.6016
   755.5000      0.0000    733.8039      5.9602     55.5178
   756.0000      0.0000    775.4604      5.6861     53.9372
   756.5000      0.0000    810.8643      5.4318     58.3922
   757.0000      0.0000    831.7069      5.4455     64.4243
   757.5000     -3.0542    841.4026      5.4597     67.9686
   758.0000      0.0000    846.1191      5.6869     74.3156
   758.5000      0.0000    834.0674      6.3989     81.8242
   759.0000      0.0000    793.3497      7.0536     86.2749
   759.5000      0.0000    752.2149      7.4261     86.0924
   760.0000      0.0000    738.9678      7.7265     78.5053
   760.5000      0.0000    734.5654      7.8817     66.5110
   761.0000      0.0000    718.2870      7.9930     58.3674
   761.5000      0.0000    712.3300      8.2399     57.0618
   762.0000      0.0000    733.5121      8.5253     57.6333
   762.5000      0.0000    748.0275      8.6526     55.3998
   763.0000      0.0000    743.3459      8.6500     54.9409
   763.5000      0.0000    739.1814      8.5933     62.7194
   764.0000      0.0000    734.5172      8.5521     76.6603
   764.5000      0.0000    748.0068      8.5156     87.1349
   765.0000      0.0000    754.4751      8.4606     90.0795
   765.5000      0.0000    749.6377      8.4147     90.1158
   766.0000      0.0000    777.5615      8.2675     91.3163
   766.5000      0.0000    808.4479      8.0656     90.5360
   767.0000      0.0000    814.5135      7.9292     91.0648
   767.5000      0.0000    798.2550      7.8071     93.4803
   768.0000      0.0000    785.4071      7.7021     92.8242
   768.5000      0.0000    774.3682      7.6184     94.5973
   769.0000      0.0000    756.2054      7.5365     92.2970
   769.5000      0.0000    740.6993      7.4639     84.0693
   770.0000      0.0000    731.4243      7.3794     80.6982
   770.5000      0.0000    737.2850      7.2994     84.4424
   771.0000      0.0000    750.8364      7.3034     89.5019
   771.5000      0.0000    752.3708      7.3086     90.6456
   772.0000      0.0000    734.7579      7.2779     92.6462
   772.5000      0.0000    685.1902      7.3207     94.8919
   773.0000      0.0000    586.4771      7.3063     96.9625
   773.5000      0.0000    486.5171      7.1560     98.6544
   774.0000      0.0000    485.4126      7.0830     96.2202
   774.5000      0.0000    589.1799      7.1422     91.6596
   775.0000      0.0000    684.5133      7.0689     89.2360
   775.5000      0.0000    720.8446      6.8484     91.9226
   776.0000      0.0000    734.1789      6.7421     99.0792
   776.5000      0.0000    733.4121      6.6609     99.6955
   777.0000      0.0000    718.2460      6.2804     95.1130
   777.5000      0.0000    701.7739      5.5722     89.4285
   778.0000      0.0000    696.7946      4.7179     79.4483
   778.5000      0.0000    710.4337      3.8755     72.8300
   779.0000      0.0000    740.3807      3.1709     66.2101
   779.5000      0.0000    767.5258      2.7004     57.4282
   780.0000      0.0000    748.9595      2.6338     47.5182
   780.5000      0.0000    713.3828      2.9764     42.1971
   781.0000      0.0000    715.2689      3.5770     49.0732
   781.5000      0.0000    742.9904      4.4755     60.2819
   782.0000      0.0000    772.5886      5.7982     70.2520
   782.5000      0.0000    778.6792      7.4337     76.9865
   783.0000      0.0000    753.9178      8.6941     76.6911
   783.5000      0.0000    733.2458      8.9022     71.8235
   784.0000      0.0000    731.2354      8.3656     69.4849
   784.5000      0.0000    754.6649      7.9172     72.9971
   785.0000      0.0000    787.2839      7.7312     78.4624
   785.5000      0.0000    788.7241      7.4780     81.6273
   786.0000      0.0000    760.5827      7.1129     84.7769
   786.5000      0.0000    752.0457      6.7595     88.0027
   787.0000      0.0000    757.5945      6.5126     87.9154
   787.5000      0.0000    742.1122      6.4237     88.7330
   788.0000      0.0000    730.4214      6.4042     86.8858
   788.5000      0.0000    740.8409      6.3769     81.7274
   789.0000      0.0000    753.1920      6.4075     78.1181
   789.5000      0.0000    749.9316      6.4561     81.2941
   790.0000      0.0000    741.7126      6.4344     89.9847
   790.5000      0.0000    738.3859      6.2591     95.1415
   791.0000      0.0000    733.1050      6.1509     94.1035
   791.5000      0.0000    719.4214      6.1948     93.6433
   792.0000      0.0000    712.6110      6.2422     94.0718
   792.5000      0.0000    723.5343      6.1814     93.6158
   793.0000      0.0000    734.2614      6.0862     94.5254
   793.5000      0.0000    736.2329      6.1641     93.0275
   794.0000      0.0000    736.1743      6.3668     92.1649
   794.5000      0.0000    735.1320      6.5451     92.9410
   795.0000      0.0000    738.4330      6.6932     95.9578
   795.5000      0.0000    740.3291      6.8682     96.7274
   796.0000      0.0000    735.3109      7.0921     83.7170
