~Version Information
VERS.                      2.0: CWLS Log ASCII Standard - VERSION 2.0
WRAP.                       NO: One line per depth step
~Well Information Block
STRT.FT                15.0000: 
STOP.FT              1869.0000: 
STEP.FT                 0.2500: 
NULL.                -999.2500: 
COMP.          Pioneer Natural Resources: COMPANY
WELL.          Victory 12-14 Tr: WELL
FLD.           Purgatoire River: FIELD
LOC.           2522' FNL & 276' FWL: LOCATION
PROV.                 Colorado: PROVINCE
CNTY.               Las Animas: COUNTRY
SRVC.                Patterson: SERVICE COMPANY
DATE.          Fri Jul 22 14:39:41 2005: LOG DATE
UWI.           05 071 08433 00: UNIQUE WELL ID
~Curve Information Block
DEPT.FT            0 000 00 00: Depth
GR.GAPI                       : Gamma Ray
CCL.                          : Casing Collar Locator
TT3.usec                      : CBL 3' Travel Time
AMP3.mV                       : CBL 3' Amplitude
~Parameter Information Block
~A  Depth        GR         CCL         TT3         AMP3    
# ...
   618.0000     99.9085      0.0000    616.9637     17.4161
   618.2500    102.0634      0.0000    558.7358     17.4837
   618.5000    104.7288      0.0000    534.8713     17.5480
   618.7500    107.0042      0.0000    558.5409     17.5848
   619.0000    108.2090      0.0000    616.6252     17.5863
   619.2500    108.2860      0.0000    680.8997     17.5687
   619.5000    107.6347      0.0000    729.2483     17.5565
   619.7500    106.6049      0.0000    756.1007     17.5630
   620.0000    105.1542      0.0000    767.3883     17.5841
   620.2500    102.9483      0.0000    770.9603     17.6063
   620.5000     99.7887      0.0000    771.7364     17.6178
   620.7500     95.9676      0.0000    771.7484     17.6129
   621.0000     92.2713      0.0000    771.6267     17.5875
   621.2500     89.7660      0.0000    771.5334     17.5341
   621.5000     89.3987      0.0000    771.5043     17.4475
   621.7500     91.2974      0.0000    771.5075     17.3403
   622.0000     94.3216      0.0000    771.4926     17.2501
   622.2500     96.6670      0.0000    771.4258     17.2216
   622.5000     97.1305      0.0000    771.3066     17.2728
   622.7500     95.7299      0.0000    771.1556     17.3800
   623.0000     93.3106      0.0000    770.9916     17.4973
   623.2500     90.9564      0.0000    770.8225     17.5916
   623.5000     89.6657      0.0000    770.6550     17.6611
   623.7500     90.0218      0.0000    770.5052     17.7263
   624.0000     91.9044      0.0000    770.4022     17.8115
   624.2500     94.5182      0.0000    770.4266     17.9310
   624.5000     96.6682      0.0000    770.8324     18.0816
   624.7500     97.1728      0.0000    772.2605     18.2434
   625.0000     95.4093      0.0000    775.8765     18.3935
   625.2500     91.6181      0.0000    783.1089     18.5206
   625.5000     86.5595      0.0000    794.8477     18.6277
   625.7500     80.9079      0.0000    810.5424     18.7253
   626.0000     75.1663      0.0000    827.9896     18.8268
   626.2500     70.0501      0.0000    844.1757     18.9473
   626.5000     66.5103      0.0000    856.7714     19.0968
   626.7500     65.0815      0.0000    865.3429     19.2713
   627.0000     65.3979      0.0000    871.5327     19.4545
   627.2500     66.6718      0.0000    878.1021     19.6289
   627.5000     68.7176      0.0000    887.1862     19.7886
   627.7500     72.3512      0.0000    898.3612     19.9440
   628.0000     78.5730      0.0000    907.8984     20.1119
   628.2500     87.2037      0.0000    910.5786     20.2904
   628.5000     96.3740      0.0000    903.1982     20.4467
   628.7500    103.5584      0.0000    886.7869     20.5385
   629.0000    107.2086      0.0000    865.7170     20.5527
   629.2500    107.5674      0.0000    845.0220     20.5193
   629.5000    106.2229      0.0000    828.3400     20.4864
   629.7500    104.8946      0.0000    817.4084     20.4854
   630.0000    104.3477      0.0000    812.3466     20.5219
   630.2500    104.2119      0.0000    811.9180     20.5873
   630.5000    103.7048      0.0000    814.0470     20.6700
   630.7500    102.4158      0.0000    817.0178     20.7546
   631.0000    100.3398      0.0000    820.7275     20.8202
   631.2500     97.3569      0.0000    826.9104     20.8398
   631.5000     93.2309      0.0000    837.8785     20.7910
   631.7500     88.2696      0.0000    854.0090     20.6764
   632.0000     83.4531      0.0000    871.5040     20.5352
   632.2500     79.5767      0.0000    883.2626     20.4231
   632.5000     76.6052      0.0000    883.8644     20.3746
   632.7500     74.1262      0.0000    874.9873     20.3863
   633.0000     72.1569      0.0000    865.6351     20.4304
   633.2500     71.2217      0.0000    866.0089     20.4756
   633.5000     71.7023      0.0000    879.7585     20.4955
   633.7500     73.3095      0.0000    900.8719     20.4697
   634.0000     75.1806      0.0000    917.8106     20.3886
   634.2500     76.3472      0.0000    921.7861     20.2632
   634.5000     76.1707      0.0000    912.3776     20.1247
   634.7500     74.6346      0.0000    896.0132     20.0096
   635.0000     72.3994      0.0000    879.9158     19.9395
   635.2500     70.4505      0.0000    867.7894     19.9138
   635.5000     69.4432      0.0000    859.6751     19.9145
   635.7500     69.1526      0.0000    853.8133     19.9208
   636.0000     68.5913      0.0000    848.7078     19.9223
   636.2500     66.9122      0.0000    844.7422     19.9219
   636.5000     64.3348      0.0000    843.9496     19.9239
   636.7500     62.1160      0.0000    847.6895     19.9273
   637.0000     61.4816      0.0000    854.7126     19.9362
   637.2500     62.4723      0.0000    861.8356     19.9714
   637.5000     63.8656      0.0000    866.0764     20.0572
   637.7500     64.3196      0.0000    865.8763     20.1871
   638.0000     63.5626      0.0000    861.0314     20.3110
   638.2500     62.4920      0.0000    852.5489     20.3678
   638.5000     62.3107      0.0000    842.6258     20.3328
   638.7500     63.5398      0.0000    833.8730     20.2322
   639.0000     65.5817      0.0000    827.9208     20.1160
   639.2500     67.1534      0.0000    824.7584     20.0241
   639.5000     67.3043      0.0000    823.3597     19.9731
   639.7500     66.1670      0.0000    822.6561     19.9643
   640.0000     64.8776      0.0000    821.9379     19.9948
   640.2500     64.8427      0.0000    820.6800     20.0553
   640.5000     66.9515      0.0000    818.3370     20.1187
   640.7500     71.3201      0.0000    814.4769     20.1362
   641.0000     77.5553      0.0000    809.0933     20.0607
   641.2500     84.9426      0.0000    802.6499     19.8801
   641.5000     92.3782      0.0000    795.7972     19.6292
   641.7500     98.4918      0.0000    789.2142     19.3671
   642.0000    102.1533      0.0000    783.6237     19.1457
   642.2500    103.0127      0.0000    779.5836     18.9931
   642.5000    101.7335      0.0000    777.1494     18.9155
   642.7500     99.7537      0.0000    775.8854     18.9052
   643.0000     98.5658      0.0000    775.2246     18.9449
   643.2500     98.8914      0.0000    774.7888     19.0056
   643.5000    100.3781      0.0000    774.5003     19.0516
   643.7500    102.0649      0.0000    774.5750     19.0525
   644.0000    103.2777      0.0000    775.3873     18.9780
   644.2500    104.2802      0.0000    777.1003     18.7652
   644.5000    106.0132      0.0000    779.0493     18.2907
   644.7500    109.0283      0.0000    779.8271     17.4366
   645.0000    112.7707      0.0000    779.5434     16.2499
   645.2500    116.1491      0.0000    783.1412     15.0066
   645.5000    118.5403      0.0000    799.6457     14.0129
   645.7500    119.7559      0.0000    835.2437     13.3412
   646.0000    119.3140      0.0000    886.6207     12.8537
   646.2500    116.5802      0.0000    941.4903     12.4437
   646.5000    111.8264      0.0000    985.2955     12.1329
   646.7500    106.6446      0.0000   1008.9185     11.9639
   647.0000    103.0177      3.0000   1013.2036     11.9185
   647.2500    101.9797      0.0000   1004.8965     11.9496
   647.5000    103.0555      0.0000    984.6468     12.0584
   647.7500    104.9379      0.0000    942.0980     12.3457
   648.0000    106.7988      0.0000    870.9401     12.9736
   648.2500    108.8875      0.0000    788.3560     14.0156
   648.5000    111.8330      0.0000    728.3016     15.3287
   648.7500    115.5849      0.0000    711.2231     16.6234
   649.0000    119.1872      0.0000    728.3901     17.6586
   649.2500    121.5215      0.0000    757.1941     18.3493
   649.5000    122.1217      0.0000    781.7447     18.7390
   649.7500    121.2354      0.0000    796.9191     18.9284
   650.0000    119.2600      0.0000    802.6663     19.0180
   650.2500    116.5031      0.0000    800.7822     19.0737
   650.5000    113.5238      0.0000    794.6371     19.1206
   650.7500    111.1676      0.0000    788.1592     19.1558
   651.0000    109.8766      0.0000    784.2612     19.1677
   651.2500    109.1615      0.0000    784.1394     19.1504
