~Version Information
VERS.                      2.0: CWLS Log ASCII Standard - VERSION 2.0
WRAP.                       NO: One line per depth step
~Well Information Block
STRT.FT               275.0000: 
STOP.FT              1682.2500: 
STEP.FT                 0.2500: 
NULL.                -999.2500: 
COMP.          Pioneer Natural Resources: COMPANY
WELL.               Elmo 14-21: WELL
FLD.           Purgatoire River: FIELD
LOC.           623' FSL & 450' FWL----: LOCATION
PROV.                 Colorado: PROVINCE
CNTY.               Las Animas: COUNTRY
SRVC.                Patterson: SERVICE COMPANY
DATE.          Tue May 17 16:07:31 2005: LOG DATE
UWI.           05 071 08360 00: UNIQUE WELL ID
~Curve Information Block
DEPT.FT            0 000 00 00: Depth
SN.Ohm-m                      : IEL Short Normal
SP.mV                         : IEL Spontaneous Potential
DIR.Ohm-m                     : IEL Induction Resistivity
GR.GAPI                       : Gamma Ray
~Parameter Information Block
~A  Depth        SN          SP         DIR          GR     
# ...
   442.5000   2000.0000   2000.0000     10.8715    142.2997
   442.7500   2000.0000   2000.0000     11.1656    140.5756
   443.0000   2000.0000   2000.0000     11.5961    132.9110
   443.2500   2000.0000   2000.0000     12.1866    124.9649
   443.5000   2000.0000   2000.0000     12.9514    110.8063
   443.7500   2000.0000   2000.0000     13.8874    101.3098
   444.0000   2000.0000   2000.0000     14.9630     88.7914
   444.2500   2000.0000   2000.0000     16.1027     81.9163
   444.5000   2000.0000   2000.0000     17.1762     73.7302
   444.7500   2000.0000   2000.0000     18.0112     69.9536
   445.0000   2000.0000   2000.0000     18.4494     68.1356
   445.2500   2000.0000   2000.0000     18.4238     70.3234
   445.5000   2000.0000   2000.0000     17.9954     79.1368
   445.7500   2000.0000   2000.0000     17.3124     88.0495
   446.0000   2000.0000   2000.0000     16.5305    103.4933
   446.2500   2000.0000   2000.0000     15.7584    113.4335
   446.5000   2000.0000   2000.0000     15.0487    125.5049
   446.7500   2000.0000   2000.0000     14.4171    131.0072
   447.0000   2000.0000   2000.0000     13.8667    135.3154
   447.2500   2000.0000   2000.0000     13.4030    135.9471
   447.5000   2000.0000   2000.0000     13.0372    134.8696
   447.7500   2000.0000   2000.0000     12.7810    133.6461
   448.0000   2000.0000   2000.0000     12.6402    131.8528
   448.2500   2000.0000   2000.0000     12.6114    130.7558
   448.5000   2000.0000   2000.0000     12.6815    129.2807
   448.7500   2000.0000   2000.0000     12.8286    128.4617
   449.0000   2000.0000   2000.0000     13.0243    127.2329
   449.2500   2000.0000   2000.0000     13.2397    126.0124
   449.5000   2000.0000   2000.0000     13.4521    123.0989
   449.7500   2000.0000   2000.0000     13.6493    120.6188
   450.0000   2000.0000   2000.0000     13.8282    116.9445
   450.2500   2000.0000   2000.0000     13.9892    114.8754
   450.5000   2000.0000   2000.0000     14.1299    112.3319
   450.7500   2000.0000   2000.0000     14.2435    110.8867
   451.0000   2000.0000   2000.0000     14.3199    109.2752
   451.2500   2000.0000   2000.0000     14.3480    108.9095
   451.5000   2000.0000   2000.0000     14.3195    109.9449
   451.7500   2000.0000   2000.0000     14.2318    111.7872
   452.0000   2000.0000   2000.0000     14.0911    116.1735
   452.2500   2000.0000   2000.0000     13.9133    120.0288
   452.5000   2000.0000   2000.0000     13.7222    126.6129
   452.7500   2000.0000   2000.0000     13.5478    130.8577
   453.0000   2000.0000   2000.0000     13.4226    135.5462
   453.2500   2000.0000   2000.0000     13.3786    136.9377
   453.5000   2000.0000   2000.0000     13.4437    136.2216
   453.7500   2000.0000   2000.0000     13.6387    134.0872
   454.0000   2000.0000   2000.0000     13.9751    128.7850
   454.2500   2000.0000   2000.0000     14.4548    123.9784
   454.5000   2000.0000   2000.0000     15.0721    115.0186
   454.7500   2000.0000   2000.0000     15.8180    108.0810
   455.0000   2000.0000   2000.0000     16.6870     97.1861
   455.2500   2000.0000   2000.0000     17.6780     90.5659
   455.5000   2000.0000   2000.0000     18.7908     83.2693
   455.7500   2000.0000   2000.0000     20.0159     80.5716
   456.0000   2000.0000   2000.0000     21.3287     79.1292
   456.2500   2000.0000   2000.0000     22.6883     79.0096
   456.5000   2000.0000   2000.0000     24.0397     78.4029
   456.7500   2000.0000   2000.0000     25.3177     76.8976
   457.0000   2000.0000   2000.0000     26.4567     72.2582
   457.2500   2000.0000   2000.0000     27.4062     67.7710
   457.5000   2000.0000   2000.0000     28.1465     60.4018
   457.7500   2000.0000   2000.0000     28.6966     56.1839
   458.0000   2000.0000   2000.0000     29.1103     52.1415
   458.2500   2000.0000   2000.0000     29.4578     50.9578
   458.5000   2000.0000   2000.0000     29.7953     50.5185
   458.7500   2000.0000   2000.0000     30.1336     50.5560
   459.0000   2000.0000   2000.0000     30.4285     50.8361
   459.2500   2000.0000   2000.0000     30.6003     51.4225
   459.5000   2000.0000   2000.0000     30.5695     53.4887
   459.7500   2000.0000   2000.0000     30.2854     55.8639
   460.0000   2000.0000   2000.0000     29.7352     61.0521
   460.2500   2000.0000   2000.0000     28.9444     65.5903
   460.5000   2000.0000   2000.0000     27.9754     73.6368
   460.7500   2000.0000   2000.0000     26.9200     79.2592
   461.0000   2000.0000   2000.0000     25.8779     86.8352
   461.2500   2000.0000   2000.0000     24.9312     90.8211
   461.5000   2000.0000   2000.0000     24.1301     95.1296
   461.7500   2000.0000   2000.0000     23.4950     97.1552
   462.0000   2000.0000   2000.0000     23.0272     99.3211
   462.2500   2000.0000   2000.0000     22.7198    100.1605
   462.5000   2000.0000   2000.0000     22.5652    100.1617
   462.7500   2000.0000   2000.0000     22.5583     99.1788
   463.0000   2000.0000   2000.0000     22.6966     96.2995
   463.2500   2000.0000   2000.0000     22.9763     93.5920
   463.5000   2000.0000   2000.0000     23.3869     88.7183
   463.7500   2000.0000   2000.0000     23.9088     85.2304
   464.0000   2000.0000   2000.0000     24.5113     80.1626
   464.2500   2000.0000   2000.0000     25.1519     77.0664
   464.5000   2000.0000   2000.0000     25.7790     72.8584
   464.7500   2000.0000   2000.0000     26.3450     70.2645
   465.0000   2000.0000   2000.0000     26.8291     66.5960
   465.2500   2000.0000   2000.0000     27.2507     64.3206
   465.5000   2000.0000   2000.0000     27.6592     61.2322
   465.7500   2000.0000   2000.0000     28.1072     59.3434
   466.0000   2000.0000   2000.0000     28.6269     56.5177
   466.2500   2000.0000   2000.0000     29.2232     54.5030
   466.5000   2000.0000   2000.0000     29.8800     51.3051
   466.7500   2000.0000   2000.0000     30.5711     49.2291
   467.0000   2000.0000   2000.0000     31.2698     46.5709
   467.2500   2000.0000   2000.0000     31.9568     45.2273
   467.5000   2000.0000   2000.0000     32.6257     43.7638
   467.7500   2000.0000   2000.0000     33.2825     42.9460
   468.0000   2000.0000   2000.0000     33.9331     41.6212
   468.2500   2000.0000   2000.0000     34.5634     40.6721
   468.5000   2000.0000   2000.0000     35.1237     39.4519
   468.7500   2000.0000   2000.0000     35.5381     38.9454
   469.0000   2000.0000   2000.0000     35.7431     38.7740
   469.2500   2000.0000   2000.0000     35.7337     39.0608
   469.5000   2000.0000   2000.0000     35.5743     39.9199
   469.7500   2000.0000   2000.0000     35.3589     40.5567
   470.0000   2000.0000   2000.0000     35.1531     41.3880
   470.2500   2000.0000   2000.0000     34.9605     41.9691
   470.5000   2000.0000   2000.0000     34.7332     43.1188
   470.7500   2000.0000   2000.0000     34.3980     43.9860
   471.0000   2000.0000   2000.0000     33.8719     45.0545
   471.2500   2000.0000   2000.0000     33.0600     45.5325
   471.5000   2000.0000   2000.0000     31.8688     46.2607
   471.7500   2000.0000   2000.0000     30.2549     47.1752
   472.0000   2000.0000   2000.0000     28.2779     50.0226
   472.2500   2000.0000   2000.0000     26.0985     53.3872
   472.5000   2000.0000   2000.0000     23.9098     61.3549
   472.7500   2000.0000   2000.0000     21.8598     68.7796
   473.0000   2000.0000   2000.0000     20.0196     82.4185
   473.2500   2000.0000   2000.0000     18.4010     92.1772
   473.5000   2000.0000   2000.0000     16.9898    105.6115
   473.7500   2000.0000   2000.0000     15.7703    112.6357
   474.0000   2000.0000   2000.0000     14.7307    119.3131
   474.2500   2000.0000   2000.0000     13.8611    121.4764
   474.5000   2000.0000   2000.0000     13.1504    122.9451
   474.7500   2000.0000   2000.0000     12.5878    123.6522
   475.0000   2000.0000   2000.0000     12.1620    124.4729
   475.2500   2000.0000   2000.0000     11.8596    124.2875
   475.5000   2000.0000   2000.0000     11.6631    122.2161
   475.7500   2000.0000   2000.0000     11.5507    119.9358
