~Version Information
VERS.                      2.0: CWLS Log ASCII Standard - VERSION 2.0
WRAP.                       NO: One line per depth step
~Well Information Block
STRT.FT               -14.5000: 
STOP.FT              2676.5000: 
STEP.FT                 0.1000: 
NULL.                -999.2500: 
COMP.          Petrogulf Corporation: COMPANY
WELL.          Latiluppe 8-13V: WELL
FLD.           Purgatorie River: FIELD
LOC.           1069' FWL & 1647' FSL: LOCATION
CNTY.               Las Animas: COUNTY
SRVC.                         : SERVICE COMPANY
DATE.          Tue Nov 18 16:12:50 2003: LOG DATE
UWI.                          : UNIQUE WELL ID
STAT.                 Colorado: STATE
~Curve Information Block
DEPT.FT            0 000 00 00: Depth
CCL.                          : Casing Collar Locator
TT3.usec                      : CBL 3' Travel Time
AMP3.mV                       : CBL 3' Amplitude
GR.GAPI                       : Gamma Ray
~Parameter Information Block
~A  Depth       CCL         TT3         AMP3         GR     
# ...
   695.7000      0.0000    818.0325      4.5272     80.6421
   695.8000      0.0000    811.2549      4.7355     80.9511
   695.9000      0.0000    811.2549      4.7355     80.9511
   696.0000      0.0000    804.7903      4.8567     80.0102
   696.1000      0.0000    804.7903      4.8567     80.0102
   696.2000      0.0000    804.7903      4.8567     80.0102
   696.3000      0.0000    803.6501      4.8252     78.7597
   696.4000      0.0000    803.6501      4.8252     78.7597
   696.5000      0.0000    810.2461      4.6390     77.7105
   696.6000      0.0000    810.2461      4.6390     77.7105
   696.7000      0.0000    810.2461      4.6390     77.7105
   696.8000      0.0000    822.4011      4.3880     76.7508
   696.9000      0.0000    822.4011      4.3880     76.7508
   697.0000      0.0000    834.8442      4.1789     75.4334
   697.1000      0.0000    834.8442      4.1789     75.4334
   697.2000      0.0000    834.8442      4.1789     75.4334
   697.3000      0.0000    842.5630      4.0575     73.4568
   697.4000      0.0000    842.5630      4.0575     73.4568
   697.5000      0.0000    842.5369      4.0202     70.9060
   697.6000      0.0000    842.5369      4.0202     70.9060
   697.7000      0.0000    842.5369      4.0202     70.9060
   697.8000      0.0000    833.5005      4.0586     67.9639
   697.9000      0.0000    833.5005      4.0586     67.9639
   698.0000      0.0000    816.4060      4.1590     64.5393
   698.1000      0.0000    816.4060      4.1590     64.5393
   698.2000      0.0000    816.4060      4.1590     64.5393
   698.3000      0.0000    796.1070      4.2849     60.5198
   698.4000      0.0000    796.1070      4.2849     60.5198
   698.5000      0.0000    780.7135      4.3904     56.3573
   698.6000      0.0000    780.7135      4.3904     56.3573
   698.7000      0.0000    780.7135      4.3904     56.3573
   698.8000      0.0000    776.3666      4.4477     53.0604
   698.9000      0.0000    776.3666      4.4477     53.0604
   699.0000      0.0000    781.9773      4.4629     51.5122
   699.1000      0.0000    781.9773      4.4629     51.5122
   699.2000      0.0000    781.9773      4.4629     51.5122
   699.3000      0.0000    790.4639      4.4720     51.9015
   699.4000      0.0000    790.4639      4.4720     51.9015
   699.5000      0.0000    795.2477      4.5033     53.7194
   699.6000      0.0000    795.2477      4.5033     53.7194
   699.7000      0.0000    795.2477      4.5033     53.7194
   699.8000      0.0000    794.3896      4.5231     56.0822
   699.9000      0.0000    794.3896      4.5231     56.0822
   700.0000      0.0000    789.3107      4.4423     58.0216
   700.1000      0.0000    789.3107      4.4423     58.0216
   700.2000      0.0000    789.3107      4.4423     58.0216
   700.3000      0.0000    782.3507      4.2186     58.7080
   700.4000      0.0000    782.3507      4.2186     58.7080
   700.5000      0.0000    776.4851      3.9401     57.7720
   700.6000      0.0000    776.4851      3.9401     57.7720
   700.7000      0.0000    776.4851      3.9401     57.7720
   700.8000      0.0000    775.2191      3.7595     55.5779
   700.9000      0.0000    775.2191      3.7595     55.5779
   701.0000      0.0000    780.0611      3.7363     52.9414
   701.1000      0.0000    780.0611      3.7363     52.9414
   701.2000      0.0000    780.0611      3.7363     52.9414
   701.3000      0.0000    787.8477      3.7908     50.3210
   701.4000      0.0000    787.8477      3.7908     50.3210
   701.5000      0.0000    792.5526      3.8236     47.5032
   701.6000      0.0000    792.5526      3.8236     47.5032
   701.7000      0.0000    792.5526      3.8236     47.5032
   701.8000      0.0000    791.0287      3.8266     44.3770
   701.9000      0.0000    791.0287      3.8266     44.3770
   702.0000      0.0000    786.2830      3.8440     41.7289
   702.1000      0.0000    786.2830      3.8440     41.7289
   702.2000      0.0000    786.2830      3.8440     41.7289
   702.3000      0.0000    784.5635      3.8789     40.7573
   702.4000      0.0000    784.5635      3.8789     40.7573
   702.5000      0.0000    790.1229      3.9076     41.7019
   702.6000      0.0000    790.1229      3.9076     41.7019
   702.7000      0.0000    790.1229      3.9076     41.7019
   702.8000      0.0000    803.0905      3.9547     43.2754
   702.9000      0.0000    803.0905      3.9547     43.2754
   703.0000      0.0000    820.6416      4.0750     43.7611
   703.1000      0.0000    820.6416      4.0750     43.7611
   703.2000      0.0000    820.6416      4.0750     43.7611
   703.3000      0.0000    838.8882      4.2641     42.7478
   703.4000      0.0000    838.8882      4.2641     42.7478
   703.5000      0.0000    854.5151      4.4543     41.5092
   703.6000      0.0000    854.5151      4.4543     41.5092
   703.7000      0.0000    854.5151      4.4543     41.5092
   703.8000      0.0000    865.6397      4.5986     41.5039
   703.9000      0.0000    865.6397      4.5986     41.5039
   704.0000      0.0000    871.1414      4.7025     42.7571
   704.1000      0.0000    871.1414      4.7025     42.7571
   704.2000      0.0000    871.1414      4.7025     42.7571
   704.3000      0.0000    869.3986      4.7791     43.9776
   704.4000      0.0000    869.3986      4.7791     43.9776
   704.5000      0.0000    858.7734      4.8191     43.9807
   704.6000      0.0000    858.7734      4.8191     43.9807
   704.7000      0.0000    858.7734      4.8191     43.9807
   704.8000      0.0000    840.0551      4.8118     42.7581
   704.9000      0.0000    840.0551      4.8118     42.7581
   705.0000      0.0000    817.5142      4.7607     41.4530
   705.1000      0.0000    817.5142      4.7607     41.4530
   705.2000      0.0000    817.5142      4.7607     41.4530
   705.3000      0.0000    796.1963      4.6761     41.6025
   705.4000      0.0000    796.1963      4.6761     41.6025
   705.5000      0.0000    778.3133      4.5738     44.1629
   705.6000      0.0000    778.3133      4.5738     44.1629
   705.7000      0.0000    778.3133      4.5738     44.1629
   705.8000      0.0000    763.4894      4.4824     48.8152
   705.9000      0.0000    763.4894      4.4824     48.8152
   706.0000      0.0000    752.0747      4.4265     53.9803
   706.1000      0.0000    752.0747      4.4265     53.9803
   706.2000      0.0000    752.0747      4.4265     53.9803
   706.3000      0.0000    745.9140      4.4042     57.6229
   706.4000      0.0000    745.9140      4.4042     57.6229
   706.5000      0.0000    745.4046      4.4041     58.4438
   706.6000      0.0000    745.4046      4.4041     58.4438
   706.7000      0.0000    745.4046      4.4041     58.4438
   706.8000      0.0000    748.2885      4.4411     56.7625
   706.9000      0.0000    748.2885      4.4411     56.7625
   707.0000      0.0000    753.1044      4.5389     54.3357
   707.1000      0.0000    753.1044      4.5389     54.3357
   707.2000      0.0000    753.1044      4.5389     54.3357
   707.3000      0.0000    762.5099      4.6687     52.9772
   707.4000      0.0000    762.5099      4.6687     52.9772
   707.5000      0.0000    780.8840      4.7422     53.0114
   707.6000      0.0000    780.8840      4.7422     53.0114
   707.7000      0.0000    780.8840      4.7422     53.0114
   707.8000      0.0000    808.2930      4.6966     53.1586
   707.9000      0.0000    808.2930      4.6966     53.1586
   708.0000      0.0000    838.2030      4.5620     52.0818
   708.1000      0.0000    838.2030      4.5620     52.0818
   708.2000      0.0000    838.2030      4.5620     52.0818
   708.3000      0.0000    862.4250      4.4178     49.8899
   708.4000      0.0000    862.4250      4.4178     49.8899
   708.5000      0.0000    878.1741      4.3088     48.0861
   708.6000      0.0000    878.1741      4.3088     48.0861
   708.7000      0.0000    878.1741      4.3088     48.0861
   708.8000      0.0000    888.9570      4.2457     48.3331
   708.9000      0.0000    888.9570      4.2457     48.3331
   709.0000      0.0000    897.8015      4.2656     51.3094
