~Version Information
 VERS.                                  2.0 : CWLS LAS VERSION
 WRAP.                                   NO : WRAPING MODE
 SWARE .                 MController 2.5.0J : SOFTWARE VERSION
~Well Information
 WELL.                         Leier 17-24V : WELL
 COMP.                Petrogulf Corporation : COMPANY
 FLD.                      Purgatoire River : FIELD
 LOC.                SE/NE Sec 17 T33S R67W : LOCATION
 DATE.                             09/21/05 : DATE(S) LOGGED
 SRVC.       BLANCO Geological Services LLC : SERVICE COMPANY
 STAT.                                   CO : STATE
 CNTY.                           Las Animas : COUNTY
 CTRY.                                  USA : COUNTRY
 API.                       05-071-08409-00 : API NUMBER
 STRT.FT                             1.00 : START DEPTH
 STOP.FT                            2455.00 : STOP DEPTH
 STEP.FT                               1.00 : DEPTH INCREMENT
 NULL.                                -9999 : NULL VALUE
~Curve information
 DEPTH.FT                                   :
 ROP.MIN/FT                                 :
 GAS.UNITS                                  :
~ASCII Log data
# ...
       401.0         0.17        124.2 
       402.0         0.23        123.7 
       403.0         0.27        123.6 
       404.0         0.27        123.8 
       405.0         0.27        123.8 
       406.0         0.35        123.3 
       407.0         0.30        122.8 
       408.0         0.27        122.5 
       409.0         0.23        122.1 
       410.0         0.27        122.0 
       411.0         0.27        121.8 
       412.0         0.23        121.2 
       413.0         0.27        122.6 
       414.0         0.27        123.3 
       415.0         0.27        101.8 
       416.0         2.28        290.0 
       417.0         0.27        138.6 
       418.0         0.23        126.9 
       419.0         0.23        121.6 
       420.0         0.20        119.5 
       421.0         0.27        118.5 
       422.0         0.27        117.8 
       423.0         0.32        117.2 
       424.0         0.23        116.9 
       425.0         0.27        116.8 
       426.0         0.27        116.3 
       427.0         0.23        116.9 
       428.0         0.33        117.5 
       429.0         0.27        116.2 
       430.0         0.17        115.8 
       431.0         0.23        116.1 
       432.0         0.30        116.1 
       433.0         0.27        116.1 
       434.0         0.37        116.7 
       435.0         0.38        116.2 
       436.0         0.23        115.2 
       437.0         0.23        114.7 
       438.0         0.27        114.4 
       439.0         0.23        114.6 
       440.0         0.20        118.2 
       441.0         0.23        120.2 
       442.0         0.17        127.6 
       443.0         0.17        126.7 
       444.0         0.20        111.4 
       445.0         0.27         96.7 
       446.0         1.82        285.3 
       447.0         0.23        180.3 
       448.0         0.23        145.2 
       449.0         0.23        132.4 
       450.0         0.30        126.1 
       451.0         0.43        123.5 
       452.0         0.37        120.8 
       453.0         0.32        120.0 
       454.0         0.40        119.6 
       455.0         0.30        119.1 
       456.0         0.27        119.0 
       457.0         0.30        118.7 
       458.0         0.30        118.3 
       459.0         0.23        118.2 
       460.0         0.30        118.4 
       461.0         0.27        118.0 
       462.0         0.28        118.0 
       463.0         0.30        117.8 
       464.0         0.30        117.7 
       465.0         0.30        117.3 
       466.0         0.30        116.8 
       467.0         0.33        116.9 
       468.0         0.33        117.0 
       469.0         0.37        116.9 
       470.0         0.37        116.4 
       471.0         0.33        116.2 
       472.0         0.35        115.9 
       473.0         0.37        115.4 
       474.0         0.37        115.3 
       475.0         0.33        111.0 
       476.0         2.55        234.6 
       477.0         0.37        141.2 
       478.0         0.37        124.1 
       479.0         0.33        118.0 
       480.0         0.27        114.9 
       481.0         0.27        113.2 
       482.0         0.27        112.5 
       483.0         0.30        112.5 
       484.0         0.33        112.4 
       485.0         0.27        112.4 
       486.0         0.35        112.7 
       487.0         0.27        112.7 
       488.0         0.30        112.5 
       489.0         0.27        112.4 
       490.0         0.30        112.0 
       491.0         0.17        111.8 
       492.0         0.17        111.8 
       493.0         0.30        111.8 
       494.0         0.27        111.5 
       495.0         0.27        111.0 
       496.0         0.23        112.0 
       497.0         0.27        115.2 
       498.0         0.23        112.7 
       499.0         0.18        109.0 
       500.0         0.20        108.4 
       501.0         0.27        107.8 
       502.0         0.17        108.4 
       503.0         0.20        111.2 
       504.0         0.33        114.8 
       505.0         0.20        111.9 
       506.0         1.88        271.4 
       507.0         0.40        230.1 
       508.0         0.43        157.2 
       509.0         0.33        122.8 
       510.0         0.37        115.1 
       511.0         0.33        111.9 
       512.0         0.33        110.3 
       513.0         0.33        109.6 
       514.0         0.43        109.4 
       515.0         0.38        109.2 
       516.0         0.30        108.7 
       517.0         0.20        108.9 
       518.0         0.23        113.9 
       519.0         0.20        114.3 
       520.0         0.17        108.7 
       521.0         0.17        104.3 
       522.0         0.23        104.6 
       523.0         0.27        105.1 
       524.0         0.23        105.5 
       525.0         0.27        106.2 
       526.0         0.30        106.8 
       527.0         0.30        107.0 
       528.0         0.28        106.7 
       529.0         0.30        106.4 
       530.0         0.40        106.8 
       531.0         0.33        106.9 
       532.0         0.43        107.3 
       533.0         0.33        107.0 
       534.0         0.37        106.9 
       535.0         0.30        100.4 
       536.0         3.15        249.6 
       537.0         0.47        174.5 
       538.0         0.42        138.4 
       539.0         0.37        117.5 
       540.0         0.40        109.5 
       541.0         0.33        106.4 
       542.0         0.27        105.0 
       543.0         0.20        104.1 
       544.0         0.23        104.0 
       545.0         0.23        104.1 
       546.0         0.23        103.9 
       547.0         0.27        103.8 
       548.0         0.37        104.0 
       549.0         0.48        104.2 
       550.0         0.50        107.1 
       551.0         0.33        117.5 
       552.0         0.17        115.7 
       553.0         0.17        102.6 
       554.0         0.20         95.1 
       555.0         0.27         98.5 
       556.0         0.20        100.4 
       557.0         0.27        101.4 
       558.0         0.27        101.8 
       559.0         0.27        102.2 
       560.0         0.33        102.2 
       561.0         0.28        102.0 
       562.0         0.33        102.1 
       563.0         0.27        101.3 
       564.0         0.27        102.2 
       565.0         0.33         97.0 
       566.0         2.28        271.8 
       567.0         0.23        203.5 
       568.0         0.17        171.9 
       569.0         0.13        153.2 
       570.0         0.13        141.8 
       571.0         0.17        133.7 
       572.0         0.17        126.1 
       573.0         0.17        121.7 
       574.0         0.33        119.3 
       575.0         0.33        115.4 
       576.0         0.27        111.4 
       577.0         0.23        109.1 
       578.0         0.30        107.9 
       579.0         0.28        106.6 
       580.0         0.20        106.2 
       581.0         0.17        105.6 
       582.0         0.17        105.2 
       583.0         0.27        105.4 
       584.0         0.33        105.5 
       585.0         0.30        104.4 
       586.0         0.30        104.0 
       587.0         0.27        103.0 
       588.0         0.23        102.5 
       589.0         0.37        102.1 
       590.0         0.17        100.5 
       591.0         0.22        100.3 
       592.0         0.23        101.0 
       593.0         0.20        100.6 
       594.0         0.17         92.1 
       595.0         0.17         80.5 
       596.0         2.78        282.1 
       597.0         0.37        158.8 
       598.0         0.37         97.6 
       599.0         0.40        102.3 
       600.0         0.37        117.3 
