~Version Information
 VERS.                                  2.0 : CWLS LAS VERSION
 WRAP.                                   NO : WRAPING MODE
 SWARE .                 MController 2.5.0E : SOFTWARE VERSION
~Well Information
 WELL.                    Dude canyon 22-32 : WELL
 COMP.    Pioneer Natural Resources USA Inc : COMPANY
 FLD.                      Purgatoire River : FIELD
 LOC.                SE/NW Sec 32 T32S R67W : LOCATION
 DATE.                         3/06-07/2005 : DATE(S) LOGGED
 SRVC.       Blanco Geological Services LLC : SERVICE COMPANY
 STAT.                                   CO : STATE
 CNTY.                           Las Animas : COUNTY
 CTRY.                                  USA : COUNTRY
 API.                       05-071-08257-00 : API NUMBER
 STRT.FT                             494.00 : START DEPTH
 STOP.FT                            2760.00 : STOP DEPTH
 STEP.FT                               1.00 : DEPTH INCREMENT
 NULL.                                -9999 : NULL VALUE
~Curve information
 DEPTH.FT                                   :
 ROP.MIN/FT                                 :
 GAS.UNITS                                  :
~ASCII Log data
# ...
     1894.00        0.300        128.2 
     1895.00        0.267         59.0 
     1896.00        0.533         26.4 
     1897.00        0.583          4.5 
     1898.00        0.633          4.6 
     1899.00        0.567          4.2 
     1900.00        0.500          0.5 
     1901.00        0.533         -0.4 
     1902.00        1.117         -1.8 
     1903.00        0.900          0.7 
     1904.00        0.500          1.3 
     1905.00        0.567          1.3 
     1906.00        0.533          0.3 
     1907.00        0.433         -0.4 
     1908.00        0.517         -0.4 
     1909.00        0.533          1.3 
     1910.00        0.467          2.8 
     1911.00        0.500          4.0 
     1912.00        0.533          3.7 
     1913.00        0.533          3.2 
     1914.00        0.450          3.7 
     1915.00        0.733          2.5 
     1916.00        0.433         -0.8 
     1917.00        0.400         -1.0 
     1918.00        0.633          1.4 
     1919.00        0.233          1.2 
     1920.00        0.467          1.1 
     1921.00       11.833        302.8 
     1922.00        0.500         40.1 
     1923.00        0.467         24.1 
     1924.00        0.633         20.9 
     1925.00        0.233         10.6 
     1926.00        0.583          8.3 
     1927.00        0.167          8.7 
     1928.00        0.067          7.1 
     1929.00        0.300          6.5 
     1930.00        0.600          3.5 
     1931.00        0.333          3.3 
     1932.00        0.400          4.0 
     1933.00        0.400          4.6 
     1934.00        0.467          5.6 
     1935.00        0.250          5.1 
     1936.00        0.267          5.4 
     1937.00        0.267          7.7 
     1938.00        0.267          7.9 
     1939.00        0.367          8.0 
     1940.00        0.333          4.6 
     1941.00        0.300          7.5 
     1942.00        0.233          7.9 
     1943.00        0.500          6.6 
     1944.00        0.650          6.6 
     1945.00        0.600          6.5 
     1946.00        0.333          4.5 
     1947.00        0.300          4.3 
     1948.00        0.300          4.3 
     1949.00        0.267          2.9 
     1950.00        0.233          1.8 
     1951.00        9.817        137.0 
     1952.00        0.300          8.9 
     1953.00        0.300         12.3 
     1954.00        0.233         14.7 
     1955.00        0.333         16.2 
     1956.00        0.200         14.1 
     1957.00        0.250         10.7 
     1958.00        0.167          9.7 
     1959.00        0.233          8.5 
     1960.00        0.267          6.7 
     1961.00        0.233          7.1 
     1962.00        0.200          7.0 
     1963.00        0.267          8.6 
     1964.00        0.367          9.3 
     1965.00        0.367         10.7 
     1966.00        0.400         14.7 
     1967.00        0.400         14.7 
     1968.00        0.517         11.0 
     1969.00        0.433          7.3 
     1970.00        0.400          6.3 
     1971.00        0.400          8.5 
     1972.00        0.400          9.7 
     1973.00        0.433          8.9 
     1974.00        0.400          5.2 
     1975.00        0.367          7.6 
     1976.00        0.333          7.3 
     1977.00        0.350          4.3 
     1978.00        0.333          1.4 
     1979.00        0.367          1.0 
     1980.00        0.433          1.1 
     1981.00       10.417         98.3 
     1982.00        0.400          2.8 
     1983.00        1.033         11.0 
     1984.00        0.283         19.7 
     1985.00        0.267         20.4 
     1986.00        0.267         20.0 
     1987.00        0.267         17.1 
     1988.00        0.233         11.0 
     1989.00        0.200          7.0 
     1990.00        0.200          6.9 
     1991.00        0.367         12.8 
     1992.00        1.483         14.9 
     1993.00        0.300          8.7 
     1994.00        0.400          8.8 
     1995.00        0.533          6.9 
     1996.00        0.500          7.2 
     1997.00        0.600          9.3 
     1998.00        0.467          8.8 
     1999.00        0.483          5.8 
     2000.00        0.467          5.2 
     2001.00        0.433          6.3 
     2002.00        0.467          6.1 
     2003.00        0.333          5.4 
     2004.00        0.400         12.6 
     2005.00        0.400         14.9 
     2006.00        0.433         11.5 
     2007.00        0.417          4.6 
     2008.00        0.367          2.2 
     2009.00        0.367          1.6 
     2010.00        0.300          1.4 
     2011.00        8.100         72.4 
     2012.00        0.233          2.0 
     2013.00        0.233          1.8 
     2014.00        0.300          1.8 
     2015.00        0.283          2.5 
     2016.00        0.233          4.0 
     2017.00        0.200          5.0 
     2018.00        0.233          8.9 
     2019.00        0.267         16.2 
     2020.00        0.267         23.7 
     2021.00        0.267         24.0 
     2022.00        0.233         13.5 
     2023.00        0.267          7.4 
     2024.00        0.300          7.3 
     2025.00        0.333         21.0 
     2026.00        0.367         42.6 
     2027.00        0.383         43.0 
     2028.00        0.300         29.7 
     2029.00        0.333         14.4 
     2030.00        0.367          6.1 
     2031.00        0.333          3.8 
     2032.00        0.300          2.5 
     2033.00        0.300          1.8 
     2034.00        0.333          1.6 
     2035.00        0.333          1.4 
     2036.00        0.367          1.4 
     2037.00        0.417          1.6 
     2038.00        0.333          1.4 
     2039.00        0.200          1.6 
     2040.00        0.433          1.6 
     2041.00        7.933         26.4 
     2042.00        0.333          1.8 
     2043.00        0.233          1.9 
     2044.00        0.167          1.8 
     2045.00        0.217          2.0 
     2046.00        0.267          4.8 
     2047.00        0.200          6.4 
     2048.00        0.200          9.8 
     2049.00        0.133         11.2 
     2050.00        0.167         13.3 
     2051.00        0.167         16.9 
     2052.00        0.133         17.5 
     2053.00        0.133         17.1 
     2054.00        0.200         14.8 
     2055.00        0.200         10.0 
     2056.00        0.233          5.5 
     2057.00        0.400         10.0 
     2058.00        0.367         13.6 
     2059.00        0.233         13.4 
     2060.00        0.250         10.9 
     2061.00        0.400          6.1 
     2062.00        0.500          8.9 
     2063.00        0.467         28.6 
     2064.00        0.500         32.6 
     2065.00        0.767         31.7 
     2066.00        0.200         12.6 
     2067.00        0.267          8.7 
     2068.00        0.350          4.5 
     2069.00        0.267          2.8 
     2070.00        0.200          2.4 
     2071.00        9.333         44.8 
     2072.00        0.517          2.5 
     2073.00        0.300          2.5 
     2074.00        0.200          2.5 
     2075.00        0.300          2.8 
     2076.00        0.300          5.0 
     2077.00        0.300          9.4 
     2078.00        0.300         15.3 
     2079.00        0.333         20.0 
     2080.00        0.433         19.1 
     2081.00        0.450         10.5 
     2082.00        1.000         21.2 
     2083.00        0.467         20.8 
     2084.00        0.500         17.0 
     2085.00        0.300         13.9 
     2086.00        0.300         13.5 
     2087.00        0.367         13.7 
     2088.00        1.183         18.0 
     2089.00        0.500         10.3 
     2090.00        0.567          7.0 
     2091.00        0.567          7.0 
     2092.00        2.083         14.0 
     2093.00        4.717         19.5 
