~Version Information
VERS.                      2.0: CWLS Log ASCII Standard - VERSION 2.0
WRAP.                       NO: One line per depth step
~Well Information Block
STRT.FT               475.0000: 
STOP.FT              2336.7500: 
STEP.FT                 0.2500: 
NULL.                -999.2500: 
COMP.          Pioneer Natural Resources: COMPANY
WELL.              Bobsy 34-11: WELL
FLD.           Purgatoire River: FIELD
LOC.           1937' FEL & 451' FSL----: LOCATION
PROV.                 Colorado: PROVINCE
CNTY.               Las Animas: COUNTRY
SRVC.                Patterson: SERVICE COMPANY
DATE.          Fri Apr 08 05:21:25 2005: LOG DATE
UWI.           05 071 08330 00: UNIQUE WELL ID
~Curve Information Block
DEPT.FT            0 000 00 00: Depth
SN.Ohm-m                      : IEL Short Normal
SP.mV                         : IEL Spontaneous Potential
DIR.Ohm-m                     : IEL Induction Resistivity
GR.GAPI                       : Gamma Ray
~Parameter Information Block
~A  Depth        SN          SP         DIR          GR     
# ...
  1078.0000   2000.0000   2000.0000     12.6294    112.0219
  1078.2500   2000.0000   2000.0000     12.9727    110.2681
  1078.5000   2000.0000   2000.0000     13.4308    105.2586
  1078.7500   2000.0000   2000.0000     14.0013     99.4928
  1079.0000   2000.0000   2000.0000     14.6707     87.3636
  1079.2500   2000.0000   2000.0000     15.4129     78.2154
  1079.5000   2000.0000   2000.0000     16.1879     66.0218
  1079.7500   2000.0000   2000.0000     16.9395     60.3783
  1080.0000   2000.0000   2000.0000     17.5954     56.5557
  1080.2500   2000.0000   2000.0000     18.0729     56.9131
  1080.5000   2000.0000   2000.0000     18.2957     61.2619
  1080.7500   2000.0000   2000.0000     18.2177     66.5587
  1081.0000   2000.0000   2000.0000     17.8435     77.8735
  1081.2500   2000.0000   2000.0000     17.2288     87.1801
  1081.5000   2000.0000   2000.0000     16.4613    101.9756
  1081.7500   2000.0000   2000.0000     15.6351    110.9680
  1082.0000   2000.0000   2000.0000     14.8312    120.9967
  1082.2500   2000.0000   2000.0000     14.1084    124.8177
  1082.5000   2000.0000   2000.0000     13.5027    126.9023
  1082.7500   2000.0000   2000.0000     13.0302    126.8881
  1083.0000   2000.0000   2000.0000     12.6934    126.4009
  1083.2500   2000.0000   2000.0000     12.4850    126.1467
  1083.5000   2000.0000   2000.0000     12.3886    125.7191
  1083.7500   2000.0000   2000.0000     12.3778    125.2969
  1084.0000   2000.0000   2000.0000     12.4193    124.6880
  1084.2500   2000.0000   2000.0000     12.4797    124.5665
  1084.5000   2000.0000   2000.0000     12.5348    125.1587
  1084.7500   2000.0000   2000.0000     12.5754    126.0727
  1085.0000   2000.0000   2000.0000     12.6050    127.7874
  1085.2500   2000.0000   2000.0000     12.6322    128.7372
  1085.5000   2000.0000   2000.0000     12.6631    129.1696
  1085.7500   2000.0000   2000.0000     12.6984    128.5164
  1086.0000   2000.0000   2000.0000     12.7366    126.1294
  1086.2500   2000.0000   2000.0000     12.7800    123.9525
  1086.5000   2000.0000   2000.0000     12.8381    120.5811
  1086.7500   2000.0000   2000.0000     12.9254    118.4981
  1087.0000   2000.0000   2000.0000     13.0555    115.7565
  1087.2500   2000.0000   2000.0000     13.2360    114.3646
  1087.5000   2000.0000   2000.0000     13.4659    113.4410
  1087.7500   2000.0000   2000.0000     13.7357    113.7661
  1088.0000   2000.0000   2000.0000     14.0268    115.3788
  1088.2500   2000.0000   2000.0000     14.3138    116.7851
  1088.5000   2000.0000   2000.0000     14.5706    118.7168
  1088.7500   2000.0000   2000.0000     14.7805    119.6971
  1089.0000   2000.0000   2000.0000     14.9444    120.7221
  1089.2500   2000.0000   2000.0000     15.0810    121.1939
  1089.5000   2000.0000   2000.0000     15.2180    121.5558
  1089.7500   2000.0000   2000.0000     15.3797    121.2973
  1090.0000   2000.0000   2000.0000     15.5785    119.3497
  1090.2500   2000.0000   2000.0000     15.8151    116.6724
  1090.5000   2000.0000   2000.0000     16.0871    110.9495
  1090.7500   2000.0000   2000.0000     16.3974    106.8212
  1091.0000   2000.0000   2000.0000     16.7569    101.8740
  1091.2500   2000.0000   2000.0000     17.1813     99.9954
  1091.5000   2000.0000   2000.0000     17.6849     99.1949
  1091.7500   2000.0000   2000.0000     18.2768     99.5302
  1092.0000   2000.0000   2000.0000     18.9576    100.3890
  1092.2500   2000.0000   2000.0000     19.7195    100.7248
  1092.5000   2000.0000   2000.0000     20.5486    100.3719
  1092.7500   2000.0000   2000.0000     21.4283     99.4913
  1093.0000   2000.0000   2000.0000     22.3391     97.3284
  1093.2500   2000.0000   2000.0000     23.2525     95.4946
  1093.5000   2000.0000   2000.0000     24.1297     92.5709
  1093.7500   2000.0000   2000.0000     24.9330     90.6884
  1094.0000   2000.0000   2000.0000     25.6443     88.0071
  1094.2500   2000.0000   2000.0000     26.2742     86.3433
  1094.5000   2000.0000   2000.0000     26.8514     84.4891
  1094.7500   2000.0000   2000.0000     27.3993     84.1180
  1095.0000   2000.0000   2000.0000     27.9203     85.3323
  1095.2500   2000.0000   2000.0000     28.3985     87.1881
  1095.5000   2000.0000   2000.0000     28.8164     90.5471
  1095.7500   2000.0000   2000.0000     29.1690     92.3123
  1096.0000   2000.0000   2000.0000     29.4623     92.9372
  1096.2500   2000.0000   2000.0000     29.6997     91.7592
  1096.5000   2000.0000   2000.0000     29.8710     88.5046
  1096.7500   2000.0000   2000.0000     29.9584     86.3418
  1097.0000   2000.0000   2000.0000     29.9543     84.2448
  1097.2500   2000.0000   2000.0000     29.8720     83.4843
  1097.5000   2000.0000   2000.0000     29.7339     82.3534
  1097.7500   2000.0000   2000.0000     29.5468     81.2528
  1098.0000   2000.0000   2000.0000     29.2906     79.0923
  1098.2500   2000.0000   2000.0000     28.9358     77.4839
  1098.5000   2000.0000   2000.0000     28.4786     75.3736
  1098.7500   2000.0000   2000.0000     27.9584     74.7176
  1099.0000   2000.0000   2000.0000     27.4399     75.7726
  1099.2500   2000.0000   2000.0000     26.9780     77.9414
  1099.5000   2000.0000   2000.0000     26.5941     82.5201
  1099.7500   2000.0000   2000.0000     26.2738     85.6023
  1100.0000   2000.0000   2000.0000     25.9814     89.1842
  1100.2500   2000.0000   2000.0000     25.6777     90.7929
  1100.5000   2000.0000   2000.0000     25.3344     92.5311
  1100.7500   2000.0000   2000.0000     24.9382     93.4765
  1101.0000   2000.0000   2000.0000     24.4845     94.5831
  1101.2500   2000.0000   2000.0000     23.9701     95.0695
  1101.5000   2000.0000   2000.0000     23.3948     95.5551
  1101.7500   2000.0000   2000.0000     22.7680     95.8417
  1102.0000   2000.0000   2000.0000     22.1098     96.3040
  1102.2500   2000.0000   2000.0000     21.4424     96.6571
  1102.5000   2000.0000   2000.0000     20.7812     97.4586
  1102.7500   2000.0000   2000.0000     20.1329     98.4629
  1103.0000   2000.0000   2000.0000     19.4979    101.2929
  1103.2500   2000.0000   2000.0000     18.8708    104.1327
  1103.5000   2000.0000   2000.0000     18.2407    108.7456
  1103.7500   2000.0000   2000.0000     17.5975    110.8740
  1104.0000   2000.0000   2000.0000     16.9424    111.0980
  1104.2500   2000.0000   2000.0000     16.2931    109.3532
  1104.5000   2000.0000   2000.0000     15.6770    105.6149
  1104.7500   2000.0000   2000.0000     15.1167    103.6052
  1105.0000   2000.0000   2000.0000     14.6191    102.7637
  1105.2500   2000.0000   2000.0000     14.1715    104.0554
  1105.5000   2000.0000   2000.0000     13.7472    108.7413
  1105.7500   2000.0000   2000.0000     13.3162    113.0387
  1106.0000   2000.0000   2000.0000     12.8569    119.1095
  1106.2500   2000.0000   2000.0000     12.3639    121.7807
  1106.5000   2000.0000   2000.0000     11.8460    123.3752
  1106.7500   2000.0000   2000.0000     11.3211    123.4745
  1107.0000   2000.0000   2000.0000     10.8101    123.3616
  1107.2500   2000.0000   2000.0000     10.3332    123.3378
  1107.5000   2000.0000   2000.0000      9.9075    123.2954
  1107.7500   2000.0000   2000.0000      9.5446    123.3199
  1108.0000   2000.0000   2000.0000      9.2491    123.7682
  1108.2500   2000.0000   2000.0000      9.0189    124.5096
  1108.5000   2000.0000   2000.0000      8.8476    126.4358
  1108.7500   2000.0000   2000.0000      8.7284    128.1939
  1109.0000   2000.0000   2000.0000      8.6558    130.8621
  1109.2500   2000.0000   2000.0000      8.6263    132.0891
  1109.5000   2000.0000   2000.0000      8.6358    132.6710
  1109.7500   2000.0000   2000.0000      8.6789    132.5310
  1110.0000   2000.0000   2000.0000      8.7508    132.5798
  1110.2500   2000.0000   2000.0000      8.8512    133.2713
  1110.5000   2000.0000   2000.0000      8.9886    135.3308
  1110.7500   2000.0000   2000.0000      9.1797    136.9607
  1111.0000   2000.0000   2000.0000      9.4445    138.9100
  1111.2500   2000.0000   2000.0000      9.7993    139.4632
