~Version Information
VERS.                      2.0: CWLS Log ASCII Standard - VERSION 2.0
WRAP.                       NO: One line per depth step
~Well Information Block
STRT.FT               706.1000: 
STOP.FT              2370.0000: 
STEP.FT                 0.1000: 
NULL.                -999.2500: 
COMP.          Petrogulf Corporation: COMPANY
WELL.             State 16-12V: WELL
FLD.           Purgatorie River: FIELD
LOC.           1992' FNL & 1237' FWL: LOCATION
CNTY.               Las Animas: COUNTY
SRVC.                         : SERVICE COMPANY
DATE.          Thu Aug 04 09:34:25 2005: LOG DATE
UWI.           05-071-08016-00: UNIQUE WELL ID
STAT.                 Colorado: STATE
~Curve Information Block
DEPT.FT            0 000 00 00: Depth
DCAL.in                       : CDL Caliper
DPOR.pu                       : CDL Density Porosity
GR.GAPI                       : Gamma Ray
NPOR.pu                       : Neutron Porosity
RHOB.g/cc                     : CDL Bulk Density
RHOC.g/cc                     : CDL Density Correction
~Parameter Information Block
~A  Depth       DCAL        DPOR         GR         NPOR        RHOB        RHOC    
# ...
  1579.7000      8.0140      4.4812    170.6842     27.9814      2.5761      0.1471
  1579.8000      8.0132      3.2264    167.0826     28.0741      2.5968      0.1994
  1579.9000      8.0132      2.1601    165.0903     28.2484      2.6144      0.2006
  1580.0000      7.9593      1.3568    165.3330     28.3164      2.6276      0.1706
  1580.1000      7.9593      0.4305    166.2721     28.3844      2.6429      0.1684
  1580.2000      7.9593     -0.4583    166.9505     28.6378      2.6576      0.2127
  1580.3000      7.9629     -0.1532    167.4878     28.7752      2.6525      0.2156
  1580.4000      7.9629      1.6557    167.2071     28.5143      2.6227      0.1651
  1580.5000      7.9708      3.6757    164.5610     28.2070      2.5894      0.1160
  1580.6000      7.9708      4.8393    159.9102     28.1758      2.5702      0.1299
  1580.7000      7.9708      5.0769    154.5961     28.3053      2.5662      0.0957
  1580.8000      7.9899      4.6849    149.5454     28.3743      2.5727      0.0567
  1580.9000      7.9899      4.0168    146.3454     28.3215      2.5837      0.0683
  1581.0000      8.0597      3.4581    145.6809     28.2545      2.5929      0.0838
  1581.1000      8.0597      3.3946    145.0211     28.1498      2.5940      0.1071
  1581.2000      8.0597      3.8546    142.9883     27.7692      2.5864      0.1419
  1581.3000      8.0577      4.3070    142.6776     27.2265      2.5789      0.1266
  1581.4000      8.0577      4.5263    145.5150     26.9681      2.5753      0.1229
  1581.5000      7.9568      4.5273    147.9666     27.1252      2.5753      0.0872
  1581.6000      7.9568      3.8616    147.3455     27.3916      2.5863      0.1048
  1581.7000      7.9568      2.8191    143.7847     27.3442      2.6035      0.1538
  1581.8000      7.9534      2.7325    138.5789     27.0141      2.6049      0.1849
  1581.9000      7.9534      3.9011    135.0540     26.8963      2.5856      0.1278
  1582.0000      7.9754      5.1241    135.0902     27.0693      2.5655      0.1201
  1582.1000      7.9754      5.7422    136.2657     27.1235      2.5553      0.1236
  1582.2000      7.9754      6.1156    136.6466     26.9733      2.5491      0.1064
  1582.3000      7.9970      6.3108    137.3596     26.8117      2.5459      0.0671
  1582.4000      7.9970      6.1586    137.9856     26.7998      2.5484      0.0799
  1582.5000      7.9956      6.1726    136.9535     27.0325      2.5482      0.0935
  1582.6000      7.9956      6.6553    135.9027     27.3966      2.5402      0.0700
  1582.7000      7.9956      6.8300    136.0468     27.5242      2.5373      0.0443
  1582.8000      7.9920      5.9755    135.8766     27.4007      2.5514      0.0295
  1582.9000      7.9920      4.6366    135.5666     27.3322      2.5735      0.1078
  1583.0000      7.9794      3.8003    135.4580     27.2065      2.5873      0.0709
  1583.1000      7.9794      3.4554    132.4089     26.8291      2.5930      0.0716
  1583.2000      7.9794      3.4017    127.0189     26.3160      2.5939      0.1131
  1583.3000      7.9814      3.9069    124.6309     25.9520      2.5855      0.1062
  1583.4000      7.9814      4.6314    125.7116     25.8773      2.5736      0.0493
  1583.5000      7.9717      4.6237    127.8414     25.8905      2.5737      0.0532
  1583.6000      7.9717      4.0279    131.3273     25.8957      2.5835      0.0995
  1583.7000      7.9717      3.6814    134.9824     25.8855      2.5893      0.0927
  1583.8000      7.9704      3.5814    135.7732     25.8695      2.5909      0.0683
  1583.9000      7.9704      3.4662    133.6395     25.9451      2.5928      0.1205
  1584.0000      7.9732      3.5208    131.3467     26.1036      2.5919      0.0914
  1584.1000      7.9732      3.9792    130.9219     26.2141      2.5843      0.0970
  1584.2000      7.9732      4.7110    132.8499     26.3139      2.5723      0.0716
  1584.3000      7.9847      4.9245    136.1919     26.6630      2.5687      0.0322
  1584.4000      7.9847      4.0937    138.2182     27.0590      2.5825      0.1040
  1584.5000      7.9907      2.9033    138.7211     26.9322      2.6021      0.1021
  1584.6000      7.9907      2.5396    140.2330     26.3612      2.6081      0.1021
  1584.7000      7.9907      3.5346    142.7710     25.8307      2.5917      0.1006
  1584.8000      7.9756      5.3935    145.2816     25.6348      2.5610      0.1023
  1584.9000      7.9756      7.1527    147.4237     25.6798      2.5320      0.0722
  1585.0000      7.9629      7.8791    149.1429     25.5725      2.5200      0.0464
  1585.1000      7.9629      7.4266    153.1543     25.4937      2.5275      0.0829
  1585.2000      7.9629      6.7025    160.3233     25.8515      2.5394      0.1078
  1585.3000      7.9674      6.6012    164.6219     26.3141      2.5411      0.1028
  1585.4000      7.9674      7.0701    162.3061     26.4538      2.5333      0.0892
  1585.5000      7.9570      7.2811    157.9530     26.3524      2.5299      0.0554
  1585.6000      7.9570      6.8104    157.5845     26.2458      2.5376      0.1040
  1585.7000      7.9570      6.1706    159.6750     26.2779      2.5482      0.1272
  1585.8000      7.9700      5.7052    160.2406     26.3826      2.5559      0.0843
  1585.9000      7.9700      5.2473    160.2846     26.5629      2.5634      0.0855
  1586.0000      7.9875      5.0010    160.4741     27.0910      2.5675      0.0882
  1586.1000      7.9875      5.4025    160.0907     27.8262      2.5609      0.0833
  1586.2000      7.9875      6.2254    159.0049     28.1912      2.5473      0.0819
  1586.3000      7.9440      6.4024    156.6570     28.0545      2.5444      0.0112
  1586.4000      7.9440      5.4747    153.9583     27.6930      2.5597      0.0576
  1586.5000      7.9443      4.1784    152.7669     27.2603      2.5811      0.0529
  1586.6000      7.9443      3.1596    153.5204     26.9090      2.5979      0.0830
  1586.7000      7.9443      3.0191    155.0934     26.8586      2.6002      0.1169
  1586.8000      7.9518      4.1106    156.9808     27.0596      2.5822      0.0891
  1586.9000      7.9518      5.6995    159.8271     27.2155      2.5560      0.0734
  1587.0000      7.9338      6.7807    163.4143     27.2065      2.5381      0.0546
  1587.1000      7.9338      6.9582    164.6239     27.0441      2.5352      0.0419
  1587.2000      7.9338      6.5653    160.1821     26.6029      2.5417      0.0629
  1587.3000      7.9922      6.4221    153.0153     25.9768      2.5440      0.0638
  1587.4000      7.9922      6.7400    148.9090     25.4357      2.5388      0.0485
  1587.5000      8.0104      6.8796    150.0842     24.9937      2.5365      0.0578
  1587.6000      8.0104      6.4662    153.3776     24.7373      2.5433      0.0678
  1587.7000      8.0104      5.8102    153.5143     24.9018      2.5541      0.0506
  1587.8000      7.9883      5.5583    150.9718     25.4124      2.5583      0.0764
  1587.9000      7.9883      6.1343    148.1950     25.9734      2.5488      0.0596
  1588.0000      7.9783      6.6253    144.4893     26.4278      2.5407     -0.0095
  1588.1000      7.9783      5.7068    141.7297     26.6039      2.5558      0.0516
  1588.2000      7.9783      3.9939    142.4426     26.4661      2.5841      0.0828
  1588.3000      8.0110      3.0158    143.5334     26.4724      2.6002      0.1152
  1588.4000      8.0110      3.0892    141.1909     26.8132      2.5990      0.0882
  1588.5000      8.0041      3.5411    137.0591     26.9126      2.5916      0.0744
  1588.6000      8.0041      3.4904    133.0193     26.6646      2.5924      0.0278
  1588.7000      8.0041      2.4949    125.5889     26.6178      2.6088      0.0878
  1588.8000      7.9733      1.0170    114.6419     26.6049      2.6332      0.0760
  1588.9000      7.9733     -0.3465    105.8491     26.0531      2.6557      0.0813
  1589.0000      7.9589     -1.0404    100.5890     25.2167      2.6672      0.1133
  1589.1000      7.9589     -0.4896     96.1892     24.7367      2.6581      0.1046
  1589.2000      7.9589      0.8965     91.4687     24.5222      2.6352      0.0846
