~Version Information
VERS.                      2.0: CWLS Log ASCII Standard - VERSION 2.0
WRAP.                       NO: One line per depth step
~Well Information Block
STRT.FT               240.0000: 
STOP.FT              1452.5000: 
STEP.FT                 0.1000: 
NULL.                -999.2500: 
COMP.          Petrogulf Corporation: COMPANY
WELL.          Robinson 15-12R: WELL
FLD.           Purgatorie River: FIELD
LOC.           1752' FNL & 561' FWL: LOCATION
PROV.                 Colorado: PROVINCE
CNTY.               Las Animas: COUNTRY
SRVC.                Patterson: SERVICE COMPANY
DATE.          Tue Sep 13 15:07:52 2005: LOG DATE
UWI.                          : UNIQUE WELL ID
~Curve Information Block
DEPT.FT            0 000 00 00: Depth
DCAL.in                       : CDL Caliper
RHOB.g/cc                     : CDL Bulk Density
RHOC.g/cc                     : CDL Density Correction
DPOR.pu                       : CDL Density Porosity
GR.GAPI                       : Gamma Ray
NPOR.pu                       : Neutron Porosity
~Parameter Information Block
~A  Depth       DCAL        RHOB        RHOC        DPOR         GR         NPOR    
# ...
   403.2000      7.9957      2.7300      0.0766     -4.8491    130.5672     30.1694
   403.3000      7.9903      2.7544      0.0823     -6.3248    129.5216     30.7737
   403.4000      7.9903      2.7705      0.0641     -7.3047    127.1775     31.5713
   403.5000      7.9709      2.7838      0.0910     -8.1117    122.5410     32.2410
   403.6000      7.9709      2.7958      0.0701     -8.8352    117.7545     32.4456
   403.7000      7.9709      2.8052      0.0256     -9.4037    115.3338     32.2915
   403.8000      7.9882      2.8053      0.0558     -9.4119    113.2367     31.9674
   403.9000      7.9882      2.7856      0.0615     -8.2156    108.7858     31.5595
   404.0000      7.9439      2.7538     -0.0078     -6.2900    104.8708     31.1326
   404.1000      7.9439      2.7340      0.0070     -5.0926    104.5048     30.5757
   404.2000      7.9439      2.7282      0.0538     -4.7381    105.2455     29.8412
   404.3000      7.9343      2.7179      0.0633     -4.1142    105.6325     29.1909
   404.4000      7.9343      2.7001     -0.0066     -3.0341    106.9781     28.7576
   404.5000      7.9340      2.6863      0.0642     -2.2008    109.0487     28.3252
   404.6000      7.9340      2.6767      0.0773     -1.6172    110.5924     27.8525
   404.7000      7.9340      2.6634      0.0842     -0.8126    112.2519     27.5919
   404.8000      7.9387      2.6478      0.0908      0.1361    116.3373     27.5561
   404.9000      7.9387      2.6359      0.1013      0.8564    122.1309     27.5920
   405.0000      7.9663      2.6224      0.1214      1.6710    126.3486     27.5066
   405.1000      7.9663      2.5974      0.0927      3.1892    128.7592     27.1903
   405.2000      7.9663      2.5717      0.0108      4.7462    131.4820     26.9332
   405.3000      7.9753      2.5683      0.0526      4.9488    132.9226     27.0284
   405.4000      7.9753      2.5886      0.0543      3.7233    130.0757     27.3285
   405.5000      7.9851      2.6106      0.0975      2.3897    125.1378     27.5586
   405.6000      7.9851      2.6124      0.0369      2.2800    120.7021     27.7467
   405.7000      7.9851      2.5972      0.0378      3.2008    116.4961     27.9285
   405.8000      7.9846      2.5862     -0.0010      3.8683    113.9960     28.0575
   405.9000      7.9846      2.5954     -0.0076      3.3103    114.1567     28.0917
   406.0000      7.9773      2.6213      0.0266      1.7417    114.0608     27.9717
   406.1000      7.9773      2.6436      0.0820      0.3904    111.9940     27.7552
   406.2000      7.9773      2.6473      0.0325      0.1652    109.6517     27.6160
   406.3000      7.9638      2.6355      0.0565      0.8818    109.3778     27.4962
   406.4000      7.9638      2.6203      0.0402      1.8020    113.2644     27.1143
   406.5000      7.9757      2.6095      0.0255      2.4573    120.5719     26.6125
   406.6000      7.9757      2.5969      0.0148      3.2170    126.8214     26.3698
   406.7000      7.9757      2.5766      0.0073      4.4486    129.8191     26.3296
   406.8000      7.9860      2.5613      0.0106      5.3751    131.0067     26.2868
   406.9000      7.9860      2.5636      0.0470      5.2354    132.0458     26.2500
   407.0000      7.9773      2.5742      0.0611      4.5926    134.7060     26.2132
   407.1000      7.9773      2.5832      0.0548      4.0509    138.0648     26.1377
   407.2000      7.9773      2.5916      0.0545      3.5381    140.6944     26.1118
   407.3000      7.9959      2.5949      0.0557      3.3367    143.2537     26.3063
   407.4000      7.9959      2.5829      0.0583      4.0650    145.9920     26.6560
   407.5000      8.0293      2.5592      0.0572      5.5021    146.9949     26.9229
   407.6000      8.0293      2.5465     -0.0026      6.2724    144.4317     27.1453
   407.7000      8.0293      2.5589      0.0320      5.5205    140.9118     27.3681
   407.8000      8.0591      2.5739      0.0916      4.6101    139.9901     27.4044
   407.9000      8.0591      2.5624      0.0335      5.3103    139.6185     27.1332
   408.0000      8.0809      2.5238      0.0499      7.6503    138.5720     26.7156
   408.1000      8.0809      2.4740      0.0017     10.6688    140.6949     26.3655
   408.2000      8.0809      2.4303      0.0141     13.3157    146.0696     26.0161
   408.3000      8.0997      2.4071     -0.0055     14.7204    150.1426     25.5576
   408.4000      8.0997      2.4081      0.0574     14.6613    151.3206     25.0328
   408.5000      8.1194      2.4173      0.0887     14.1049    150.1639     24.5445
   408.6000      8.1194      2.4181      0.0899     14.0521    148.2165     24.2102
   408.7000      8.1194      2.4030      0.1364     14.9677    146.8458     24.1783
   408.8000      8.1357      2.3672      0.1005     17.1401    146.0083     24.3402
   408.9000      8.1357      2.3217      0.0849     19.8963    145.8780     24.5561
   409.0000      8.1197      2.2851      0.0869     22.1130    146.3828     24.7830
   409.1000      8.1197      2.2668      0.0751     23.2263    147.2670     24.7725
   409.2000      8.1197      2.2695      0.0770     23.0580    146.9464     24.5364
   409.3000      8.1098      2.2985      0.0675     21.3046    145.4188     24.5622
   409.4000      8.1098      2.3523      0.0945     18.0454    145.8235     25.0562
   409.5000      8.0962      2.4132      0.1784     14.3498    148.4314     25.6733
   409.6000      8.0962      2.4649      0.1946     11.2152    150.0665     26.1323
   409.7000      8.0962      2.5016      0.2266      8.9924    149.7335     26.5024
   409.8000      8.1308      2.5238      0.2269      7.6509    149.1426     26.9188
   409.9000      8.1308      2.5401      0.2358      6.6583    148.3018     27.3732
   410.0000      8.1474      2.5558      0.1895      5.7101    146.4525     27.8357
   410.1000      8.1474      2.5719      0.0846      4.7324    144.6419     28.3421
   410.2000      8.1474      2.5957      0.0576      3.2887    143.0801     28.8080
   410.3000      8.1386      2.6266      0.0794      1.4154    141.5114     29.0108
   410.4000      8.1386      2.6500      0.1161      0.0017    140.1663     28.8912
   410.5000      8.1511      2.6558      0.0821     -0.3535    138.7225     28.7524
   410.6000      8.1511      2.6520      0.0689     -0.1201    137.3201     29.0181
   410.7000      8.1511      2.6506      0.0634     -0.0366    136.7598     29.5333
   410.8000      8.1579      2.6489      0.0647      0.0679    135.5215     29.7764
   410.9000      8.1579      2.6330      0.0718      1.0277    133.0596     29.4877
   411.0000      8.1577      2.5982      0.0577      3.1404    131.2256     28.7349
   411.1000      8.1577      2.5525      0.0171      5.9100    130.4125     27.8244
   411.2000      8.1577      2.5036     -0.0171      8.8710    128.7864     26.7696
   411.3000      8.1596      2.4401      0.0599     12.7209    126.5773     25.4195
   411.4000      8.1596      2.3477     -0.0007     18.3230    127.9869     24.1669
   411.5000      8.1678      2.2465     -0.0911     24.4559    132.5045     23.3735
   411.6000      8.1678      2.1629     -0.0755     29.5197    134.1006     22.8392
   411.7000      8.1678      2.0941     -0.0487     33.6904    135.0042     22.3093
   411.8000      8.1787      2.0373     -0.0613     37.1335    139.9210     21.7922
   411.9000      8.1787      2.0082     -0.0360     38.9000    144.2824     21.3268
   412.0000      8.2081      2.0148      0.0175     38.4940    144.2702     20.9286
   412.1000      8.2081      2.0434      0.1044     36.7641    143.7228     20.7013
   412.2000      8.2081      2.0675      0.1497     35.3040    144.9105     20.7484
   412.3000      8.2256      2.0741      0.1489     34.9009    144.9670     21.0267
   412.4000      8.2256      2.0814      0.1135     34.4595    143.4224     21.3842
   412.5000      8.2410      2.1053      0.1732     33.0140    142.0984     21.5963
   412.6000      8.2410      2.1273      0.1711     31.6814    142.7599     21.6160
   412.7000      8.2410      2.1274      0.1821     31.6739    147.1057     21.6949
