~Version Information
VERS.                      2.0: CWLS Log ASCII Standard - VERSION 2.0
WRAP.                       NO: One line per depth step
~Well Information Block
STRT.FT               -11.2500: 
STOP.FT              1934.7500: 
STEP.FT                 0.2500: 
NULL.                -999.2500: 
COMP.          Pioneer Natural Resources: COMPANY
WELL.          Commander 43-26 Tr: WELL
FLD.           Purgatorie River: FIELD
LOC.           2439' FSL  & 446' FEL--------: LOCATION
PROV.                       CO: PROVINCE
CNTY.               Las Animas: COUNTRY
SRVC.          Patterson Wireline: SERVICE COMPANY
DATE.          Tue Apr 26 09:07:23 2005: LOG DATE
UWI.           05 071 08341 00: UNIQUE WELL ID
~Curve Information Block
DEPT.FT            0 000 00 00: Depth
CCL.                          : Casing Collar Locator
TT3.usec                      : CBL 3' Travel Time
AMP3.mV                       : CBL 3' Amplitude
GR.GAPI                       : Gamma Ray
~Parameter Information Block
~A  Depth       CCL         TT3         AMP3         GR     
# ...
  1529.7500      0.0000    673.8873      3.7957    148.3314
  1530.0000      0.0000    687.2341      3.9292    146.6594
  1530.2500      0.0000    702.1290      4.0826    146.2762
  1530.5000      0.0000    711.3837      4.2306    146.2166
  1530.7500      0.0000    713.0987      4.3321    145.7710
  1531.0000      0.0000    709.1444      4.3480    145.6697
  1531.2500      0.0000    702.1620      4.2555    147.5738
  1531.5000      0.0000    694.4010      4.0605    152.1949
  1531.7500      0.0000    688.1420      3.7961    157.9375
  1532.0000      0.0000    685.6042      3.5033    161.9472
  1532.2500      0.0000    687.7507      3.2147    162.7934
  1532.5000      0.0000    693.6200      2.9534    161.6936
  1532.7500      0.0000    701.5747      2.7388    160.9167
  1533.0000      0.0000    711.0881      2.5792    161.6376
  1533.2500      0.0000    722.4507      2.4617    163.5388
  1533.5000      0.0000    734.2885      2.3607    165.5999
  1533.7500      0.0000    742.4727      2.2617    166.6805
  1534.0000      0.0000    743.4916      2.1748    166.0826
  1534.2500      0.0000    739.2905      2.1281    164.2903
  1534.5000      0.0000    737.1993      2.1601    162.4837
  1534.7500      0.0000    744.0942      2.3125    160.7267
  1535.0000      0.0000    760.9277      2.6058    157.4498
  1535.2500      0.0000    782.3661      3.0020    151.4760
  1535.5000      0.0000    800.7603      3.4042    144.0728
  1535.7500     -2.0000    811.2376      3.7129    138.2996
  1536.0000     -2.0000    814.6276      3.8837    136.3927
  1536.2500      0.0000    815.6514      3.9368    138.2270
  1536.5000      0.0000    817.6172      3.9384    142.3563
  1536.7500      0.0000    819.2182      3.9684    147.7818
  1537.0000      0.0000    816.7430      4.0577    154.1037
  1537.2500      0.0000    808.0627      4.1502    160.4929
  1537.5000      0.0000    793.7077      4.1707    165.4560
  1537.7500      0.0000    775.5800      4.1226    167.7697
  1538.0000      0.0000    756.1900      4.0790    167.1981
  1538.2500      0.0000    738.5081      4.0923    164.1870
  1538.5000      0.0000    725.0633      4.1557    159.2752
  1538.7500      0.0000    716.7380      4.2333    152.9411
  1539.0000      0.0000    712.7758      4.2982    145.3425
  1539.2500      0.0000    711.9579      4.3466    135.8931
  1539.5000      0.0000    713.7818      4.3897    123.8973
  1539.7500      0.0000    718.5156      4.4158    110.1709
  1540.0000      0.0000    725.8994      4.3598     97.5640
  1540.2500      0.0000    733.7432      4.1541     89.3371
  1540.5000      0.0000    738.7722      3.8296     86.9849
  1540.7500      0.0000    739.6118      3.5381     89.5231
  1541.0000      0.0000    738.0024      3.4363     94.5478
  1541.2500      0.0000    736.1859      3.5514     99.8044
  1541.5000      0.0000    734.3575      3.7711    103.9901
  1541.7500      0.0000    731.7250      3.9545    106.6067
  1542.0000      0.0000    728.5556      4.0399    107.6530
  1542.2500      0.0000    725.6616      4.0570    107.6935
  1542.5000      0.0000    722.8929      4.0642    107.8402
  1542.7500      0.0000    719.5455      4.0873    109.1290
  1543.0000      0.0000    715.7315      4.0981    111.7199
  1543.2500      0.0000    712.3571      4.0253    114.8009
  1543.5000      0.0000    710.0566      3.8048    117.2789
  1543.7500      0.0000    708.7190      3.4605    118.5545
  1544.0000      0.0000    707.8564      3.1335    118.9001
  1544.2500      0.0000    706.9470      2.9927    119.3706
  1544.5000      0.0000    705.3706      3.1069    121.2372
  1544.7500      0.0000    702.2667      3.4060    125.1964
  1545.0000      0.0000    696.8348      3.7425    131.0077
  1545.2500      0.0000    689.0940      3.9779    137.6588
  1545.5000      0.0000    680.3511      4.0475    143.6422
  1545.7500      0.0000    672.5974      3.9883    147.4344
  1546.0000      0.0000    667.2619      3.9017    148.4525
  1546.2500      0.0000    664.5933      3.8737    147.6189
  1546.5000      0.0000    664.1321      3.9274    146.6294
  1546.7500      0.0000    665.5596      4.0390    146.6355
  1547.0000      0.0000    669.0826      4.1696    147.6774
  1547.2500      0.0000    675.0270      4.2777    149.0138
  1547.5000      0.0000    682.8870      4.3235    149.6505
  1547.7500      0.0000    690.7280      4.2862    148.8069
  1548.0000      0.0000    695.9009      4.1862    146.3376
  1548.2500      0.0000    696.8623      4.0761    142.9129
  1548.5000      0.0000    694.5687      3.9934    139.6285
  1548.7500      0.0000    691.9517      3.9290    137.1272
  1549.0000      0.0000    691.4037      3.8508    135.0760
  1549.2500      0.0000    692.1273      3.7473    132.6492
  1549.5000      0.0000    689.6580      3.6337    129.2162
  1549.7500      0.0000    678.2413      3.5377    124.4163
  1550.0000      0.0000    655.0145      3.4958    118.2439
  1550.2500      0.0000    624.1227      3.5428    111.6452
  1550.5000      0.0000    597.3457      3.6827    106.5955
  1550.7500      0.0000    588.1057      3.8782    104.7890
  1551.0000      0.0000    601.7728      4.0812    106.0632
  1551.2500      0.0000    631.2885      4.2601    108.3783
  1551.5000      0.0000    663.0172      4.3969    109.4508
  1551.7500      0.0000    686.7043      4.4788    108.3103
  1552.0000      0.0000    699.9833      4.5054    105.4703
  1552.2500      0.0000    705.6387      4.4914    102.1036
  1552.5000      0.0000    706.9914      4.4532     99.2868
  1552.7500      0.0000    705.8314      4.3988     97.6900
  1553.0000      0.0000    702.9189      4.3278     97.5930
  1553.2500      0.0000    698.9568      4.2327     99.1178
  1553.5000      0.0000    694.5652      4.1015    102.3644
  1553.7500      0.0000    689.6623      3.9357    107.2245
  1554.0000      0.0000    683.6790      3.7702    113.0559
  1554.2500      0.0000    676.5683      3.6624    118.6077
  1554.5000      0.0000    668.7508      3.6506    122.3310
  1554.7500      0.0000    659.3964      3.7218    123.0830
  1555.0000      0.0000    645.4380      3.8264    120.9245
  1555.2500      0.0000    624.0052      3.9221    117.3067
  1555.5000      0.0000    597.4666      3.9974    114.1912
  1555.7500      0.0000    575.7337      4.0632    112.7065
  1556.0000      0.0000    570.7900      4.1404    112.5062
  1556.2500      0.0000    586.6327      4.2464    112.2631
  1556.5000      0.0000    615.1179      4.3716    110.8278
  1556.7500      0.0000    642.9650      4.4699    108.2023
  1557.0000      0.0000    662.3347      4.4925    105.6762
  1557.2500      0.0000    674.1074      4.4326    104.9760
  1557.5000      0.0000    682.8925      4.3252    107.0688
  1557.7500      0.0000    691.4024      4.2127    111.5682
  1558.0000      0.0000    699.5090      4.1238    117.1165
  1558.2500      0.0000    706.3236      4.0725    122.3469
  1558.5000      0.0000    711.4729      4.0560    126.6222
  1558.7500      0.0000    714.6605      4.0556    130.0540
  1559.0000      0.0000    715.3449      4.0470    133.0426
  1559.2500      0.0000    713.4438      4.0118    135.8743
  1559.5000      0.0000    709.8667      3.9477    138.6047
  1559.7500      0.0000    705.7814      3.8748    141.2020
  1560.0000      0.0000    701.5623      3.8270    143.6369
  1560.2500      0.0000    696.7842      3.8274    145.5865
  1560.5000      0.0000    691.0408      3.8724    146.1562
  1560.7500      0.0000    684.3134      3.9376    144.4241
  1561.0000      0.0000    676.4091      3.9963    140.5833
  1561.2500      0.0000    666.2679      4.0394    136.3129
  1561.5000      0.0000    652.2563      4.0784    133.7997
  1561.7500      0.0000    634.2467      4.1315    134.2717
  1562.0000      0.0000    616.6041      4.2036    137.0942
  1562.2500      0.0000    607.9423      4.2817    140.0244
  1562.5000      0.0000    614.5397      4.3444    140.6439
  1562.7500      0.0000    632.6009      4.3768    137.9821
  1563.0000      0.0000    649.0518      4.3802    132.8021
