~Version Information
VERS.                      2.0: CWLS Log ASCII Standard - VERSION 2.0
WRAP.                       NO: One line per depth step
~Well Information Block
STRT.FT               -11.7500: 
STOP.FT              2025.5000: 
STEP.FT                 0.2500: 
NULL.                -999.2500: 
COMP.          Evergreen Operating Corp.: COMPANY
WELL.            Sumatra 34-22: WELL
FLD.           Purgatorie River: FIELD
LOC.           542 FSL & 2438 FEL--: LOCATION
PROV.                       CO: PROVINCE
CNTY.               Las Animas: COUNTRY
SRVC.          Patterson Wireline, Inc.: SERVICE COMPANY
DATE.          Wed Apr 02 10:17:21 2003: LOG DATE
UWI.           05 071 07804 00: UNIQUE WELL ID
~Curve Information Block
DEPT.FT            0 000 00 00: Depth
CCL.                          : Casing Collar Locator
TT3.usec                      : CBL 3' Travel Time
AMP3.mV                       : CBL 3' Amplitude
GR.GAPI                       : Gamma Ray
~Parameter Information Block
~A  Depth       CCL         TT3         AMP3         GR     
# ...
   926.2500      0.0000    811.0690      3.1108    152.2913
   926.5000      0.0000    811.1789      3.1138    140.3182
   926.7500      0.0000    811.1116      3.0596    129.2426
   927.0000      0.0000    811.1656      2.9846    120.0657
   927.2500      0.0000    811.3784      2.9437    114.2871
   927.5000      0.0000    811.8621      2.9776    111.7885
   927.7500      0.0000    813.2620      3.0589    110.5708
   928.0000      0.0000    816.8345      3.1180    108.4667
   928.2500      0.0000    822.7307      3.1231    104.7584
   928.5000      0.0000    828.3780      3.0929    100.3383
   928.7500      0.0000    830.5043      3.0447     96.8586
   929.0000      0.0000    827.2698      2.9981     95.7488
   929.2500      0.0000    817.3098      2.9982     97.3912
   929.5000      0.0000    799.0507      3.0665    100.8791
   929.7500      0.0000    773.9933      3.1599    104.7459
   930.0000      0.0000    753.5369      3.2119    108.0461
   930.2500      0.0000    753.0286      3.1978    110.6655
   930.5000      0.0000    771.9029      3.1462    112.8267
   930.7500      0.0000    793.4809      3.1143    114.6749
   931.0000      0.0000    806.0933      3.1513    116.3623
   931.2500      0.0000    810.6826      3.2515    118.1654
   931.5000      0.0000    811.8781      3.3390    120.2204
   931.7500      0.0000    812.0562      3.3358    122.2081
   932.0000      0.0000    811.8361      3.2658    123.4757
   932.2500      0.0000    811.4665      3.2348    123.4078
   932.5000      0.0000    811.1453      3.2711    121.6111
   932.7500      0.0000    810.8984      3.2817    118.0729
   933.0000      0.0000    810.6440      3.2271    113.3134
   933.2500      0.0000    810.3781      3.1992    108.1768
   933.5000      0.0000    810.2076      3.2459    103.4960
   933.7500      0.0000    810.2434      3.2806     99.9705
   934.0000      0.0000    810.5286      3.2583     97.8327
   934.2500      0.0000    810.9913      3.2649     96.4883
   934.5000      0.0000    811.4256      3.3380     95.1308
   934.7500      0.0000    811.6024      3.3840     93.9369
   935.0000      0.0000    811.4243      3.3657     94.1569
   935.2500      0.0000    810.9814      3.3753     96.9901
   935.5000      0.0000    810.4752      3.4470    102.7201
   935.7500      0.0000    810.0448      3.4845    110.6613
   936.0000      0.0000    809.6837      3.4402    119.3285
   936.2500      0.0000    809.3414      3.3891    126.9432
   936.5000      0.0000    808.8732      3.3894    132.5925
   936.7500      0.0000    807.6511      3.3986    137.1124
   937.0000      0.0000    804.6741      3.3640    142.4195
   937.2500      0.0000    800.4765      3.3043    149.6432
   937.5000      0.0000    798.4097      3.2567    157.6103
   937.7500      0.0000    800.7987      3.2146    162.8890
   938.0000      0.0000    805.2972      3.1651    161.8253
   938.2500      0.0000    808.4872      3.1439    153.6278
   938.5000      0.0000    809.7837      3.1835    141.7763
   938.7500      0.0000    810.1752      3.2339    131.7306
   939.0000      0.0000    810.2811      3.2334    126.7182
   939.2500      0.0000    810.1730      3.2176    125.7973
   939.5000      0.0000    809.5261      3.2447    125.8937
   939.7500      0.0000    807.5461      3.2987    125.1171
   940.0000      0.0000    803.5591      3.3518    123.8759
   940.2500      0.0000    797.7234      3.4128    123.5097
   940.5000      0.0000    791.0170      3.4658    124.6510
   940.7500      0.0000    786.3835      3.4614    126.9527
   941.0000      0.0000    788.0333      3.4221    129.7904
   941.2500      0.0000    795.7189      3.4437    132.5496
   941.5000      0.0000    803.9066      3.5364    134.2840
   941.7500      0.0000    808.6608      3.5932    134.0584
   942.0000      0.0000    810.4636      3.5827    132.0814
   942.2500      0.0000    811.0359      3.6056    129.8234
   942.5000      0.0000    811.1752      3.6948    128.5613
   942.7500      0.0000    810.9984      3.7496    128.0845
   943.0000      0.0000    810.3710      3.7088    126.9087
   943.2500      0.0000    808.7100      3.6332    123.5589
   943.5000      0.0000    805.1388      3.6021    117.8262
   943.7500      0.0000    800.4157      3.6131    111.0815
   944.0000      0.0000    798.1102      3.6115    105.4406
   944.2500      0.0000    800.4466      3.6113    102.5973
   944.5000      0.0000    804.2781      3.6892    103.0618
   944.7500      0.0000    804.2696      3.8064    105.9443
   945.0000      0.0000    797.0470      3.7818    109.6069
   945.2500      0.0000    782.6424      3.5249    113.1433
   945.5000      0.0000    767.9882      3.1885    117.0357
   945.7500      0.0000    766.3978      2.9737    121.7786
   946.0000      0.0000    783.2043      2.8434    126.2048
   946.2500      0.0000    806.5948      2.6676    128.0506
   946.5000      0.0000    821.3931      2.5220    126.3766
   946.7500      0.0000    824.3334      2.5072    123.0378
   947.0000      0.0000    823.7117      2.5403    121.4139
   947.2500     -5.0000    826.7728      2.5252    123.5995
   947.5000     -5.0000    831.3224      2.4739    128.9898
   947.7500      0.0000    832.9598      2.4453    135.5736
   948.0000      0.0000    829.9672      2.4965    142.1956
   948.2500      0.0000    821.4302      2.6814    149.2757
   948.5000      0.0000    810.4893      3.0055    157.5586
   948.7500      0.0000    802.4172      3.3460    166.7033
   949.0000      0.0000    798.0930      3.5431    175.1687
   949.2500      0.0000    797.0613      3.5752    181.2032
   949.5000      0.0000    799.7270      3.5121    183.9943
   949.7500      0.0000    803.2279      3.4138    184.0565
   950.0000      0.0000    803.2480      3.3447    182.4255
   950.2500      0.0000    799.8260      3.3321    179.3149
   950.5000      0.0000    797.7053      3.3332    173.5330
   950.7500      0.0000    800.1700      3.3329    163.3884
   951.0000      0.0000    804.8978      3.3610    148.7141
   951.2500      0.0000    808.2471      3.3984    132.3562
   951.5000      0.0000    809.6248      3.3949    119.2721
   951.7500      0.0000    810.0704      3.3386    113.3660
   952.0000      0.0000    810.1606      3.2548    114.7653
   952.2500      0.0000    809.9888      3.2024    120.0587
   952.5000      0.0000    809.6902      3.2305    125.1828
   952.7500      0.0000    809.5432      3.2917    128.2574
   953.0000      0.0000    809.7108      3.3017    130.1232
   953.2500      0.0000    810.0659      3.2761    132.9026
   953.5000      0.0000    810.2250      3.2852    138.2121
   953.7500      0.0000    809.3719      3.3267    146.0030
   954.0000      0.0000    806.3522      3.3377    154.6534
   954.2500      0.0000    801.6860      3.2829    162.4107
   954.5000      0.0000    798.8137      3.1947    168.6716
   954.7500      0.0000    799.3132      3.1256    173.5953
   955.0000      0.0000    798.6849      3.0983    176.8660
   955.2500      0.0000    792.3077      3.1175    177.5536
   955.5000      0.0000    783.0312      3.1728    175.2794
   955.7500      0.0000    778.7184      3.2394    171.0971
   956.0000      0.0000    783.5928      3.2955    167.1165
   956.2500      0.0000    794.1503      3.3281    165.3228
   956.5000      0.0000    803.6151      3.3501    166.4570
   956.7500      0.0000    808.6974      3.3951    169.6431
   957.0000      0.0000    810.4472      3.4470    173.0205
   957.2500      0.0000    810.8024      3.4401    174.8131
   957.5000      0.0000    810.7753      3.3541    174.1157
   957.7500      0.0000    810.7289      3.2504    171.5249
   958.0000      0.0000    810.7397      3.2225    169.4829
   958.2500      0.0000    810.5413      3.2825    171.1352
   958.5000      0.0000    809.3094      3.3284    177.7081
   958.7500      0.0000    805.9715      3.2879    186.9189
   959.0000      0.0000    801.2482      3.2054    194.5138
   959.2500      0.0000    798.9271      3.1660    197.5778
   959.5000      0.0000    801.6055      3.1832    196.3525
