~Version Information
VERS.                      2.0: CWLS Log ASCII Standard - VERSION 2.0
WRAP.                       NO: One line per depth step
~Well Information Block
STRT.FT               418.4000: 
STOP.FT              1170.0000: 
STEP.FT                 0.1000: 
NULL.                -999.2500: 
COMP.          Evergreen Operating Corporation: COMPANY
WELL.             Bernice 21-3: WELL
FLD.           Purgatoire River: FIELD
LOC.           201' FNL & 2575' FWL: LOCATION
PROV.                 Colorado: PROVINCE
CNTY.               Las Animas: COUNTRY
SRVC.                Patterson: SERVICE COMPANY
DATE.          Mon Jan 26 14:55:16 2004: LOG DATE
UWI.             05 071 07912 : UNIQUE WELL ID
~Curve Information Block
DEPT.FT            0 000 00 00: Depth
DCAL.in                       : CDL Caliper
RHOB.g/cc                     : CDL Bulk Density
RHOC.g/cc                     : CDL Density Correction
DPOR.pu                       : CDL Density Porosity
NPOR.pu                       : Neutron Porosity
GR.GAPI                       : Gamma Ray
~Parameter Information Block
~A  Depth       DCAL        RHOB        RHOC        DPOR        NPOR         GR     
# ...
   716.0000      8.0229      2.5086      0.0136      8.5706      9.6800    129.5903
   716.1000      8.0229      2.4938      0.0427      9.4691      7.8172    141.0593
   716.2000      8.0229      2.4850      0.0103     10.0001      5.4466    148.7578
   716.3000      8.0125      2.4841      0.0042     10.0575      6.3122    148.5811
   716.4000      8.0125      2.4937      0.0365      9.4712      9.1047    148.5921
   716.5000      8.0212      2.5084      0.0404      8.5823      9.6081    151.3152
   716.6000      8.0212      2.5149      0.0338      8.1864      8.5310    153.2208
   716.7000      8.0212      2.5120      0.0175      8.3621      9.1985    155.1358
   716.8000      8.0110      2.5128      0.0274      8.3154      9.3168    156.0294
   716.9000      8.0110      2.5179      0.0374      8.0061      6.0492    151.1580
   717.0000      8.0089      2.5137      0.0377      8.2607      2.8393    143.6762
   717.1000      8.0089      2.5019      0.0029      8.9755      2.1131    142.1769
   717.2000      8.0089      2.5021     -0.0013      8.9660      4.3918    143.5916
   717.3000      8.0050      2.5210      0.0334      7.8201      8.8489    140.8027
   717.4000      8.0050      2.5464      0.0507      6.2803     12.7821    136.9231
   717.5000      8.0083      2.5657      0.0434      5.1085     14.4782    132.7666
   717.6000      8.0083      2.5787      0.0277      4.3216     15.1598    125.8590
   717.7000      8.0083      2.5897      0.0711      3.6551     11.6346    120.3945
   717.8000      8.0184      2.5920      0.0989      3.5174      6.3215    120.5586
   717.9000      8.0184      2.5831      0.0721      4.0558      4.9437    121.9777
   718.0000      8.0733      2.5779      0.0135      4.3706      7.9965    118.0851
   718.1000      8.0733      2.5789      0.0532      4.3070     10.7069    113.4589
   718.2000      8.0733      2.5738      0.0152      4.6209      7.7866    116.5495
   718.3000      8.0837      2.5665      0.0397      5.0588      5.4282    124.5221
   718.4000      8.0837      2.5674      0.0165      5.0042      6.6838    128.0557
   718.5000      8.0835      2.5820     -0.0038      4.1228      9.5943    123.8838
   718.6000      8.0835      2.6072      0.0327      2.5917     11.8647    118.4413
   718.7000      8.0835      2.6232      0.0808      1.6252     12.9335    116.4005
   718.8000      8.0776      2.6181      0.0787      1.9334     11.0838    114.2139
   718.9000      8.0776      2.6058      0.0748      2.6808      7.5887    110.4589
   719.0000      8.1051      2.5976      0.0806      3.1764      6.2497    108.5704
   719.1000      8.1051      2.5899      0.0463      3.6420      7.5101    107.3344
   719.2000      8.1051      2.5820      0.0349      4.1184      9.5099    104.4122
   719.3000      8.1312      2.5800      0.0162      4.2454      9.6203    103.5002
   719.4000      8.1312      2.5836      0.0327      4.0238      8.0942    105.2095
   719.5000      8.1289      2.5869      0.0173      3.8225      8.7858    106.2934
   719.6000      8.1289      2.5896      0.0354      3.6591     12.8987    104.3329
   719.7000      8.1289      2.5946      0.0151      3.3554     15.8674     95.4917
   719.8000      8.1366      2.6056      0.0283      2.6921     12.6984     80.7027
   719.9000      8.1366      2.6209      0.0446      1.7652      8.3519     69.8895
   720.0000      8.1366      2.6284      0.0740      1.3071      8.6291     70.0419
   720.1000      8.1366      2.6211      0.0396      1.7512     12.5703     74.4511
   720.2000      8.1366      2.6130     -0.0334      2.2410     13.2994     75.5249
   720.3000      8.1379      2.6170      0.0246      1.9986     10.5355     75.9959
   720.4000      8.1379      2.6174      0.0603      1.9766     11.1813     78.1988
   720.5000      8.1386      2.6013      0.0261      2.9486     17.7064     77.4985
   720.6000      8.1386      2.5795      0.0259      4.2716     23.5081     71.0476
   720.7000      8.1386      2.5603     -0.0027      5.4355     19.1112     63.8827
   720.8000      8.1342      2.5431      0.0168      6.4767     10.4498     61.7287
   720.9000      8.1342      2.5305     -0.0061      7.2425      7.1907     65.0151
   721.0000      8.1151      2.5316     -0.0001      7.1774      9.2242     69.4449
   721.1000      8.1151      2.5510      0.0254      6.0019     13.4851     72.0895
   721.2000      8.1151      2.5796      0.0695      4.2665     15.5523     73.6688
   721.3000      8.0949      2.5979      0.0763      3.1563     16.8287     72.8307
   721.4000      8.0949      2.5928      0.0746      3.4640     17.8062     69.6651
   721.5000      8.0622      2.5750      0.0080      4.5438     15.1973     68.4200
   721.6000      8.0622      2.5695      0.0309      4.8759     10.6741     69.4442
   721.7000      8.0622      2.5793      0.0828      4.2859      8.9701     68.3124
   721.8000      8.0497      2.5851      0.0990      3.9339     11.4000     64.1707
   721.9000      8.0497      2.5803      0.0931      4.2260     14.0933     61.0168
   722.0000      8.0786      2.5721      0.0987      4.7209     11.4740     62.7845
   722.1000      8.0786      2.5681      0.0884      4.9660      9.1267     69.2232
   722.2000      8.0786      2.5713      0.0603      4.7680     12.4469     77.5760
   722.3000      8.1380      2.5779      0.0839      4.3673     20.4275     89.3410
   722.4000      8.1380      2.5818      0.0299      4.1362     24.3154    105.7538
   722.5000      8.1833      2.5858      0.0089      3.8885     22.9352    121.3287
   722.6000      8.1833      2.6001      0.0267      3.0257     21.2119    130.3762
   722.7000      8.1833      2.6239      0.0279      1.5810     20.2345    133.1338
   722.8000      8.2621      2.6463      0.0464      0.2237     20.7056    132.2600
   722.9000      8.2621      2.6631     -0.0094     -0.7931     24.8217    130.2479
   723.0000      8.4573      2.6662      0.0885     -0.9812     31.6215    131.4178
   723.1000      8.4573      2.6309      0.0962      1.1587     34.3286    138.9694
   723.2000      8.4573      2.5516      0.0545      5.9652     30.4682    148.8230
   723.3000      8.8007      2.4472      0.0236     12.2891     27.8749    152.9947
   723.4000      8.8007      2.3299     -0.0204     19.4002     31.9237    147.9932
   723.5000      8.8852      2.2109     -0.0331     26.6114     36.4429    140.0109
   723.6000      8.8852      2.1091     -0.0584     32.7806     34.9589    138.0262
   723.7000      8.8852      2.0268     -0.0172     37.7718     31.4810    142.3699
   723.8000      9.0006      1.9533     -0.0446     42.2254     32.3243    148.0165
   723.9000      9.0006      1.8837     -0.0323     46.4418     37.2919    151.8523
   724.0000      9.0336      1.7997      0.0975     51.5343     39.6753    149.2715
   724.1000      9.0336      1.6879      0.0359     58.3119     37.2079    138.3176
   724.2000      9.0336      1.5712      0.0073     65.3816     34.0922    124.7881
   724.3000      8.9711      1.4719     -0.0178     71.3973     29.2190    117.7138
   724.4000      8.9711      1.3898     -0.0227     76.3783     22.8370    117.6543
   724.5000      8.7752      1.3211     -0.0196     80.5377     21.3403    116.0213
   724.6000      8.7752      1.2684     -0.0275     83.7323     23.0720    108.1339
   724.7000      8.7752      1.2383     -0.0654     85.5559     22.5987     98.0652
   724.8000      8.6353      1.2356     -0.0260     85.7218     21.5364     91.5008
   724.9000      8.6353      1.2501      0.0507     84.8450     22.7255     87.6585
   725.0000      8.7417      1.2582      0.1655     84.3510     26.2266     82.2130
   725.1000      8.7417      1.2501      0.1166     84.8433     26.4118     76.2568
   725.2000      8.7417      1.2378      0.0631     85.5896     17.1776     73.7791
   725.3000      8.7765      1.2225      0.1466     86.5164      7.9460     72.1122
   725.4000      8.7765      1.1924      0.1234     88.3396      6.5633     67.9709
   725.5000      8.6054      1.1479      0.1230     91.0393     11.7227     63.5951
