~Version Information
VERS.                      2.0: CWLS Log ASCII Standard - VERSION 2.0
WRAP.                       NO: One line per depth step
~Well Information Block
STRT.FT               500.0000: 
STOP.FT              2732.5000: 
STEP.FT                 0.1000: 
NULL.                -999.2500: 
COMP.          Pioneer Natural Resources: COMPANY
WELL.          Dude Canyon 22-32: WELL
FLD.           Purgatoire River: FIELD
LOC.           1662' FNL & 2446' FWL----: LOCATION
PROV.                 Colorado: PROVINCE
CNTY.               Las Animas: COUNTRY
SRVC.                Patterson: SERVICE COMPANY
DATE.          Thu Mar 10 07:06:34 2005: LOG DATE
UWI.           05 071 08257 00: UNIQUE WELL ID
~Curve Information Block
DEPT.FT            0 000 00 00: Depth
GR.GAPI                       : Gamma Ray
DCAL.in                       : CDL Caliper
DPOR.pu                       : CDL Density Porosity
NPOR.pu                       : Neutron Porosity
RHOB.g/cc                     : CDL Bulk Density
RHOC.g/cc                     : CDL Density Correction
~Parameter Information Block
~A  Depth        GR         DCAL        DPOR        NPOR        RHOB        RHOC    
   500.0000     44.6797      8.1433     15.2062     40.5443      2.3991     -0.2189
   500.1000     45.9912      8.1433     16.8115     40.4338      2.3726     -0.2240
   500.2000     49.9404      8.1433     17.5746     40.3943      2.3600     -0.2172
   500.3000     54.1957      8.1442     17.1394     40.4561      2.3672     -0.2677
   500.4000     54.0084      8.1442     15.2405     40.6416      2.3985     -0.2381
   500.5000     50.4636      8.1436     12.9820     40.6062      2.4358     -0.1869
   500.6000     49.8184      8.1436     12.5525     40.2897      2.4429     -0.1372
   500.7000     52.4038      8.1436     14.3145     39.8720      2.4138     -0.2160
   500.8000     53.9697      8.1426     16.0619     39.4539      2.3850     -0.2378
   500.9000     53.3805      8.1426     15.7010     39.2681      2.3909     -0.2378
   501.0000     51.4809      8.1427     13.1141     39.6011      2.4336     -0.2147
   501.1000     48.6702      8.1427     10.3073     40.1136      2.4799     -0.1536
   501.2000     46.4177      8.1427      9.6594     40.2232      2.4906     -0.1625
   501.3000     46.8980      8.1425     11.4283     40.0291      2.4614     -0.1942
   501.4000     48.4180      8.1425     13.9517     39.8244      2.4198     -0.1835
   501.5000     48.1447      8.1425     15.7886     39.6148      2.3895     -0.2197
   501.6000     48.6094      8.1425     16.6085     39.5425      2.3760     -0.2087
   501.7000     52.2201      8.1425     16.8013     39.7407      2.3728     -0.2176
   501.8000     54.9074      8.1433     16.6112     40.0547      2.3759     -0.2173
   501.9000     53.2244      8.1433     15.8653     40.2141      2.3882     -0.2128
   502.0000     50.0375      8.1432     14.7509     40.1456      2.4066     -0.1905
   502.1000     48.8254      8.1432     14.1703     40.0686      2.4162     -0.1467
   502.2000     48.2865      8.1432     14.4623     40.2087      2.4114     -0.2159
   502.3000     46.5788      8.1433     14.7210     40.6136      2.4071     -0.1808
   502.4000     45.1338      8.1433     14.4168     41.2566      2.4121     -0.2096
   502.5000     44.6709      8.1449     13.9074     41.7652      2.4205     -0.1738
   502.6000     43.0048      8.1449     13.5861     41.5898      2.4258     -0.1883
   502.7000     41.0081      8.1449     13.5380     40.9082      2.4266     -0.1496
   502.8000     41.2218      8.1464     13.7405     40.5593      2.4233     -0.2148
   502.9000     41.9753      8.1464     14.2021     40.6551      2.4157     -0.1893
   503.0000     41.9016      8.1477     15.0152     40.5863      2.4022     -0.2264
   503.1000     42.1792      8.1477     15.8086     40.2426      2.3892     -0.2232
   503.2000     43.2918      8.1477     16.1453     40.1631      2.3836     -0.2311
   503.3000     45.6904      8.1493     16.0067     40.5010      2.3859     -0.2528
   503.4000     49.3105      8.1493     15.5800     40.7668      2.3929     -0.2278
   503.5000     51.0689      8.1500     14.2775     40.7781      2.4144     -0.2989
   503.6000     49.1267      8.1500     12.1363     40.8191      2.4498     -0.1678
   503.7000     47.1274      8.1500     11.4140     40.8888      2.4617     -0.1937
   503.8000     49.0420      8.1491     13.1295     40.7619      2.4334     -0.2011
   503.9000     54.0949      8.1491     15.4650     40.4048      2.3948     -0.2609
   504.0000     57.7551      8.1494     16.2179     39.9855      2.3824     -0.2580
   504.1000     57.3390      8.1494     14.5580     39.7124      2.4098     -0.2867
   504.2000     54.9165      8.1494     11.1844     39.5823      2.4655     -0.2107
   504.3000     52.9867      8.1496      8.5498     39.7239      2.5089     -0.1348
   504.4000     50.9211      8.1496      9.0440     40.1738      2.5008     -0.1599
   504.5000     48.6296      8.1476     11.5691     40.4130      2.4591     -0.2508
   504.6000     46.5933      8.1476     12.8730     40.2577      2.4376     -0.2371
   504.7000     44.0451      8.1476     12.2396     40.0371      2.4480     -0.2009
   504.8000     42.1409      8.1459     11.0815     39.9184      2.4672     -0.2247
   504.9000     43.5804      8.1459      9.8397     39.8984      2.4876     -0.1902
   505.0000     48.0134      8.1459      8.6506     39.8448      2.5073     -0.1713
   505.1000     52.7214      8.1459      8.3139     39.5451      2.5128     -0.1472
   505.2000     54.7236      8.1459      9.3555     39.1954      2.4956     -0.1516
   505.3000     53.8666      8.1463     11.5825     39.2010      2.4589     -0.2008
   505.4000     54.7176      8.1463     14.0860     39.3525      2.4176     -0.2590
   505.5000     57.1076      8.1470     15.5042     39.3557      2.3942     -0.3066
   505.6000     55.5007      8.1470     15.5126     39.7414      2.3940     -0.2316
   505.7000     50.9830      8.1470     15.1373     40.7098      2.4002     -0.2292
   505.8000     48.2212      8.1470     14.7982     41.4118      2.4058     -0.2661
   505.9000     47.2570      8.1470     13.8963     41.4560      2.4207     -0.2450
   506.0000     46.7158      8.1461     12.4981     41.1698      2.4438     -0.1900
   506.1000     46.8152      8.1461     11.7620     40.6584      2.4559     -0.1953
   506.2000     48.1247      8.1461     12.2143     39.9578      2.4485     -0.2313
   506.3000     51.1466      8.1456     12.9620     39.4627      2.4361     -0.2072
   506.4000     54.3870      8.1456     12.7142     39.4027      2.4402     -0.2762
   506.5000     55.5011      8.1449     11.5130     39.5552      2.4600     -0.1548
   506.6000     55.4835      8.1449     11.2061     39.7287      2.4651     -0.1712
   506.7000     57.3335      8.1449     12.0262     40.0854      2.4516     -0.2287
   506.8000     59.0003      8.1434     11.8675     40.6139      2.4542     -0.2603
   506.9000     56.7303      8.1434     10.3753     40.9248      2.4788     -0.1661
   507.0000     53.0439      8.1438      9.4412     40.9577      2.4942     -0.1639
   507.1000     51.9039      8.1438     10.1043     40.8343      2.4833     -0.1815
   507.2000     53.3544      8.1438     11.9195     40.6006      2.4533     -0.2091
   507.3000     56.0210      8.1456     13.3982     40.4104      2.4289     -0.2797
   507.4000     57.8745      8.1456     13.0002     40.2267      2.4355     -0.2199
   507.5000     57.8080      8.1463     11.0999     39.9800      2.4669     -0.1971
   507.6000     57.0050      8.1463      9.2452     39.8526      2.4975     -0.1610
   507.7000     54.6307      8.1463      7.3363     40.0204      2.5290     -0.1833
   507.8000     51.1048      8.1467      3.4740     40.4455      2.5927     -0.2098
   507.9000     49.4768      8.1467     -2.0485     40.8337      2.6838     -0.0987
   508.0000     49.9541      8.1474     -5.7874     40.9955      2.7455     -0.1099
   508.1000     53.0893      8.1474     -6.0420     40.9181      2.7497     -0.1463
   508.2000     57.0118      8.1474     -3.6159     40.8786      2.7097     -0.1328
   508.3000     56.1638      8.1504      1.9606     41.3503      2.6177     -0.1125
   508.4000     50.6901      8.1504     12.2868     42.1847      2.4473     -0.1618
   508.5000     46.2520      8.1551     25.1131     42.9429      2.2356     -0.4566
   508.6000     45.7600      8.1551     34.3618     43.3997      2.0830     -0.5425
   508.7000     48.9806      8.1551     37.5591     43.3878      2.0303     -0.5330
   508.8000     54.7107      8.1614     36.9598     42.7509      2.0402     -0.6538
   508.9000     59.2011      8.1614     35.3049     41.4067      2.0675     -0.7260
   509.0000     60.0382      8.1679     34.5520     39.0636      2.0799     -0.7114
   509.1000     60.2651      8.1679     35.2274     35.3412      2.0687     -0.7075
   509.2000     61.8327      8.1679     36.3684     30.3893      2.0499     -0.5865
   509.3000     63.0912      8.1755     36.2212     24.9201      2.0523     -0.5571
   509.4000     65.1982      8.1755     32.7174     20.0813      2.1102     -0.3080
   509.5000     68.8585      8.1877     26.5198     16.6274      2.2124      0.0857
