~Version Information
VERS.                      2.0: CWLS Log ASCII Standard - VERSION 2.0
WRAP.                       NO: One line per depth step
~Well Information Block
STRT.FT                -8.2500: 
STOP.FT              2356.2500: 
STEP.FT                 0.2500: 
NULL.                -999.2500: 
COMP.          Petrogulf Corporation: COMPANY
WELL.             State 16-12V: WELL
FLD.           Purgatorie River: FIELD
LOC.           1992' FNL & 1237' FWL: LOCATION
PROV.                 Colorado: PROVINCE
CNTY.               Las Animas: COUNTRY
SRVC.                Patterson: SERVICE COMPANY
DATE.          Thu Aug 11 14:44:06 2005: LOG DATE
UWI.                          : UNIQUE WELL ID
~Curve Information Block
DEPT.FT            0 000 00 00: Depth
GR.GAPI                       : Gamma Ray
CCL.                          : Casing Collar Locator
TT3.usec                      : CBL 3' Travel Time
AMP3.mV                       : CBL 3' Amplitude
~Parameter Information Block
~A  Depth        GR         CCL         TT3         AMP3    
# ...
  2336.7500     77.4411      0.0000    803.1124      7.0733
  2337.0000     81.9778      0.0000    799.9034      6.7939
  2337.2500     85.8647      0.0000    789.8927      6.6561
  2337.5000     88.8508      0.0000    775.8382      6.6476
  2337.7500     91.2414      0.0000    768.1033      6.8056
  2338.0000     93.0894      0.0000    779.0940      7.1173
  2338.2500     93.5396      0.0000    808.4185      7.4684
  2338.5000     91.4347      0.0000    836.5653      7.7664
  2338.7500     86.5115      0.0000    842.7131      8.0400
  2339.0000     79.6715      0.0000    826.0618      8.4106
  2339.2500     72.3075      0.0000    805.1408      9.0093
  2339.5000     65.7454      0.0000    797.0945      9.8428
  2339.7500     61.0799      0.0000    798.4607     10.7559
  2340.0000     58.9707      0.0000    793.9548     11.6362
  2340.2500     59.3290      0.0000    780.5175     12.5412
  2340.5000     61.2345      0.0000    767.7285     13.5173
  2340.7500     63.3511      0.0000    761.4073     14.4766
  2341.0000     64.7601      0.0000    760.9446     15.3255
  2341.2500     65.5443      0.0000    768.4274     16.0763
  2341.5000     66.4476      0.0000    790.1863     16.8294
  2341.7500     68.0197      0.0000    821.7540     17.6432
  2342.0000     70.2538      0.0000    838.6252     18.3705
  2342.2500     72.7732      0.0000    825.1242     18.7472
  2342.5000     74.9234      0.0000    796.9624     18.6187
  2342.7500     75.8371      0.0000    760.5862     17.7719
  2343.0000     74.9283      0.0000    676.1364     15.6005
  2343.2500     72.5301      0.0000    506.4413     11.6762
  2343.5000     70.0018      0.0000    291.7820      6.9265
  2343.7500     69.0064      0.0000    121.2293      3.1824
  2344.0000     70.1637      0.0000     34.8271      1.2772
  2344.2500     72.1992      0.0000      6.7318      0.6534
  2344.5000     72.9211      0.0000      0.8578      0.5222
  2344.7500     71.3504      0.0000      0.0676      0.5045
  2345.0000     68.5261      0.0000   -999.2500   -999.2500
  2345.2500     66.1396      0.0000   -999.2500   -999.2500
  2345.5000     65.0380      0.0000   -999.2500   -999.2500
  2345.7500     65.2811      0.0000   -999.2500   -999.2500
  2346.0000     66.8894      0.0000   -999.2500   -999.2500
  2346.2500     69.8247      0.0000   -999.2500   -999.2500
  2346.5000     73.4424      0.0000   -999.2500   -999.2500
  2346.7500     76.5749      0.0000   -999.2500   -999.2500
  2347.0000     78.4489      0.0000   -999.2500   -999.2500
  2347.2500     79.4097      0.0000   -999.2500   -999.2500
  2347.5000     80.6371      0.0000   -999.2500   -999.2500
  2347.7500     83.1893      0.0000   -999.2500   -999.2500
  2348.0000     87.1945      0.0000   -999.2500   -999.2500
  2348.2500     91.6790      0.0000   -999.2500   -999.2500
  2348.5000     95.1538      0.0000   -999.2500   -999.2500
  2348.7500     96.5842      0.0000   -999.2500   -999.2500
  2349.0000     95.8654      0.0000   -999.2500   -999.2500
  2349.2500     93.5111      0.0000   -999.2500   -999.2500
  2349.5000     90.2210      0.0000   -999.2500   -999.2500
  2349.7500     86.7794      0.0000   -999.2500   -999.2500
  2350.0000     84.0687      0.0000   -999.2500   -999.2500
  2350.2500     82.9464      0.0000   -999.2500   -999.2500
  2350.5000     83.9351      0.0000   -999.2500   -999.2500
  2350.7500     86.8470      0.0000   -999.2500   -999.2500
  2351.0000     90.6247      0.0000   -999.2500   -999.2500
  2351.2500     93.7194   -999.2500   -999.2500   -999.2500
  2351.5000     94.8943   -999.2500   -999.2500   -999.2500
  2351.7500     93.8416   -999.2500   -999.2500   -999.2500
  2352.0000     91.2980   -999.2500   -999.2500   -999.2500
  2352.2500     88.6801   -999.2500   -999.2500   -999.2500
  2352.5000     87.0471   -999.2500   -999.2500   -999.2500
  2352.7500     85.7409   -999.2500   -999.2500   -999.2500
  2353.0000     82.1347   -999.2500   -999.2500   -999.2500
  2353.2500     73.2795   -999.2500   -999.2500   -999.2500
  2353.5000     58.3832   -999.2500   -999.2500   -999.2500
  2353.7500     40.0832   -999.2500   -999.2500   -999.2500
  2354.0000     23.0489   -999.2500   -999.2500   -999.2500
  2354.2500     10.8646   -999.2500   -999.2500   -999.2500
  2354.5000      4.1336   -999.2500   -999.2500   -999.2500
  2354.7500      1.2555   -999.2500   -999.2500   -999.2500
  2355.0000      0.3015   -999.2500   -999.2500   -999.2500
  2355.2500      0.0566   -999.2500   -999.2500   -999.2500
  2355.5000      0.0078   -999.2500   -999.2500   -999.2500
  2355.7500      0.0000   -999.2500   -999.2500   -999.2500
  2356.0000   -999.2500   -999.2500   -999.2500   -999.2500
  2356.2500   -999.2500   -999.2500   -999.2500   -999.2500
