~Version Information
VERS.                      2.0: CWLS Log ASCII Standard - VERSION 2.0
WRAP.                       NO: One line per depth step
~Well Information Block
STRT.FT                -4.2500: 
STOP.FT              2500.7500: 
STEP.FT                 0.2500: 
NULL.                -999.2500: 
COMP.          Pioneer Natural Resources: COMPANY
WELL.          Cock-a-doodle-doo 44-27: WELL
FLD.           Purgatoire River: FIELD
LOC.           163' FSL & 54' FEL--: LOCATION
PROV.                 Colorado: PROVINCE
CNTY.               Las Animas: COUNTRY
SRVC.                Patterson: SERVICE COMPANY
DATE.          Wed Jul 06 10:56:34 2005: LOG DATE
UWI.                071 08429 : UNIQUE WELL ID
~Curve Information Block
DEPT.FT            0 000 00 00: Depth
CCL.                          : Casing Collar Locator
TT3.usec                      : CBL 3' Travel Time
AMP3.mV                       : CBL 3' Amplitude
GR.GAPI                       : Gamma Ray
~Parameter Information Block
~A  Depth       CCL         TT3         AMP3         GR     
# ...
  1302.2500      0.0000    519.9208      9.6459     71.8079
  1302.5000      0.0000    536.6096      9.4814     70.1589
  1302.7500      0.0000    564.0890      9.2007     69.0343
  1303.0000      0.0000    599.4153      8.8811     70.1963
  1303.2500      0.0000    634.1069      8.6172     74.8410
  1303.5000      0.0000    658.7513      8.4591     82.6914
  1303.7500      0.0000    668.6506      8.3890     92.0781
  1304.0000      0.0000    665.6336      8.3539    100.8181
  1304.2500      0.0000    655.5410      8.3157    107.2539
  1304.5000      0.0000    644.0881      8.2712    110.6980
  1304.7500      0.0000    634.1501      8.2312    111.3380
  1305.0000      0.0000    625.5630      8.1917    110.1502
  1305.2500      0.0000    616.6630      8.1343    108.6411
  1305.5000      0.0000    606.1210      8.0511    108.1525
  1305.7500      0.0000    594.3837      7.9621    109.4184
  1306.0000      0.0000    583.5289      7.9044    112.6342
  1306.2500      0.0000    574.9583      7.9040    117.2371
  1306.5000      0.0000    567.8065      7.9588    121.4895
  1306.7500      0.0000    561.0856      8.0493    123.1648
  1307.0000      0.0000    556.3092      8.1561    121.4787
  1307.2500      0.0000    555.6336      8.2651    118.1775
  1307.5000      0.0000    558.2318      8.3621    116.0190
  1307.7500      0.0000    561.1180      8.4300    116.1192
  1308.0000      0.0000    563.7403      8.4527    117.1849
  1308.2500      0.0000    569.6345      8.4249    117.3086
  1308.5000      0.0000    582.4633      8.3652    116.0632
  1308.7500      0.0000    601.6876      8.3130    114.6902
  1309.0000      0.0000    623.1376      8.3025    114.6337
  1309.2500      0.0000    642.6914      8.3400    116.3482
  1309.5000      0.0000    658.4373      8.4133    119.3749
  1309.7500      0.0000    670.4136      8.5127    122.9248
  1310.0000      0.0000    679.5800      8.6324    126.0924
  1310.2500      0.0000    687.0778      8.7558    127.9968
  1310.5000      0.0000    693.7352      8.8546    128.2534
  1310.7500      0.0000    699.8390      8.9040    127.2758
  1311.0000      0.0000    705.2051      8.8971    125.9128
  1311.2500      0.0000    709.3309      8.8449    124.7975
  1311.5000      0.0000    711.6054      8.7674    123.9712
  1311.7500      0.0000    711.7057      8.6856    123.0409
  1312.0000      0.0000    709.9512      8.6179    121.8605
  1312.2500      0.0000    707.3156      8.5762    121.1569
  1312.5000      0.0000    704.9965      8.5575    122.2044
  1312.7500      0.0000    703.5067      8.5370    125.5314
  1313.0000      0.0000    702.0892      8.4775    129.8676
  1313.2500      0.0000    699.6646      8.3588    132.6390
  1313.5000      0.0000    696.4794      8.1990    131.8605
  1313.7500      0.0000    693.8961      8.0424    127.6941
  1314.0000      0.0000    692.3384      7.9243    122.0127
  1314.2500      0.0000    690.4851      7.8510    116.5192
  1314.5000      0.0000    687.0669      7.8097    111.6405
  1314.7500      0.0000    682.7407      7.7913    107.1168
  1315.0000      0.0000    679.5463      7.8082    103.0085
  1315.2500      0.0000    678.9764      7.8883     99.9511
  1315.5000      0.0000    681.2014      8.0465     98.7466
  1315.7500      0.0000    685.7534      8.2620     99.7303
  1316.0000      0.0000    691.8452      8.4892    102.3917
  1316.2500      0.0000    697.9955      8.6930    105.6360
  1316.5000      0.0000    702.4760      8.8787    108.5391
  1316.7500      0.0000    704.6646      9.0935    110.9278
  1317.0000      0.0000    705.5092      9.3984    113.1901
  1317.2500      0.0000    706.6176      9.8214    115.4900
  1317.5000      0.0000    709.0775     10.3238    117.3321
  1317.7500      0.0000    712.6654     10.8061    118.0030
  1318.0000      0.0000    715.7411     11.1444    117.1165
  1318.2500      0.0000    716.4285     11.2392    114.5219
  1318.5000      0.0000    714.4833     11.0611    110.1020
  1318.7500      0.0000    711.6330     10.6788    104.1782
  1319.0000      0.0000    709.8172     10.2351     98.0441
  1319.2500      0.0000    709.5631      9.8655     93.6516
  1319.5000      0.0000    709.9128      9.6172     92.6005
  1319.7500      0.0000    709.1563      9.4325     95.3768
  1320.0000      0.0000    705.7506      9.2058    101.1343
  1320.2500      0.0000    699.4019      8.8661    107.7481
  1320.5000      0.0000    691.4618      8.4315    112.5676
  1320.7500      0.0000    684.0391      7.9941    114.0249
  1321.0000      0.0000    678.7533      7.6486    112.6058
  1321.2500      0.0000    676.1013      7.4313    109.9169
  1321.5000      0.0000    675.3072      7.3239    107.1124
  1321.7500      0.0000    674.7720      7.2964    104.5003
  1322.0000      0.0000    673.2531      7.3328    102.1316
  1322.2500      0.0000    670.7104      7.4147    100.2943
  1322.5000      0.0000    667.7906      7.4959     99.6457
  1322.7500      0.0000    664.7161      7.5134    101.0298
  1323.0000      0.0000    660.9813      7.4334    104.9130
  1323.2500      0.0000    656.1838      7.2770    110.7020
  1323.5000      0.0000    651.0215      7.0927    116.6220
  1323.7500      0.0000    647.1060      6.9090    120.5363
  1324.0000      0.0000    645.3497      6.7199    121.2480
  1324.2500      0.0000    644.8531      6.5115    119.2113
  1324.5000      0.0000    644.1472      6.2966    116.0830
  1324.7500      0.0000    643.3837      6.1218    113.5275
  1325.0000      0.0000    644.4031      6.0320    112.1089
  1325.2500      0.0000    648.3821      6.0265    110.9377
  1325.5000      0.0000    654.0571      6.0594    108.4050
  1325.7500      0.0000    658.8289      6.0827    103.7806
  1326.0000      0.0000    661.2419      6.0803     98.4917
  1326.2500      0.0000    661.7459      6.0619     95.5719
  1326.5000      0.0000    661.3208      6.0398     97.5883
  1326.7500      0.0000    659.9155      6.0187    105.0350
  1327.0000      0.0000    655.9233      6.0031    116.2183
  1327.2500      0.0000    646.6609      6.0105    128.0299
  1327.5000      0.0000    630.2230      6.0725    137.2014
  1327.7500      0.0000    608.3914      6.2136    141.8704
  1328.0000      0.0000    587.6254      6.4219    142.3408
  1328.2500      0.0000    575.5433      6.6467    140.1507
  1328.5000      0.0000    575.5168      6.8333    136.6358
  1328.7500      0.0000    584.7343      6.9602    132.5663
  1329.0000      0.0000    596.7202      7.0453    128.5345
  1329.2500      0.0000    604.8590      7.1216    124.9281
  1329.5000      0.0000    604.1396      7.2106    121.6992
  1329.7500      0.0000    591.4550      7.3144    118.6252
  1330.0000      0.0000    566.8723      7.4248    115.6809
  1330.2500      0.0000    535.8238      7.5365    112.9354
  1330.5000      0.0000    508.6629      7.6487    110.5798
  1330.7500      0.0000    496.3684      7.7599    109.5609
  1331.0000      0.0000    505.0025      7.8627    111.6237
  1331.2500      0.0000    531.3588      7.9415    117.7228
  1331.5000      0.0000    562.7927      7.9744    126.4764
  1331.7500      0.0000    583.9450      7.9415    134.9683
  1332.0000      0.0000    586.4485      7.8394    141.0562
  1332.2500      0.0000    572.9227      7.6943    144.2704
  1332.5000      0.0000    552.8306      7.5587    144.6450
  1332.7500      0.0000    535.5048      7.4829    141.6823
  1333.0000      0.0000    525.5728      7.4845    134.9585
  1333.2500      0.0000    522.4960      7.5490    125.1005
  1333.5000      0.0000    523.2703      7.6572    113.4867
  1333.7500      0.0000    525.2554      7.7973    101.3094
  1334.0000      0.0000    526.9656      7.9490     89.4394
  1334.2500      0.0000    527.7933      8.0585     78.7197
  1334.5000      0.0000    528.1689      8.0545     69.7760
  1334.7500      0.0000    529.3141      7.9210     62.8497
  1335.0000      0.0000    532.0864      7.7476     58.2352
  1335.2500      0.0000    536.8771      7.6466     56.4462
  1335.5000      0.0000    544.0201      7.6178     57.3854
