~Version Information
VERS.                      2.0: CWLS Log ASCII Standard - VERSION 2.0
WRAP.                       NO: One line per depth step
~Well Information Block
STRT.FT               360.0000: 
STOP.FT              1622.7000: 
STEP.FT                 0.1000: 
NULL.                -999.2500: 
COMP.          Pioneer Natural Resources: COMPANY
WELL.                Eric 42-9: WELL
FLD.           Purgatoire River: FIELD
LOC.           2050' FNL & 850' FEL: LOCATION
PROV.                 Colorado: PROVINCE
CNTY.               Las Animas: COUNTRY
SRVC.                Patterson: SERVICE COMPANY
DATE.          Mon Nov 01 08:19:51 2004: LOG DATE
UWI.           05 071 07999 00: UNIQUE WELL ID
~Curve Information Block
DEPT.FT            0 000 00 00: Depth
DCAL.in                       : CDL Caliper
RHOB.g/cc                     : CDL Bulk Density
RHOC.g/cc                     : CDL Density Correction
DPOR.pu                       : CDL Density Porosity
NPOR.pu                       : Neutron Porosity
GR.GAPI                       : Gamma Ray
~Parameter Information Block
~A  Depth       DCAL        RHOB        RHOC        DPOR        NPOR         GR     
# ...
  1339.2000      8.1171      2.5144      0.0047      8.2180     22.5898    110.2361
  1339.3000      8.1170      2.5095      0.0601      8.5152     22.5744    112.7314
  1339.4000      8.1170      2.4940      0.0262      9.4523     22.5881    114.0389
  1339.5000      8.1172      2.4849      0.0292     10.0036     23.4983    113.6492
  1339.6000      8.1172      2.4938      0.0715      9.4697     24.6907    112.3560
  1339.7000      8.1172      2.5079      0.0562      8.6108     24.6732    109.6824
  1339.8000      8.1194      2.5179      0.0566      8.0064     23.4908    109.1427
  1339.9000      8.1194      2.5274      0.0419      7.4274     22.3989    112.1714
  1340.0000      8.1207      2.5335      0.0663      7.0610     21.7987    114.5870
  1340.1000      8.1207      2.5241      0.0689      7.6291     21.3221    115.6272
  1340.2000      8.1207      2.5077      0.0217      8.6263     21.2278    116.0940
  1340.3000      8.1196      2.5077      0.0328      8.6272     21.9872    113.6556
  1340.4000      8.1196      2.5217      0.0746      7.7778     22.8012    111.0315
  1340.5000      8.1182      2.5350      0.0137      6.9711     22.8257    111.1629
  1340.6000      8.1182      2.5501      0.0407      6.0516     22.3014    108.0980
  1340.7000      8.1182      2.5650      0.0602      5.1489     21.3593    102.1122
  1340.8000      8.1185      2.5655      0.0551      5.1219     20.1929    102.2138
  1340.9000      8.1185      2.5499     -0.0059      6.0681     19.4872    109.8743
  1341.0000      8.1206      2.5351      0.0279      6.9631     19.3424    117.3503
  1341.1000      8.1206      2.5296      0.0318      7.2959     19.1400    117.4352
  1341.2000      8.1206      2.5267      0.0423      7.4724     18.7751    110.0414
  1341.3000      8.1235      2.5212      0.0303      7.8080     18.6431     99.7391
  1341.4000      8.1235      2.5149      0.0221      8.1893     18.8545     94.6311
  1341.5000      8.1257      2.5181     -0.0124      7.9925     19.4253    101.1078
  1341.6000      8.1257      2.5377     -0.0105      6.8048     20.2459    113.8833
  1341.7000      8.1257      2.5537      0.0560      5.8367     20.8124    119.7540
  1341.8000      8.1256      2.5451      0.0382      6.3595     20.5512    114.9499
  1341.9000      8.1256      2.5291      0.0032      7.3246     19.6834    107.2562
  1342.0000      8.1247      2.5312      0.0297      7.2014     18.9246    102.9211
  1342.1000      8.1247      2.5478      0.0140      6.1968     18.5011    103.8316
  1342.2000      8.1247      2.5621      0.0522      5.3297     18.7072    107.6976
  1342.3000      8.1234      2.5592      0.0627      5.5045     19.8150    107.1484
  1342.4000      8.1234      2.5354      0.0277      6.9436     21.0441    101.7357
  1342.5000      8.1218      2.5011      0.0325      9.0253     21.3286     98.9923
  1342.6000      8.1218      2.4733     -0.0299     10.7102     20.8918     99.9956
  1342.7000      8.1218      2.4654      0.0098     11.1865     20.7185     99.0591
  1342.8000      8.1186      2.4751      0.0058     10.6027     20.7792     95.6747
  1342.9000      8.1186      2.4912      0.0400      9.6216     20.2675     95.5449
  1343.0000      8.1111      2.5036      0.0565      8.8752     19.0892    100.2336
  1343.1000      8.1111      2.5114      0.0111      8.4010     17.8700    105.0741
  1343.2000      8.1111      2.5252      0.0368      7.5637     17.0337    107.0634
  1343.3000      8.1002      2.5468      0.0401      6.2554     16.7339    107.1891
  1343.4000      8.1002      2.5625      0.0761      5.3037     17.0195    107.3752
  1343.5000      8.0924      2.5610      0.0570      5.3959     17.4085    106.4326
  1343.6000      8.0924      2.5490      0.0287      6.1205     17.4953    101.4141
  1343.7000      8.0924      2.5385      0.0510      6.7606     17.4355     93.3970
  1343.8000      8.0891      2.5365      0.0053      6.8778     17.2675     88.4580
  1343.9000      8.0891      2.5422      0.0670      6.5355     16.9380     88.4298
  1344.0000      8.0880      2.5407      0.0302      6.6241     16.7130     88.8882
  1344.1000      8.0880      2.5279      0.0355      7.3997     16.9626     86.9534
  1344.2000      8.0880      2.5184     -0.0014      7.9763     17.5183     85.1982
  1344.3000      8.0885      2.5200      0.0197      7.8809     17.8934     86.4736
  1344.4000      8.0885      2.5218      0.0118      7.7725     18.0715     89.1140
  1344.5000      8.0902      2.5143      0.0079      8.2237     18.3438     90.0076
  1344.6000      8.0902      2.5039      0.0022      8.8548     18.8356     88.5915
  1344.7000      8.0902      2.5022      0.0184      8.9601     19.3343     89.0529
  1344.8000      8.0912      2.5108      0.0341      8.4352     19.5470     93.6238
  1344.9000      8.0912      2.5178      0.0523      8.0094     19.2760     97.6135
  1345.0000      8.0911      2.5117      0.0138      8.3802     18.7096     95.3688
  1345.1000      8.0911      2.4951      0.0553      9.3856     18.5220     88.0530
  1345.2000      8.0911      2.4878     -0.0164      9.8302     18.6330     80.1487
  1345.3000      8.0925      2.5154      0.0056      8.1585     18.1488     72.7934
  1345.4000      8.0925      2.5618      0.1075      5.3466     17.4778     69.1058
  1345.5000      8.0944      2.5819      0.0857      4.1243     17.6285     71.6772
  1345.6000      8.0944      2.5741      0.0474      4.5977     18.1997     74.7556
  1345.7000      8.0944      2.5717      0.0319      4.7458     18.1879     74.3511
  1345.8000      8.0932      2.5772      0.1024      4.4115     17.4766     74.9448
  1345.9000      8.0932      2.5644      0.0629      5.1874     16.5647     77.5922
  1346.0000      8.0914      2.5338      0.0437      7.0420     15.7945     78.4440
  1346.1000      8.0914      2.5084      0.0330      8.5800     15.3999     78.4590
  1346.2000      8.0914      2.5055     -0.0051      8.7574     15.3367     80.0201
  1346.3000      8.0910      2.5257      0.0311      7.5332     15.4359     80.6537
  1346.4000      8.0910      2.5507      0.0575      6.0161     15.6106     76.8340
  1346.5000      8.0927      2.5675      0.0468      5.0018     15.6781     71.7115
  1346.6000      8.0927      2.5782      0.0411      4.3538     15.6067     71.4033
  1346.7000      8.0927      2.5849      0.0708      3.9458     15.9037     74.7570
  1346.8000      8.0954      2.5879      0.0405      3.7656     16.6444     77.4924
  1346.9000      8.0954      2.5935      0.0677      3.4223     17.2598     78.6870
  1347.0000      8.0942      2.6028      0.0844      2.8586     17.4264     76.4788
  1347.1000      8.0942      2.6051      0.0780      2.7199     16.9355     71.9714
  1347.2000      8.0942      2.5896      0.0808      3.6617     16.2505     71.5845
  1347.3000      8.0940      2.5604      0.0252      5.4302     16.1551     73.5352
  1347.4000      8.0940      2.5362      0.0368      6.8940     16.5172     73.4303
  1347.5000      8.0987      2.5264      0.0673      7.4926     17.0240     74.9708
  1347.6000      8.0987      2.5273     -0.0019      7.4350     17.6520     76.5183
  1347.7000      8.0987      2.5322      0.0694      7.1384     18.1550     72.9769
  1347.8000      8.1027      2.5343      0.0161      7.0120     18.3554     67.5567
  1347.9000      8.1027      2.5383      0.0285      6.7713     18.2946     66.5477
  1348.0000      8.0971      2.5514      0.0137      5.9775     17.9317     71.0100
  1348.1000      8.0971      2.5714      0.0514      4.7640     17.6710     76.9182
  1348.2000      8.0971      2.5906      0.0610      3.5993     17.7382     82.6183
  1348.3000      8.0896      2.6015      0.0662      2.9371     17.7586     85.7142
  1348.4000      8.0896      2.5968      0.1175      3.2217     17.4456     82.7101
  1348.5000      8.0873      2.5839      0.0266      4.0087     17.1921     79.0552
  1348.6000      8.0873      2.5765      0.0885      4.4535     17.4438     83.5516
  1348.7000      8.0873      2.5646      0.0733      5.1778     18.0068     92.8014
