~Version Information
VERS.                      2.0: CWLS Log ASCII Standard - VERSION 2.0
WRAP.                       NO: One line per depth step
~Well Information Block
STRT.FT                 0.0000: 
STOP.FT              2159.0000: 
STEP.FT                 0.2500: 
NULL.                -999.2500: 
COMP.          Petrogulf Corporation: COMPANY
WELL.               Furu 6-23R: WELL
FLD.           Purgatoire River: FIELD
LOC.           2211' FSL & 1780' FWL: LOCATION
CNTY.               Las Animas: COUNTY
SRVC.                         : SERVICE COMPANY
DATE.          Fri Jul 14 16:00:32 2006: LOG DATE
UWI.           05 071 08266 00: UNIQUE WELL ID
STAT.                       CO: STATE
~Curve Information Block
DEPT.FT            0 000 00 00: Depth
GR.GAPI                       : Gamma Ray
CCL.                          : Casing Collar Locator
TT3.usec                      : CBL 3' Travel Time
AMP3.mV                       : CBL 3' Amplitude
~Parameter Information Block
~A  Depth        GR         CCL         TT3         AMP3    
# ...
   268.0000    108.0793      0.0000    256.9816     86.0569
   268.2500    107.3919      0.0000    256.9799     86.1951
   268.5000    104.6378      0.0000    256.9494     86.2846
   268.7500     99.7030      0.0000    256.9151     86.2785
   269.0000     93.4791      0.0000    256.8894     86.1435
   269.2500     87.1902      0.0000    256.8687     85.8397
   269.5000     81.5757      0.0000    256.8553     85.2810
   269.7500     76.7193      0.0000    256.8701     84.3002
   270.0000     72.5014      0.0000    256.9497     82.6504
   270.2500     68.8328      0.0000    257.1550     80.0616
   270.5000     65.5442      0.0000    257.5894     76.3438
   270.7500     62.5158      0.0000    258.3633     71.4974
   271.0000     60.0031      0.0000    259.4852     65.7735
   271.2500     58.4948      0.0000    260.7830     59.6448
   271.5000     58.1783      0.0000    261.9792     53.6851
   271.7500     58.7463      0.0000    262.8667     48.4133
   272.0000     59.6804      0.0000    263.4080     44.1719
   272.2500     60.5657      0.0000    263.6865     41.0903
   272.5000     61.2945      0.0000    263.8086     39.1382
   272.7500     62.2880      2.0000    263.8536     38.2323
   273.0000     64.3573      2.0000    263.8714     38.3419
   273.2500     67.7652      0.0000    263.8738     39.5427
   273.5000     71.3121      0.0000    263.7980     41.9874
   273.7500     72.9913      0.0000    263.4872     45.7938
   274.0000     72.0677      0.0000    262.7671     50.9016
   274.2500     70.1020      0.0000    261.6076     56.9786
   274.5000     69.4112      0.0000    260.2152     63.4440
   274.7500     70.7294      0.0000    258.9252     69.6187
   275.0000     72.7092      0.0000    257.9849     74.9242
   275.2500     73.4569      0.0000    257.4375     79.0356
   275.5000     72.1847      0.0000    257.1766     81.9183
   275.7500     69.5826      0.0000    257.0666     83.7580
   276.0000     67.0997      0.0000    257.0156     84.8410
   276.2500     65.8709      0.0000    256.9824     85.4494
   276.5000     65.8278      0.0000    256.9560     85.8020
   276.7500     65.6961      0.0000    256.9339     86.0386
   277.0000     64.2136      0.0000    256.9105     86.2297
   277.2500     61.3940      0.0000    256.8787     86.3940
   277.5000     58.3618      0.0000    256.8426     86.5186
   277.7500     56.2165      0.0000    256.8201     86.5820
   278.0000     55.4941      0.0000    256.8280     86.5731
   278.2500     56.4540      0.0000    256.8643     86.5021
   278.5000     59.0970      0.0000    256.9099     86.4002
   278.7500     62.6041      0.0000    256.9457     86.3065
   279.0000     65.2671      0.0000    256.9636     86.2525
   279.2500     65.5796      0.0000    256.9641     86.2510
   279.5000     63.5266      0.0000    256.9497     86.2924
   279.7500     60.5903      0.0000    256.9256     86.3511
   280.0000     58.3167      0.0000    256.9025     86.3958
   280.2500     57.0354      0.0000    256.8908     86.4025
   280.5000     56.0974      0.0000    256.8921     86.3643
   280.7500     55.0681      0.0000    256.9015     86.2941
   281.0000     54.3262      0.0000    256.9158     86.2196
   281.2500     54.5503      0.0000    256.9331     86.1719
   281.5000     55.8703      0.0000    256.9455     86.1728
   281.7500     57.7139      0.0000    256.9425     86.2265
   282.0000     59.5499      0.0000    256.9234     86.3201
   282.2500     61.5511      0.0000    256.9009     86.4318
   282.5000     64.2122      0.0000    256.8857     86.5412
   282.7500     67.5073      0.0000    256.8734     86.6349
   283.0000     70.8522      0.0000    256.8553     86.7046
   283.2500     73.7127      0.0000    256.8361     86.7420
   283.5000     75.7726      0.0000    256.8320     86.7381
   283.7500     76.8394      0.0000    256.8532     86.6874
   284.0000     77.1223      0.0000    256.8945     86.5955
   284.2500     77.2154      0.0000    256.9405     86.4818
   284.5000     77.2714      0.0000    256.9758     86.3747
   284.7500     76.5365      0.0000    256.9912     86.3019
   285.0000     74.1901      0.0000    256.9849     86.2805
   285.2500     70.4801      0.0000    256.9616     86.3109
   285.5000     66.6380      0.0000    256.9308     86.3770
   285.7500     63.7429      0.0000    256.9028     86.4518
   286.0000     62.0776      0.0000    256.8854     86.5060
   286.2500     61.6643      0.0000    256.8813     86.5179
   286.5000     62.8911      0.0000    256.8885     86.4780
   286.7500     66.0600      0.0000    256.9018     86.3895
   287.0000     70.3659      0.0000    256.9130     86.2643
   287.2500     73.7017      0.0000    256.9140     86.1198
   287.5000     73.7786      0.0000    256.9037     85.9776
   287.7500     69.7567      0.0000    256.8902     85.8638
   288.0000     62.9958      0.0000    256.8830     85.8048
   288.2500     56.1124      0.0000    256.8813     85.8209
   288.5000     51.1917      0.0000    256.8766     85.9176
   288.7500     48.9122      0.0000    256.8638     86.0808
   289.0000     48.9617      0.0000    256.8459     86.2801
   289.2500     50.7126      0.0000    256.8281     86.4782
   289.5000     53.6069      0.0000    256.8145     86.6435
   289.7500     57.5469      0.0000    256.8092     86.7600
   290.0000     63.2712      0.0000    256.8165     86.8292
   290.2500     72.1180      0.0000    256.8356     86.8644
   290.5000     84.8691      0.0000    256.8607     86.8806
   290.7500    100.5349      0.0000    256.8864     86.8867
   291.0000    116.4853      0.0000    256.9115     86.8840
   291.2500    129.9426      0.0000    256.9333     86.8713
   291.5000    139.3384      0.0000    256.9432     86.8514
   291.7500    144.5981      0.0000    256.9297     86.8339
   292.0000    146.6290      0.0000    256.8882     86.8292
   292.2500    146.4490      0.0000    256.8302     86.8403
   292.5000    144.2785      0.0000    256.7819     86.8571
   292.7500    139.5156      0.0000    256.7678     86.8605
   293.0000    132.1062      0.0000    256.7924     86.8322
   293.2500    123.6370      0.0000    256.8396     86.7652
   293.5000    116.2358      0.0000    256.8879     86.6677
   293.7500    110.6275      0.0000    256.9246     86.5594
   294.0000    105.9963      0.0000    256.9485     86.4635
   294.2500    101.4061      0.0000    256.9624     86.3993
   294.5000     96.7356      0.0000    256.9663     86.3773
   294.7500     92.6845      0.0000    256.9572     86.3973
   295.0000     90.5090      0.0000    256.9355     86.4498
   295.2500     91.4073      0.0000    256.9081     86.5187
   295.5000     95.4690      0.0000    256.8857     86.5865
   295.7500    101.1944      0.0000    256.8745     86.6386
   296.0000    106.5510      0.0000    256.8724     86.6655
   296.2500    110.6125      0.0000    256.8734     86.6631
   296.5000    113.7220      0.0000    256.8760     86.6304
   296.7500    116.0285      0.0000    256.8848     86.5700
   297.0000    116.6118      0.0000    256.9051     86.4890
   297.2500    114.5588      0.0000    256.9366     86.4012
   297.5000    110.6091      0.0000    256.9703     86.3251
   297.7500    107.1705      0.0000    256.9923     86.2777
   298.0000    106.4024      0.0000    256.9933     86.2664
   298.2500    108.4442      0.0000    256.9762     86.2847
   298.5000    111.7406      0.0000    256.9554     86.3149
   298.7500    114.6286      0.0000    256.9449     86.3374
   299.0000    116.1347      0.0000    256.9500     86.3401
   299.2500    115.8708      0.0000    256.9685     86.3237
   299.5000    114.1120      0.0000    256.9955     86.2993
   299.7500    111.7651      0.0000    257.0229     86.2824
   300.0000    109.5678      0.0000    257.0415     86.2853
   300.2500    107.2882      0.0000    257.0462     86.3110
   300.5000    103.9639      0.0000    257.0365     86.3513
   300.7500     99.0227      0.0000    257.0150     86.3891
   301.0000     93.2318      0.0000    256.9873     86.4047
   301.2500     88.3799      0.0000    256.9647     86.3843
