~Version Information
VERS.                      2.0: CWLS Log ASCII Standard - VERSION 2.0
WRAP.                       NO: One line per depth step
~Well Information Block
STRT.FT               241.5000: 
STOP.FT              2340.7500: 
STEP.FT                 0.2500: 
NULL.                -999.2500: 
COMP.          Petrogulf Corporation: COMPANY
WELL.            Montoya 1-24V: WELL
FLD.           Purgatorie River: FIELD
LOC.           605' FSL & 2557' FWL: LOCATION
CNTY.               Las Animas: COUNTY
SRVC.                         : SERVICE COMPANY
DATE.          Tue Nov 30 10:28:39 2004: LOG DATE
UWI.           05 071 08194 00: UNIQUE WELL ID
STAT.                 Colorado: STATE
~Curve Information Block
DEPT.FT            0 000 00 00: Depth
GR.GAPI                       : Gamma Ray
CCL.                          : Casing Collar Locator
TT3.usec                      : CBL 3' Travel Time
AMP3.mV                       : CBL 3' Amplitude
~Parameter Information Block
~A  Depth        GR         CCL         TT3         AMP3    
# ...
  1079.0000     29.4249      0.0000    690.5255      3.7787
  1079.2500     31.2894      0.0000    698.0565      4.3542
  1079.5000     36.0639      0.0000    705.5554      4.8573
  1079.7500     44.8192      0.0000    711.8223      5.2975
  1080.0000     57.5985      0.0000    717.9172      5.7533
  1080.2500     73.5572      0.0000    726.3470      6.3303
  1080.5000     91.0811      0.0000    739.0308      7.0903
  1080.7500    107.7127      0.0000    755.5311      8.0033
  1081.0000    120.6919      0.0000    773.4913      8.9589
  1081.2500    128.2800      0.0000    790.4047      9.8260
  1081.5000    130.8685      0.0000    802.9937     10.5099
  1081.7500    131.0510      0.0000    805.4497     10.9720
  1082.0000    132.3067      0.0000    792.4418     11.2182
  1082.2500    136.5965      0.0000    765.3945     11.2858
  1082.5000    142.6187      0.0000    733.3947     11.2435
  1082.7500    146.9441      0.0000    706.9800     11.1912
  1083.0000    147.5169      0.0000    691.9464     11.2278
  1083.2500    145.7834      0.0000    688.2324     11.3911
  1083.5000    145.0906      0.0000    692.2202     11.6215
  1083.7500    147.5665      0.0000    699.0895     11.7978
  1084.0000    152.7902      0.0000    704.5942     11.8184
  1084.2500    158.7814      0.0000    706.8257     11.6474
  1084.5000    163.7287      0.0000    707.4553     11.3005
  1084.7500    166.9996      0.0000    710.6927     10.8238
  1085.0000    168.7874      0.0000    719.2443     10.2928
  1085.2500    168.9150      0.0000    730.4077      9.7992
  1085.5000    166.4166      0.0000    737.4156      9.4127
  1085.7500    160.8247      0.0000    736.0142      9.1550
  1086.0000    153.6241      0.0000    728.9957      9.0018
  1086.2500    147.7641      0.0000    723.1956      8.8983
  1086.5000    145.7041      0.0000    722.6466      8.7863
  1086.7500    148.1472      0.0000    725.2913      8.6431
  1087.0000    154.0863      0.0000    725.6214      8.5049
  1087.2500    161.2204      0.0000    719.7662      8.4405
  1087.5000    166.5894      0.0000    708.3309      8.4916
  1087.7500    167.8674      0.0000    695.1920      8.6328
  1088.0000    164.6543      0.0000    684.2476      8.7889
  1088.2500    158.5430      0.0000    677.2103      8.8904
  1088.5000    151.8309      0.0000    673.6593      8.9142
  1088.7500    146.1312      0.0000    672.2751      8.8770
  1089.0000    142.0228      0.0000    671.8998      8.7983
  1089.2500    139.5299      0.0000    671.9557      8.6800
  1089.5000    138.4240      0.0000    672.4847      8.5190
  1089.7500    138.2354      0.0000    673.8740      8.3312
  1090.0000    138.6519      0.0000    676.2011      8.1565
  1090.2500    139.9555      0.0000    678.6439      8.0430
  1090.5000    142.5101      0.0000    679.9418      8.0264
  1090.7500    145.8793      0.0000    679.8533      8.1121
  1091.0000    149.0803      0.0000    679.8542      8.2598
  1091.2500    151.5950      0.0000    681.7307      8.3934
  1091.5000    153.4123      0.0000    685.3747      8.4498
  1091.7500    154.1795      0.0000    688.4037      8.4317
  1092.0000    153.2657      0.0000    688.2901      8.4066
  1092.2500    150.8487      0.0000    684.7444      8.4488
  1092.5000    148.1508      0.0000    679.7645      8.5841
  1092.7500    146.3565      0.0000    675.6205      8.7820
  1093.0000    145.6166      0.0000    673.2422      8.9860
  1093.2500    144.9948      0.0000    672.2878      9.1456
  1093.5000    143.1057      0.0000    672.0381      9.2369
  1093.7500    139.2365      0.0000    671.9738      9.2728
  1094.0000    134.3390      0.0000    671.8737      9.2936
  1094.2500    130.6561      0.0000    671.7288      9.3386
  1094.5000    130.0587      0.0000    671.6682      9.4289
  1094.7500    132.8563      0.0000    671.9332      9.5812
  1095.0000    138.1102      0.0000    672.8781      9.8141
  1095.2500    144.5489      0.0000    674.8240     10.1103
  1095.5000    150.9401      0.0000    677.6252     10.3777
  1095.7500    156.2239      0.0000    680.2749     10.4977
  1096.0000    159.9570      0.0000    681.3179     10.4325
  1096.2500    162.4810      0.0000    680.0669     10.2652
  1096.5000    164.4636      0.0000    677.2973     10.1278
  1096.7500    166.4819      0.0000    674.5120     10.1167
  1097.0000    168.7903      0.0000    672.7052     10.2736
  1097.2500    170.8278      0.0000    671.9515     10.6082
  1097.5000    171.0471      0.0000    671.8163     11.1031
  1097.7500    167.9233      0.0000    671.8371     11.6986
  1098.0000    161.4940      0.0000    671.5887     12.2989
  1098.2500    154.0846      0.0000    670.3583     12.8092
  1098.5000    149.3152      0.0000    666.7157     13.1676
  1098.7500    149.2830      0.0000    658.8472     13.3477
  1099.0000    152.0762      0.0000    646.5115     13.3579
  1099.2500    153.0443      0.0000    633.3337     13.2600
  1099.5000    149.4211      0.0000    625.6074     13.1809
  1099.7500    142.9233      0.0000    626.4193     13.2813
  1100.0000    137.0091      0.0000    630.6909     13.6760
  1100.2500    132.5763      0.0000    627.6423     14.3391
  1100.5000    127.6744      0.0000    609.9384     15.0657
  1100.7500    121.0080      0.0000    582.0101     15.5546
  1101.0000    114.2317      0.0000    559.3428     15.5845
  1101.2500    110.4374      0.0000    556.9373     15.1665
  1101.5000    111.4132      0.0000    576.8508     14.5527
  1101.7500    116.8663      0.0000    607.8410     14.0674
  1102.0000    125.5068      0.0000    636.2726     13.8907
  1102.2500    136.0361      0.0000    655.3372     13.9760
  1102.5000    146.9366      0.0000    665.4158     14.1468
  1102.7500    155.9024      0.0000    669.7506     14.2426
  1103.0000    160.6884      0.0000    671.1686     14.1990
  1103.2500    161.2377      0.0000    671.1282     14.0488
  1103.5000    160.3577      0.0000    669.7667     13.8695
  1103.7500    161.4295      0.0000    665.9813     13.7169
  1104.0000    165.4825      0.0000    657.7195     13.6018
  1104.2500    170.6262      0.0000    643.5568     13.5205
  1104.5000    173.9657      0.0000    625.1552     13.4888
  1104.7500    173.9413      0.0000    607.6709     13.5395
  1105.0000    171.2411      0.0000    596.2086     13.6946
  1105.2500    167.8880      0.0000    591.6658     13.9454
  1105.5000    165.5197      0.0000    590.9948     14.2329
  1105.7500    164.4066      0.0000    590.8176     14.4155
  1106.0000    163.7727      0.0000    589.9908     14.2641
  1106.2500    162.8306      0.0000    590.8153     13.5703
  1106.5000    161.4953      0.0000    600.5178     12.3260
  1106.7500    159.9976      0.0000    629.4127     10.8004
  1107.0000    157.8363      0.0000    682.0142      9.4192
  1107.2500    153.7656      0.0000    748.4851      8.5289
  1107.5000    147.4263      0.0000    807.8495      8.2119
  1107.7500    140.6074     -3.0000    841.6942      8.2807
  1108.0000    136.2702     -3.0000    845.0439      8.4422
  1108.2500    136.4734     -3.0000    826.0101      8.4723
  1108.5000    141.2593      0.0000    797.7703      8.2806
  1108.7500    148.6944      0.0000    770.4637      7.9055
  1109.0000    155.7773      0.0000    747.2729      7.4989
  1109.2500    160.2892      0.0000    726.2245      7.2602
  1109.5000    162.2449      0.0000    705.6257      7.3045
  1109.7500    163.1573      0.0000    687.0239      7.5870
  1110.0000    163.9926      0.0000    672.7372      7.9581
  1110.2500    164.3396      0.0000    662.4992      8.2724
  1110.5000    163.0390      0.0000    654.4236      8.4551
  1110.7500    158.9760      0.0000    648.2615      8.5143
  1111.0000    152.0212      0.0000    645.8803      8.5123
  1111.2500    144.0726      0.0000    648.6078      8.5148
  1111.5000    138.5951      0.0000    655.1286      8.5628
  1111.7500    138.1785      0.0000    662.3740      8.6797
  1112.0000    142.4572      0.0000    667.8638      8.8716
  1112.2500    148.5748      0.0000    670.9456      9.1065
