~Version Information
VERS.                                  2.0 : CWLS LAS VERSION
WRAP.                                   NO : WRAPING MODE
SWARE .                 MController 2.5.0E : SOFTWARE VERSION
~Well Information
WELL.                         Warrior 32-1 : WELL
COMP.             Evergreen Operating Corp : COMPANY
FLD.                      Purgatorie River : FIELD
LOC.                SW/NE Sec 11 T33S R67W : LOCATION
DATE.                    10/02/04-10/03/04 : DATE(S) LOGGED
SRVC.       Blanco Geological Services LLC : SERVICE COMPANY
STAT.                                   CO : STATE
CNTY.                           Las Animas : COUNTY
CTRY.                                  USA : COUNTRY
API.                       05-071-08176-00 : API NUMBER
STRT.FT                             386.00 : START DEPTH
STOP.FT                            2265.00 : STOP DEPTH
STEP.FT                               1.00 : DEPTH INCREMENT
NULL.                                -9999 : NULL VALUE
~Curve information
DEPTH.FT                                   :
ROP.MIN/FT                                 :
GAS.UNITS                                  :
~ASCII Log data
# ...
     2034.00        0.500         79.7
     2035.00        0.567         77.5
     2036.00        0.567         80.7
     2037.00        0.550         83.1
     2038.00        0.567         82.3
     2039.00        0.433         87.0
     2040.00        0.367         86.7
     2041.00        0.200         82.2
     2042.00        0.133         82.3
     2043.00        0.300         79.2
     2044.00        0.300         77.8
     2045.00        0.267         72.1
     2046.00        0.300         71.6
     2047.00        0.417         70.3
     2048.00        0.467         72.1
     2049.00        0.733         80.5
     2050.00        0.567         85.0
     2051.00        0.600        101.8
     2052.00        0.533         95.0
     2053.00        0.683         83.5
     2054.00        0.867         43.4
     2055.00        0.667         30.3
     2056.00        3.650        168.4
     2057.00        0.367        141.5
     2058.00        0.333        119.3
     2059.00        0.200         95.5
     2060.00        0.250         87.8
     2061.00        0.300         68.2
     2062.00        0.300         62.8
     2063.00        0.300         66.2
     2064.00        0.600         83.4
     2065.00        0.567        106.2
     2066.00        0.533         91.0
     2067.00        0.400         83.2
     2068.00        0.350         73.8
     2069.00        0.233         73.3
     2070.00        0.233         69.7
     2071.00        0.367         71.1
     2072.00        0.333         81.8
     2073.00        0.333         91.9
     2074.00        0.300         90.6
     2075.00        0.333         80.5
     2076.00        0.233         55.6
     2077.00        0.233         36.2
     2078.00        0.233         26.3
     2079.00        0.300         21.9
     2080.00        0.317         24.3
     2081.00        0.300         27.8
     2082.00        0.300         41.5
     2083.00        0.200         53.9
     2084.00        0.100         53.9
     2085.00        0.267         65.2
     2086.00        2.650        184.0
     2087.00        0.433        128.9
     2088.00        0.433        113.3
     2089.00        0.400         96.4
     2090.00        0.433         92.9
     2091.00        0.433         83.2
     2092.00        0.367         80.0
     2093.00        0.383         81.0
     2094.00        0.300         84.9
     2095.00        0.333         88.2
     2096.00        0.267         89.9
     2097.00        0.300         91.5
     2098.00        0.300         90.8
     2099.00        0.300         88.5
     2100.00        0.300         83.0
     2101.00        0.333         80.5
     2102.00        0.300         76.2
     2103.00        0.333         64.3
     2104.00        0.317         60.7
     2105.00        0.333         63.6
     2106.00        0.333         74.8
     2107.00        0.333         77.6
     2108.00        0.333         78.1
     2109.00        0.333         68.9
     2110.00        0.333         31.1
     2111.00        0.333         24.2
     2112.00        0.400         20.4
     2113.00        0.333         20.6
     2114.00        0.383         29.9
     2115.00        0.367         38.6
     2116.00        2.950        183.7
     2117.00        0.967        154.4
     2118.00        1.133         88.8
     2119.00        1.183         61.4
     2120.00        1.067         87.8
     2121.00        1.367         88.9
     2122.00        1.017         74.2
     2123.00        0.967         85.3
     2124.00        1.033         80.1
     2125.00        1.483         70.0
     2126.00        1.367         69.4
     2127.00        1.433         84.1
     2128.00        2.317         91.7
     2129.00        1.317         90.4
     2130.00        1.267         90.0
     2131.00        1.267         81.8
     2132.00        1.483         75.1
     2133.00        1.133         74.3
     2134.00        1.300         73.6
     2135.00        1.117         74.8
     2136.00        1.433         76.4
     2137.00        1.150         79.4
     2138.00        0.933         83.3
     2139.00        0.200         75.8
     2140.00        0.300         74.5
     2141.00        0.400         42.4
     2142.00        0.433         20.7
     2143.00        0.433         18.4
     2144.00        0.417         17.3
     2145.00        0.367         18.3
     2146.00        3.650        452.7
     2147.00        0.400        209.1
     2148.00        0.467        143.2
     2149.00        0.500        112.4
     2150.00        0.533         71.2
     2151.00        0.600         70.6
     2152.00        0.583         70.9
     2153.00        0.567         67.8
     2154.00        0.600         64.0
     2155.00        0.633         57.5
     2156.00        1.383         53.6
     2157.00        1.233         77.0
     2158.00        1.083         81.1
     2159.00        0.933         76.0
     2160.00        1.083         67.6
     2161.00        1.067         82.0
     2162.00        1.033         78.4
     2163.00        1.083         61.8
     2164.00        1.200         43.9
     2165.00        1.300         34.4
     2166.00        1.317         44.1
     2167.00        1.167         75.4
     2168.00        1.117         82.1
     2169.00        1.233         82.7
     2170.00        1.167         78.4
     2171.00        2.050         80.5
     2172.00        1.617         74.4
     2173.00        1.467         55.3
     2174.00        1.550         74.6
     2175.00        1.200         35.4
     2176.00        5.783        251.5
     2177.00        1.517         90.4
     2178.00        1.233         64.2
     2179.00        1.117         72.7
     2180.00        1.400         74.2
     2181.00        1.033         66.8
     2182.00        1.083         60.4
     2183.00        1.033         62.8
     2184.00        1.133         68.4
     2185.00        1.217         64.6
     2186.00        0.300         64.8
     2187.00        0.500         69.4
     2188.00        0.433         72.4
     2189.00        0.400         73.9
     2190.00        0.367         69.7
     2191.00        0.417         66.7
     2192.00        0.400         65.9
     2193.00        0.433         65.6
     2194.00        0.400         67.5
     2195.00        0.467         72.7
     2196.00        0.450         74.0
     2197.00        0.433         74.2
     2198.00        0.467         76.5
     2199.00        0.433         78.9
     2200.00        0.467         66.8
     2201.00        0.467         28.1
     2202.00        0.500         21.3
     2203.00        0.517         15.8
     2204.00        0.433         15.3
     2205.00        0.267         20.0
     2206.00        3.783        221.7
     2207.00        1.167        142.3
     2208.00        1.050         85.3
     2209.00        1.067         66.4
     2210.00        0.967         45.5
     2211.00        1.000         54.4
     2212.00        1.083         60.9
     2213.00        1.100         61.2
     2214.00        1.183         57.6
     2215.00        0.633         54.4
     2216.00        0.700         66.0
     2217.00        0.767         74.1
     2218.00        1.017         73.4
     2219.00        0.500         55.0
     2220.00        0.400         51.3
     2221.00        0.567         49.5
     2222.00        0.833         50.5
     2223.00        0.450         48.0
     2224.00        0.433         46.8
     2225.00        0.500         44.9
     2226.00        0.833         47.3
     2227.00        0.700         65.2
     2228.00        0.467         81.1
     2229.00        0.983        103.1
     2230.00        0.500        124.0
     2231.00        0.567        118.0
     2232.00        0.567         58.0
     2233.00        0.433         31.5
     2234.00        0.517         27.0
     2235.00        0.633         35.0
     2236.00        3.350        279.3
     2237.00        0.800        172.1
     2238.00        0.583        100.7
     2239.00        0.900         76.8
