~Version Information
VERS.                      2.0: CWLS Log ASCII Standard - VERSION 2.0
WRAP.                       NO: One line per depth step
~Well Information Block
STRT.FT               768.0000: 
STOP.FT              2635.5000: 
STEP.FT                 0.1000: 
NULL.                -999.2500: 
COMP.          Pioneer Natural Resources: COMPANY
WELL.               Zink 44-10: WELL
FLD.           Purgatoire River: FIELD
LOC.           548' FSL & 473' FEL: LOCATION
PROV.                 Colorado: PROVINCE
CNTY.               Las Animas: COUNTRY
SRVC.                Patterson: SERVICE COMPANY
DATE.          Tue May 31 07:05:25 2005: LOG DATE
UWI.           05 071 08380 00: UNIQUE WELL ID
~Curve Information Block
DEPT.FT            0 000 00 00: Depth
DCAL.in                       : CDL Caliper
RHOB.g/cc                     : CDL Bulk Density
RHOC.g/cc                     : CDL Density Correction
DPOR.pu                       : CDL Density Porosity
GR.GAPI                       : Gamma Ray
NPOR.pu                       : Neutron Porosity
~Parameter Information Block
~A  Depth       DCAL        RHOB        RHOC        DPOR         GR         NPOR    
# ...
  1257.6000      8.2158      2.5691      0.1213      4.9027    122.7623     33.0127
  1257.7000      8.2158      2.5748      0.1474      4.5600    119.6378     32.9257
  1257.8000      8.1801      2.5722      0.1193      4.7176    117.8117     32.9100
  1257.9000      8.1801      2.5647      0.0882      5.1721    120.5776     33.1514
  1258.0000      8.1647      2.5555      0.0943      5.7246    127.0880     33.5518
  1258.1000      8.1647      2.5448      0.0851      6.3786    130.5874     33.6358
  1258.2000      8.1647      2.5354      0.0953      6.9429    128.6637     33.3594
  1258.3000      8.1340      2.5273      0.0963      7.4359    126.4079     33.1910
  1258.4000      8.1340      2.5145      0.1002      8.2138    127.5643     33.3510
  1258.5000      8.1430      2.5027      0.0639      8.9253    129.4270     33.9371
  1258.6000      8.1430      2.5125      0.0849      8.3325    126.0226     34.8258
  1258.7000      8.1430      2.5521      0.1189      5.9312    116.0075     35.3593
  1258.8000      8.1187      2.6221      0.0781      1.6903    105.3926     35.3482
  1258.9000      8.1187      2.7158      0.1280     -3.9875    100.5508     35.4494
  1259.0000      8.1165      2.7983      0.1889     -8.9865     97.6451     35.8871
  1259.1000      8.1165      2.8406      0.2009    -11.5488     90.0407     36.0639
  1259.2000      8.1165      2.8548      0.1947    -12.4122     83.1648     35.6999
  1259.3000      8.1177      2.8648      0.1973    -13.0184     83.4568     35.2374
  1259.4000      8.1177      2.8719      0.1775    -13.4508     87.3829     35.0737
  1259.5000      8.1249      2.8619      0.1459    -12.8445     91.1133     34.8233
  1259.6000      8.1249      2.8336      0.1157    -11.1285     93.6630     34.0754
  1259.7000      8.1249      2.7977      0.1162     -8.9492     93.5808     33.0928
  1259.8000      8.1155      2.7533      0.1192     -6.2630     90.1922     32.2219
  1259.9000      8.1155      2.6970      0.0898     -2.8513     83.5716     31.6727
  1260.0000      8.0526      2.6389      0.0613      0.6714     76.8916     31.3578
  1260.1000      8.0526      2.5943      0.0408      3.3744     74.0621     30.9187
  1260.2000      8.0526      2.5697      0.0007      4.8693     74.2689     30.3712
  1260.3000      8.0460      2.5625      0.0244      5.3031     74.7770     29.9242
  1260.4000      8.0460      2.5636      0.0293      5.2337     75.0004     29.4876
  1260.5000      8.0217      2.5617      0.0469      5.3539     75.7918     29.0659
  1260.6000      8.0217      2.5531      0.0724      5.8706     76.0437     28.9368
  1260.7000      8.0217      2.5497      0.0355      6.0786     72.9103     29.0254
  1260.8000      8.0107      2.5578      0.0620      5.5900     67.1266     28.9328
  1260.9000      8.0107      2.5691      0.0747      4.9056     64.1910     28.4797
  1261.0000      8.0318      2.5807      0.0959      4.2022     66.1315     27.9284
  1261.1000      8.0318      2.5928      0.0823      3.4653     68.2169     27.6388
  1261.2000      8.0318      2.5928      0.1422      3.4657     74.2090     27.8361
  1261.3000      8.0424      2.5668      0.1261      5.0406     71.5426     28.3913
  1261.4000      8.0424      2.5315      0.0521      7.1813     67.3813     28.8269
  1261.5000      8.0441      2.5147      0.0745      8.2007     62.3314     28.8987
  1261.6000      8.0441      2.5180      0.0714      8.0029     58.0860     28.7824
  1261.7000      8.0441      2.5265      0.0604      7.4836     54.5894     28.7391
  1261.8000      8.0425      2.5285      0.0766      7.3646     53.0352     28.6810
  1261.9000      8.0425      2.5250      0.0544      7.5770     53.5277     28.1924
  1262.0000      8.0440      2.5283      0.0425      7.3742     53.3647     27.5747
  1262.1000      8.0440      2.5427      0.1076      6.5043     51.7506     27.3782
  1262.2000      8.0440      2.5584      0.1145      5.5543     52.4697     27.5032
  1262.3000      8.0459      2.5620      0.1064      5.3307     46.9183     27.6446
  1262.4000      8.0459      2.5529      0.0628      5.8877     43.9603     27.5837
  1262.5000      8.0422      2.5462      0.1284      6.2934     45.7137     27.4748
  1262.6000      8.0422      2.5549      0.0671      5.7616     49.4510     27.5162
  1262.7000      8.0422      2.5788      0.1059      4.3151     51.7035     27.6447
  1262.8000      8.0175      2.6039      0.1269      2.7911     52.7515     27.8639
  1262.9000      8.0175      2.6149      0.1615      2.1292     54.1191     28.3062
  1263.0000      7.9956      2.6076      0.1264      2.5704     55.8881     28.8534
  1263.1000      7.9956      2.5982      0.0861      3.1395     57.8144     28.9624
  1263.2000      7.9956      2.6048      0.0838      2.7370     58.7142     28.8277
  1263.3000      7.9919      2.6257      0.1232      1.4723     59.0464     29.1885
  1263.4000      7.9919      2.6520      0.0861     -0.1202     60.0589     29.6266
  1263.5000      7.9894      2.6842      0.0966     -2.0698     61.9612     29.4149
  1263.6000      7.9894      2.7150      0.1108     -3.9415     63.0480     28.9821
  1263.7000      7.9894      2.7348      0.1188     -5.1403     61.6400     28.9409
  1263.8000      7.9896      2.7479      0.0943     -5.9331     59.7989     29.2059
  1263.9000      7.9896      2.7542      0.1439     -6.3150     59.8340     29.5383
  1264.0000      8.0169      2.7418      0.1149     -5.5662     60.9102     29.5561
  1264.1000      8.0169      2.7103      0.0769     -3.6525     61.0298     29.2331
  1264.2000      8.0169      2.6687      0.0023     -1.1359     60.0271     29.1215
  1264.3000      8.0269      2.6248     -0.0037      1.5285     61.5360     29.0833
  1264.4000      8.0269      2.5885     -0.0544      3.7254     68.2325     28.6717
  1264.5000      8.0424      2.5620     -0.0114      5.3323     75.6855     28.0245
  1264.6000      8.0424      2.5311     -0.0035      7.2031     77.7599     27.5330
  1264.7000      8.0424      2.4939     -0.0431      9.4608     75.5641     27.5016
  1264.8000      8.0489      2.4726     -0.0484     10.7511     74.1658     27.8095
  1264.9000      8.0489      2.4792     -0.0000     10.3499     73.8475     28.0602
  1265.0000      8.1081      2.4982      0.0584      9.1997     72.0986     28.1274
  1265.1000      8.1081      2.5135      0.0496      8.2699     68.0832     28.2520
  1265.2000      8.1081      2.5220      0.0802      7.7604     63.1176     28.4636
  1265.3000      8.0877      2.5168      0.0566      8.0744     59.5533     28.3619
  1265.4000      8.0877      2.4943      0.0793      9.4348     57.0997     27.9303
  1265.5000      8.0603      2.4747     -0.0054     10.6217     55.9078     27.5425
  1265.6000      8.0603      2.4806      0.0463     10.2646     58.7785     27.4240
  1265.7000      8.0603      2.4931      0.1536      9.5097     67.4831     27.5018
  1265.8000      8.0556      2.4839      0.0942     10.0672     76.0893     27.4333
  1265.9000      8.0556      2.4694      0.0223     10.9449     76.0716     27.1396
  1266.0000      8.0423      2.4722      0.0887     10.7765     71.3955     27.0572
  1266.1000      8.0423      2.4812      0.0721     10.2307     71.1100     27.5282
  1266.2000      8.0423      2.4838      0.1192     10.0743     75.8121     28.1214
  1266.3000      8.0431      2.4824      0.0850     10.1565     80.4380     28.2631
  1266.4000      8.0431      2.4844      0.1148     10.0384     81.3923     28.3082
  1266.5000      8.0299      2.4938      0.1197      9.4645     79.4564     28.7980
  1266.6000      8.0299      2.5070      0.1211      8.6690     78.3354     29.3118
  1266.7000      8.0299      2.5135      0.1339      8.2746     78.2770     29.1692
  1266.8000      8.0324      2.5135      0.1129      8.2752     76.1627     28.6701
  1266.9000      8.0324      2.5156      0.1383      8.1454     73.0131     28.5306
  1267.0000      8.0510      2.5150      0.1366      8.1830     69.8997     28.8328
  1267.1000      8.0510      2.5032      0.1057      8.8945     66.6326     29.1673
