~Version Information
 VERS.                      2.0: CWLS Log ASCII Standard - VERSION 2.0
 WRAP.                       NO: One line per depth step
 ~Well Information Block
 STRT.FT               763.7500: 
 STOP.FT              2577.0000: 
 STEP.FT                 0.2500: 
 NULL.                -999.2500: 
 COMP.          Petrogulf Corporation: COMPANY
 WELL.               J&P 12-33V: WELL
 FLD.           Purgatorie River: FIELD
 LOC.           2005' FSL & 1928' FEL: LOCATION
 CNTY.               Las Animas: COUNTY
 SRVC.                         : SERVICE COMPANY
 DATE.          Sat Aug 28 09:00:36 2004: LOG DATE
 UWI.           05 071 08092 00: UNIQUE WELL ID
 STAT.                 Colorado: STATE
 PROV.                         :Province
 ~Curve Information Block
 DEPT.FT            0 000 00 00: Depth
 SP.mV                         : DIL Spontaneous Potential
 RILD.Ohm-m                    : DIL Deep Resistivity
 RILM.Ohm-m                    : DIL Medium Resistivity
 RLL3.Ohm-m                    : DIL Shallow Resistivity
 GR.GAPI                       : Gamma Ray
 ~Parameter Information Block
 ~A  Depth        SP         RILD        RILM        RLL3         GR     
# ...
   791.7500   2000.0000     95.9524     62.9581   1998.0000     82.4887
   792.0000   2000.0000    102.6327     63.4218   1998.0000     82.6593
   792.2500   2000.0000    108.2906     64.0681   1998.0000     82.1629
   792.5000   2000.0000    110.9643     64.8272   1998.0000     80.2630
   792.7500   2000.0000    109.1479     65.5757   1998.0000     78.4831
   793.0000   2000.0000    103.2265     66.1638   1998.0000     75.8034
   793.2500   2000.0000     95.3300     66.4635   1998.0000     74.2090
   793.5000   2000.0000     87.7471     66.4147   1998.0000     71.8113
   793.7500   2000.0000     81.8855     66.0436   1998.0000     69.9848
   794.0000   2000.0000     78.2472     65.4466   1998.0000     66.9668
   794.2500   2000.0000     76.7960     64.7440   1998.0000     65.0257
   794.5000   2000.0000     77.1890     64.0399   1998.0000     62.6865
   794.7500   2000.0000     78.8490     63.3923   1998.0000     61.7189
   795.0000   2000.0000     80.9641     62.8143   1998.0000     61.4287
   795.2500   2000.0000     82.6609     62.2930   1998.0000     62.0886
   795.5000   2000.0000     83.3818     61.8204   1998.0000     64.3096
   795.7500   2000.0000     83.2165     61.4146   1998.0000     66.4822
   796.0000   2000.0000     82.8129     61.1310   1998.0000     70.3334
   796.2500   2000.0000     82.9055     61.0554   1998.0000     72.8907
   796.5000   2000.0000     83.9035     61.2769   1998.0000     75.9893
   796.7500   2000.0000     85.7556     61.8636   1998.0000     77.3033
   797.0000   2000.0000     88.0609     62.8391   1998.0000     78.0636
   797.2500   2000.0000     90.3151     64.1648   1998.0000     77.8255
   797.5000   2000.0000     92.0937     65.7249   1998.0000     76.4183
   797.7500   2000.0000     93.0474     67.3415   1998.0000     74.8108
   798.0000   2000.0000     92.8264     68.7842   1998.0000     71.7305
   798.2500   2000.0000     91.2193     69.8162   1998.0000     69.7093
   798.5000   2000.0000     88.4772     70.2499   1998.0000     67.7569
   798.7500   2000.0000     85.3897     69.9962   1998.0000     67.5323
   799.0000   2000.0000     82.9348     69.0891   1998.0000     68.5707
   799.2500   2000.0000     81.8183     67.6711   1998.0000     69.7117
   799.5000   2000.0000     82.2293     65.9483   1998.0000     71.4561
   799.7500   2000.0000     83.8049     64.1404   1998.0000     72.5463
   800.0000   2000.0000     85.6970     62.4453   1998.0000     74.2375
   800.2500   2000.0000     86.8282     61.0133   1998.0000     75.5891
   800.5000   2000.0000     86.3596     59.9437   1998.0000     78.3508
   800.7500   2000.0000     84.1229     59.2843   1998.0000     80.8545
   801.0000   2000.0000     80.6015     59.0350   1998.0000     85.5362
   801.2500   2000.0000     76.5155     59.1481   1998.0000     88.9321
   801.5000   2000.0000     72.3920     59.5359   1998.0000     93.2239
   801.7500   2000.0000     68.4283     60.0775   1998.0000     94.5916
   802.0000   2000.0000     64.6118     60.6420   1998.0000     93.2312
   802.2500   2000.0000     60.9304     61.1173   1998.0000     90.2193
   802.5000   2000.0000     57.5570     61.4408   1998.0000     84.1907
   802.7500   2000.0000     54.9290     61.6155   1998.0000     80.1661
   803.0000   2000.0000     53.7651     61.6996   1998.0000     74.7930
   803.2500   2000.0000     55.1676     61.7736   1998.0000     71.5614
   803.5000   2000.0000     61.1542     61.9024   1998.0000     67.1355
   803.7500   2000.0000     76.6863     62.1030   1998.0000     64.6442
   804.0000   2000.0000    119.5605     62.3424   1998.0000     62.0582
   804.2500   2000.0000    335.2051     62.5449   1998.0000     61.2515
   804.5000   2000.0000 100000.0000     62.6275   1998.0000     61.2517
   804.7500   2000.0000 100000.0000     62.5338   1998.0000     61.7320
   805.0000   2000.0000 100000.0000     62.2609   1998.0000     62.5749
   805.2500   2000.0000 100000.0000     61.8586   1998.0000     63.1011
   805.5000   2000.0000 100000.0000     61.4062   1998.0000     64.1415
   805.7500   2000.0000 100000.0000     60.9808   1998.0000     65.2108
   806.0000   2000.0000 100000.0000     60.6194   1998.0000     67.2188
   806.2500   2000.0000   1443.4242     60.3146   1998.0000     68.4022
   806.5000   2000.0000    356.2719     60.0103   1998.0000     69.2295
   806.7500   2000.0000    222.3011     59.6276   1998.0000     69.0753
   807.0000   2000.0000    170.3122     59.0941   1998.0000     68.2811
   807.2500   2000.0000    139.2463     58.3715   1998.0000     67.7300
   807.5000   2000.0000    114.7681     57.4675   1998.0000     67.0043
   807.7500   2000.0000     95.2931     56.4136   1998.0000     66.2904
   808.0000   2000.0000     83.6278     55.2634   1998.0000     64.0309
   808.2500   2000.0000     84.6708     54.0672   1998.0000     61.4330
   808.5000   2000.0000    120.1238     52.8142   1998.0000     56.2700
   808.7500   2000.0000   7630.8442     51.4048   1998.0000     52.5949
   809.0000   2000.0000 100000.0000     49.6537   1998.0000     47.6793
   809.2500   2000.0000 100000.0000     47.2972   1998.0000     45.1098
   809.5000   2000.0000 100000.0000     44.0801   1998.0000     42.7655
   809.7500   2000.0000 100000.0000     39.9096   1998.0000     42.5005
   810.0000   2000.0000 100000.0000     34.9995   1998.0000     44.1172
   810.2500   2000.0000 100000.0000     29.8477   1998.0000     46.0908
   810.5000   2000.0000 100000.0000     25.0157   1998.0000     49.0454
   810.7500   2000.0000     35.6146     20.8940   1998.0000     50.2823
   811.0000   2000.0000     11.7497     17.6331   1998.0000     50.5814
   811.2500   2000.0000      7.1749     15.2042   1998.0000     50.1073
   811.5000   2000.0000      5.6175     13.4962   1998.0000     49.9362
   811.7500   2000.0000      5.1631     12.3832   1998.0000     51.3085
   812.0000   2000.0000      5.3555     11.7558   1998.0000     57.0657
   812.2500   2000.0000      6.1282     11.5278   1998.0000     63.5504
   812.5000   2000.0000      7.6424     11.6307   1998.0000     76.2764
   812.7500   2000.0000     10.3749     12.0041   1998.0000     85.7912
   813.0000   2000.0000     15.4896     12.5847   1998.0000    100.0196
   813.2500   2000.0000     25.7825     13.2959   1998.0000    108.7056
   813.5000   2000.0000     46.3942     14.0425   1998.0000    119.4194
   813.7500   2000.0000     70.4591     14.7103   1998.0000    124.6417
   814.0000   2000.0000     60.7859     15.1771   1998.0000    129.8191
   814.2500   2000.0000     37.8698     15.3392   1998.0000    132.0105
   814.5000   2000.0000     24.5159     15.1465   1998.0000    134.1128
   814.7500   2000.0000     17.8809     14.6262   1998.0000    134.6878
   815.0000   2000.0000     14.5109     13.8727   1998.0000    133.6917
   815.2500   2000.0000     12.7635     13.0078   1998.0000    131.6413
   815.5000   2000.0000     11.8739     12.1389   1998.0000    127.3983
   815.7500   2000.0000     11.4531     11.3370   1998.0000    124.7572
   816.0000   2000.0000     11.2866     10.6374   1998.0000    122.1100
   816.2500   2000.0000     11.2502     10.0493   1998.0000    121.1037
   816.5000   2000.0000     11.2740      9.5689   1998.0000    120.0221
   816.7500   2000.0000     11.3232      9.1887   1998.0000    119.3942
   817.0000   2000.0000     11.3884      8.9016   1998.0000    118.6412
   817.2500   2000.0000     11.4764      8.7030   1998.0000    118.2280
   817.5000   2000.0000     11.5958      8.5909   1998.0000    117.5282
   817.7500   2000.0000     11.7491      8.5651   1998.0000    117.0087
   818.0000   2000.0000     11.9291      8.6264   1998.0000    116.4761
   818.2500   2000.0000     12.1236      8.7749   1998.0000    116.5167
   818.5000   2000.0000     12.3251      9.0090   1998.0000    117.3945
   818.7500   2000.0000     12.5372      9.3237   1998.0000    118.5453
   819.0000   2000.0000     12.7727      9.7096   1998.0000    121.0906
   819.2500   2000.0000     13.0483     10.1511   1998.0000    123.2172
   819.5000   2000.0000     13.3805     10.6272   1998.0000    126.1807
