~Version Information
VERS.                      2.0: CWLS Log ASCII Standard - VERSION 2.0
WRAP.                       NO: One line per depth step
~Well Information Block
STRT.FT               507.5000: 
STOP.FT              2145.0000: 
STEP.FT                 0.2500: 
NULL.                -999.2500: 
COMP.          Petrogulf Corporation: COMPANY
WELL.            Montoya 1-44R: WELL
FLD.           Purgatorie River: FIELD
LOC.           658' FSL & 1052' FWL: LOCATION
CNTY.               Las Animas: COUNTY
SRVC.                         : SERVICE COMPANY
DATE.          Tue Nov 16 02:59:24 2004: LOG DATE
UWI.           05 071 08239 00: UNIQUE WELL ID
STAT.                 Colorado: STATE
~Curve Information Block
DEPT.FT            0 000 00 00: Depth
SP.mV                         : DIL Spontaneous Potential
RILD.Ohm-m                    : DIL Deep Resistivity
RILM.Ohm-m                    : DIL Medium Resistivity
RLL3.Ohm-m                    : DIL Shallow Resistivity
GR.GAPI                       : Gamma Ray
~Parameter Information Block
~A  Depth        SP         RILD        RILM        RLL3         GR     
# ...
  1375.5000    -31.7686     15.7056     19.9524     28.5144    107.2237
  1375.7500    -33.5938     15.7388     19.7064     26.5654    110.9670
  1376.0000    -35.8818     15.7290     19.3405     24.4117    118.2577
  1376.2500    -38.3896     15.6720     18.8828     22.3371    123.6416
  1376.5000    -40.8647     15.5670     18.3605     20.5497    131.4496
  1376.7500    -43.0737     15.4162     17.7986     19.1530    136.0258
  1377.0000    -44.8310     15.2258     17.2195     18.1513    141.8386
  1377.2500    -46.0061     15.0052     16.6431     17.4784    145.1287
  1377.5000    -46.5322     14.7663     16.0867     17.0339    149.1044
  1377.7500    -46.4083     14.5224     15.5654     16.7142    150.9265
  1378.0000    -45.6965     14.2858     15.0912     16.4347    152.1597
  1378.2500    -44.5221     14.0671     14.6733     16.1414    151.8977
  1378.5000    -43.0570     13.8737     14.3183     15.8159    150.0137
  1378.7500    -41.4942     13.7094     14.0302     15.4736    148.2307
  1379.0000    -40.0131     13.5745     13.8104     15.1563    146.1317
  1379.2500    -38.7454     13.4664     13.6579     14.9204    145.7491
  1379.5000    -37.7538     13.3806     13.5688     14.8219    146.8140
  1379.7500    -37.0304     13.3113     13.5365     14.9007    148.3617
  1380.0000    -36.5095     13.2527     13.5507     15.1681    151.6155
  1380.2500    -36.1018     13.1998     13.5979     15.6007    154.0883
  1380.5000    -35.7243     13.1485     13.6619     16.1419    156.8465
  1380.7500    -35.3325     13.0963     13.7248     16.7128    157.0484
  1381.0000    -34.9430     13.0416     13.7693     17.2270    154.2877
  1381.2500    -34.6254     12.9844     13.7809     17.6071    151.0132
  1381.5000    -34.4827     12.9251     13.7508     17.7970    145.9064
  1381.7500    -34.6126     12.8652     13.6767     17.7688    143.4380
  1382.0000    -35.0611     12.8064     13.5633     17.5244    142.1337
  1382.2500    -35.7926     12.7511     13.4214     17.0934    142.8465
  1382.5000    -36.6882     12.7014     13.2645     16.5266    145.5344
  1382.7500    -37.5805     12.6590     13.1073     15.8896    147.9721
  1383.0000    -38.2979     12.6247     12.9625     15.2532    152.4544
  1383.2500    -38.7138     12.5985     12.8402     14.6841    156.0092
  1383.5000    -38.7717     12.5798     12.7468     14.2369    161.4210
  1383.7500    -38.4741     12.5679     12.6856     13.9476    164.1747
  1384.0000    -37.8544     12.5628     12.6572     13.8298    165.8910
  1384.2500    -36.9356     12.5659     12.6606     13.8739    165.5373
  1384.5000    -35.7137     12.5798     12.6944     14.0502    163.9992
  1384.7500    -34.1602     12.6085     12.7575     14.3157    163.0081
  1385.0000    -32.2558     12.6565     12.8498     14.6255    161.7620
  1385.2500    -30.0190     12.7279     12.9725     14.9428    160.6301
  1385.5000    -27.5304     12.8261     13.1278     15.2475    157.6986
  1385.7500    -24.9299     12.9527     13.3181     15.5378    154.9597
  1386.0000    -22.3961     13.1083     13.5457     15.8259    150.5704
  1386.2500    -20.1121     13.2924     13.8121     16.1316    148.0889
  1386.5000    -18.2342     13.5045     14.1178     16.4746    145.6816
  1386.7500    -16.8723     13.7446     14.4628     16.8734    144.9669
  1387.0000    -16.0776     14.0132     14.8464     17.3453    144.8428
  1387.2500    -15.8421     14.3118     15.2682     17.9091    145.0681
  1387.5000    -16.0999     14.6414     15.7279     18.5838    145.2560
  1387.7500    -16.7422     15.0019     16.2248     19.3844    144.9831
  1388.0000    -17.6316     15.3901     16.7568     20.3121    143.7509
  1388.2500    -18.6267     15.7990     17.3195     21.3457    142.3805
  1388.5000    -19.6120     16.2176     17.9048     22.4365    139.6180
  1388.7500    -20.5118     16.6318     18.5010     23.5113    137.5161
  1389.0000    -21.2973     17.0273     19.0938     24.4842    134.6668
  1389.2500    -21.9700     17.3926     19.6686     25.2744    133.4020
  1389.5000    -22.5438     17.7219     20.2131     25.8245    132.8201
  1389.7500    -23.0226     18.0170     20.7200     26.1151    133.2174
  1390.0000    -23.3934     18.2857     21.1886     26.1701    134.5788
  1390.2500    -23.6360     18.5392     21.6243     26.0552    135.7702
  1390.5000    -23.7349     18.7873     22.0362     25.8688    137.5637
  1390.7500    -23.6945     19.0349     22.4342     25.7305    138.4767
  1391.0000    -23.5385     19.2789     22.8265     25.7685    139.1056
  1391.2500    -23.2991     19.5076     23.2167     26.1076    139.0196
  1391.5000    -22.9929     19.7032     23.6026     26.8549    138.3039
  1391.7500    -22.6005     19.8458     23.9761     28.0790    137.6655
  1392.0000    -22.0656     19.9186     24.3231     29.7789    136.8703
  1392.2500    -21.3006     19.9130     24.6247     31.8526    136.2888
  1392.5000    -20.2214     19.8304     24.8585     34.0791    134.2109
  1392.7500    -18.7824     19.6819     25.0006     36.1354    131.5160
  1393.0000    -17.0100     19.4854     25.0290     37.6574    126.2231
  1393.2500    -15.0129     19.2613     24.9273     38.3350    123.0406
  1393.5000    -12.9817     19.0292     24.6892     38.0062    120.5394
  1393.7500    -11.1511     18.8057     24.3198     36.7131    120.7283
  1394.0000     -9.7472     18.6029     23.8364     34.6888    123.7110
  1394.2500     -8.9324     18.4294     23.2652     32.2828    127.4265
  1394.5000     -8.7611     18.2901     22.6381     29.8564    134.9501
  1394.7500     -9.1644     18.1873     21.9881     27.6907    140.2044
  1395.0000     -9.9668     18.1214     21.3466     25.9400    146.2565
  1395.2500    -10.9354     18.0911     20.7416     24.6346    148.6034
  1395.5000    -11.8429     18.0950     20.1976     23.7211    150.7242
  1395.7500    -12.5321     18.1315     19.7360     23.1154    152.1485
  1396.0000    -12.9491     18.1991     19.3751     22.7520    154.6812
  1396.2500    -13.1515     18.2970     19.1313     22.6373    156.1599
  1396.5000    -13.2722     18.4245     19.0185     22.9041    157.3335
  1396.7500    -13.4707     18.5802     19.0483     23.8822    157.4364
  1397.0000    -13.8731     18.7608     19.2296     26.1812    156.9957
  1397.2500    -14.5275     18.9601     19.5691     30.7532    156.5016
  1397.5000    -15.3874     19.1682     20.0693     38.8884    155.6329
  1397.7500    -16.3214     19.3712     20.7280     52.0732    154.8733
  1398.0000    -17.1569     19.5518     21.5352     71.6697    152.2352
  1398.2500    -17.7282     19.6917     22.4696     98.4228    147.9698
  1398.5000    -17.9355     19.7742     23.4933    131.8975    135.2427
  1398.7500    -17.7742     19.7871     24.5468    170.0418    122.3285
  1399.0000    -17.3438     19.7244     25.5454    209.1095     99.0700
  1399.2500    -16.8203     19.5875     26.3830    244.1105     83.5470
  1399.5000    -16.4127     19.3826     26.9454    269.7790     63.8993
  1399.7500    -16.3058     19.1196     27.1351    281.8304     54.2681
  1400.0000    -16.6230     18.8085     26.9009    278.1041     45.1768
  1400.2500    -17.4056     18.4586     26.2563    259.1805     42.2887
  1400.5000    -18.6271     18.0776     25.2776    228.2326     42.0300
  1400.7500    -20.2048     17.6722     24.0797    190.1600     44.3946
  1401.0000    -22.0269     17.2489     22.7847    150.3266     51.5664
  1401.2500    -23.9601     16.8152     21.4966    113.3456     58.3478
  1401.5000    -25.8600     16.3799     20.2890     82.2834     69.9071
  1401.7500    -27.5765     15.9527     19.2053     58.4412     77.4014
  1402.0000    -28.9728     15.5436     18.2644     41.6342     87.1737
  1402.2500    -29.9498     15.1626     17.4687     30.7427     92.7895
  1402.5000    -30.4698     14.8179     16.8111     24.2817    100.7155
  1402.7500    -30.5607     14.5168     16.2799     20.8229    106.0503
  1403.0000    -30.2974     14.2643     15.8619     19.2162    114.0145
  1403.2500    -29.7707     14.0638     15.5449     18.6429    118.8156
