~Version Information
VERS.                      2.0: CWLS Log ASCII Standard - VERSION 2.0
WRAP.                       NO: One line per depth step
~Well Information Block
STRT.FT                 0.5000: 
STOP.FT              1575.0000: 
STEP.FT                 0.2500: 
NULL.                -999.2500: 
COMP.          Evergreen Operating Corporation: COMPANY
WELL.                Eric 42-9: WELL
FLD.           Purgatorie River: FIELD
LOC.           2050' FNL & 850' FEL: LOCATION
PROV.                 Colorado: PROVINCE
CNTY.               Las Animas: COUNTRY
SRVC.                         : SERVICE COMPANY
DATE.          Tue Nov 09 16:28:59 2004: LOG DATE
UWI.           05 071 07999 00: UNIQUE WELL ID
~Curve Information Block
DEPT.FT            0 000 00 00: Depth
LTEN.lb                       : Surface Line Tension
TT3.usec                      : CBL 3' Travel Time
AMP3.mV                       : CBL 3' Amplitude
ATT3.db/ft                    : CBL 3' Attenuation
GR.GAPI                       : Gamma Ray
CCL.                          : Casing Collar Locator
~Parameter Information Block
~A  Depth       LTEN        TT3         AMP3        ATT3         GR         CCL     
# ...
   504.5000    486.9121    798.0839      5.5637     -8.2100     69.4313      0.0000
   504.7500    490.6504    799.9271      5.5998     -8.1912     70.9000      0.0000
   505.0000    492.4461    802.7112      5.6524     -8.1641     73.4502      0.0000
   505.2500    491.7555    809.1895      5.6983     -8.1408     76.7103      0.0000
   505.5000    488.7882    819.8065      5.6839     -8.1481     79.8993      0.0000
   505.7500    484.5024    833.1909      5.5769     -8.2031     81.9134      0.0000
   506.0000    480.4281    846.5154      5.4087     -8.2917     81.6697      0.0000
   506.2500    477.8633    855.7123      5.2558     -8.3748     78.7624      0.0000
   506.5000    477.0980    857.5253      5.1730     -8.4208     74.0212      0.0000
   506.7500    477.7697    852.5307      5.1518     -8.4327     69.5189      0.0000
   507.0000    479.7558    845.4749      5.1412     -8.4386     67.8849      0.0000
   507.2500    483.0645    841.8240      5.0964     -8.4640     70.9812      0.0000
   507.5000    486.9820    843.9387      5.0069     -8.5153     78.5584     -3.0000
   507.7500    490.0939    850.1971      4.9035     -8.5757     88.0189      0.0000
   508.0000    491.2510    856.6484      4.8517     -8.6064     95.7366      0.0000
   508.2500    490.1084    859.2638      4.9209     -8.5654     99.0384      0.0000
   508.5000    487.2047    855.8926      5.1281     -8.4460     97.3744      0.0000
   508.7500    484.2641    846.9963      5.4061     -8.2931     91.9776      0.0000
   509.0000    483.7342    834.7449      5.6465     -8.1672     84.5765      0.0000
   509.2500    486.7124    821.7448      5.7778     -8.1006     76.3701      0.0000
   509.5000    491.4232    810.3856      5.7899     -8.0946     67.9945      0.0000
   509.7500    494.7372    802.2477      5.7007     -8.1395     60.0406      0.0000
   510.0000    495.1448    797.5359      5.5340     -8.2254     53.2482      0.0000
   510.2500    493.5324    795.3369      5.3280     -8.3353     48.3218      0.0000
   510.5000    491.5294    794.5308      5.1326     -8.4435     45.7356      0.0000
   510.7500    490.1465    794.3820      4.9831     -8.5290     45.4091      0.0000
   511.0000    489.7653    794.5534      4.8841     -8.5871     46.4189      0.0000
   511.2500    490.4218    794.8814      4.8260     -8.6218     47.4115      0.0000
   511.5000    491.9574    795.2335      4.8117     -8.6304     47.5822      0.0000
   511.7500    494.2233    795.4954      4.8568     -8.6034     47.2189      0.0000
   512.0000    497.0201    795.6473      4.9618     -8.5414     47.4169      0.0000
   512.2500    499.6902    795.7736      5.0893     -8.4680     49.4568      0.0000
   512.5000    501.2789    795.9752      5.1789     -8.4175     54.3011      0.0000
   512.7500    501.3340    796.2608      5.1962     -8.4078     62.3163      0.0000
   513.0000    500.1781    796.5117      5.1656     -8.4249     73.1982      0.0000
   513.2500    498.4198    796.5582      5.1430     -8.4376     86.0750      0.0000
   513.5000    496.5699    796.3257      5.1579     -8.4292     99.5616      0.0000
   513.7500    494.9290    795.9017      5.1902     -8.4111    111.7649      0.0000
   514.0000    493.4619    795.4427      5.2025     -8.4043    120.8504      0.0000
   514.2500    491.9295    795.0460      5.1812     -8.4162    126.3042      0.0000
   514.5000    490.4614    794.7417      5.1456     -8.4361    129.4662      0.0000
   514.7500    489.9401    794.5677      5.1275     -8.4463    132.3237      0.0000
   515.0000    491.3573    794.5768      5.1502     -8.4335    135.8830      0.0000
   515.2500    494.3468    794.7574      5.2214     -8.3938    139.8870      0.0000
   515.5000    496.6868    794.9930      5.3294     -8.3345    143.6493      0.0000
   515.7500    496.0763    795.1401      5.4397     -8.2752    146.6265      0.0000
   516.0000    492.4323    795.1770      5.5085     -8.2388    148.3543      0.0000
   516.2500    487.7773    795.2926      5.5135     -8.2362    148.3789      0.0000
   516.5000    484.1181    795.8514      5.4676     -8.2604    146.5286      0.0000
   516.7500    482.2235    797.2196      5.3973     -8.2978    143.1822      0.0000
   517.0000    482.2928    799.4550      5.3174     -8.3411    138.9944      0.0000
   517.2500    484.8652    802.1238      5.2331     -8.3873    134.1588      0.0000
   517.5000    490.4520    804.6599      5.1588     -8.4287    128.2087      0.0000
   517.7500    498.2342    806.9196      5.1267     -8.4468    120.8951      0.0000
   518.0000    505.5208    808.9056      5.1808     -8.4164    113.0197      0.0000
   518.2500    509.1394    809.8994      5.3531     -8.3217    105.9702      0.0000
   518.5000    507.7728    808.6957      5.6247     -8.1784    100.6401      0.0000
   518.7500    502.8894    805.0661      5.9060     -8.0371     97.2509      0.0000
   519.0000    497.3201    800.3287      6.0772     -7.9544     96.1156      0.0000
   519.2500    493.0094    796.1611      6.0725     -7.9566     98.2041      0.0000
   519.5000    490.2107    793.3034      5.9252     -8.0277    104.7205      0.0000
   519.7500    488.5403    791.5560      5.7270     -8.1262    115.8610      0.0000
   520.0000    488.0514    790.5486      5.5550     -8.2145    129.7679      0.0000
   520.2500    488.8870    790.3747      5.4417     -8.2741    142.8790      0.0000
   520.5000    490.6684    791.7359      5.3987     -8.2971    151.7675      0.0000
   520.7500    493.0419    795.3013      5.4411     -8.2744    155.0688      0.0000
   521.0000    496.2248    800.4149      5.5735     -8.2048    154.0276      0.0000
   521.2500    500.1151    804.6947      5.7623     -8.1084    151.3522      0.0000
   521.5000    503.4770    805.7983      5.9475     -8.0168    149.3110      0.0000
   521.7500    505.0576    803.6005      6.0903     -7.9481    148.5626      0.0000
   522.0000    504.9533    800.0327      6.1951     -7.8987    148.4825      0.0000
   522.2500    503.8329    797.1074      6.2834     -7.8578    148.2718      0.0000
   522.5000    501.4533    795.7615      6.3608     -7.8223    147.6761      0.0000
   522.7500    497.2311    796.4603      6.4108     -7.7996    146.7906      0.0000
   523.0000    492.0489    800.3700      6.4113     -7.7994    145.5109      0.0000
   523.2500    488.3138    809.7640      6.3575     -7.8238    143.4465      0.0000
   523.5000    487.9638    826.6202      6.2641     -7.8667    140.4255      0.0000
   523.7500    490.7955    849.3474      6.1414     -7.9239    136.9975      0.0000
   524.0000    494.7321    870.3622      5.9874     -7.9974    134.1036      0.0000
   524.2500    497.4697    879.1606      5.8118     -8.0837    132.0645      0.0000
   524.5000    497.8318    870.6160      5.6556     -8.1625    130.2636      0.0000
   524.7500    496.0036    850.2675      5.5757     -8.2037    128.1636      0.0000
   525.0000    493.1662    829.7975      5.6038     -8.1891    126.3775      0.0000
   525.2500    490.8871    817.4122      5.7132     -8.1332    126.3442      0.0000
   525.5000    489.9372    813.1141      5.8180     -8.0806    129.0677      0.0000
   525.7500    489.4353    811.9419      5.8244     -8.0773    134.4234      0.0000
   526.0000    487.8657    810.0022      5.7055     -8.1371    141.3921      0.0000
   526.2500    485.0176    807.0647      5.5235     -8.2310    148.4399      0.0000
   526.5000    482.1786    804.5413      5.3669     -8.3142    153.7885      0.0000
   526.7500    480.4917    802.9055      5.2747     -8.3644    155.8349      0.0000
   527.0000    479.9754    801.7346      5.2292     -8.3895    153.5737      0.0000
   527.2500    480.1454    800.8918      5.2060     -8.4023    146.8069      0.0000
   527.5000    480.7102    800.3245      5.2077     -8.4014    136.2795      0.0000
   527.7500    481.4086    799.3092      5.2507     -8.3776    123.4535      0.0000
   528.0000    481.9015    796.9003      5.3410     -8.3282    109.7195      0.0000
   528.2500    482.3427    792.8022      5.4625     -8.2631     95.9476      0.0000
