~Version Information
VERS.                      2.0: CWLS Log ASCII Standard - VERSION 2.0
WRAP.                       NO: One line per depth step
~Well Information Block
STRT.FT               866.0000: 
STOP.FT              2029.0000: 
STEP.FT                 0.2500: 
NULL.                -999.2500: 
COMP.          Petrogulf Corporation: COMPANY
WELL.             State 16-21R: WELL
FLD.           Purgatorie River: FIELD
LOC.           203' FNL & 1560' FWL: LOCATION
PROV.                 Colorado: PROVINCE
CNTY.               Las Animas: COUNTRY
SRVC.                Patterson: SERVICE COMPANY
DATE.          Tue Aug 16 12:55:36 2005: LOG DATE
UWI.                071 08313 : UNIQUE WELL ID
~Curve Information Block
DEPT.FT            0 000 00 00: Depth
SP.mV                         : DIL Spontaneous Potential
RILD.Ohm-m                    : DIL Deep Resistivity
RILM.Ohm-m                    : DIL Medium Resistivity
RLL3.Ohm-m                    : DIL Shallow Resistivity
GR.GAPI                       : Gamma Ray
~Parameter Information Block
~A  Depth        SP         RILD        RILM        RLL3         GR     
# ...
  1482.0000     96.4197     20.7128     23.0536     31.1791    110.2464
  1482.2500     96.9694     20.2192     22.1881     32.3451    105.1676
  1482.5000     96.8831     20.3090     21.6800     31.2822    100.9225
  1482.7500     96.6603     20.0385     21.5632     29.8303    101.8494
  1483.0000     96.3596     20.5283     21.7057     27.6681     98.8633
  1483.2500     96.5762     20.8511     21.7127     27.5953    101.8006
  1483.5000     97.0128     20.9346     21.6430     30.7821    105.6144
  1483.7500     97.5648     21.2673     21.8746     29.5852     98.6824
  1484.0000     97.9942     21.4688     22.4775     25.3365     97.6042
  1484.2500     98.3792     21.5489     22.6234     26.5578     91.2538
  1484.5000     98.8227     21.7805     23.3582     33.7491     92.9155
  1484.7500     99.6687     21.7488     24.4915     40.8651     88.0125
  1485.0000    101.1798     21.6379     25.4681     41.7469     90.0731
  1485.2500    102.7550     21.3562     25.7051     39.0631     88.8997
  1485.5000    103.7417     21.3257     25.9259     37.6680     96.0282
  1485.7500    104.3984     20.5768     25.7731     38.1019     93.9994
  1486.0000    104.7447     20.7921     25.2442     40.5179     96.2842
  1486.2500    104.7607     21.7305     25.2122     40.4960    101.4372
  1486.5000    104.7402     22.3920     24.5230     37.2866    111.2632
  1486.7500    104.7159     22.8362     23.0604     33.4950    117.6983
  1487.0000    104.4165     23.4995     22.9095     27.0956    118.4272
  1487.2500    103.8291     24.1026     23.1234     21.4408    113.3545
  1487.5000    103.4688     24.8008     23.6803     21.9408    100.7707
  1487.7500    103.3992     24.6141     24.8158     27.1134     91.0354
  1488.0000    103.8390     24.0556     27.8292     35.7585     74.3542
  1488.2500    104.3257     23.3648     30.8013     53.3278     62.3126
  1488.5000    105.0225     22.5145     32.1453     88.8446     50.5467
  1488.7500    105.8020     21.2828     31.9683    142.3335     48.1656
  1489.0000    106.7411     20.7360     30.4613    178.5636     58.8497
  1489.2500    108.0514     20.2749     27.5610    159.8468     70.0978
  1489.5000    109.8830     20.0111     24.5209    106.4727     88.9898
  1489.7500    111.5950     20.6769     22.0561     50.2356    102.2079
  1490.0000    112.8098     20.1932     20.2499     26.0909    110.4065
  1490.2500    113.7623     20.3128     19.2710     20.0110     97.5250
  1490.5000    114.3147     20.0695     19.0352     19.1542     99.8450
  1490.7500    115.0032     19.8400     19.3386     20.6089    101.2528
  1491.0000    115.3894     19.5230     19.5527     23.3101     94.6086
  1491.2500    115.8212     18.8397     19.4727     25.0213     98.9007
  1491.5000    115.7595     18.2611     19.1655     24.2692     99.8036
  1491.7500    115.1796     17.7689     19.2150     23.5028     99.2723
  1492.0000    115.1035     16.9220     19.1167     23.8988     95.0336
  1492.2500    115.0497     16.7758     19.2019     25.4452     92.1233
  1492.5000    115.1066     16.4098     19.4416     26.6456     90.9358
  1492.7500    115.4700     16.3300     19.3049     27.7512     95.7239
  1493.0000    115.7096     16.0689     19.3462     29.3507     98.4076
  1493.2500    115.8365     16.0134     19.1047     29.1098     95.8836
  1493.5000    115.9909     15.8756     18.8973     26.5724    102.3621
  1493.7500    116.2643     15.5477     18.8598     24.8921    105.1597
  1494.0000    116.8205     15.3517     18.7471     25.0680    110.3804
  1494.2500    117.8742     15.1619     18.3359     26.9238    109.0661
  1494.5000    119.1412     15.0832     17.5310     27.7203    123.5591
  1494.7500    120.0255     14.8926     16.7157     25.4679    122.0288
  1495.0000    120.3778     14.4467     15.6733     21.4055    123.7991
  1495.2500    120.0188     14.4850     14.7501     17.9601    125.8696
  1495.5000    119.0276     14.0870     14.2845     16.8488    130.2319
  1495.7500    117.1761     14.1134     13.6284     16.2123    131.5816
  1496.0000    114.7790     14.1244     13.2732     15.8789    130.9653
  1496.2500    112.4050     14.1410     13.1583     15.4279    128.0372
  1496.5000    110.9258     14.2160     13.2266     14.8605    138.1694
  1496.7500    110.1855     14.4693     13.4263     15.1924    135.6385
  1497.0000    110.1301     14.6664     13.6396     16.1049    122.3750
  1497.2500    109.7953     14.7101     14.4785     17.1069    121.3143
  1497.5000    109.4692     15.1473     15.2086     18.9887    117.6801
  1497.7500    109.2838     15.7847     16.2057     21.5646    106.7773
  1498.0000    109.0564     16.1286     17.2463     24.8034    101.6186
  1498.2500    109.4221     16.4819     18.4980     29.0351     93.5650
  1498.5000    110.4426     16.6507     19.8241     33.8410     90.6370
  1498.7500    111.3447     17.1059     21.2352     38.3063     93.2203
  1499.0000    112.4539     17.0699     22.5417     40.4259     89.8364
  1499.2500    113.6282     17.1909     23.5671     40.3240     93.2889
  1499.5000    113.5909     17.1287     24.4344     41.7300     99.0197
  1499.7500    113.2512     17.0057     24.5895     42.3377    103.4150
  1500.0000    112.9512     16.8861     23.6393     39.8342    111.0608
  1500.2500    112.6907     16.0442     22.9399     34.3229    112.4785
  1500.5000    112.0365     15.2475     21.4267     27.9965    111.1603
  1500.7500    111.2247     14.3100     19.6310     25.8872    118.3154
  1501.0000    110.3600     13.1245     17.8230     25.8473    117.6588
  1501.2500    110.0993     12.4157     15.9770     25.5557    121.4297
  1501.5000    109.3206     11.5517     14.0766     23.9558    122.0307
  1501.7500    107.7122     10.8346     12.3624     19.1790    127.7357
  1502.0000    106.0561     10.2914     11.1693     13.5594    144.6666
  1502.2500    105.0135      9.6892     10.3951     11.4401    146.9959
  1502.5000    104.6202      9.1908      9.6846     11.3907    139.1700
  1502.7500    104.8572      8.7637      9.2152     12.0000    138.9280
  1503.0000    105.6744      8.4842      8.8377     12.9774    143.6746
  1503.2500    106.4771      8.3916      8.5166     13.0672    142.1950
  1503.5000    107.3887      8.2995      8.2135     12.3889    133.8985
  1503.7500    108.0949      8.1682      7.9846     11.4057    136.9416
  1504.0000    108.3201      8.2211      7.9431     11.3707    142.3883
  1504.2500    109.1030      8.3394      8.0511     12.1121    140.8869
  1504.5000    110.9186      8.6131      8.2821     12.9148    134.6228
  1504.7500    112.8557      9.0059      8.7411     13.2812    128.3788
  1505.0000    114.3735      9.4099      9.2181     14.1802    130.1374
  1505.2500    115.2693      9.9195      9.9212     15.5163    119.8663
  1505.5000    116.2317     10.4704     10.8330     17.4735    104.4408
  1505.7500    117.8263     11.0594     11.9934     21.2881     89.0159
  1506.0000    120.3251     11.8456     13.3607     32.5855     77.5111
  1506.2500    122.9672     12.4596     15.1008     62.5691     73.2910
  1506.5000    125.8395     13.5121     16.6194    109.3886     74.7133
  1506.7500    128.8568     14.4868     17.7228    109.6582     79.6625
  1507.0000    132.1655     15.7170     18.1784     56.7126     94.5641
  1507.2500    134.8295     16.7144     19.1263     30.4242     96.9682
  1507.5000    136.1131     17.7692     19.9843     27.2129     97.0995
  1507.7500    135.9849     18.8454     20.8286     30.5477     97.1278
  1508.0000    135.4755     20.1835     22.2598     31.9651     96.8794
  1508.2500    135.4680     21.3049     23.1294     33.2724    109.0942
  1508.5000    136.0811     21.7762     24.2442     34.6322    108.3817
  1508.7500    136.5121     21.9385     25.4609     35.1611    101.0512
  1509.0000    136.4157     21.8065     25.6236     34.8274    108.9912
  1509.2500    135.7987     21.2476     26.4906     32.9808    107.1891
  1509.5000    134.8366     20.3712     26.3938     33.9629     98.5400
  1509.7500    133.3644     19.6854     27.0439     40.0420     93.7410
