~Version Information
 VERS.                                  2.0 : CWLS LAS VERSION
 WRAP.                                   NO : WRAPING MODE
 SWARE .                 MController 2.5.0J : SOFTWARE VERSION
~Well Information
 WELL.                       Ei-Ei-Oh 31-24 : WELL
 COMP.    Pioneer Natural Resources USA Inc : COMPANY
 FLD.                      Purgatoire River : FIELD
 LOC.                NW/NE Sec 24 T32S R67W : LOCATION
 DATE.                         6/12-13/2005 : DATE(S) LOGGED
 SRVC.       Blanco Geological Services LLC : SERVICE COMPANY
 STAT.                                   CO : STATE
 CNTY.                           Las Animas : COUNTY
 CTRY.                                  USA : COUNTRY
 API.                       05-071-08403-00 : API NUMBER
 STRT.FT                             436.00 : START DEPTH
 STOP.FT                            2853.00 : STOP DEPTH
 STEP.FT                               1.00 : DEPTH INCREMENT
 NULL.                                -9999 : NULL VALUE
~Curve information
 DEPTH.FT                                   :
 ROP.MIN/FT                                 :
 GAS.UNITS                                  :
~ASCII Log data
# ...
       836.0         3.32         13.1 
       837.0         0.33          2.4 
       838.0         0.23          2.9 
       839.0         0.23          4.8 
       840.0         0.20          9.2 
       841.0         0.20         16.8 
       842.0         0.17         20.5 
       843.0         0.22         26.4 
       844.0         0.17         30.4 
       845.0         0.17         34.2 
       846.0         0.17         35.9 
       847.0         0.17         37.4 
       848.0         0.17         38.7 
       849.0         0.17         38.9 
       850.0         0.20         39.6 
       851.0         0.17         39.9 
       852.0         0.20         38.6 
       853.0         0.17         38.1 
       854.0         0.17         36.9 
       855.0         0.20         34.6 
       856.0         0.20         32.6 
       857.0         0.17         28.5 
       858.0         0.20         26.1 
       859.0         0.20         22.8 
       860.0         0.17         19.7 
       861.0         0.20         18.3 
       862.0         0.25         17.4 
       863.0         0.20         14.5 
       864.0         0.23         12.0 
       865.0         0.20         10.3 
       866.0         2.20          9.5 
       867.0         0.38          4.5 
       868.0         0.23          3.9 
       869.0         0.27          4.1 
       870.0         0.23          4.4 
       871.0         0.23          4.9 
       872.0         0.23          6.6 
       873.0         0.20          7.4 
       874.0         0.20          9.0 
       875.0         0.20         11.5 
       876.0         0.20         13.3 
       877.0         0.20         16.0 
       878.0         0.17         17.6 
       879.0         0.17         18.5 
       880.0         0.17         18.6 
       881.0         0.20         18.7 
       882.0         0.22         18.6 
       883.0         0.17         17.4 
       884.0         0.20         17.5 
       885.0         0.20         17.6 
       886.0         0.20         15.8 
       887.0         0.17         15.3 
       888.0         0.20         13.6 
       889.0         0.17         12.8 
       890.0         0.17         12.1 
       891.0         0.23         10.9 
       892.0         0.17         10.8 
       893.0         0.20          9.8 
       894.0         0.23          8.8 
       895.0         0.13          6.3 
       896.0         1.38          5.7 
       897.0         0.23          4.3 
       898.0         0.33          4.2 
       899.0         0.27          3.6 
       900.0         0.20          4.0 
       901.0         0.20          3.2 
       902.0         0.20          2.9 
       903.0         0.17          3.6 
       904.0         0.20          3.8 
       905.0         0.17          4.1 
       906.0         0.17          3.1 
       907.0         0.17          2.8 
       908.0         0.17          2.8 
       909.0         0.18          2.3 
       910.0         0.20          2.6 
       911.0         0.13          2.2 
       912.0         0.20          2.6 
       913.0         0.17          2.6 
       914.0         0.17          2.6 
       915.0         0.17          2.5 
       916.0         0.17          2.6 
       917.0         0.20          2.8 
       918.0         0.17          2.0 
       919.0         0.17          1.6 
       920.0         0.17          1.5 
       921.0         0.17          1.7 
       922.0         0.17          2.1 
       923.0         0.20          2.5 
       924.0         0.23          2.2 
       925.0         0.20          2.5 
       926.0         1.92         28.4 
       927.0         0.37         64.6 
       928.0         0.30         74.0 
       929.0         0.27         73.0 
       930.0         0.27         60.9 
       931.0         0.20         43.6 
       932.0         0.23         31.0 
       933.0         0.25         20.7 
       934.0         0.20         12.7 
       935.0         0.20          9.4 
       936.0         0.17          5.7 
       937.0         0.20          4.6 
       938.0         0.17          3.0 
       939.0         0.20          2.6 
       940.0         0.20          2.7 
       941.0         0.17          2.4 
       942.0         0.20          2.8 
       943.0         0.17          2.9 
       944.0         0.23          3.1 
       945.0         0.23          3.3 
       946.0         0.20          3.4 
       947.0         0.17          2.8 
       948.0         0.20          2.5 
       949.0         0.20          2.6 
       950.0         0.32          4.4 
       951.0         0.17          3.5 
       952.0         0.17          3.4 
       953.0         0.17          2.7 
       954.0         0.17          2.9 
       955.0         0.20          3.4 
       956.0         5.50         44.3 
       957.0         0.37         77.1 
       958.0         0.33         90.0 
       959.0         0.23         87.9 
       960.0         0.23         74.4 
       961.0         0.27         55.3 
       962.0         0.20         35.4 
       963.0         0.20         24.2 
       964.0         0.20         17.5 
       965.0         0.20         11.8 
       966.0         0.23          9.1 
       967.0         0.20          7.0 
       968.0         0.23          5.7 
       969.0         0.42          5.2 
       970.0         0.33          5.4 
       971.0         0.27          4.5 
       972.0         0.17          4.3 
       973.0         0.17          5.1 
       974.0         0.20          4.7 
       975.0         0.23          5.0 
       976.0         0.23          4.9 
       977.0         0.23          5.4 
       978.0         0.40          6.1 
       979.0         0.23          6.6 
       980.0         0.20          6.7 
       981.0         0.20          6.4 
       982.0         0.23          5.8 
       983.0         0.28          6.1 
       984.0         0.33          7.4 
       985.0         0.40          6.7 
       986.0        30.08         43.6 
       987.0         0.47        112.0 
       988.0         0.30        129.5 
       989.0         0.30        128.2 
       990.0         0.42        103.1 
       991.0         0.23         58.9 
       992.0         0.20         40.8 
       993.0         0.23         28.1 
       994.0         0.20         19.4 
       995.0         0.20         15.5 
       996.0         0.27         10.8 
       997.0         0.20          9.0 
       998.0         0.20          8.1 
       999.0         0.33          7.7 
      1000.0         0.20          6.5 
      1001.0         0.20          6.1 
      1002.0         0.17          6.1 
      1003.0         0.30          5.7 
      1004.0         0.22          5.9 
      1005.0         0.23          5.4 
      1006.0         0.23          5.6 
      1007.0         0.23          5.1 
      1008.0         0.23          5.3 
      1009.0         0.23          5.8 
      1010.0         0.17          6.2 
      1011.0         0.17          6.5 
      1012.0         0.20          5.8 
      1013.0         0.17          5.9 
      1014.0         0.17          5.9 
      1015.0         0.20          5.5 
      1016.0         2.38         13.6 
      1017.0         0.33         20.1 
      1018.0         0.30         44.3 
      1019.0         0.33         95.6 
      1020.0         0.33        141.1 
      1021.0         0.30        148.7 
      1022.0         0.27        144.2 
      1023.0         0.25        116.5 
      1024.0         0.20         85.3 
      1025.0         0.23         61.4 
      1026.0         0.23         42.1 
      1027.0         0.20         28.4 
      1028.0         0.20         22.1 
      1029.0         0.20         15.7 
      1030.0         0.20         12.1 
      1031.0         0.23         10.2 
      1032.0         0.20          9.1 
      1033.0         0.17          8.4 
      1034.0         0.23          6.9 
      1035.0         0.17          6.6 
