~Version Information
VERS.                      2.0: CWLS Log ASCII Standard - VERSION 2.0
WRAP.                       NO: One line per depth step
~Well Information Block
STRT.FT               430.0000: 
STOP.FT              2417.0000: 
STEP.FT                 0.1000: 
NULL.                -999.2500: 
COMP.          Evergreen Operating Corporation: COMPANY
WELL.          McCullough 34-32: WELL
FLD.           Purgatorie River: FIELD
LOC.           261' FSL & 2098' FEL: LOCATION
PROV.                 Colorado: PROVINCE
CNTY.               Las Animas: COUNTRY
SRVC.                Patterson: SERVICE COMPANY
DATE.          Mon May 17 11:25:23 2004: LOG DATE
UWI.           05 071 07953 00: UNIQUE WELL ID
~Curve Information Block
DEPT.FT            0 000 00 00: Depth
DCAL.in                       : CDL Caliper
RHOB.g/cc                     : CDL Bulk Density
RHOC.g/cc                     : CDL Density Correction
DPOR.pu                       : CDL Density Porosity
NPOR.pu                       : Neutron Porosity
GR.GAPI                       : Gamma Ray
~Parameter Information Block
~A  Depth       DCAL        RHOB        RHOC        DPOR        NPOR         GR     
# ...
  1994.8000      8.0771      2.5844      0.1263      3.9775     16.3389     85.6614
  1994.9000      8.0771      2.5695      0.0520      4.8775     16.3122     77.6753
  1995.0000      8.0900      2.5631      0.1537      5.2692     15.9146     72.7841
  1995.1000      8.0900      2.5569      0.1404      5.6399     15.3478     68.4177
  1995.2000      8.0900      2.5441      0.0981      6.4211     14.9953     65.4026
  1995.3000      8.1154      2.5346      0.1053      6.9957     14.9183     65.5008
  1995.4000      8.1154      2.5328      0.1012      7.1030     14.9052     64.9819
  1995.5000      8.1191      2.5285      0.1202      7.3647     14.8274     61.5057
  1995.6000      8.1191      2.5155      0.0860      8.1529     14.8388     55.4913
  1995.7000      8.1191      2.5026      0.0457      8.9330     15.0802     49.2960
  1995.8000      8.1158      2.4967      0.0884      9.2915     15.3349     48.9832
  1995.9000      8.1158      2.4959      0.0812      9.3380     15.2626     54.9490
  1996.0000      8.1103      2.5017      0.0530      8.9862     14.9762     58.4959
  1996.1000      8.1103      2.5082      0.1030      8.5919     14.8620     55.9464
  1996.2000      8.1103      2.5004      0.0848      9.0657     15.0857     53.2477
  1996.3000      8.1222      2.4813      0.0525     10.2261     15.4924     53.6620
  1996.4000      8.1222      2.4675      0.0559     11.0598     15.8705     53.4663
  1996.5000      8.1239      2.4638      0.0981     11.2835     16.1904     51.3484
  1996.6000      8.1239      2.4719      0.0349     10.7960     16.2705     50.8563
  1996.7000      8.1239      2.4988      0.0625      9.1616     16.0397     53.4656
  1996.8000      8.1230      2.5276      0.1230      7.4176     15.9313     57.1332
  1996.9000      8.1230      2.5271      0.1344      7.4492     16.0004     59.9766
  1997.0000      8.1163      2.4998      0.0664      9.1010     15.9785     62.0941
  1997.1000      8.1163      2.4719      0.1006     10.7945     15.9251     63.4343
  1997.2000      8.1163      2.4595      0.0540     11.5430     15.8686     64.0076
  1997.3000      8.1169      2.4703      0.0538     10.8937     15.7354     62.3158
  1997.4000      8.1169      2.4941      0.0996      9.4495     15.7534     57.1950
  1997.5000      8.1190      2.5039      0.0995      8.8550     16.1237     51.5976
  1997.6000      8.1190      2.4856      0.0748      9.9645     16.4245     48.6341
  1997.7000      8.1190      2.4569      0.0508     11.7050     16.0400     48.6867
  1997.8000      8.0962      2.4467      0.0038     12.3191     15.2993     51.3037
  1997.9000      8.0962      2.4597      0.0616     11.5343     14.8499     53.3440
  1998.0000      8.0880      2.4748      0.0733     10.6190     14.8470     53.2713
  1998.1000      8.0880      2.4764      0.0909     10.5215     15.1457     54.2840
  1998.2000      8.0880      2.4655      0.0543     11.1799     15.3109     54.9054
  1998.3000      8.0690      2.4464      0.0784     12.3393     15.2294     52.0208
  1998.4000      8.0690      2.4234      0.0689     13.7358     15.3452     49.5671
  1998.5000      8.0677      2.4102      0.0646     14.5358     15.6965     49.8049
  1998.6000      8.0677      2.4148      0.0692     14.2521     16.0651     51.3458
  1998.7000      8.0677      2.4297      0.0514     13.3502     16.2352     52.0562
  1998.8000      8.0651      2.4517      0.0361     12.0183     15.9976     49.4711
  1998.9000      8.0651      2.4784      0.1187     10.3995     15.8067     44.9705
  1999.0000      8.0687      2.4975      0.0908      9.2438     16.1750     43.0160
  1999.1000      8.0687      2.5045      0.1268      8.8205     16.9364     45.5185
  1999.2000      8.0687      2.5046      0.1160      8.8107     17.5349     50.3918
  1999.3000      8.0676      2.5082      0.0829      8.5938     17.5359     54.8436
  1999.4000      8.0676      2.5146      0.1687      8.2077     17.0043     57.0540
  1999.5000      8.0701      2.5037      0.1220      8.8669     16.4340     57.0922
  1999.6000      8.0701      2.4683      0.1184     11.0108     16.3701     57.1657
  1999.7000      8.0701      2.4292      0.0484     13.3822     16.8989     57.0904
  1999.8000      8.0908      2.4093      0.0337     14.5854     17.4214     54.6041
  1999.9000      8.0908      2.4082      0.0332     14.6527     17.3046     50.6745
  2000.0000      8.0959      2.4138      0.0529     14.3146     16.7488     48.3790
  2000.1000      8.0959      2.4205      0.0882     13.9114     16.4786     48.9277
  2000.2000      8.0959      2.4263      0.1002     13.5578     16.5350     50.1415
  2000.3000      8.1064      2.4336      0.0619     13.1153     16.5970     50.8091
  2000.4000      8.1064      2.4397      0.0706     12.7429     17.1535     53.4307
  2000.5000      8.1013      2.4385      0.0979     12.8168     18.1613     59.8538
  2000.6000      8.1013      2.4463      0.0533     12.3445     18.5367     69.0676
  2000.7000      8.1013      2.4828      0.1089     10.1304     18.0383     76.7522
  2000.8000      8.0958      2.5306      0.1613      7.2347     17.3232     79.2315
  2000.9000      8.0958      2.5601      0.1700      5.4496     17.0083     80.6020
  2001.0000      8.0916      2.5668      0.1286      5.0398     17.2825     86.6010
  2001.1000      8.0916      2.5614      0.1498      5.3692     17.8609     94.0568
  2001.2000      8.0916      2.5529      0.0969      5.8860     18.3711     96.1220
  2001.3000      8.0855      2.5419      0.1313      6.5531     18.4870     92.7874
  2001.4000      8.0855      2.5202      0.0702      7.8653     18.0453     88.1537
  2001.5000      8.0569      2.4968      0.0604      9.2865     17.1981     86.1691
  2001.6000      8.0569      2.4936      0.0644      9.4784     16.3466     90.8490
  2001.7000      8.0569      2.5107      0.0895      8.4423     16.0428     99.8448
  2001.8000      8.1071      2.5281      0.0931      7.3866     16.2266    102.6359
  2001.9000      8.1071      2.5278      0.1298      7.4089     16.2388     93.9203
  2002.0000      8.1092      2.5080      0.0655      8.6039     15.9006     79.2733
  2002.1000      8.1092      2.4863      0.0646      9.9191     15.3996     65.8214
  2002.2000      8.1092      2.4751      0.0562     10.6000     15.0291     59.2713
  2002.3000      8.0994      2.4718      0.0685     10.7987     14.9487     60.1738
  2002.4000      8.0994      2.4648      0.1153     11.2218     14.7200     62.8219
  2002.5000      8.0932      2.4507      0.0638     12.0781     13.9485     64.7809
  2002.6000      8.0932      2.4485      0.0666     12.2141     13.1387     65.4176
  2002.7000      8.0932      2.4710      0.0972     10.8476     12.8687     62.6039
  2002.8000      8.0932      2.5000      0.1431      9.0937     12.8496     58.4605
  2002.9000      8.0932      2.5062      0.1388      8.7179     12.5910     55.8645
  2003.0000      8.0919      2.4916      0.0763      9.5973     12.3172     53.8967
  2003.1000      8.0919      2.4849      0.0645     10.0033     12.4597     51.0867
  2003.2000      8.0919      2.4941      0.0915      9.4470     12.7569     47.5925
  2003.3000      8.0877      2.5042      0.1038      8.8335     12.6624     45.6045
  2003.4000      8.0877      2.5097      0.0929      8.5038     12.2043     46.8549
  2003.5000      8.0874      2.5121      0.1180      8.3606     11.9170     49.6698
  2003.6000      8.0874      2.5057      0.0756      8.7472     12.0693     50.0107
  2003.7000      8.0874      2.4894      0.0817      9.7349     12.4210     46.2878
  2003.8000      8.0781      2.4698      0.0402     10.9238     12.5837     42.0375
  2003.9000      8.0781      2.4541      0.0727     11.8703     12.6131     40.4115
  2004.0000      8.0879      2.4506      0.0128     12.0834     12.7746     40.7276
  2004.1000      8.0879      2.4610      0.0550     11.4540     13.0047     43.9037
  2004.2000      8.0879      2.4733      0.0361     10.7113     13.1729     50.5500
  2004.3000      8.0849      2.4755      0.0693     10.5749     13.4108     55.0696
