~Version Information
VERS.                      2.0: CWLS Log ASCII Standard - VERSION 2.0
WRAP.                       NO: One line per depth step
~Well Information Block
STRT.FT               898.0000: 
STOP.FT              2359.2000: 
STEP.FT                 0.1000: 
NULL.                -999.2500: 
COMP.          Pioneer Natural Resources: COMPANY
WELL.             Trimax 44-23: WELL
FLD.           Purgatoire River: FIELD
LOC.           527' FSL & 1064' FEL: LOCATION
PROV.                 Colorado: PROVINCE
CNTY.               Las Animas: COUNTRY
SRVC.                Patterson: SERVICE COMPANY
DATE.          Mon Mar 14 07:28:19 2005: LOG DATE
UWI.           05 071 08326 00: UNIQUE WELL ID
~Curve Information Block
DEPT.FT            0 000 00 00: Depth
DCAL.in                       : CDL Caliper
RHOB.g/cc                     : CDL Bulk Density
RHOC.g/cc                     : CDL Density Correction
DPOR.pu                       : CDL Density Porosity
GR.GAPI                       : Gamma Ray
NPOR.pu                       : Neutron Porosity
~Parameter Information Block
~A  Depth       DCAL        RHOB        RHOC        DPOR         GR         NPOR    
# ...
  1867.6000      7.8808      2.5886      0.0528      3.7189    116.4784     25.4868
  1867.7000      7.8808      2.5919      0.0645      3.5225    115.1087     26.6236
  1867.8000      7.8740      2.5862      0.0432      3.8682    116.9164     27.6379
  1867.9000      7.8740      2.5683      0.0136      4.9504    119.0343     28.1085
  1868.0000      7.8755      2.5528      0.0086      5.8897    123.2165     27.7826
  1868.1000      7.8755      2.5521     -0.0073      5.9342    129.9232     26.7961
  1868.2000      7.8755      2.5649      0.0183      5.1596    133.5016     25.7511
  1868.3000      7.8761      2.5850      0.0048      3.9374    132.0997     25.2608
  1868.4000      7.8761      2.6023      0.0429      2.8904    129.2264     25.3929
  1868.5000      7.8796      2.6039      0.0640      2.7955    126.1302     25.7812
  1868.6000      7.8796      2.5924      0.0221      3.4920    124.1121     25.8894
  1868.7000      7.8796      2.5832      0.0403      4.0511    123.9201     25.3625
  1868.8000      7.8848      2.5846      0.0055      3.9628    122.3315     24.7873
  1868.9000      7.8848      2.5942      0.0602      3.3827    118.9966     24.8913
  1869.0000      7.8905      2.6015      0.0531      2.9382    117.0158     25.0709
  1869.1000      7.8905      2.5987      0.0416      3.1087    119.9155     24.7458
  1869.2000      7.8905      2.5886      0.0148      3.7194    127.2218     24.9627
  1869.3000      7.8990      2.5900     -0.0320      3.6351    132.2781     26.2062
  1869.4000      7.8990      2.6147      0.0055      2.1393    130.4419     26.7851
  1869.5000      7.9044      2.6445      0.0268      0.3355    122.1285     25.7003
  1869.6000      7.9044      2.6575      0.0429     -0.4548    112.8100     24.2977
  1869.7000      7.9044      2.6471      0.0340      0.1771    106.2995     23.7518
  1869.8000      7.9045      2.6202      0.0014      1.8081    100.3069     24.2044
  1869.9000      7.9045      2.5934      0.0409      3.4308     94.0046     25.2420
  1870.0000      7.9044      2.5776      0.0021      4.3889     88.5032     26.4745
  1870.1000      7.9044      2.5732      0.0187      4.6568     84.7652     27.3457
  1870.2000      7.9044      2.5726      0.0130      4.6887     83.1099     27.2685
  1870.3000      7.9039      2.5660      0.0003      5.0889     80.2385     26.6771
  1870.4000      7.9039      2.5456      0.0140      6.3297     74.9060     26.0791
  1870.5000      7.8927      2.5177     -0.0358      8.0194     71.5644     25.1802
  1870.6000      7.8927      2.5019      0.0060      8.9753     71.1228     24.1530
  1870.7000      7.8927      2.5018     -0.0058      8.9799     70.3382     23.4528
  1870.8000      7.8686      2.5008      0.0177      9.0409     69.1194     22.8421
  1870.9000      7.8686      2.4871      0.0386      9.8745     68.6625     22.1741
  1871.0000      7.8462      2.4638      0.0374     11.2846     67.3436     21.8561
  1871.1000      7.8462      2.4437      0.0171     12.5028     63.6166     21.8809
  1871.2000      7.8462      2.4351      0.0216     13.0249     57.8866     21.6770
  1871.3000      7.8382      2.4311      0.0393     13.2637     50.9530     20.9566
  1871.4000      7.8382      2.4273      0.0530     13.4962     46.3035     19.9122
  1871.5000      7.8457      2.4291      0.0494     13.3879     45.5390     19.1729
  1871.6000      7.8457      2.4371      0.0863     12.9031     44.5349     18.7211
  1871.7000      7.8457      2.4445      0.0765     12.4543     40.2849     17.7550
  1871.8000      7.8624      2.4451      0.1023     12.4187     34.4305     16.5038
  1871.9000      7.8624      2.4369      0.0714     12.9142     30.6069     16.0468
  1872.0000      7.8757      2.4290      0.0564     13.3951     28.9737     16.6647
  1872.1000      7.8757      2.4297      0.0592     13.3490     27.2590     17.4806
  1872.2000      7.8757      2.4342      0.0617     13.0803     25.2794     17.4088
  1872.3000      7.8786      2.4358      0.0627     12.9803     24.3219     16.4023
  1872.4000      7.8786      2.4397      0.0506     12.7446     25.2081     15.3678
  1872.5000      7.8762      2.4509      0.1087     12.0638     26.7921     14.7690
  1872.6000      7.8762      2.4581      0.1098     11.6307     28.4647     14.0886
  1872.7000      7.8762      2.4495      0.0636     12.1539     30.4412     13.1338
  1872.8000      7.8729      2.4304      0.0342     13.3069     31.8278     12.4909
  1872.9000      7.8729      2.4142      0.0511     14.2905     32.2422     12.3089
  1873.0000      7.8747      2.4071      0.0216     14.7217     32.1185     12.0765
  1873.1000      7.8747      2.4063      0.0229     14.7672     30.7145     11.5922
  1873.2000      7.8747      2.4086      0.0127     14.6298     28.0735     11.5635
  1873.3000      7.8816      2.4098      0.0513     14.5584     25.4534     12.3356
  1873.4000      7.8816      2.4040      0.0366     14.9120     23.4327     12.9989
  1873.5000      7.8879      2.3941      0.0195     15.5092     22.6226     13.0420
  1873.6000      7.8879      2.3874      0.0233     15.9123     23.3670     13.1274
  1873.7000      7.8879      2.3863     -0.0190     15.9796     25.0049     13.1885
  1873.8000      7.8920      2.3896      0.0176     15.7832     26.2102     12.4455
  1873.9000      7.8920      2.3909      0.0037     15.7056     25.8421     11.4073
  1874.0000      7.8945      2.3851      0.0266     16.0534     23.8042     11.2328
  1874.1000      7.8945      2.3724     -0.0025     16.8261     22.6655     11.9067
  1874.2000      7.8945      2.3552      0.0422     17.8680     24.7503     12.6950
  1874.3000      7.8976      2.3415      0.0128     18.6987     28.9182     13.1674
  1874.4000      7.8976      2.3426      0.0090     18.6301     32.7240     13.4617
  1874.5000      7.9002      2.3556      0.0193     17.8448     33.7298     14.0204
  1874.6000      7.9002      2.3683      0.0231     17.0713     31.6293     14.6102
  1874.7000      7.9002      2.3770      0.0394     16.5426     29.5517     14.7633
  1874.8000      7.9011      2.3800      0.0470     16.3664     29.5549     14.8126
  1874.9000      7.9011      2.3767      0.0407     16.5630     31.1708     14.9669
  1875.0000      7.9004      2.3731      0.0273     16.7831     32.9642     14.9937
  1875.1000      7.9004      2.3716      0.0464     16.8745     33.5501     15.1032
  1875.2000      7.9004      2.3765      0.0023     16.5764     33.5429     15.7464
  1875.3000      7.8933      2.3910      0.0843     15.6956     34.8111     16.2036
  1875.4000      7.8933      2.3995      0.0853     15.1802     36.6141     15.4871
  1875.5000      7.8822      2.3901      0.0421     15.7500     36.9895     14.1208
  1875.6000      7.8822      2.3725      0.0355     16.8167     36.0705     13.1644
  1875.7000      7.8822      2.3577      0.0190     17.7130     35.5966     13.3308
  1875.8000      7.8751      2.3509      0.0089     18.1275     35.7774     14.5098
  1875.9000      7.8751      2.3519      0.0523     18.0638     33.2653     15.4610
  1876.0000      7.8691      2.3515      0.0826     18.0918     28.0532     15.8101
  1876.1000      7.8691      2.3464      0.0501     18.3978     24.1607     16.0520
  1876.2000      7.8691      2.3447      0.0410     18.5036     23.4440     15.7908
  1876.3000      7.8625      2.3447      0.0543     18.5008     23.8694     15.0430
  1876.4000      7.8625      2.3423      0.0288     18.6469     23.7127     14.7211
  1876.5000      7.8593      2.3428      0.0617     18.6185     23.5193     15.2350
  1876.6000      7.8593      2.3481      0.0442     18.2997     23.2357     16.0309
  1876.7000      7.8593      2.3519      0.0699     18.0645     22.9106     16.0100
  1876.8000      7.8597      2.3520      0.0249     18.0611     24.6670     15.3809
  1876.9000      7.8597      2.3546      0.0637     17.9020     28.1837     14.9960
  1877.0000      7.8634      2.3606      0.0579     17.5370     29.6809     14.5594
  1877.1000      7.8634      2.3607      0.0644     17.5308     28.2971     13.6291
