~Version Information
VERS.                      2.0: CWLS Log ASCII Standard - VERSION 2.0
WRAP.                       NO: One line per depth step
~Well Information Block
STRT.FT               472.0000: 
STOP.FT              2428.5000: 
STEP.FT                 0.1000: 
NULL.                -999.2500: 
COMP.          Pioneer Natural Resources: COMPANY
WELL.          Flying Horse 12-11: WELL
FLD.           Purgatoire River: FIELD
LOC.           2428' FNL & 308' FWL: LOCATION
PROV.                 Colorado: PROVINCE
CNTY.               Las Animas: COUNTRY
SRVC.                Patterson: SERVICE COMPANY
DATE.          Mon May 30 06:06:20 2005: LOG DATE
UWI.           05 071 08378 00: UNIQUE WELL ID
~Curve Information Block
DEPT.FT            0 000 00 00: Depth
DCAL.in                       : CDL Caliper
RHOB.g/cc                     : CDL Bulk Density
RHOC.g/cc                     : CDL Density Correction
DPOR.pu                       : CDL Density Porosity
GR.GAPI                       : Gamma Ray
NPOR.pu                       : Neutron Porosity
~Parameter Information Block
~A  Depth       DCAL        RHOB        RHOC        DPOR         GR         NPOR    
# ...
   990.4000      8.1720      2.6500      0.1518     -0.0004    141.2024     28.8586
   990.5000      8.1097      2.6331      0.0619      1.0259    134.5578     28.6379
   990.6000      8.1097      2.6235      0.0590      1.6046    130.2608     27.7608
   990.7000      8.1097      2.6198      0.0369      1.8287    128.7981     26.5012
   990.8000      8.1183      2.6133      0.0325      2.2255    129.5561     25.4824
   990.9000      8.1183      2.6066      0.0210      2.6290    130.2056     24.9756
   991.0000      8.1644      2.5947      0.0428      3.3495    128.7117     25.0948
   991.1000      8.1644      2.5706     -0.0012      4.8110    125.9612     25.7248
   991.2000      8.1644      2.5483     -0.0482      6.1613    123.0875     26.2471
   991.3000      8.1625      2.5329      0.0458      7.0986    121.3222     26.1299
   991.4000      8.1625      2.5126     -0.0348      8.3293    122.3167     25.6340
   991.5000      8.1567      2.4938     -0.0654      9.4686    125.4935     25.4617
   991.6000      8.1567      2.4852     -0.0337      9.9850    128.8673     25.5644
   991.7000      8.1567      2.4816     -0.0198     10.2039    130.0140     25.4095
   991.8000      8.1766      2.4743     -0.0202     10.6502    127.8093     25.1570
   991.9000      8.1766      2.4527     -0.0157     11.9552    127.8591     25.2250
   992.0000      8.1949      2.4172     -0.0255     14.1115    135.2040     25.6498
   992.1000      8.1949      2.3844     -0.0410     16.0950    143.0363     26.1940
   992.2000      8.1949      2.3630      0.0078     17.3944    147.2183     26.6595
   992.3000      8.2220      2.3604     -0.0758     17.5509    152.0263     26.7988
   992.4000      8.2220      2.3941      0.0074     15.5103    156.0985     26.4466
   992.5000      8.2431      2.4540      0.0419     11.8786    156.3112     26.0301
   992.6000      8.2431      2.5024      0.0600      8.9458    150.8979     25.9526
   992.7000      8.2431      2.5133      0.0457      8.2876    141.8820     26.0920
   992.8000      8.2306      2.4958      0.0505      9.3474    139.1043     26.3026
   992.9000      8.2306      2.4836      0.0207     10.0874    145.6997     26.5805
   993.0000      8.2505      2.4949      0.0541      9.3991    151.6258     26.8515
   993.1000      8.2505      2.5143      0.0665      8.2237    149.9213     27.1470
   993.2000      8.2505      2.5263      0.0135      7.4942    144.7002     27.5010
   993.3000      8.2054      2.5364      0.0308      6.8870    144.5397     27.6208
   993.4000      8.2054      2.5496      0.1096      6.0846    149.6451     27.5110
   993.5000      8.1975      2.5579      0.0610      5.5812    153.9548     27.5071
   993.6000      8.1975      2.5526      0.0510      5.9014    154.1470     27.4645
   993.7000      8.1975      2.5444      0.0184      6.3997    149.9266     27.3188
   993.8000      8.2271      2.5544      0.0135      5.7937    141.1736     27.3657
   993.9000      8.2271      2.5766      0.0980      4.4463    133.5750     27.4336
   994.0000      8.2171      2.5943      0.0418      3.3785    131.2770     27.5271
   994.1000      8.2171      2.6131      0.0490      2.2392    128.5508     28.0154
   994.2000      8.2171      2.6323      0.0979      1.0743    124.4189     28.5803
   994.3000      8.1938      2.6403      0.0425      0.5852    123.0800     28.7899
   994.4000      8.1938      2.6458      0.0306      0.2561    125.1624     28.9097
   994.5000      8.1648      2.6664      0.0054     -0.9935    128.4299     29.0072
   994.6000      8.1648      2.7080      0.0416     -3.5122    130.7821     28.9837
   994.7000      8.1648      2.7603      0.0701     -6.6868    129.2155     29.2395
   994.8000      8.1290      2.7906      0.1072     -8.5241    125.1013     29.7056
   994.9000      8.1290      2.7760      0.0565     -7.6363    123.5084     29.7857
   995.0000      8.1186      2.7434      0.0326     -5.6633    124.6105     29.3932
   995.1000      8.1186      2.7170      0.0933     -4.0635    124.5038     28.8233
   995.2000      8.1186      2.6863      0.0327     -2.2004    121.6315     28.4228
   995.3000      8.1262      2.6559      0.0555     -0.3565    118.7412     28.3291
   995.4000      8.1262      2.6470      0.0282      0.1801    119.2172     28.3570
   995.5000      8.1326      2.6627      0.0172     -0.7677    121.6594     28.1611
   995.6000      8.1326      2.6720      0.1090     -1.3327    121.5212     27.5270
   995.7000      8.1326      2.6534     -0.0060     -0.2059    116.9490     26.8261
   995.8000      8.1187      2.6342      0.0390      0.9572    112.6093     26.5590
   995.9000      8.1187      2.6314      0.0479      1.1260    113.7868     26.4691
   996.0000      8.1228      2.6237      0.1003      1.5914    115.1261     26.0376
   996.1000      8.1228      2.5972      0.0513      3.1978    111.6810     25.2444
   996.2000      8.1228      2.5649      0.0325      5.1592    108.5475     24.4328
   996.3000      8.1107      2.5447     -0.0052      6.3834    109.6770     23.9286
   996.4000      8.1107      2.5436     -0.0043      6.4514    114.2792     24.0936
   996.5000      8.1052      2.5555      0.0008      5.7244    118.5104     24.9376
   996.6000      8.1052      2.5727     -0.0170      4.6823    120.7174     25.8098
   996.7000      8.1052      2.5836      0.0987      4.0229    122.4405     26.1765
   996.8000      8.1036      2.5707      0.1285      4.8046    123.2835     26.0638
   996.9000      8.1036      2.5511     -0.0032      5.9970    124.7963     25.6760
   997.0000      8.0975      2.5682      0.0195      4.9554    130.5860     25.4284
   997.1000      8.0975      2.6099      0.1226      2.4309    137.0321     25.6275
   997.2000      8.0975      2.6226      0.1127      1.6626    137.9642     25.8560
   997.3000      8.1127      2.6073      0.0251      2.5890    137.8556     25.8160
   997.4000      8.1127      2.5997      0.0538      3.0475    141.1865     25.8318
   997.5000      8.1078      2.6024      0.0443      2.8853    144.0214     26.0496
   997.6000      8.1078      2.6047      0.0445      2.7471    144.7949     26.4396
   997.7000      8.1078      2.6035      0.0875      2.8189    143.8834     26.8711
   997.8000      8.1090      2.5937      0.0376      3.4144    140.3999     27.1906
   997.9000      8.1090      2.5782      0.0208      4.3496    137.2737     27.4211
   998.0000      8.1150      2.5739     -0.0345      4.6113    139.9360     27.6076
   998.1000      8.1150      2.5874      0.0200      3.7926    147.0802     27.7670
   998.2000      8.1150      2.5881      0.0583      3.7491    151.9951     27.9156
   998.3000      8.1374      2.5415      0.0155      6.5779    151.9896     27.9624
   998.4000      8.1374      2.4690     -0.0643     10.9704    148.7542     27.7134
   998.5000      8.1476      2.4200     -0.0587     13.9393    147.2255     27.2328
   998.6000      8.1476      2.4035      0.0010     14.9401    148.9176     26.8315
   998.7000      8.1476      2.3981     -0.0517     15.2686    148.9001     26.6622
   998.8000      8.1523      2.3991     -0.0690     15.2063    144.3251     26.5674
   998.9000      8.1523      2.4140     -0.0306     14.3029    139.2437     26.3020
   999.0000      8.1405      2.4394      0.0355     12.7625    137.2102     25.8295
   999.1000      8.1405      2.4813      0.0773     10.2228    135.6015     25.5377
   999.2000      8.1405      2.5588      0.1707      5.5265    134.7048     25.6745
   999.3000      8.1714      2.6595      0.3421     -0.5782    137.5942     25.7771
   999.4000      8.1714      2.7311      0.4095     -4.9179    142.2132     25.5049
   999.5000      8.1613      2.7387      0.3079     -5.3736    145.0601     25.1431
   999.6000      8.1613      2.7009      0.2440     -3.0849    146.3815     25.0378
   999.7000      8.1613      2.6513      0.1912     -0.0767    147.0416     25.3410
   999.8000      8.1513      2.6046      0.1605      2.7497    145.2318     26.0618
   999.9000      8.1513      2.5725      0.0475      4.6941    140.5211     27.1033
