~Version Information
VERS.                      2.0: CWLS Log ASCII Standard - VERSION 2.0
WRAP.                       NO: One line per depth step
~Well Information Block
STRT.FT                -7.2500: 
STOP.FT              2827.7500: 
STEP.FT                 0.2500: 
NULL.                -999.2500: 
COMP.          Pioneer Natural Resources: COMPANY
WELL.           Ei-ei-oh 31-24: WELL
FLD.           Purgatorie River: FIELD
LOC.           235' FNL & 2001' FEL--: LOCATION
PROV.                       CO: PROVINCE
CNTY.               Las Animas: COUNTRY
SRVC.          Patterson Wireline: SERVICE COMPANY
DATE.          Tue Aug 23 12:06:00 2005: LOG DATE
UWI.           05 071 08403 00: UNIQUE WELL ID
~Curve Information Block
DEPT.FT            0 000 00 00: Depth
CCL.                          : Casing Collar Locator
TT3.usec                      : CBL 3' Travel Time
AMP3.mV                       : CBL 3' Amplitude
GR.GAPI                       : Gamma Ray
~Parameter Information Block
~A  Depth       CCL         TT3         AMP3         GR     
# ...
   361.2500      0.0000    261.5706     76.3520     49.2304
   361.5000      0.0000    261.5660     76.4060     47.4018
   361.7500      0.0000    261.5763     76.4399     44.1082
   362.0000      0.0000    261.6010     76.4264     40.9886
   362.2500      0.0000    261.6340     76.3705     39.4591
   362.5000      0.0000    261.6646     76.2997     40.1818
   362.7500      0.0000    261.6833     76.2417     42.7521
   363.0000      0.0000    261.6843     76.2163     45.7713
   363.2500      0.0000    261.6669     76.2365     47.5987
   363.5000      0.0000    261.6371     76.3002     47.5168
   363.7500      0.0000    261.6064     76.3800     46.3664
   364.0000      0.0000    261.5849     76.4416     45.9048
   364.2500      0.0000    261.5737     76.4786     47.2789
   364.5000      0.0000    261.5673     76.5111     50.0628
   364.7500      0.0000    261.5621     76.5401     52.8563
   365.0000      0.0000    261.5604     76.5223     54.6339
   365.2500      0.0000    261.5648     76.4110     55.2880
   365.5000      0.0000    261.5763     76.2103     55.1835
   365.7500      0.0000    261.5961     75.9766     54.7409
   366.0000      0.0000    261.6253     75.7779     54.3652
   366.2500      0.0000    261.6595     75.6632     54.2417
   366.5000      0.0000    261.6878     75.6509     54.1327
   366.7500      0.0000    261.7008     75.7211     53.7778
   367.0000      0.0000    261.6964     75.8273     53.5072
   367.2500      0.0000    261.6776     75.9322     54.0574
   367.5000      0.0000    261.6507     76.0311     55.6465
   367.7500      0.0000    261.6268     76.1356     57.4655
   368.0000      0.0000    261.6246     76.2485     58.1576
   368.2500      0.0000    261.6688     76.3603     56.7950
   368.5000      0.0000    261.7821     76.4491     53.5630
   368.7500      0.0000    261.9597     76.4741     49.6259
   369.0000      0.0000    262.1409     76.3947     46.1787
   369.2500      0.0000    262.2285     76.2184     43.6509
   369.5000      0.0000    262.1677     76.0191     41.9509
   369.7500      0.0000    262.0005     75.8873     41.1579
   370.0000      0.0000    261.8234     75.8571     41.5920
   370.2500      0.0000    261.7031     75.8929     43.3360
   370.5000      0.0000    261.6456     75.9415     45.8879
   370.7500      0.0000    261.6237     75.9810     48.1942
   371.0000      0.0000    261.6119     76.0139     49.1533
   371.2500      0.0000    261.6006     76.0340     48.4953
   371.5000      0.0000    261.5922     76.0208     47.2741
   371.7500      0.0000    261.5929     75.9627     47.1342
   372.0000      0.0000    261.6052     75.8755     48.7886
   372.2500      0.0000    261.6253     75.8006     51.2902
   372.5000      0.0000    261.6452     75.7829     53.0297
   372.7500      0.0000    261.6575     75.8362     53.3671
   373.0000      0.0000    261.6603     75.9304     53.0710
   373.2500      0.0000    261.6568     76.0251     53.3544
   373.5000      0.0000    261.6510     76.1154     54.7809
   373.7500      0.0000    261.6441     76.2291     56.9800
   374.0000      0.0000    261.6345     76.3816     59.2183
   374.2500      0.0000    261.6201     76.5524     61.2001
   374.5000      0.0000    261.6009     76.7058     63.1842
   374.7500      0.0000    261.5809     76.8178     65.3176
   375.0000      0.0000    261.5678     76.8768     67.2359
   375.2500      0.0000    261.5664     76.8752     68.4063
   375.5000      0.0000    261.5743     76.8114     68.4454
   375.7500      0.0000    261.5846     76.6976     67.0199
   376.0000      0.0000    261.5927     76.5646     63.9868
   376.2500      0.0000    261.5990     76.4534     59.8147
   376.5000      0.0000    261.6052     76.3939     55.5389
   376.7500      0.0000    261.6111     76.3896     52.2110
   377.0000      0.0000    261.6144     76.4318     50.6051
   377.2500      0.0000    261.6122     76.5211     51.3098
   377.5000      0.0000    261.6011     76.6604     54.6708
   377.7500      0.0000    261.5792     76.8248     60.5080
   378.0000      0.0000    261.5496     76.9528     68.1069
   378.2500      0.0000    261.5233     76.9854     76.5334
   378.5000      0.0000    261.5131     76.9189     84.9727
   378.7500      0.0000    261.5231     76.8118     92.9131
   379.0000      0.0000    261.5450     76.7287    100.1094
   379.2500      0.0000    261.5652     76.6835    106.4001
   379.5000      0.0000    261.5759     76.6411    111.6630
   379.7500      0.0000    261.5771     76.5701    115.7771
   380.0000      0.0000    261.5728     76.4753    118.3315
   380.2500      0.0000    261.5675     76.3819    118.5787
   380.5000      0.0000    261.5643     76.3063    116.2309
   380.7500      0.0000    261.5640     76.2555    112.3638
   381.0000      0.0000    261.5654     76.2421    109.0824
   381.2500      0.0000    261.5679     76.2800    107.9167
   381.5000      0.0000    261.5708     76.3677    108.4151
   381.7500      0.0000    261.5723     76.4857    108.5148
   382.0000      0.0000    261.5701     76.6081    106.6392
   382.2500      0.0000    261.5639     76.7110    103.5540
   382.5000      0.0000    261.5551     76.7730    101.9550
   382.7500      0.0000    261.5452     76.7808    103.8706
   383.0000      0.0000    261.5358     76.7416    108.2954
   383.2500      0.0000    261.5295     76.6807    111.7281
   383.5000      0.0000    261.5277     76.6197    111.5151
   383.7500      0.0000    261.5283     76.5654    108.2927
   384.0000      0.0000    261.5251     76.5253    104.8096
   384.2500      0.0000    261.5143     76.5175    103.0803
   384.5000      0.0000    261.5007     76.5507    103.2212
   384.7500      0.0000    261.4954     76.6001    104.3093
   385.0000      0.0000    261.5066     76.6173    105.4708
   385.2500      0.0000    261.5319     76.5696    106.0894
   385.5000      0.0000    261.5607     76.4666    105.5430
   385.7500      0.0000    261.5827     76.3466    103.4249
   386.0000      0.0000    261.5934     76.2423    100.0029
   386.2500      0.0000    261.5936     76.1678     95.8349
   386.5000      0.0000    261.5872     76.1320     90.8432
   386.7500      0.0000    261.5797     76.1486     84.3907
   387.0000      0.0000    261.5787     76.2222     76.5152
   387.2500      0.0000    261.5956     76.3329     68.8196
   387.5000      0.0000    261.6497     76.4377     63.9146
   387.7500      0.0000    261.7643     76.4868     63.7364
   388.0000      0.0000    261.9398     76.4465     68.1975
   388.2500      0.0000    262.1210     76.3221     75.3093
   388.5000      0.0000    262.2167     76.1469     82.4357
   388.7500      0.0000    262.1883     75.9028     87.5322
   389.0000      0.0000    262.1241     75.3959     89.8123
   389.2500      0.0000    262.2493     74.1840     89.7916
   389.5000      0.0000    262.8974     71.7124     88.7343
   389.7500      0.0000    264.4576     67.7096     87.9183
   390.0000      0.0000    267.1890     62.5708     88.2538
   390.2500      0.0000    270.8453     57.2995     90.2228
   390.5000      0.0000    274.4244     52.9886     93.9184
   390.7500      0.0000    276.5876     50.2832     99.0769
   391.0000      0.0000    276.6658     49.1747    104.8525
   391.2500      0.0000    275.2149     49.1475    109.5738
   391.5000      0.0000    273.4255     49.5425    111.3675
   391.7500     -2.0000    272.1129     49.9356    109.5889
   392.0000      0.0000    271.3467     50.3316    105.4651
   392.2500      0.0000    270.7666     51.1385    101.0089
   392.5000      0.0000    270.0002     52.9397     97.4033
   392.7500      0.0000    268.8625     56.0763     94.4426
   393.0000      0.0000    267.3721     60.2568     91.3452
   393.2500      0.0000    265.6971     64.6152     88.0699
   393.5000      0.0000    264.0796     68.2850     85.6906
   393.7500      0.0000    262.7492     70.9024     85.2244
   394.0000      0.0000    261.8305     72.5735     86.3843
   394.2500      0.0000    261.3038     73.5587     87.9682
   394.5000      0.0000    261.0515     74.0985     89.1812
