~Version Information
VERS.                      2.0: CWLS Log ASCII Standard - VERSION 2.0
WRAP.                       NO: One line per depth step
~Well Information Block
STRT.FT               819.0000: 
STOP.FT              2499.5000: 
STEP.FT                 0.2500: 
NULL.                -999.2500: 
COMP.          Petrogulf Corporation: COMPANY
WELL.             State 16-21V: WELL
FLD.           Purgatorie River: FIELD
LOC.           1738' FWL & 332' FWL: LOCATION
PROV.                 Colorado: PROVINCE
CNTY.               Las Animas: COUNTRY
SRVC.          Patterson Wireline: SERVICE COMPANY
DATE.          Sun Jul 13 13:34:36 2003: LOG DATE
UWI.           05 071 08829 00: UNIQUE WELL ID
~Curve Information Block
DEPT.FT            0 000 00 00: Depth
SP.mV                         : DIL Spontaneous Potential
RILD.Ohm-m                    : DIL Deep Resistivity
RILM.Ohm-m                    : DIL Medium Resistivity
RLL3.Ohm-m                    : DIL Shallow Resistivity
GR.GAPI                       : Gamma Ray
~Parameter Information Block
~A  Depth        SP         RILD        RILM        RLL3         GR     
# ...
   847.0000   2000.0000      9.6868 100000.0000   2000.0000     92.4911
   847.2500   2000.0000      9.7044 100000.0000   2000.0000     91.8174
   847.5000   2000.0000      9.7325 100000.0000   2000.0000     89.2221
   847.7500   2000.0000      9.7635 100000.0000   2000.0000     87.2698
   848.0000   2000.0000      9.7909 100000.0000   2000.0000     85.4399
   848.2500   2000.0000      9.8112 100000.0000   2000.0000     85.0782
   848.5000   2000.0000      9.8236 100000.0000   2000.0000     85.0720
   848.7500   2000.0000      9.8298 100000.0000   2000.0000     85.0575
   849.0000   2000.0000      9.8323 100000.0000   2000.0000     84.9575
   849.2500   2000.0000      9.8330 100000.0000   2000.0000     84.8761
   849.5000   2000.0000      9.8324 100000.0000   2000.0000     84.4930
   849.7500   2000.0000      9.8301 100000.0000   2000.0000     83.8804
   850.0000   2000.0000      9.8246 100000.0000   2000.0000     82.5514
   850.2500   2000.0000      9.8142 100000.0000   2000.0000     81.7098
   850.5000   2000.0000      9.7982 100000.0000   2000.0000     80.7947
   850.7500   2000.0000      9.7778 100000.0000   2000.0000     80.2062
   851.0000   2000.0000      9.7565 100000.0000   2000.0000     78.7739
   851.2500   2000.0000      9.7373 100000.0000   2000.0000     77.3223
   851.5000   2000.0000      9.7203 100000.0000   2000.0000     74.5880
   851.7500   2000.0000      9.7023 100000.0000   2000.0000     72.5408
   852.0000   2000.0000      9.6797 100000.0000   2000.0000     69.2087
   852.2500   2000.0000      9.6525 100000.0000   2000.0000     66.7693
   852.5000   2000.0000      9.6253 100000.0000   2000.0000     62.6766
   852.7500   2000.0000      9.6056 100000.0000   2000.0000     59.5849
   853.0000   2000.0000      9.6001 100000.0000   2000.0000     54.2239
   853.2500   2000.0000      9.6124 100000.0000   2000.0000     50.1045
   853.5000   2000.0000      9.6420 100000.0000   2000.0000     43.3790
   853.7500   2000.0000      9.6844 100000.0000   2000.0000     38.9637
   854.0000   2000.0000      9.7327 100000.0000   2000.0000     33.3470
   854.2500   2000.0000      9.7791 100000.0000   2000.0000     30.7483
   854.5000   2000.0000      9.8177 100000.0000   2000.0000     29.3637
   854.7500   2000.0000      9.8463 100000.0000   2000.0000     30.5617
   855.0000   2000.0000      9.8657 100000.0000   2000.0000     35.8606
   855.2500   2000.0000      9.8776 100000.0000   2000.0000     41.4189
   855.5000   2000.0000      9.8824 100000.0000   2000.0000     51.4387
   855.7500   2000.0000      9.8784 100000.0000   2000.0000     58.2257
   856.0000   2000.0000      9.8629 100000.0000   2000.0000     67.1016
   856.2500   2000.0000      9.8349 100000.0000   2000.0000     71.7776
   856.5000   2000.0000      9.7977 100000.0000   2000.0000     77.4243
   856.7500   2000.0000      9.7593 100000.0000   2000.0000     81.0484
   857.0000   2000.0000      9.7301 100000.0000   2000.0000     87.2513
   857.2500   2000.0000      9.7196 100000.0000   2000.0000     91.6346
   857.5000   2000.0000      9.7329 100000.0000   2000.0000     96.8694
   857.7500   2000.0000      9.7697 100000.0000   2000.0000     98.5594
   858.0000   2000.0000      9.8245 100000.0000   2000.0000     98.3197
   858.2500   2000.0000      9.8892 100000.0000   2000.0000     97.1515
   858.5000   2000.0000      9.9557 100000.0000   2000.0000     95.8003
   858.7500   2000.0000     10.0183 100000.0000   2000.0000     95.8290
   859.0000   2000.0000     10.0751 100000.0000   2000.0000     96.9488
   859.2500   2000.0000     10.1267 100000.0000   2000.0000     97.7073
   859.5000   2000.0000     10.1754 100000.0000   2000.0000     98.1374
   859.7500   2000.0000     10.2226 100000.0000   2000.0000     98.2135
   860.0000   2000.0000     10.2675 100000.0000   2000.0000     98.9551
   860.2500   2000.0000     10.3069 100000.0000   2000.0000    100.1047
   860.5000   2000.0000     10.3361 100000.0000   2000.0000    102.5393
   860.7500   2000.0000     10.3500 100000.0000   2000.0000    104.4470
   861.0000   2000.0000     10.3457 100000.0000   2000.0000    107.5381
   861.2500   2000.0000     10.3246 100000.0000   2000.0000    109.4164
   861.5000   2000.0000     10.2926 100000.0000   2000.0000    111.0069
   861.7500   2000.0000     10.2592 100000.0000   2000.0000    110.9903
   862.0000   2000.0000     10.2335 100000.0000   2000.0000    109.8705
   862.2500   2000.0000     10.2207 100000.0000   2000.0000    108.7546
   862.5000   2000.0000     10.2201 100000.0000   2000.0000    106.5076
   862.7500   2000.0000     10.2265 100000.0000   2000.0000    104.6515
   863.0000   2000.0000     10.2338 100000.0000   2000.0000    102.1531
   863.2500   2000.0000     10.2368 100000.0000   2000.0000    101.1170
   863.5000   2000.0000     10.2313 100000.0000   2000.0000     99.9462
   863.7500   2000.0000     10.2123 100000.0000   2000.0000     98.4844
   864.0000   2000.0000     10.1748 100000.0000   2000.0000     93.9171
   864.2500   2000.0000     10.1153 100000.0000   2000.0000     89.0443
   864.5000   2000.0000     10.0349 100000.0000   2000.0000     79.3823
   864.7500   2000.0000      9.9410 100000.0000   2000.0000     71.9281
   865.0000   2000.0000      9.8454 100000.0000   2000.0000     60.5755
   865.2500   2000.0000      9.7607 100000.0000   2000.0000     53.7911
   865.5000   2000.0000      9.6963 100000.0000   2000.0000     46.2380
   865.7500   2000.0000      9.6560 100000.0000   2000.0000     43.6181
   866.0000   2000.0000      9.6384 100000.0000   2000.0000     43.8972
   866.2500   2000.0000      9.6381 100000.0000   2000.0000     46.7011
   866.5000   2000.0000      9.6492 100000.0000   2000.0000     53.4386
   866.7500   2000.0000      9.6679 100000.0000   2000.0000     58.4598
   867.0000   2000.0000      9.6940 100000.0000   2000.0000     65.2214
   867.2500   2000.0000      9.7317 100000.0000   2000.0000     68.9164
   867.5000   2000.0000      9.7861 100000.0000   2000.0000     73.6016
   867.7500   2000.0000      9.8587 100000.0000   2000.0000     76.4975
   868.0000   2000.0000      9.9417 100000.0000   2000.0000     80.8360
   868.2500   2000.0000     10.0160 100000.0000   2000.0000     83.7735
   868.5000   2000.0000     10.0583 100000.0000   2000.0000     88.2140
   868.7500   2000.0000     10.0535 100000.0000   2000.0000     91.0251
   869.0000   2000.0000     10.0054 100000.0000   2000.0000     94.2203
   869.2500   2000.0000      9.9349 100000.0000   2000.0000     95.1198
   869.5000   2000.0000      9.8675 100000.0000   2000.0000     94.5045
   869.7500   2000.0000      9.8210 100000.0000   2000.0000     93.4351
   870.0000   2000.0000      9.8019 100000.0000   2000.0000     92.3865
   870.2500   2000.0000      9.8092 100000.0000   2000.0000     92.5433
   870.5000   2000.0000      9.8394 100000.0000   2000.0000     93.8218
   870.7500   2000.0000      9.8881 100000.0000   2000.0000     94.8684
   871.0000   2000.0000      9.9490 100000.0000   2000.0000     95.7931
   871.2500   2000.0000     10.0123 100000.0000   2000.0000     95.5707
   871.5000   2000.0000     10.0643 100000.0000   2000.0000     93.6955
   871.7500   2000.0000     10.0890 100000.0000   2000.0000     91.4343
   872.0000   2000.0000     10.0740 100000.0000   2000.0000     86.6436
   872.2500   2000.0000     10.0224 100000.0000   2000.0000     82.7521
   872.5000   2000.0000      9.9669 100000.0000   2000.0000     76.8388
   872.7500   2000.0000      9.9755 100000.0000   2000.0000     73.5219
   873.0000   2000.0000     10.1398 100000.0000   2000.0000     70.0823
   873.2500   2000.0000     10.5480 100000.0000   2000.0000     68.7865
   873.5000   2000.0000     11.2481 100000.0000   2000.0000     68.2789
   873.7500   2000.0000     12.2018 100000.0000   2000.0000     69.0215
   874.0000   2000.0000     13.2459 100000.0000   2000.0000     71.6325
   874.2500   2000.0000     14.1228 100000.0000   2000.0000     73.7553
   874.5000   2000.0000     14.6261 100000.0000   2000.0000     76.0480
   874.7500   2000.0000     14.7475 100000.0000   2000.0000     76.6056
