~Version Information
VERS.                      2.0: CWLS Log ASCII Standard - VERSION 2.0
WRAP.                       NO: One line per depth step
~Well Information Block
STRT.FT               987.5000: 
STOP.FT              2426.0000: 
STEP.FT                 0.5000: 
NULL.                -999.2500: 
COMP.          Evergreen Operating Corporation: COMPANY
WELL.          McCullough 34-32: WELL
FLD.           Purgatorie River: FIELD
LOC.           261' FSL & 2098' FEL--: LOCATION
PROV.                 Colorado: PROVINCE
CNTY.               Las Animas: COUNTRY
SRVC.          Patterson Wireline: SERVICE COMPANY
DATE.          Mon May 17 13:38:56 2004: LOG DATE
UWI.           05-071-07953-00: UNIQUE WELL ID
~Curve Information Block
DEPT.FT            0 000 00 00: Depth
CCL.                          : Casing Collar Locator
TT3.usec                      : CBL 3' Travel Time
AMP3.mV                       : CBL 3' Amplitude
GR.GAPI                       : Gamma Ray
~Parameter Information Block
~A  Depth       CCL         TT3         AMP3         GR     
# ...
  2327.5000      0.0000    707.1666      7.2975     95.1190
  2328.0000      0.0000    698.6347      7.4294     93.7715
  2328.5000      0.0000    694.6829      7.4434     85.7996
  2329.0000      0.0000    686.2153      7.2990     86.4135
  2329.5000      0.0000    669.7459      7.0571     88.2550
  2330.0000      0.0000    680.7626      6.6151     85.5466
  2330.5000      0.0000    738.3180      5.8567     83.3032
  2331.0000      0.0000    777.2590      5.0024     80.9977
  2331.5000      0.0000    764.4199      4.0453     81.7409
  2332.0000      0.0000    738.4921      3.0326     85.1437
  2332.5000      0.0000    715.3878      2.3917     87.4320
  2333.0000      0.0000    702.5537      2.3481     87.9278
  2333.5000      0.0000    715.7016      2.6266     85.6772
  2334.0000      0.0000    752.5175      3.2043     83.5966
  2334.5000      0.0000    786.6194      4.1908     85.2571
  2335.0000      0.0000    781.2677      5.4871     84.4667
  2335.5000      0.0000    745.5052      6.6627     80.3298
  2336.0000      0.0000    710.5173      7.3216     77.3461
  2336.5000      0.0000    686.3313      7.5841     73.5965
  2337.0000      0.0000    677.7004      7.8991     73.9040
  2337.5000      0.0000    696.7123      8.2047     80.1985
  2338.0000      0.0000    701.1490      8.1951     85.6522
  2338.5000      0.0000    646.2110      8.0266     85.7887
  2339.0000      0.0000    521.3170      8.1323     87.7744
  2339.5000      0.0000    407.2554      8.5125     89.7150
  2340.0000      0.0000    371.0953      8.8797     81.1709
  2340.5000      0.0000    384.7603      9.1449     67.5250
  2341.0000      0.0000    420.3783      9.2727     55.7797
  2341.5000      0.0000    413.3101      9.4401     52.8858
  2342.0000      0.0000    365.8957      9.6265     55.0758
  2342.5000      0.0000    372.9254      9.2124     57.4644
  2343.0000      0.0000    481.3218      8.1817     58.4464
  2343.5000      0.0000    619.6689      6.8287     55.0907
  2344.0000      0.0000    685.0126      5.4278     52.9697
  2344.5000      0.0000    705.8896      4.4458     56.9153
  2345.0000      0.0000    724.8766      3.9682     68.6446
  2345.5000      0.0000    718.5987      3.6832     82.7216
  2346.0000      0.0000    693.5049      3.3920     93.8238
  2346.5000      0.0000    688.0787      3.2142     96.8232
  2347.0000      0.0000    713.1689      3.1325     93.2917
  2347.5000     -5.0000    736.0894      3.2471     88.6144
  2348.0000      0.0000    739.1409      3.8678     76.1815
  2348.5000      0.0000    710.5955      4.8151     55.9628
  2349.0000      0.0000    660.6271      5.9161     44.8068
  2349.5000      0.0000    645.8929      6.9948     51.6282
  2350.0000      0.0000    665.2615      7.5282     69.1134
  2350.5000      0.0000    658.8419      7.6704     85.5952
  2351.0000      0.0000    605.2421      7.6705     94.0950
  2351.5000      0.0000    607.1025      7.2106     94.3937
  2352.0000      0.0000    668.0068      6.1073     88.1432
  2352.5000      0.0000    716.3446      4.6402     85.0597
  2353.0000      0.0000    736.6674      3.3113     84.0111
  2353.5000      0.0000    746.0635      2.4961     82.3162
  2354.0000      0.0000    738.2406      2.2001     84.0926
  2354.5000      0.0000    715.9988      2.0803     87.7137
  2355.0000      0.0000    725.7075      2.0270     90.5584
  2355.5000      0.0000    759.8975      2.1079     90.7971
  2356.0000      0.0000    750.6249      2.5239     93.3793
  2356.5000      0.0000    722.2162      3.3333    100.6518
  2357.0000      0.0000    728.7560      4.5470    103.5121
  2357.5000      0.0000    723.1238      5.9638    102.9781
  2358.0000      0.0000    647.6546      7.2154    107.6829
  2358.5000      0.0000    528.6739      8.6709    113.9186
  2359.0000      0.0000    416.8961      9.4489    111.7632
  2359.5000      0.0000    354.0939      9.5255    102.9618
  2360.0000      0.0000    330.9315     10.0543     94.5360
  2360.5000      0.0000    323.8425     10.6462     89.7522
  2361.0000      0.0000    323.0681     10.8081     89.1093
  2361.5000      0.0000    324.7513     10.4334     89.9092
  2362.0000      0.0000    331.9233      9.6177     89.2785
  2362.5000      0.0000    343.8233      9.0464     85.0441
  2363.0000      0.0000    348.6700      8.8411     74.5761
  2363.5000      0.0000    363.6642      8.8108     59.8999
  2364.0000      0.0000    445.3593      8.6218     47.3245
  2364.5000      0.0000    591.6989      8.1114     38.7204
  2365.0000      0.0000    679.4134      7.1944     36.0164
  2365.5000      0.0000    688.8047      6.3058     37.9309
  2366.0000      0.0000    714.7203      5.3853     42.4716
  2366.5000      0.0000    735.6895      4.5787     47.4210
  2367.0000      0.0000    712.4544      3.9240     48.3878
  2367.5000      0.0000    678.0702      3.5365     46.0373
  2368.0000      0.0000    673.6099      3.3826     44.7069
  2368.5000      0.0000    696.3340      3.8317     47.1191
  2369.0000      0.0000    735.4827      4.4806     52.3786
  2369.5000      0.0000    765.9958      5.1927     62.1319
  2370.0000      0.0000    759.5655      5.7645     79.8403
  2370.5000      0.0000    724.0390      6.2787     95.9060
  2371.0000      0.0000    636.7234      6.9464    108.4995
  2371.5000      0.0000    494.1393      7.9251    118.3824
  2372.0000      0.0000    398.5638      8.7282    114.2663
  2372.5000      0.0000    411.1323      8.9304     95.2188
  2373.0000      0.0000    461.0833      9.0492     76.5454
  2373.5000      0.0000    437.1259      8.8894     69.3003
  2374.0000      0.0000    369.0997      9.2727     73.3533
  2374.5000      0.0000    334.8596     10.0126     80.7226
  2375.0000      0.0000    341.4709      9.6953     91.3534
  2375.5000      0.0000    380.5436      9.2028    106.0959
  2376.0000      0.0000    445.8841      9.3564    113.1320
  2376.5000      0.0000    530.5987      9.0006    110.4462
  2377.0000      0.0000    603.0654      7.8519    109.6192
  2377.5000      0.0000    625.6684      7.2974    113.2388
  2378.0000      0.0000    602.2839      7.5638    118.4205
  2378.5000      0.0000    603.7808      7.1160    117.4777
  2379.0000      0.0000    646.1418      5.6089    107.9120
  2379.5000      0.0000    690.1160      4.3003     98.4107
  2380.0000      0.0000    720.9761      4.0735     92.0798
  2380.5000      0.0000    714.9460      4.6636     90.4282
  2381.0000      0.0000    713.2050      5.2259     95.5751
  2381.5000      0.0000    722.9132      5.1316    102.8284
  2382.0000      0.0000    715.0550      4.3100    108.2542
  2382.5000      0.0000    707.0079      3.0464    110.5376
  2383.0000      0.0000    719.6469      1.9522    109.9006
  2383.5000      0.0000    737.1351      1.5957    100.6212
  2384.0000      0.0000    749.7001      1.8890     82.6377
  2384.5000      0.0000    768.7598      2.4229     71.7443
  2385.0000      0.0000    785.9964      3.1135     70.2266
  2385.5000      0.0000    786.0062      4.0151     74.6588
  2386.0000      0.0000    770.9072      5.2024     79.0163
  2386.5000      0.0000    746.3297      6.4876     76.6522
  2387.0000      0.0000    729.4953      7.1325     69.9644
  2387.5000      0.0000    737.2930      6.2808     62.2097
  2388.0000      0.0000    744.4702      4.3353     58.3314
  2388.5000      0.0000    736.2778      3.0220     62.0960
  2389.0000      0.0000    724.1887      2.9865     64.4261
  2389.5000      0.0000    711.7475      3.2078     60.4226
  2390.0000      0.0000    697.9111      3.0064     56.3998
  2390.5000      0.0000    696.0381      2.5171     50.0695
  2391.0000     -5.0000    706.0364      2.0234     47.9879
  2391.5000      0.0000    713.2458      2.1817     57.2382
  2392.0000      0.0000    717.2460      3.1590     64.2096
  2392.5000      0.0000    718.0791      3.9760     63.8685
  2393.0000      0.0000    711.3011      4.3104     63.1180
  2393.5000      0.0000    708.7948      4.6352     63.6701
  2394.0000      0.0000    729.7363      4.6605     68.6772
