~Version Information
VERS.                      2.0: CWLS Log ASCII Standard - VERSION 2.0
WRAP.                       NO: One line per depth step
~Well Information Block
STRT.FT               706.1000: 
STOP.FT              2370.0000: 
STEP.FT                 0.1000: 
NULL.                -999.2500: 
COMP.          Petrogulf Corporation: COMPANY
WELL.             State 16-12V: WELL
FLD.           Purgatorie River: FIELD
LOC.           1992' FNL & 1237' FWL: LOCATION
CNTY.               Las Animas: COUNTY
SRVC.                         : SERVICE COMPANY
DATE.          Thu Aug 04 09:34:25 2005: LOG DATE
UWI.           05-071-08016-00: UNIQUE WELL ID
STAT.                 Colorado: STATE
~Curve Information Block
DEPT.FT            0 000 00 00: Depth
DCAL.in                       : CDL Caliper
DPOR.pu                       : CDL Density Porosity
GR.GAPI                       : Gamma Ray
NPOR.pu                       : Neutron Porosity
RHOB.g/cc                     : CDL Bulk Density
RHOC.g/cc                     : CDL Density Correction
~Parameter Information Block
~A  Depth       DCAL        DPOR         GR         NPOR        RHOB        RHOC    
# ...
   936.5000      8.0414     -0.2336     65.7140     19.7448      2.6539      0.0683
   936.6000      8.0414     -0.0884     70.5978     19.9145      2.6515      0.1386
   936.7000      8.0414      0.8088     77.0495     20.4775      2.6367      0.1124
   936.8000      7.9789      2.1531     81.4307     21.2508      2.6145      0.0637
   936.9000      7.9789      2.8659     83.4258     21.8586      2.6027      0.0518
   937.0000      7.9675      3.0220     86.0332     22.2102      2.6001      0.0841
   937.1000      7.9675      3.5314     89.7685     22.3687      2.5917      0.0288
   937.2000      7.9675      4.5201     94.1539     22.2935      2.5754      0.0518
   937.3000      8.0045      5.5913     99.4036     22.0162      2.5577      0.0797
   937.4000      8.0045      6.4192    103.1500     21.8483      2.5441      0.1080
   937.5000      7.9624      6.8331    106.1721     21.9347      2.5373      0.0816
   937.6000      7.9624      7.0091    113.2331     21.9862      2.5344      0.1107
   937.7000      7.9624      7.6439    120.7103     21.7737      2.5239      0.1116
   937.8000      7.9541      9.5766    122.8204     21.3914      2.4920      0.1083
   937.9000      7.9541     13.3897    122.6323     20.8058      2.4291      0.1062
   938.0000      7.9974     20.0355    123.3205     19.8071      2.3194      0.1184
   938.1000      7.9974     30.3073    120.7187     18.6288      2.1499      0.0609
   938.2000      7.9974     42.4609    112.8709     17.3580      1.9494     -0.0472
   938.3000      8.1221     53.2637    104.3853     15.7972      1.7711     -0.0596
   938.4000      8.1221     61.9353     98.2246     14.2848      1.6281     -0.0490
   938.5000      8.4755     69.7086     93.8322     13.1385      1.4998     -0.1106
   938.6000      8.4755     76.3246     88.6780     12.1779      1.3906     -0.1175
   938.7000      8.4755     80.5795     81.4844     11.1524      1.3204      0.0753
   938.8000      8.5168     82.2516     74.3784     10.1380      1.2928      0.1302
   938.9000      8.5168     81.4123     70.1036      9.5274      1.3067      0.1566
   939.0000      8.5374     78.3994     69.0178      9.4251      1.3564      0.2356
   939.1000      8.5374     74.2257     68.5688      9.5011      1.4253      0.3562
   939.2000      8.5374     69.4937     67.8267      9.5925      1.5034      0.3725
   939.3000      8.4468     64.2951     69.8083      9.9725      1.5891      0.3993
   939.4000      8.4468     59.9159     75.7924     11.0319      1.6614      0.4487
   939.5000      8.5811     58.1407     81.9040     12.8015      1.6907      0.4043
   939.6000      8.5811     58.7480     85.4180     14.6432      1.6807      0.2778
   939.7000      8.5811     60.3971     87.2106     15.9700      1.6534      0.2517
   939.8000      8.4342     62.4922     88.5055     17.0027      1.6189      0.2044
   939.9000      8.4342     63.9893     91.8248     18.2118      1.5942      0.1398
   940.0000      8.4320     62.9903     98.2095     19.5678      1.6107      0.1170
   940.1000      8.4320     58.8981    104.7166     20.8624      1.6782      0.1000
   940.2000      8.4320     53.0362    108.4395     22.1327      1.7749      0.0682
   940.3000      8.2460     46.6843    109.6842     23.3308      1.8797      0.1536
   940.4000      8.2460     39.8862    111.1865     24.3959      1.9919      0.2040
   940.5000      8.2548     32.9978    115.1621     25.2475      2.1055      0.3333
   940.6000      8.2548     27.7694    120.8273     25.9446      2.1918      0.3582
   940.7000      8.2548     24.7306    124.6491     26.9332      2.2419      0.2557
   940.8000      8.2078     22.0389    126.1251     28.2855      2.2864      0.1940
   940.9000      8.2078     18.5958    128.8400     29.2274      2.3432      0.1569
   941.0000      8.0856     15.4540    134.1307     29.4012      2.3950      0.0969
   941.1000      8.0856     13.5595    139.0271     29.4409      2.4263      0.0496
   941.2000      8.0856     12.6357    140.6100     29.7947      2.4415      0.0525
   941.3000      8.0667     11.9483    140.0754     30.2730      2.4529      0.0408
   941.4000      8.0667     10.9618    139.4906     30.5090      2.4691      0.0635
   941.5000      8.0704      9.6410    138.1270     30.4289      2.4909      0.0760
   941.6000      8.0704      8.2163    135.5601     30.2721      2.5144      0.0931
   941.7000      8.0704      6.4695    134.0839     30.3695      2.5433      0.0545
   941.8000      8.0519      4.0573    133.5632     30.9302      2.5831      0.1158
   941.9000      8.0519      1.6072    132.0394     31.8052      2.6235      0.1676
   942.0000      8.0328     -0.0258    129.7368     32.6549      2.6504      0.1467
   942.1000      8.0328     -1.0340    125.2948     33.2731      2.6671      0.1134
   942.2000      8.0328     -1.8828    119.3705     33.6155      2.6811      0.1202
   942.3000      8.0325     -2.4007    114.8129     33.8237      2.6896      0.0875
   942.4000      8.0325     -2.8168    111.1404     34.1305      2.6965      0.0435
   942.5000      8.0402     -3.5837    108.2500     34.4312      2.7091      0.0406
   942.6000      8.0402     -4.3318    106.5777     34.2786      2.7215      0.0263
   942.7000      8.0402     -4.5860    103.7711     33.6716      2.7257      0.0125
   942.8000      8.0544     -4.3842    101.8070     33.1029      2.7223      0.0751
   942.9000      8.0544     -3.6166    106.3208     32.8247      2.7097      0.0957
   943.0000      8.0314     -1.8745    114.7099     32.7480      2.6809      0.1122
   943.1000      8.0314      0.6744    119.0070     32.7602      2.6389      0.0695
   943.2000      8.0314      3.0301    119.0074     32.7181      2.6000     -0.0024
   943.3000      8.0393      4.3634    118.7256     32.5014      2.5780      0.0266
   943.4000      8.0393      4.6891    118.2582     31.9383      2.5726      0.0465
   943.5000      8.0722      4.5196    117.6364     30.8331      2.5754      0.0307
   943.6000      8.0722      4.4632    118.1986     29.5495      2.5764      0.0579
   943.7000      8.0722      4.6048    120.5208     28.7919      2.5740      0.0553
   943.8000      8.0430      4.3984    122.8696     28.5717      2.5774      0.0472
   943.9000      8.0430      4.1016    124.2052     28.4186      2.5823      0.1103
   944.0000      8.0502      4.8025    126.5278     28.2927      2.5708      0.0614
   944.1000      8.0502      6.2727    128.7427     28.4684      2.5465      0.0561
   944.2000      8.0502      7.2757    128.2146     28.7472      2.5300      0.0368
   944.3000      8.0729      7.5349    126.7807     28.7970      2.5257      0.0778
   944.4000      8.0729      7.2259    126.1552     28.8681      2.5308      0.0105
   944.5000      8.0772      5.9927    124.9566     29.1931      2.5511      0.0520
   944.6000      8.0772      4.2754    122.7785     29.6445      2.5795      0.0848
   944.7000      8.0772      3.0164    120.2802     30.0360      2.6002      0.0563
   944.8000      8.0607      2.3657    116.1010     30.1962      2.6110      0.0539
   944.9000      8.0607      2.1349    110.0708     30.0106      2.6148      0.0568
   945.0000      8.0691      2.0529    107.1670     29.5264      2.6161      0.0396
   945.1000      8.0691      1.9018    110.7482     29.0092      2.6186      0.0874
   945.2000      8.0691      1.4819    117.0769     28.6489      2.6255     -0.0002
   945.3000      8.0828      1.0579    120.5535     28.2626      2.6325      0.0844
   945.4000      8.0828      1.8973    119.6720     27.5656      2.6187      0.0676
   945.5000      8.0799      4.4235    117.7027     26.6473      2.5770      0.0171
   945.6000      8.0799      7.5840    119.4860     25.8024      2.5249     -0.0233
   945.7000      8.0799     10.3581    123.1878     25.0892      2.4791     -0.0458
   945.8000      8.0881     12.3166    123.5670     24.4708      2.4468     -0.0415
   945.9000      8.0881     13.2328    123.7282     23.8554      2.4317     -0.0098
   946.0000      8.1326     13.3472    128.5887     23.1158      2.4298      0.0495
