~Version Information
VERS.                      2.0: CWLS Log ASCII Standard - VERSION 2.0
WRAP.                       NO: One line per depth step
~Well Information Block
STRT.FT              1684.7500: 
STOP.FT              2367.7500: 
STEP.FT                 0.2500: 
NULL.                -999.2500: 
COMP.          Petrogulf Corporation: COMPANY
WELL.             Norton 9-14V: WELL
FLD.           Purgatorie River: FIELD
LOC.           250' FSL & 225' FWL--: LOCATION
CNTY.               Las Animas: COUNTY
SRVC.                         : SERVICE COMPANY
DATE.          Mon Jan 10 10:00:10 2005: LOG DATE
UWI.                          : UNIQUE WELL ID
STAT.                       CO: STATE
~Curve Information Block
DEPT.FT            0 000 00 00: Depth
CCL.                          : Casing Collar Locator
TT3.usec                      : CBL 3' Travel Time
AMP3.mV                       : CBL 3' Amplitude
GR.GAPI                       : Gamma Ray
~Parameter Information Block
~A  Depth       CCL         TT3         AMP3         GR     
# ...
  2321.2500      0.0000    266.7900     29.4474     56.4077
  2321.5000      0.0000    266.7868     29.6655     57.8229
  2321.7500      0.0000    266.6780     30.1840     60.2906
  2322.0000      0.0000    266.5085     30.7835     62.1231
  2322.2500      0.0000    266.3378     31.2275     62.6141
  2322.5000      0.0000    266.2155     31.3676     62.3219
  2322.7500      0.0000    266.1679     31.1976     62.0046
  2323.0000      0.0000    266.1924     30.8427     61.9371
  2323.2500      0.0000    266.2507     30.5131     62.1213
  2323.5000      0.0000    266.2784     30.4165     62.4187
  2323.7500      0.0000    266.2272     30.6225     62.3793
  2324.0000      0.0000    266.1166     30.9692     61.4066
  2324.2500      0.0000    266.0381     31.1451     59.2266
  2324.5000      0.0000    266.0899     30.9319     56.0847
  2324.7500      0.0000    266.2900     30.4057     52.6252
  2325.0000      0.0000    266.5478     29.9165     49.6255
  2325.2500      0.0000    266.7269     29.8729     47.5902
  2325.5000      0.0000    266.7451     30.5275     46.5532
  2325.7500      0.0000    266.6183     31.9054     46.4846
  2326.0000      0.0000    266.4153     33.8607     47.7180
  2326.2500      0.0000    266.1836     36.1451     50.3997
  2326.5000      0.0000    265.9290     38.4348     53.5135
  2326.7500      0.0000    265.6494     40.3569     55.2362
  2327.0000      0.0000    265.3642     41.5780     54.7247
  2327.2500      0.0000    265.1083     41.9531     53.1914
  2327.5000      0.0000    264.9112     41.6255     52.8267
  2327.7500      0.0000    264.7928     40.9390     54.8498
  2328.0000      0.0000    264.7697     40.2114     58.7506
  2328.2500      0.0000    264.8414     39.6000     63.0120
  2328.5000      0.0000    264.9662     39.1361     66.1353
  2328.7500      0.0000    265.0676     38.7971     67.2535
  2329.0000      0.0000    265.0821     38.5420     66.3885
  2329.2500      0.0000    265.0030     38.3307     64.2758
  2329.5000      0.0000    264.8817     38.1138     61.6585
  2329.7500      0.0000    264.7877     37.8081     58.7285
  2330.0000      0.0000    264.7577     37.3333     55.5119
  2330.2500      0.0000    264.7771     36.6728     52.5829
  2330.5000      0.0000    264.8113     35.8513     50.8365
  2330.7500      0.0000    264.8639     34.8567     50.5844
  2331.0000      0.0000    265.0346     33.6312     51.3497
  2331.2500      0.0000    265.5804     32.1422     52.5108
  2331.5000      0.0000    266.9952     30.4306     53.6890
  2331.7500      0.0000    270.0033     28.5920     54.5029
  2332.0000      0.0000    275.2241     26.7388     54.4163
  2332.2500      0.0000    282.5161     24.9838     53.3299
  2332.5000      0.0000    290.6252     23.4296     52.3003
  2332.7500      0.0000    297.7794     22.1306     53.0914
  2333.0000      0.0000    302.8159     21.0735     56.4819
  2333.2500      0.0000    305.7207     20.2283     61.1372
  2333.5000      0.0000    307.2362     19.6016     64.5839
  2333.7500      0.0000    308.2069     19.1885     65.2985
  2334.0000      0.0000    309.2320     18.8717     63.6572
  2334.2500      0.0000    310.5822     18.4340     61.0351
  2334.5000      0.0000    312.1904     17.7222     58.4312
  2334.7500      0.0000    313.7265     16.8109     56.0488
  2335.0000      0.0000    314.8177     15.9916     53.8118
  2335.2500      0.0000    315.3307     15.5488     51.8473
  2335.5000      0.0000    315.5351     15.5057     50.5071
  2335.7500      0.0000    316.1877     15.5856     50.2887
  2336.0000      0.0000    318.6440     15.4203     51.7309
  2336.2500      0.0000    325.1253     14.7976     54.9708
  2336.5000      0.0000    338.3175     13.7825     59.1380
  2336.7500      0.0000    359.5090     12.6762     62.3605
  2337.0000      0.0000    386.3065     11.8239     62.7175
  2337.2500      0.0000    412.4832     11.3666     59.4683
  2337.5000      0.0000    431.2729     11.1596     53.6394
  2337.7500      0.0000    439.7869     10.9613     47.5530
  2338.0000      0.0000    439.9547     10.6678     43.5485
  2338.2500      0.0000    433.9589     10.3472     42.6572
  2338.5000      0.0000    420.0350     10.1218     44.1657
  2338.7500      0.0000    396.0505     10.0614     46.4384
  2339.0000      0.0000    366.0565     10.1514     48.2798
  2339.2500      0.0000    338.9683     10.3337     49.5471
  2339.5000      0.0000    320.9844     10.5783     50.5325
  2339.7500      0.0000    312.0317     10.8995     51.0825
  2340.0000      0.0000    308.5846     11.3128     50.6452
  2340.2500      0.0000    307.4432     11.8179     49.1083
  2340.5000      0.0000    306.9519     12.4304     47.2653
  2340.7500      0.0000    306.5804     13.1772     46.3230
  2341.0000      0.0000    306.2741     14.0394     47.0302
  2341.2500      0.0000    306.0601     14.9298     49.3207
  2341.5000      0.0000    305.9457     15.7477     52.6773
  2341.7500      0.0000    305.9109     16.4369     56.5623
  2342.0000      0.0000    305.9420     16.9874     60.5144
  2342.2500      0.0000    306.0348     17.4125     64.1292
  2342.5000      0.0000    306.1737     17.7405     67.0007
  2342.7500      0.0000    306.3309     18.0073     68.5293
  2343.0000      0.0000    306.4871     18.2390     68.0131
  2343.2500      0.0000    306.6427     18.4492     65.3443
  2343.5000      0.0000    306.8054     18.6445     61.5626
  2343.7500      0.0000    306.9709     18.8278     58.3779
  2344.0000      0.0000    307.1193     19.0142     57.1148
  2344.2500      0.0000    307.2343     19.2484     58.0788
  2344.5000      0.0000    307.3228     19.5749     60.5468
  2344.7500      0.0000    307.4061     19.9869     63.1724
  2345.0000      0.0000    307.4567     20.4386     64.7491
  2345.2500      0.0000    307.2845     20.9179     64.9419
  2345.5000      0.0000    306.4006     21.4850     64.3159
  2345.7500      0.0000    304.0055     22.2272     63.7615
  2346.0000      0.0000    299.3574     23.1690     64.0542
  2346.2500      0.0000    292.4946     24.2235     65.5941
  2346.5000      0.0000    284.6430     25.2362     68.1002
  2346.7500      0.0000    277.6270     26.0819     70.8175
  2347.0000      0.0000    272.7018     26.7131     73.3133
  2347.2500      0.0000    269.9814     27.1151     75.8066
  2347.5000      0.0000    268.8389     27.2485     78.5111
  2347.7500      0.0000    268.5824     27.0684     80.7814
  2348.0000      0.0000    268.7950     26.5999     81.0881
  2348.2500      0.0000    269.3914     25.9687     78.2144
  2348.5000      0.0000    270.6610     25.3331     72.8614
  2348.7500      0.0000    273.2299     24.7856     67.8046
  2349.0000      0.0000    277.6057     24.3362     65.8601
  2349.2500      0.0000    283.3005     23.9882     67.5202
  2349.5000      0.0000    288.3613     23.8022     70.6382
  2349.7500      0.0000    290.2871     23.8661     72.3478
  2350.0000      0.0000    287.9159     24.2104     71.2740
  2350.2500      0.0000    282.4319     24.7678     68.0805
  2350.5000      0.0000    276.3800     25.4160     64.3294
  2350.7500      0.0000    271.7679     26.0505     61.2156
  2351.0000      0.0000    269.1187     26.6206     59.1511
  2351.2500      0.0000    267.9068     27.1306     57.9133
  2351.5000      0.0000    267.4003     27.6478     56.9327
  2351.7500      0.0000    267.1042     28.2853     55.7445
  2352.0000      0.0000    266.8045     29.1189     54.3686
  2352.2500      0.0000    266.4732     30.1091     53.2596
  2352.5000      0.0000    266.1596     31.1210     52.9612
  2352.7500      0.0000    265.9081     32.0015     53.7690
  2353.0000      0.0000    265.7424     32.6183     55.3781
  2353.2500      0.0000    265.6797     32.8727     56.5058
  2353.5000      0.0000    265.7256     32.7495     55.0050
  2353.7500      0.0000    265.8529     32.3645     48.9933
  2354.0000      0.0000    266.0068     31.9162     38.4577
  2354.2500      0.0000    266.1395     31.5624     25.8020
  2354.5000      0.0000    266.2303     31.3464     14.4481
