~Version Information
VERS.                      2.0: CWLS Log ASCII Standard - VERSION 2.0
WRAP.                       NO: One line per depth step
~Well Information Block
STRT.FT               675.0000: 
STOP.FT              2371.5000: 
STEP.FT                 0.1000: 
NULL.                -999.2500: 
COMP.          Pioneer Natural Resources: COMPANY
WELL.            Harrier 44-33: WELL
FLD.           Purgatoire River: FIELD
LOC.           456' FSL & 930' FEL: LOCATION
PROV.                 Colorado: PROVINCE
CNTY.               Las Animas: COUNTRY
SRVC.                Patterson: SERVICE COMPANY
DATE.          Mon Jun 20 10:36:59 2005: LOG DATE
UWI.           05 071 08398 00: UNIQUE WELL ID
~Curve Information Block
DEPT.FT            0 000 00 00: Depth
DCAL.in                       : CDL Caliper
RHOB.g/cc                     : CDL Bulk Density
RHOC.g/cc                     : CDL Density Correction
DPOR.pu                       : CDL Density Porosity
GR.GAPI                       : Gamma Ray
NPOR.pu                       : Neutron Porosity
~Parameter Information Block
~A  Depth       DCAL        RHOB        RHOC        DPOR         GR         NPOR    
# ...
   895.8000      8.1207      2.3826      0.0652     16.2058    121.1350     26.9103
   895.9000      8.1207      2.3876      0.0793     15.9045    125.1399     27.1992
   896.0000      8.1305      2.3985      0.0837     15.2430    125.1670     27.0405
   896.1000      8.1305      2.4182      0.0640     14.0491    125.4895     27.0981
   896.2000      8.1305      2.4420      0.0886     12.6038    127.6648     27.5657
   896.3000      8.0872      2.4555      0.1358     11.7880    125.8966     27.9198
   896.4000      8.0872      2.4632      0.0660     11.3208    120.6294     27.7047
   896.5000      8.0461      2.4922      0.1166      9.5624    114.7196     27.4275
   896.6000      8.0461      2.5504      0.1489      6.0373    106.5335     27.8068
   896.7000      8.0461      2.6233      0.2262      1.6180     96.3948     28.5373
   896.8000      8.0238      2.7065      0.2547     -3.4264     89.2112     28.7607
   896.9000      8.0238      2.8068      0.2859     -9.5011     86.4709     28.3623
   897.0000      7.9772      2.9070      0.3459    -15.5764     85.2016     27.8966
   897.1000      7.9772      2.9617      0.3657    -18.8882     83.4148     27.4162
   897.2000      7.9772      2.9480      0.4050    -18.0588     80.6729     26.5193
   897.3000      7.8838      2.8963      0.2395    -14.9255     75.9184     25.1084
   897.4000      7.8838      2.8301      0.2502    -10.9148     71.0629     23.6265
   897.5000      7.8513      2.7292      0.1023     -4.7995     70.0735     22.7077
   897.6000      7.8513      2.6022     -0.0484      2.8963     72.3072     22.4720
   897.7000      7.8513      2.5034      0.0163      8.8859     73.6361     22.3397
   897.8000      7.8828      2.4660     -0.0104     11.1543     72.3941     21.7845
   897.9000      7.8828      2.4781      0.0280     10.4196     70.6340     20.9467
   898.0000      7.9117      2.5065      0.0875      8.6989     70.7020     20.3529
   898.1000      7.9117      2.5245      0.1485      7.6070     74.0815     20.1589
   898.2000      7.9117      2.5274      0.1132      7.4291     79.5474     20.1704
   898.3000      7.9247      2.5273      0.0801      7.4357     82.4264     20.5401
   898.4000      7.9247      2.5279      0.1140      7.4006     80.5289     21.4528
   898.5000      7.9128      2.5280      0.0945      7.3969     78.0883     22.5171
   898.6000      7.9128      2.5352      0.1528      6.9553     80.7089     23.1647
   898.7000      7.9128      2.5507      0.1265      6.0196     86.2978     23.2172
   898.8000      7.9115      2.5655      0.0986      5.1224     88.7747     23.0304
   898.9000      7.9115      2.5747      0.1503      4.5654     89.9065     22.8970
   899.0000      7.9180      2.5829      0.1092      4.0687     92.9128     22.7343
   899.1000      7.9180      2.5934      0.1048      3.4289     94.7783     22.6337
   899.2000      7.9180      2.6013      0.1060      2.9539     94.5403     22.6736
   899.3000      7.9656      2.6010      0.1132      2.9669     94.4286     22.5079
   899.4000      7.9656      2.5801      0.1113      4.2338     94.0774     22.0958
   899.5000      7.9965      2.5319      0.0749      7.1567     91.8128     21.7017
   899.6000      7.9965      2.4817     -0.0162     10.1998     87.3290     21.4074
   899.7000      7.9965      2.4581      0.0146     11.6326     82.5248     21.3328
   899.8000      7.9919      2.4682     -0.0032     11.0161     81.5323     21.4050
   899.9000      7.9919      2.5187     -0.0129      7.9572     84.2658     21.5486
   900.0000      7.9858      2.5956      0.1179      3.2978     87.9016     22.0243
   900.1000      7.9858      2.6595      0.1189     -0.5758     91.4356     22.5913
   900.2000      7.9858      2.6948      0.1722     -2.7164     94.0010     22.5995
   900.3000      8.0021      2.7063      0.2060     -3.4122     98.4822     22.3607
   900.4000      8.0021      2.6927      0.2322     -2.5855    106.5631     22.5598
   900.5000      7.9819      2.6611      0.1694     -0.6707    113.4084     23.1231
   900.6000      7.9819      2.6397      0.0424      0.6223    114.2856     23.7702
   900.7000      7.9819      2.6482      0.0376      0.1118    110.2155     24.4791
   900.8000      8.0135      2.6690      0.0637     -1.1535    107.6161     25.1166
   900.9000      8.0135      2.6647      0.0735     -0.8881    111.4360     25.3368
   901.0000      8.0274      2.6222      0.1196      1.6850    118.9539     25.1853
   901.1000      8.0274      2.5690      0.1215      4.9088    123.7677     25.2022
   901.2000      8.0274      2.5351      0.0658      6.9635    124.4989     25.6283
   901.3000      8.0383      2.5352      0.0268      6.9582    124.5400     26.3315
   901.4000      8.0383      2.5619      0.0665      5.3416    124.3960     26.8799
   901.5000      8.0444      2.5883      0.0438      3.7409    122.6463     26.7265
   901.6000      8.0444      2.5972      0.0701      3.1990    120.5684     26.2073
   901.7000      8.0444      2.5940      0.0621      3.3917    119.0995     25.9991
   901.8000      8.0585      2.5878      0.0533      3.7704    118.6288     26.1038
   901.9000      8.0585      2.5773      0.0615      4.4090    120.6461     26.0427
   902.0000      8.0753      2.5656     -0.0207      5.1172    124.6534     25.6519
   902.1000      8.0753      2.5575      0.0814      5.6059    126.7041     25.2387
   902.2000      8.0753      2.5407      0.1335      6.6244    123.3568     24.9491
   902.3000      8.0839      2.5180      0.0351      8.0025    117.6236     24.7644
   902.4000      8.0839      2.5107      0.0759      8.4402    115.2960     24.6921
   902.5000      8.0701      2.5085      0.0881      8.5756    118.2168     24.6415
   902.6000      8.0701      2.4910      0.0588      9.6381    123.7383     24.6469
   902.7000      8.0701      2.4719      0.0217     10.7923    128.0455     24.7482
   902.8000      8.0632      2.4593      0.0862     11.5605    128.9837     24.7791
   902.9000      8.0632      2.4283      0.1095     13.4389    130.2829     24.7048
   903.0000      8.1143      2.3893     -0.0144     15.8004    134.4366     24.8094
   903.1000      8.1143      2.3913      0.0110     15.6798    135.4924     25.0236
   903.2000      8.1143      2.4296      0.1270     13.3565    130.8213     25.0507
   903.3000      8.0804      2.4535      0.0891     11.9065    127.1757     25.0547
   903.4000      8.0804      2.4482      0.0862     12.2327    129.5721     25.1154
   903.5000      8.0788      2.4387      0.0577     12.8060    132.4066     25.2249
   903.6000      8.0788      2.4488      0.0597     12.1920    128.6796     25.4903
   903.7000      8.0788      2.4790      0.1248     10.3648    123.4966     25.6964
   903.8000      8.0677      2.5181      0.1189      7.9948    125.2452     25.8702
   903.9000      8.0677      2.5626      0.1238      5.2971    130.0293     26.1150
   904.0000      8.1337      2.6039      0.1207      2.7913    130.2472     26.1337
   904.1000      8.1337      2.6256      0.1505      1.4816    124.3877     25.6974
   904.2000      8.1337      2.6201      0.1223      1.8115    113.9113     24.9165
   904.3000      8.1248      2.5896      0.0858      3.6579    101.1688     23.8604
   904.4000      8.1248      2.5406      0.0310      6.6309     91.5934     22.3954
   904.5000      8.0622      2.4782      0.0209     10.4131     86.7726     20.7356
   904.6000      8.0622      2.4015     -0.0235     15.0589     82.3138     19.0743
   904.7000      8.0622      2.3127     -0.0379     20.4399     76.2125     17.4306
   904.8000      8.0453      2.2007      0.0458     27.2297     67.7597     16.0932
   904.9000      8.0453      2.0401     -0.0387     36.9657     59.5217     15.1250
   905.0000      8.0379      1.8472     -0.1287     48.6562     54.9376     14.2733
   905.1000      8.0379      1.6716     -0.1571     59.2995     53.3573     13.8351
   905.2000      8.0379      1.5472     -0.2094     66.8355     54.4175     14.2916
   905.3000      8.0103      1.4979     -0.1628     69.8219     57.8274     15.2627
