~Version Information
VERS.                      2.0: CWLS Log ASCII Standard - VERSION 2.0
WRAP.                       NO: One line per depth step
~Well Information Block
STRT.FT               710.0000: 
STOP.FT              2304.5000: 
STEP.FT                 0.2500: 
NULL.                -999.2500: 
COMP.          Pioneer Natural Resources: COMPANY
WELL.           Ogallela 44-12: WELL
FLD.           Purgatoire River: FIELD
LOC.           610' FSL & 671' FEL: LOCATION
PROV.                 Colorado: PROVINCE
CNTY.               Las Animas: COUNTRY
SRVC.                Patterson: SERVICE COMPANY
DATE.          Wed Feb 23 00:14:59 2005: LOG DATE
UWI.           05 071 08283 00: UNIQUE WELL ID
~Curve Information Block
DEPT.FT            0 000 00 00: Depth
SN.Ohm-m                      : IEL Short Normal
SP.mV                         : IEL Spontaneous Potential
DIR.Ohm-m                     : IEL Induction Resistivity
GR.GAPI                       : Gamma Ray
~Parameter Information Block
~A  Depth        SN          SP         DIR          GR     
# ...
  2083.5000     27.4997      8.4040     21.9729     52.0494
  2083.7500     26.9836      8.3676     22.0804     53.8500
  2084.0000     26.0909      8.3347     22.1068     58.0948
  2084.2500     25.0140      8.2915     22.0826     61.4624
  2084.5000     24.0558      8.2254     22.0212     65.7692
  2084.7500     23.4347      8.1348     21.9296     67.3196
  2085.0000     23.1790      8.0331     21.8153     67.1850
  2085.2500     23.1824      7.9437     21.6844     65.8866
  2085.5000     23.3164      7.8882     21.5395     63.6839
  2085.7500     23.4871      7.8765     21.3816     62.8702
  2086.0000     23.6493      7.9029     21.2130     62.9032
  2086.2500     23.8070      7.9496     21.0404     63.2127
  2086.5000     23.9707      7.9995     20.8773     62.9280
  2086.7500     24.1078      8.0497     20.7412     62.0422
  2087.0000     24.1607      8.1153     20.6455     60.4606
  2087.2500     24.0944      8.2191     20.5901     59.9269
  2087.5000     23.9199      8.3767     20.5618     60.4536
  2087.7500     23.6976      8.5859     20.5506     61.4514
  2088.0000     23.5210      8.8230     20.5661     62.9863
  2088.2500     23.4662      9.0444     20.6348     63.5171
  2088.5000     23.5591      9.1926     20.7753     63.0005
  2088.7500     23.7984      9.2077     20.9682     61.6196
  2089.0000     24.1801      9.0453     21.1547     58.0677
  2089.2500     24.6754      8.6949     21.2739     55.0797
  2089.5000     25.2070      8.1836     21.3118     50.9635
  2089.7500     25.6802      7.5583     21.3112     49.4128
  2090.0000     26.0428      6.8580     21.3333     49.9264
  2090.2500     26.3143      6.0983     21.4112     51.9220
  2090.5000     26.5673      5.2740     21.5358     55.4750
  2090.7500     26.8555      4.3735     21.6748     56.8603
  2091.0000     27.1582      3.3919     21.8005     56.3168
  2091.2500     27.4242      2.3390     21.9019     54.5362
  2091.5000     27.6389      1.2472     21.9766     51.1951
  2091.7500     27.8185      0.1747     22.0184     49.2427
  2092.0000     27.9715     -0.8079     22.0176     47.3004
  2092.2500     28.0796     -1.6447     21.9688     46.7253
  2092.5000     28.0897     -2.3087     21.8788     46.8439
  2092.7500     27.9036     -2.7921     21.7654     47.4892
  2093.0000     27.3978     -3.0915     21.6495     49.2558
  2093.2500     26.5016     -3.2012     21.5468     50.9820
  2093.5000     25.2730     -3.1110     21.4605     54.2223
  2093.7500     23.9074     -2.8120     21.3797     56.4714
  2094.0000     22.6791     -2.3128     21.2851     59.1072
  2094.2500     21.8149     -1.6502     21.1579     59.9457
  2094.5000     21.3928     -0.8785     20.9892     59.5796
  2094.7500     21.3623     -0.0447     20.7848     58.4403
  2095.0000     21.5985      0.8281     20.5617     56.1919
  2095.2500     21.9361      1.7377     20.3358     54.9716
  2095.5000     22.2292      2.6835     20.1086     54.4833
  2095.7500     22.3867      3.6499     19.8665     55.2226
  2096.0000     22.3461      4.6037     19.5957     57.5262
  2096.2500     22.0721      5.5056     19.2985     59.4727
  2096.5000     21.5824      6.3222     18.9954     62.5348
  2096.7500     20.9431      7.0353     18.7091     64.5087
  2097.0000     20.2534      7.6440     18.4456     67.0641
  2097.2500     19.6204      8.1591     18.1864     68.2870
  2097.5000     19.1017      8.5892     17.8992     69.2688
  2097.7500     18.6765      8.9290     17.5585     69.5620
  2098.0000     18.2918      9.1597     17.1627     70.1455
  2098.2500     17.9121      9.2608     16.7353     70.9076
  2098.5000     17.5387      9.2259     16.3130     72.5528
  2098.7500     17.2228      9.0700     15.9294     73.8181
  2099.0000     17.0303      8.8242     15.6070     75.9301
  2099.2500     16.9632      8.5204     15.3547     77.5668
  2099.5000     16.9485      8.1791     15.1691     80.2686
  2099.7500     16.9121      7.8089     15.0346     82.0016
  2100.0000     16.8237      7.4150     14.9266     84.1767
  2100.2500     16.6845      7.0098     14.8171     85.3110
  2100.5000     16.5217      6.6152     14.6847     86.5336
  2100.7500     16.3985      6.2578     14.5199     86.9113
  2101.0000     16.3773      5.9625     14.3255     86.4968
  2101.2500     16.4604      5.7445     14.1127     85.4773
  2101.5000     16.6024      5.6023     13.8977     83.1198
  2101.7500     16.7685      5.5173     13.7003     81.4141
  2102.0000     16.9410      5.4657     13.5429     79.4972
  2102.2500     17.0903      5.4354     13.4471     79.0390
  2102.5000     17.1832      5.4348     13.4309     79.9390
  2102.7500     17.2191      5.4847     13.5069     81.6363
  2103.0000     17.2426      5.5985     13.6822     85.6051
  2103.2500     17.3205      5.7671     13.9582     88.7583
  2103.5000     17.4941      5.9646     14.3296     92.7811
  2103.7500     17.7486      6.1704     14.7850     94.0283
  2104.0000     18.0461      6.3794     15.3109     93.0487
  2104.2500     18.3751      6.5915     15.8998     90.8377
  2104.5000     18.7703      6.8012     16.5601     86.0700
  2104.7500     19.3557      7.0022     17.3193     82.0176
  2105.0000     20.3911      7.1961     18.2151     74.1666
  2105.2500     22.2225      7.3909     19.2771     67.6910
  2105.5000     25.1986      7.5935     20.5131     57.1266
  2105.7500     29.6156      7.8034     21.9176     50.5442
  2106.0000     35.5528      8.0083     23.5090     42.7709
  2106.2500     42.6619      8.1810     25.3716     39.2079
  2106.5000     50.2419      8.2867     27.6574     35.7781
  2106.7500     57.5691      8.2998     30.5229     34.2548
  2107.0000     64.1713      8.2165     34.0188     32.4197
  2107.2500     69.8477      8.0502     37.9760     31.4194
  2107.5000     74.3513      7.8163     41.9620     30.7088
  2107.7500     77.2372      7.5304     45.3900     31.1213
  2108.0000     78.3113      7.2253     47.7558     33.2478
  2108.2500     77.9440      6.9627     48.8277     35.3735
  2108.5000     76.7003      6.8182     48.6562     38.6971
  2108.7500     74.8854      6.8556     47.4577     40.6146
  2109.0000     72.5482      7.1073     45.5076     43.3337
  2109.2500     69.7222      7.5659     43.0931     45.7739
  2109.5000     66.4892      8.1845     40.4902     51.8357
  2109.7500     62.8890      8.8983     37.9301     57.9795
  2110.0000     58.9520      9.6568     35.5592     70.1245
  2110.2500     54.7896     10.4394     33.4299     79.4106
  2110.5000     50.5546     11.2434     31.5242     93.1662
  2110.7500     46.4044     12.0598     29.7944    101.1191
  2111.0000     42.5307     12.8591     28.2008    110.0863
  2111.2500     39.1069     13.5965     26.7378    113.9885
  2111.5000     36.2067     14.2275     25.4371    117.2287
  2111.7500     33.8439     14.7217     24.3456    118.0266
  2112.0000     32.0449     15.0686     23.4904    117.5968
  2112.2500     30.8054     15.2781     22.8557    116.3923
  2112.5000     30.0209     15.3785     22.3796    113.6319
  2112.7500     29.5155     15.4073     21.9668    111.4382
  2113.0000     29.1314     15.4001     21.5176    107.6902
  2113.2500     28.7906     15.3836     20.9682    104.4874
  2113.5000     28.4969     15.3760     20.3243     97.3803
  2113.7500     28.3170     15.3921     19.6536     90.5293
  2114.0000     28.3419     15.4465     19.0361     77.4911
  2114.2500     28.5808     15.5500     18.5134     68.2954
  2114.5000     28.8455     15.7027     18.0761     57.2781
  2114.7500     28.7920     15.8891     17.6893     53.6922
  2115.0000     28.1256     16.0845     17.3288     55.5728
  2115.2500     26.7259     16.2690     16.9984     61.4984
  2115.5000     24.6386     16.4381     16.7180     75.7270
  2115.7500     22.1311     16.6028     16.5005     87.2651
  2116.0000     19.6980     16.7776     16.3356    104.4166
  2116.2500     17.7990     16.9671     16.1923    113.7368
  2116.5000     16.6155     17.1595     16.0346    121.8574
  2116.7500     16.0907     17.3289     15.8407    122.8717
