~Version Information
VERS.                      2.0: CWLS Log ASCII Standard - VERSION 2.0
WRAP.                       NO: One line per depth step
~Well Information Block
STRT.FT               520.0000: 
STOP.FT              1105.5000: 
STEP.FT                 0.1000: 
NULL.                -999.2500: 
COMP.          Pioneer Natural Resources: COMPANY
WELL.            Redland 23-24: WELL
FLD.           Purgatoire River: FIELD
LOC.           2356' FSL & 1880' FWL: LOCATION
PROV.                 Colorado: PROVINCE
CNTY.               Las Animas: COUNTRY
SRVC.                Patterson: SERVICE COMPANY
DATE.          Mon Mar 21 07:08:20 2005: LOG DATE
UWI.           05 071 08221 00: UNIQUE WELL ID
~Curve Information Block
DEPT.FT            0 000 00 00: Depth
DCAL.in                       : CDL Caliper
RHOB.g/cc                     : CDL Bulk Density
RHOC.g/cc                     : CDL Density Correction
DPOR.pu                       : CDL Density Porosity
GR.GAPI                       : Gamma Ray
NPOR.pu                       : Neutron Porosity
~Parameter Information Block
~A  Depth       DCAL        RHOB        RHOC        DPOR         GR         NPOR    
# ...
   750.4000      7.7840      2.4857      0.0146      9.9564     91.0849     22.1878
   750.5000      7.7892      2.4552      0.0028     11.8047     92.7062     23.2744
   750.6000      7.7892      2.4362      0.0412     12.9592     98.1061     24.5542
   750.7000      7.7892      2.4215      0.0205     13.8490    106.2150     26.2230
   750.8000      7.9147      2.4182      0.0173     14.0499    111.6293     28.0743
   750.9000      7.9147      2.4259      0.1027     13.5810    113.6797     29.3508
   751.0000      7.9473      2.4248      0.1443     13.6456    117.7283     29.9371
   751.1000      7.9473      2.4104      0.0816     14.5233    122.7919     30.3410
   751.2000      7.9473      2.4006      0.1145     15.1130    122.3653     30.6694
   751.3000      7.9153      2.4074      0.1238     14.7033    115.9128     30.7230
   751.4000      7.9153      2.4288      0.1122     13.4063    109.7220     30.7450
   751.5000      7.9145      2.4587      0.1383     11.5925    109.7135     31.2709
   751.6000      7.9145      2.4886      0.1814      9.7847    114.0670     32.0129
   751.7000      7.9145      2.5104      0.1599      8.4630    113.0418     32.3958
   751.8000      7.9046      2.5223      0.1789      7.7384    104.8270     32.6054
   751.9000      7.9046      2.5191      0.1865      7.9322     97.0081     32.9018
   752.0000      7.9433      2.5034      0.1364      8.8851     92.0253     33.0903
   752.1000      7.9433      2.4903      0.1328      9.6812     88.1603     33.0628
   752.2000      7.9433      2.4799      0.0970     10.3117     85.1800     32.7233
   752.3000      7.9974      2.4644      0.0565     11.2492     83.1859     32.0959
   752.4000      7.9974      2.4515      0.0605     12.0295     80.6225     31.4524
   752.5000      8.0689      2.4509      0.0111     12.0665     79.4287     30.8002
   752.6000      8.0689      2.4574      0.0169     11.6707     82.5755     30.1695
   752.7000      8.0689      2.4647     -0.0087     11.2282     86.1868     29.9342
   752.8000      8.1319      2.4738      0.0729     10.6809     86.1800     30.1359
   752.9000      8.1319      2.4791      0.0798     10.3579     84.6257     30.1593
   753.0000      8.1728      2.4761      0.0848     10.5398     83.3991     29.9138
   753.1000      8.1728      2.4701      0.0663     10.9008     82.0093     29.5278
   753.2000      8.1728      2.4735      0.0304     10.6973     79.8130     28.9177
   753.3000      8.1364      2.4865      0.0664      9.9114     75.3419     28.4088
   753.4000      8.1364      2.4989      0.0627      9.1598     68.4589     28.2475
   753.5000      8.0956      2.5185      0.0337      7.9725     61.8803     28.2036
   753.6000      8.0956      2.5552      0.0825      5.7472     60.6415     27.7067
   753.7000      8.0956      2.5954      0.1030      3.3077     65.7426     26.5747
   753.8000      7.9538      2.6217      0.1332      1.7167     69.8731     25.7916
   753.9000      7.9538      2.6221      0.1599      1.6924     67.6729     25.9151
   754.0000      7.9137      2.5920      0.1155      3.5138     61.9055     26.0049
   754.1000      7.9137      2.5558     -0.0239      5.7072     58.1560     25.4463
   754.2000      7.9137      2.5390      0.0350      6.7254     58.5028     24.5875
   754.3000      7.8875      2.5257      0.0453      7.5343     61.1192     23.9384
   754.4000      7.8875      2.5061     -0.0009      8.7212     63.0360     23.7033
   754.5000      7.8935      2.5010     -0.0044      9.0275     63.2928     23.4799
   754.6000      7.8935      2.5168      0.0246      8.0729     63.9360     22.8648
   754.7000      7.8935      2.5325      0.0419      7.1196     64.1686     22.1713
   754.8000      7.9208      2.5337     -0.0082      7.0471     62.9750     22.0231
   754.9000      7.9208      2.5345      0.0268      7.0017     64.3023     22.3299
   755.0000      7.9201      2.5513      0.0453      5.9820     68.3740     22.6576
   755.1000      7.9201      2.5736      0.0703      4.6324     71.3518     23.1636
   755.2000      7.9201      2.5746      0.0881      4.5726     72.6980     23.7837
   755.3000      7.9182      2.5492      0.0399      6.1107     71.8412     23.9887
   755.4000      7.9182      2.5174      0.0317      8.0382     67.6186     24.2095
   755.5000      7.8689      2.4923      0.0384      9.5603     63.2312     25.2847
   755.6000      7.8689      2.4862     -0.0022      9.9275     63.3198     26.8581
   755.7000      7.8689      2.5131      0.0502      8.2977     67.3173     27.7208
   755.8000      7.8615      2.5548      0.0914      5.7707     70.2872     27.1803
   755.9000      7.8615      2.5742      0.0911      4.5969     70.2782     25.6818
   756.0000      7.8554      2.5707      0.0332      4.8040     67.0439     24.0858
   756.1000      7.8554      2.5737      0.0472      4.6216     60.8654     23.1629
   756.2000      7.8554      2.5774      0.0965      4.4013     56.3810     22.9686
   756.3000      7.8896      2.5559      0.0148      5.7051     56.6281     23.2397
   756.4000      7.8896      2.5333     -0.0097      7.0706     59.1457     23.4707
   756.5000      7.8828      2.5469      0.0411      6.2515     61.1770     23.3012
   756.6000      7.8828      2.5816      0.1002      4.1463     63.0690     23.1850
   756.7000      7.8828      2.6049      0.0548      2.7327     64.1766     23.2508
   756.8000      7.8640      2.6121      0.0680      2.2979     61.2447     22.7194
   756.9000      7.8640      2.6014      0.1138      2.9471     55.6373     21.6927
   757.0000      7.8720      2.5682      0.0414      4.9589     53.0468     21.1999
   757.1000      7.8720      2.5338      0.0324      7.0407     55.2147     21.4776
   757.2000      7.8720      2.5225      0.0457      7.7258     57.3012     22.0247
   757.3000      7.9043      2.5331      0.0473      7.0835     55.1821     22.3575
   757.4000      7.9043      2.5487      0.0450      6.1388     51.6959     22.1854
   757.5000      7.8818      2.5554      0.0642      5.7306     50.7833     21.6069
   757.6000      7.8818      2.5472      0.0560      6.2289     50.9142     21.2222
   757.7000      7.8818      2.5302      0.0103      7.2620     48.6064     21.0904
   757.8000      7.9020      2.5198      0.0178      7.8899     44.5000     20.6066
   757.9000      7.9020      2.5167      0.0584      8.0770     41.9941     20.1156
   758.0000      7.9083      2.5154     -0.0137      8.1551     43.2367     20.5639
   758.1000      7.9083      2.5216      0.0145      7.7806     47.3880     21.8724
   758.2000      7.9083      2.5303      0.0431      7.2570     51.2968     23.1267
   758.3000      7.8845      2.5245      0.0433      7.6064     52.4690     23.4276
   758.4000      7.8845      2.4996      0.0310      9.1128     53.8723     22.5362
   758.5000      7.8884      2.4743     -0.0298     10.6458     57.2392     21.0823
   758.6000      7.8884      2.4708     -0.0180     10.8580     58.5653     20.1026
   758.7000      7.8884      2.4896     -0.0135      9.7199     57.5836     19.9925
   758.8000      7.9069      2.5145     -0.0320      8.2115     57.0014     19.9757
   758.9000      7.9069      2.5289      0.0561      7.3380     54.9328     19.1838
   759.0000      7.8999      2.5262      0.0350      7.5001     49.9687     18.1773
   759.1000      7.8999      2.5179      0.0326      8.0053     45.4770     17.7585
   759.2000      7.8999      2.5283      0.0327      7.3767     43.7627     18.1217
   759.3000      7.8986      2.5652      0.0713      5.1405     43.1603     19.2445
   759.4000      7.8986      2.6081      0.1268      2.5408     41.4667     20.3822
   759.5000      7.8804      2.6458      0.0852      0.2529     39.0475     20.7739
   759.6000      7.8804      2.6871      0.1390     -2.2500     37.6918     20.3843
   759.7000      7.8804      2.7247      0.1913     -4.5267     37.2040     19.8584
   759.8000      7.8396      2.7471      0.1685     -5.8822     37.4715     19.7377
   759.9000      7.8396      2.7624      0.1393     -6.8113     39.5704     19.2945
