~Version Information
VERS.                      2.0: CWLS Log ASCII Standard - VERSION 2.0
WRAP.                       NO: One line per depth step
~Well Information Block
STRT.FT               420.0000: 
STOP.FT              1528.5000: 
STEP.FT                 0.2500: 
NULL.                -999.2500: 
COMP.          Evergreen Operating Corporation: COMPANY
WELL.              Chase 21-10: WELL
FLD.           Purgatoire River: FIELD
LOC.           1122' FNL & 1544' FWL: LOCATION
PROV.                       CO: PROVINCE
CNTY.               Las Animas: COUNTRY
SRVC.                         : SERVICE COMPANY
DATE.          Sun May 23 21:20:45 2004: LOG DATE
UWI.           05 071 08006 00: UNIQUE WELL ID
~Curve Information Block
DEPT.FT            0 000 00 00: Depth
SN.Ohm-m                      : IEL Short Normal
SP.mV                         : IEL Spontaneous Potential
DIR.Ohm-m                     : IEL Induction Resistivity
GR.GAPI                       : Gamma Ray
~Parameter Information Block
~A  Depth        SN          SP         DIR          GR     
# ...
  1425.0000     31.1858    151.3767     30.0398     61.0384
  1425.2500     30.7078    151.5653     29.8319     59.4639
  1425.5000     30.2675    151.7476     29.4552     57.5107
  1425.7500     29.8706    151.9200     28.9857     56.7300
  1426.0000     29.5097    152.0793     28.4906     56.5795
  1426.2500     29.1671    152.2227     28.0169     57.2356
  1426.5000     28.8241    152.3488     27.5946     59.5356
  1426.7500     28.4697    152.4569     27.2444     62.0035
  1427.0000     28.1050    152.5474     26.9768     66.6199
  1427.2500     27.7405    152.6212     26.7829     69.5895
  1427.5000     27.3894    152.6799     26.6327     72.5417
  1427.7500     27.0635    152.7253     26.4849     73.1617
  1428.0000     26.7712    152.7588     26.3052     72.5501
  1428.2500     26.5178    152.7817     26.0782     71.7411
  1428.5000     26.3044    152.7945     25.8084     70.7457
  1428.7500     26.1286    152.7976     25.5114     70.3174
  1429.0000     25.9854    152.7908     25.2050     69.7548
  1429.2500     25.8709    152.7741     24.9068     69.2623
  1429.5000     25.7851    152.7470     24.6349     68.1823
  1429.7500     25.7304    152.7095     24.4085     67.2105
  1430.0000     25.7087    152.6614     24.2441     65.5193
  1430.2500     25.7172    152.6032     24.1509     64.4415
  1430.5000     25.7480    152.5353     24.1297     63.2169
  1430.7500     25.7906    152.4592     24.1754     62.6699
  1431.0000     25.8360    152.3769     24.2804     62.0031
  1431.2500     25.8783    152.2912     24.4349     61.5498
  1431.5000     25.9153    152.2058     24.6247     60.9194
  1431.7500     25.9471    152.1245     24.8304     60.6124
  1432.0000     25.9739    152.0513     25.0301     60.2383
  1432.2500     25.9947    151.9893     25.2027     59.8789
  1432.5000     26.0065    151.9407     25.3290     59.0784
  1432.7500     26.0045    151.9054     25.3897     58.6093
  1433.0000     25.9832    151.8817     25.3656     58.7389
  1433.2500     25.9387    151.8658     25.2447     59.6248
  1433.5000     25.8703    151.8526     25.0324     61.7472
  1433.7500     25.7798    151.8367     24.7605     63.1361
  1434.0000     25.6652    151.8128     24.4839     64.5227
  1434.2500     25.5147    151.7764     24.2632     64.9407
  1434.5000     25.3078    151.7244     24.1387     64.8553
  1434.7500     25.0273    151.6545     24.1073     64.3194
  1435.0000     24.6763    151.5658     24.1150     63.2513
  1435.2500     24.2869    151.4579     24.0695     62.9488
  1435.5000     23.9107    151.3312     23.8712     63.7486
  1435.7500     23.5976    151.1870     23.4480     64.9036
  1436.0000     23.3752    151.0279     22.7780     66.7166
  1436.2500     23.2435    150.8573     21.8925     67.6945
  1436.5000     23.1829    150.6802     20.8643     68.7521
  1436.7500     23.1628    150.5021     19.7920     69.0245
  1437.0000     23.1401    150.3288     18.7821     68.0003
  1437.2500     23.0519    150.1659     17.9310     66.0107
  1437.5000     22.8225    150.0177     17.3087     61.7719
  1437.7500     22.3901    149.8867     16.9501     59.3575
  1438.0000     21.7432    149.7741     16.8527     58.6773
  1438.2500     20.9395    149.6788     16.9788     60.8501
  1438.5000     20.0936    149.5985     17.2625     67.5683
  1438.7500     19.3454    149.5297     17.6218     73.4201
  1439.0000     18.8300    149.4684     17.9766     82.3897
  1439.2500     18.6668    149.4102     18.2684     87.5692
  1439.5000     18.9600    149.3512     18.4755     92.8011
  1439.7500     19.7905    149.2885     18.6212     93.8214
  1440.0000     21.1868    149.2205     18.7697     90.7281
  1440.2500     23.0884    149.1469     19.0088     85.8062
  1440.5000     25.3315    149.0696     19.4239     76.1344
  1440.7500     27.6774    148.9914     20.0743     69.7424
  1441.0000     29.8772    148.9164     20.9774     62.2233
  1441.2500     31.7370    148.8483     22.1027     58.9357
  1441.5000     33.1552    148.7903     23.3744     56.0862
  1441.7500     34.1194    148.7441     24.6823     55.0452
  1442.0000     34.6767    148.7097     25.8964     54.1407
  1442.2500     34.8965    148.6853     26.8864     53.9277
  1442.5000     34.8389    148.6676     27.5474     54.4327
  1442.7500     34.5384    148.6523     27.8318     55.3434
  1443.0000     34.0025    148.6348     27.7713     57.0940
  1443.2500     33.2278    148.6105     27.4657     58.0275
  1443.5000     32.2254    148.5756     27.0381     58.4099
  1443.7500     31.0424    148.5268     26.5851     58.0543
  1444.0000     29.7674    148.4620     26.1489     57.9032
  1444.2500     28.5153    148.3802     25.7226     59.3071
  1444.5000     27.4007    148.2816     25.2790     65.3229
  1444.7500     26.5139    148.1679     24.8039     71.7105
  1445.0000     25.9112    148.0417     24.3122     81.9517
  1445.2500     25.6151    147.9068     23.8417     86.9437
  1445.5000     25.6149    147.7672     23.4319     89.2161
  1445.7500     25.8612    147.6275     23.1066     87.2400
  1446.0000     26.2643    147.4912     22.8650     80.8009
  1446.2500     26.7077    147.3613     22.6828     75.6650
  1446.5000     27.0769    147.2395     22.5188     69.2391
  1446.7500     27.2894    147.1262     22.3281     66.9453
  1447.0000     27.3084    147.0213     22.0758     67.1161
  1447.2500     27.1389    146.9237     21.7456     69.0231
  1447.5000     26.8144    146.8321     21.3399     72.3348
  1447.7500     26.3820    146.7451     20.8769     73.5934
  1448.0000     25.8882    146.6614     20.3869     73.4482
  1448.2500     25.3635    146.5799     19.9095     72.7434
  1448.5000     24.8136    146.4999     19.4851     72.7630
  1448.7500     24.2265    146.4216     19.1458     74.1844
  1449.0000     23.5944    146.3462     18.9082     78.1445
  1449.2500     22.9357    146.2763     18.7736     81.2721
  1449.5000     22.2994    146.2157     18.7338     85.4127
  1449.7500     21.7477    146.1691     18.7779     87.4327
  1450.0000     21.3364    146.1414     18.8962     89.5830
  1450.2500     21.1114    146.1362     19.0770     90.7807
  1450.5000     21.1183    146.1552     19.3011     92.1947
  1450.7500     21.4036    146.1974     19.5401     92.3060
  1451.0000     21.9980    146.2587     19.7642     90.2122
  1451.2500     22.8903    146.3328     19.9565     87.4598
  1451.5000     24.0142    146.4116     20.1183     82.9875
  1451.7500     25.2591    146.4865     20.2625     80.8225
  1452.0000     26.4924    146.5496     20.3981     79.2931
  1452.2500     27.5800    146.5943     20.5234     78.9228
  1452.5000     28.3993    146.6158     20.6303     78.1524
  1452.7500     28.8515    146.6113     20.7164     77.1362
  1453.0000     28.8767    146.5799     20.7920     75.2831
  1453.2500     28.4707    146.5224     20.8766     74.5597
  1453.5000     27.6945    146.4411     20.9879     75.4312
  1453.7500     26.6683    146.3395     21.1296     77.5266
  1454.0000     25.5489    146.2219     21.2860     82.4815
  1454.2500     24.4946    146.0933     21.4256     86.5255
  1454.5000     23.6322    145.9587     21.5122     92.7625
  1454.7500     23.0390    145.8229     21.5178     96.3998
  1455.0000     22.7463    145.6901     21.4301    100.0479
  1455.2500     22.7562    145.5634     21.2544    100.8011
  1455.5000     23.0550    145.4448     21.0106     98.8546
  1455.7500     23.6111    145.3354     20.7317     95.5055
  1456.0000     24.3587    145.2352     20.4615     88.5746
  1456.2500     25.1858    145.1437     20.2493     84.0168
  1456.5000     25.9437    145.0600     20.1403     79.4930
  1456.7500     26.4809    144.9833     20.1654     78.5426
  1457.0000     26.6884    144.9127     20.3333     79.5776
  1457.2500     26.5329    144.8479     20.6277     81.1603
  1457.5000     26.0646    144.7888     21.0079     83.9195
  1457.7500     25.3986    144.7355     21.4141     85.8062
  1458.0000     24.6817    144.6889     21.7775     88.8294
  1458.2500     24.0554    144.6495     22.0354     91.1769
