~Version Information
VERS.                      2.0: CWLS Log ASCII Standard - VERSION 2.0
WRAP.                       NO: One line per depth step
~Well Information Block
STRT.FT               260.0000: 
STOP.FT              2610.0000: 
STEP.FT                 0.1000: 
NULL.                -999.2500: 
COMP.          Pioneer Natural Resources: COMPANY
WELL.           Costello 44-24: WELL
FLD.           Purgatoire River: FIELD
LOC.           327' FSL & 378' FEL: LOCATION
PROV.                 Colorado: PROVINCE
CNTY.               Las Animas: COUNTRY
SRVC.                Patterson: SERVICE COMPANY
DATE.          Mon Jul 11 10:42:19 2005: LOG DATE
UWI.           05 071 08413 00: UNIQUE WELL ID
~Curve Information Block
DEPT.FT            0 000 00 00: Depth
DCAL.in                       : CDL Caliper
RHOB.g/cc                     : CDL Bulk Density
RHOC.g/cc                     : CDL Density Correction
DPOR.pu                       : CDL Density Porosity
GR.GAPI                       : Gamma Ray
NPOR.pu                       : Neutron Porosity
~Parameter Information Block
~A  Depth       DCAL        RHOB        RHOC        DPOR         GR         NPOR    
# ...
  2439.2000      7.8784      2.5933      0.0662      3.4356    105.8329     24.9187
  2439.3000      7.9143      2.5696      0.0446      4.8758    106.5595     23.9971
  2439.4000      7.9143      2.5803      0.0360      4.2236    104.5537     23.5526
  2439.5000      7.9128      2.6244      0.0702      1.5486     99.5197     23.2633
  2439.6000      7.9128      2.6768      0.1169     -1.6262     92.6676     23.0027
  2439.7000      7.9128      2.7073      0.1064     -3.4757     86.1384     22.8062
  2439.8000      7.9130      2.6927      0.1229     -2.5888     83.8572     22.6432
  2439.9000      7.9130      2.6406      0.0649      0.5723     89.9935     22.1279
  2440.0000      7.9283      2.5922      0.0280      3.5037     99.1046     21.1270
  2440.1000      7.9283      2.5671      0.0335      5.0225    102.3158     20.7321
  2440.2000      7.9283      2.5498      0.0319      6.0740    102.1709     21.3636
  2440.3000      7.9331      2.5331     -0.0152      7.0827    104.9742     21.7940
  2440.4000      7.9331      2.5255      0.0274      7.5451    110.0158     21.7390
  2440.5000      7.9330      2.5268      0.0213      7.4658    116.9484     22.1107
  2440.6000      7.9330      2.5369      0.0422      6.8542    125.5564     22.9697
  2440.7000      7.9330      2.5591      0.0264      5.5069    128.6680     23.5425
  2440.8000      7.9302      2.5806      0.0731      4.2089    124.2307     23.3518
  2440.9000      7.9302      2.5856      0.0514      3.9026    118.0748     23.2352
  2441.0000      7.9371      2.5808      0.0369      4.1945    111.5036     24.1212
  2441.1000      7.9371      2.5777      0.0483      4.3793    103.1937     25.3600
  2441.2000      7.9371      2.5816      0.0358      4.1439     96.2543     25.5972
  2441.3000      7.9409      2.5914      0.0520      3.5486     91.6304     24.4828
  2441.4000      7.9409      2.5959      0.0307      3.2798     90.4446     22.7982
  2441.5000      7.9415      2.5919      0.0410      3.5241     94.9598     21.9121
  2441.6000      7.9415      2.5889      0.0264      3.7002    102.4927     22.3769
  2441.7000      7.9415      2.5877      0.0605      3.7784    108.5338     23.2994
  2441.8000      7.9428      2.5790      0.0762      4.3032    111.8568     23.7049
  2441.9000      7.9428      2.5658      0.0649      5.1025    113.5542     23.7257
  2442.0000      7.9332      2.5621      0.0615      5.3262    113.4304     23.8499
  2442.1000      7.9332      2.5714      0.0917      4.7608    111.1909     23.8624
  2442.2000      7.9332      2.5813      0.1110      4.1629    108.3762     23.5553
  2442.3000      7.8948      2.5796      0.0999      4.2637    107.4641     23.9892
  2442.4000      7.8948      2.5738      0.0927      4.6167    109.8398     25.9637
  2442.5000      7.8921      2.5792      0.0919      4.2919    115.3372     28.2529
  2442.6000      7.8921      2.5910      0.1267      3.5731    123.8574     29.2668
  2442.7000      7.8921      2.5927      0.1332      3.4715    129.9728     29.0395
  2442.8000      7.8974      2.5816      0.0747      4.1469    128.0297     28.6070
  2442.9000      7.8974      2.5722      0.0479      4.7160    123.3087     28.4306
  2443.0000      7.9066      2.5748      0.0485      4.5578    119.9598     27.7333
  2443.1000      7.9066      2.5842      0.0712      3.9898    114.2678     26.6348
  2443.2000      7.9066      2.5872      0.0955      3.8037    107.5839     26.2275
  2443.3000      7.9268      2.5840      0.0183      4.0000    104.4468     26.6323
  2443.4000      7.9268      2.5884      0.0884      3.7327    105.4752     27.1749
  2443.5000      7.9352      2.5958      0.0593      3.2820    107.3076     27.5732
  2443.6000      7.9352      2.5978      0.0586      3.1639    107.7980     27.8343
  2443.7000      7.9352      2.6051      0.0025      2.7242    109.7353     27.5300
  2443.8000      7.9178      2.6130      0.0752      2.2401    114.7686     26.3994
  2443.9000      7.9178      2.6066     -0.0508      2.6305    118.9803     25.0463
  2444.0000      7.9168      2.5986      0.0127      3.1139    120.2057     24.2926
  2444.1000      7.9168      2.6036     -0.0181      2.8106    122.3071     24.4154
  2444.2000      7.9168      2.6161      0.0276      2.0526    128.5070     25.1421
  2444.3000      7.9144      2.6187      0.0572      1.8961    134.8681     25.7777
  2444.4000      7.9144      2.6059      0.0114      2.6719    137.8901     25.7841
  2444.5000      7.9155      2.5943      0.0209      3.3743    139.2041     25.3594
  2444.6000      7.9155      2.5967      0.0364      3.2300    139.8677     24.5817
  2444.7000      7.9155      2.6090      0.0321      2.4856    139.7560     23.1897
  2444.8000      7.9162      2.6149      0.0576      2.1248    139.5220     22.0684
  2444.9000      7.9162      2.6062      0.0327      2.6542    139.4017     22.2741
  2445.0000      7.9175      2.5978      0.0589      3.1626    138.4430     23.1084
  2445.1000      7.9175      2.5981      0.0698      3.1458    135.6759     23.5405
  2445.2000      7.9175      2.5945      0.0640      3.3607    129.4445     24.1869
  2445.3000      7.9266      2.5776      0.0089      4.3898    122.3298     25.9870
  2445.4000      7.9266      2.5504      0.0236      6.0342    123.3136     28.2886
  2445.5000      7.9252      2.5250      0.0199      7.5752    128.9445     29.6284
  2445.6000      7.9252      2.5060      0.0651      8.7301    129.2993     29.4142
  2445.7000      7.9252      2.4892      0.0274      9.7457    126.8739     28.0971
  2445.8000      7.9184      2.4815      0.0522     10.2091    126.6443     26.7811
  2445.9000      7.9184      2.4922      0.0088      9.5648    128.2079     26.2061
  2446.0000      7.8825      2.5212      0.0776      7.8075    129.5226     26.5197
  2446.1000      7.8825      2.5607      0.1205      5.4124    128.6684     27.6147
  2446.2000      7.8825      2.6020      0.1836      2.9072    126.5612     28.3759
  2446.3000      7.8638      2.6349      0.2168      0.9182    127.1602     28.1057
  2446.4000      7.8638      2.6483      0.1929      0.1050    130.0481     27.6956
  2446.5000      7.8352      2.6345      0.2097      0.9373    128.8402     27.9818
  2446.6000      7.8352      2.5977      0.0909      3.1706    124.6935     28.5470
  2446.7000      7.8352      2.5629      0.0734      5.2794    124.1462     28.6792
  2446.8000      7.8400      2.5472      0.0852      6.2330    126.8703     28.9026
  2446.9000      7.8400      2.5485      0.0805      6.1525    128.6561     29.9518
  2447.0000      7.8787      2.5640      0.1013      5.2140    124.5433     31.1697
  2447.1000      7.8787      2.5875      0.0872      3.7898    115.3012     31.1785
  2447.2000      7.8787      2.6048      0.0992      2.7379    112.2309     29.9681
  2447.3000      7.9033      2.6050      0.1302      2.7293    118.5982     29.1554
  2447.4000      7.9033      2.6015      0.0657      2.9416    125.4077     29.3047
  2447.5000      7.9169      2.6216      0.0896      1.7217    129.2250     29.4823
  2447.6000      7.9169      2.6673      0.0998     -1.0473    129.9621     29.3049
  2447.7000      7.9169      2.7155      0.1206     -3.9708    125.7358     29.2090
  2447.8000      7.9475      2.7434      0.1246     -5.6620    117.1727     29.0244
  2447.9000      7.9475      2.7504      0.0591     -6.0852    107.1751     28.5128
  2448.0000      7.9514      2.7565      0.0853     -6.4524     96.8891     28.0760
  2448.1000      7.9514      2.7648      0.1340     -6.9595     89.9422     27.8914
  2448.2000      7.9514      2.7624      0.0580     -6.8145     94.0215     27.7801
  2448.3000      7.9425      2.7440      0.0775     -5.6994    103.2784     27.8369
  2448.4000      7.9425      2.7107      0.0287     -3.6797    105.4430     27.9364
  2448.5000      7.9318      2.6722     -0.0212     -1.3456    104.6989     28.1132
  2448.6000      7.9318      2.6361      0.0221      0.8421    106.3008     28.8674
  2448.7000      7.9318      2.6016      0.0179      2.9327    109.7684     29.3819
