~Version Information
VERS.                      2.0: CWLS Log ASCII Standard - VERSION 2.0
WRAP.                       NO: One line per depth step
~Well Information Block
STRT.FT                -8.2500: 
STOP.FT              1795.0000: 
STEP.FT                 0.2500: 
NULL.                -999.2500: 
COMP.          Petrogulf Corporation: COMPANY
WELL.           Montoya 7-21 R: WELL
FLD.           Purgatoire River: FIELD
LOC.           445' FNL & 1942' FWL----: LOCATION
PROV.                 Colorado: PROVINCE
CNTY.               Las Animas: COUNTRY
SRVC.                         : SERVICE COMPANY
DATE.          Fri Sep 30 15:33:54 2005: LOG DATE
UWI.                          : UNIQUE WELL ID
~Curve Information Block
DEPT.FT            0 000 00 00: Depth
GR.GAPI                       : Gamma Ray
CCL.                          : Casing Collar Locator
TT3.usec                      : CBL 3' Travel Time
AMP3.mV                       : CBL 3' Amplitude
~Parameter Information Block
~A  Depth        GR         CCL         TT3         AMP3    
# ...
  1398.7500    137.7520      0.0000    281.4101     34.6883
  1399.0000    143.5141      0.0000    281.2507     35.9379
  1399.2500    148.6479      0.0000    281.1796     36.7599
  1399.5000    152.5422      0.0000    281.1517     37.3176
  1399.7500    155.6529      0.0000    281.1122     37.9753
  1400.0000    158.3488      0.0000    281.0260     39.0659
  1400.2500    160.1030      0.0000    280.8937     40.6489
  1400.5000    159.8602      0.0000    280.7504     42.4146
  1400.7500    156.9766      0.0000    280.6470     43.8527
  1401.0000    151.9822      0.0000    280.6222     44.5821
  1401.2500    146.6758      0.0000    280.6817     44.5655
  1401.5000    143.2666      0.0000    280.7962     44.0515
  1401.7500    142.9902      0.0000    280.9204     43.3584
  1402.0000    145.2679      0.0000    281.0206     42.6836
  1402.2500    148.2538      0.0000    281.0975     41.9978
  1402.5000    150.3356      0.0000    281.1925     41.0415
  1402.7500    151.1145      0.0000    281.3704     39.4803
  1403.0000    151.0274      0.0000    281.6818     37.1751
  1403.2500    150.4350      0.0000    282.1248     34.3455
  1403.5000    149.2802      0.0000    282.6425     31.4568
  1403.7500    147.3677      0.0000    283.1646     28.9456
  1404.0000    144.7723      0.0000    283.6846     27.0333
  1404.2500    142.1161      0.0000    284.3642     25.7270
  1404.5000    140.4032      0.0000    285.6607     24.9109
  1404.7500    140.3132      0.0000    288.3391     24.4139
  1405.0000    141.6972      0.0000    293.0785     24.0447
  1405.2500    143.8737      0.0000    299.6608     23.6464
  1405.5000    146.2648      0.0000    306.4162     23.1860
  1405.7500    148.6918      0.0000    310.7697     22.8018
  1406.0000    151.0646      0.0000    310.7648     22.7230
  1406.2500    152.7700      0.0000    306.3925     23.0817
  1406.5000    152.6499      0.0000    299.6654     23.7648
  1406.7500    149.9005      0.0000    293.4214     24.4399
  1407.0000    144.8584      0.0000    289.8968     24.7417
  1407.2500    138.8178      0.0000    290.1325     24.4663
  1407.5000    133.2895      0.0000    294.1380     23.6293
  1407.7500    129.2135      0.0000    301.0132     22.3951
  1408.0000    126.3549      0.0000    309.0117     20.9808
  1408.2500    123.4806      0.0000    316.1878     19.5930
  1408.5000    119.5613      0.0000    321.7013     18.3704
  1408.7500    114.8567      0.0000    326.9023     17.3315
  1409.0000    110.7231      0.0000    335.6909     16.3798
  1409.2500    108.4941      0.0000    353.6422     15.3865
  1409.5000    108.5771      0.0000    385.1258     14.2904
  1409.7500    110.3864      0.0000    429.4493     13.1532
  1410.0000    112.9782      0.0000    479.9507     12.1423
  1410.2500    115.8019      0.0000    526.8892     11.4400
  1410.5000    118.8571      0.0000    559.3519     11.1271
  1410.7500    122.0432      0.0000    565.5471     11.1360
  1411.0000    124.5498      0.0000    538.2617     11.3107
  1411.2500    125.3940      0.0000    484.0576     11.5075
  1411.5000    124.7200      0.0000    423.1000     11.6522
  1411.7500    124.0023      0.0000    376.4817     11.7349
  1412.0000    124.5584      0.0000    355.3531     11.7782
  1412.2500    126.2454      0.0000    361.6315     11.8082
  1412.5000    127.8298      0.0000    392.7079     11.8346
  1412.7500    128.1198      0.0000    440.9178     11.8424
  1413.0000    126.5393      0.0000    491.5593     11.7999
  1413.2500    123.2308      0.0000    527.4007     11.6773
  1413.5000    119.1390      0.0000    537.3044     11.4646
  1413.7500    115.8855      0.0000    520.3903     11.1813
  1414.0000    115.1207      0.0000    484.4539     10.8741
  1414.2500    117.6008      0.0000    442.1862     10.6029
  1414.5000    122.6964      0.0000    405.8543     10.4197
  1414.7500    128.8166      0.0000    381.7477     10.3545
  1415.0000    134.4077      0.0000    368.6937     10.4155
  1415.2500    138.6087      0.0000    361.4547     10.6087
  1415.5000    141.0877      0.0000    355.1137     10.9630
  1415.7500    141.3534      0.0000    347.3835     11.5368
  1416.0000    138.4934      0.0000    338.6477     12.3973
  1416.2500    132.1276      0.0000    330.5115     13.6046
  1416.5000    123.6716      0.0000    323.9077     15.2242
  1416.7500    116.0077      0.0000    318.2236     17.3333
  1417.0000    111.5069      0.0000    311.9997     19.9731
  1417.2500    110.3697      0.0000    304.4238     23.0629
  1417.5000    110.5491      0.0000    296.1953     26.3696
  1417.7500    109.1442      0.0000    288.9557     29.5915
  1418.0000    104.5488      0.0000    283.9395     32.5018
  1418.2500     97.7960      0.0000    281.2287     35.0297
  1418.5000     91.6910      0.0000    280.1045     37.2134
  1418.7500     88.6396      0.0000    279.7808     39.0866
  1419.0000     89.2178      0.0000    279.7761     40.6130
  1419.2500     91.9998      0.0000    279.8813     41.7090
  1419.5000     94.2720      0.0000    280.0139     42.2942
  1419.7500     93.7222      0.0000    280.1458     42.3014
  1420.0000     90.3283      0.0000    280.3167     41.6526
  1420.2500     86.4333      0.0000    280.7577     40.2551
  1420.5000     84.6808      0.0000    282.2362     38.0432
  1420.7500     85.9987      0.0000    286.5685     35.0382
  1421.0000     89.3486      0.0000    296.6538     31.3917
  1421.2500     92.7060      0.0000    314.7076     27.4020
  1421.5000     94.0525      0.0000    338.8604     23.4893
  1421.7500     92.0123      0.0000    361.9500     20.0805
  1422.0000     86.2301      0.0000    376.5698     17.4420
  1422.2500     77.5629      0.0000    382.7500     15.6193
  1422.5000     67.9542      0.0000    388.5055     14.5362
  1422.7500     59.8025      0.0000    400.6130     14.1112
  1423.0000     55.1402      0.0000    415.7355     14.2916
  1423.2500     55.2921      0.0000    422.3416     15.0651
  1423.5000     61.0047     -1.4377    411.4006     16.5028
  1423.7500     72.4228      0.0000    384.4731     18.7907
  1424.0000     88.6642      0.0000    351.6615     22.1816
  1424.2500    107.4618      0.0000    323.1136     26.8475
  1424.5000    125.6868      0.0000    302.9918     32.7078
  1424.7500    140.8062      0.0000    289.7713     39.3892
  1425.0000    151.9558      0.0000    279.9684     46.3572
  1425.2500    159.4560      0.0000    271.2169     53.0264
  1425.5000    163.5439      0.0000    263.1713     58.7524
  1425.7500    163.8970      0.0000    256.6634     62.9082
  1426.0000    160.2549      0.0000    252.3673     65.1799
  1426.2500    153.4164      0.0000    250.1257     65.8229
  1426.5000    145.6673      0.0000    249.2218     65.5698
  1426.7500    139.8807      0.0000    248.9431     65.2354
  1427.0000    137.6758      0.0000    248.9100     65.2960
  1427.2500    138.3289      0.0000    249.1327     65.6746
  1427.5000    139.5747      0.0000    249.9922     65.8514
  1427.7500    139.4999      0.0000    252.1340     65.2710
  1428.0000    137.7311      0.0000    256.0990     63.7704
  1428.2500    135.0173      0.0000    261.7505     61.6727
  1428.5000    132.1457      0.0000    268.0262     59.4818
  1428.7500    129.4341      0.0000    273.4783     57.4912
  1429.0000    126.6636      0.0000    277.1954     55.6635
  1429.2500    123.0571      0.0000    279.2015     53.8145
  1429.5000    117.7583      0.0000    280.0856     51.8468
  1429.7500    110.7809      0.0000    280.4421     49.8250
  1430.0000    103.3551      0.0000    280.6180     47.9204
  1430.2500     97.1314      0.0000    280.7467     46.3488
  1430.5000     92.9700      0.0000    280.8509     45.3432
  1430.7500     90.5483      0.0000    280.9154     45.1247
  1431.0000     89.2009      0.0000    280.9277     45.8345
  1431.2500     88.9861      0.0000    280.8918     47.4377
  1431.5000     90.7825      0.0000    280.8246     49.6540
  1431.7500     95.5241      0.0000    280.7444     51.9761
  1432.0000    103.5207      0.0000    280.6660     53.7823
