~Version Information
VERS.                      2.0: CWLS Log ASCII Standard - VERSION 2.0
WRAP.                       NO: One line per depth step
~Well Information Block
STRT.FT               250.0000: 
STOP.FT               894.7500: 
STEP.FT                 0.2500: 
NULL.                -999.2500: 
COMP.          Pioneer Natural Resources: COMPANY
WELL.          Santisteven 13-22: WELL
FLD.           Purgatoire River: FIELD
LOC.           1861' FSL & 992' FWL----: LOCATION
PROV.                 Colorado: PROVINCE
CNTY.               Las Animas: COUNTRY
SRVC.                Patterson: SERVICE COMPANY
DATE.          Sat Apr 02 14:49:07 2005: LOG DATE
UWI.           05 071 08337 00: UNIQUE WELL ID
~Curve Information Block
DEPT.FT            0 000 00 00: Depth
SN.Ohm-m                      : IEL Short Normal
SP.mV                         : IEL Spontaneous Potential
DIR.Ohm-m                     : IEL Induction Resistivity
GR.GAPI                       : Gamma Ray
~Parameter Information Block
~A  Depth        SN          SP         DIR          GR     
# ...
   685.5000    229.2433     26.0309     13.0364    125.1619
   685.7500    246.9918     26.0282     13.1306    126.5739
   686.0000    236.6739     26.0284     13.1672    126.3617
   686.2500    213.5579     26.0311     13.1562    124.6712
   686.5000    200.1087     26.0357     13.1179    121.3584
   686.7500    207.8516     26.0413     13.0711    119.6433
   687.0000    229.1382     26.0471     13.0235    118.6420
   687.2500    243.5109     26.0519     12.9701    119.0466
   687.5000    232.3227     26.0551     12.9028    121.0261
   687.7500    192.2522     26.0558     12.8197    123.1582
   688.0000    137.6570     26.0537     12.7287    127.4985
   688.2500     89.1535     26.0488     12.6419    130.9468
   688.5000     59.6114     26.0414     12.5688    135.8079
   688.7500     50.1010     26.0325     12.5136    137.8833
   689.0000     54.6409     26.0231     12.4789    138.1818
   689.2500     65.4179     26.0145     12.4705    136.5222
   689.5000     75.4801     26.0079     12.4996    131.9242
   689.7500     81.3086     26.0040     12.5833    127.9387
   690.0000     85.6805     26.0033     12.7429    121.5495
   690.2500     97.5539     26.0053     13.0025    117.6435
   690.5000    127.6601     26.0095     13.3867    113.0576
   690.7500    182.0324     26.0148     13.9145    110.7855
   691.0000    256.2912     26.0203     14.5924    107.2988
   691.2500    334.2636     26.0252     15.4093    103.7499
   691.5000    395.8001     26.0290     16.3356     95.4035
   691.7500    430.6163     26.0314     17.3329     88.4646
   692.0000    444.9824     26.0323     18.3695     78.9308
   692.2500    454.7587     26.0320     19.4343     74.6172
   692.5000    473.7286     26.0308     20.5357     71.5041
   692.7500    506.8129     26.0288     21.6815     70.8667
   693.0000    548.5557     26.0263     22.8517     70.7030
   693.2500    585.9604     26.0233     23.9857     70.7228
   693.5000    605.4943     26.0196     24.9954     70.5338
   693.7500    600.2209     26.0149     25.7989     69.9799
   694.0000    573.3890     26.0091     26.3487     68.2555
   694.2500    538.1243     26.0021     26.6420     66.7726
   694.5000    511.3783     25.9942     26.7132     65.1156
   694.7500    501.9859     25.9860     26.6205     64.9269
   695.0000    503.4629     25.9783     26.4268     65.8889
   695.2500    502.8726     25.9721     26.1795     66.7406
   695.5000    497.5936     25.9680     25.8988     67.5550
   695.7500    498.7470     25.9661     25.5845     67.9879
   696.0000    517.0090     25.9664     25.2339     69.4242
   696.2500    549.3333     25.9683     24.8536     71.1609
   696.5000    581.1892     25.9710     24.4572     74.3947
   696.7500    598.8862     25.9737     24.0529     76.4169
   697.0000    599.1764     25.9757     23.6364     78.7352
   697.2500    589.7727     25.9765     23.1958     79.8719
   697.5000    581.7672     25.9762     22.7237     81.1719
   697.7500    580.3585     25.9748     22.2281     81.7027
   698.0000    582.8365     25.9728     21.7309     81.7397
   698.2500    585.1908     25.9707     21.2592     81.2819
   698.5000    588.1989     25.9690     20.8351     80.4153
   698.7500    595.7145     25.9679     20.4722     80.2427
   699.0000    608.7773     25.9675     20.1772     81.3784
   699.2500    623.3649     25.9675     19.9505     83.1227
   699.5000    633.7962     25.9677     19.7862     86.3465
   699.7500    636.8552     25.9676     19.6733     88.0703
   700.0000    632.4763     25.9670     19.5991     89.0021
   700.2500    622.6847     25.9661     19.5519     88.5717
   700.5000    611.6381     25.9652     19.5228     87.4279
   700.7500    605.1214     25.9650     19.5041     87.0594
   701.0000    606.8109     25.9661     19.4889     87.6225
   701.2500    614.2088     25.9691     19.4729     88.4619
   701.5000    619.4638     25.9745     19.4555     89.2628
   701.7500    614.2634     25.9823     19.4406     88.8607
   702.0000    594.6832     25.9923     19.4336     86.7402
   702.2500    564.6811     26.0041     19.4371     84.9277
   702.5000    536.8702     26.0170     19.4498     82.9477
   702.7500    526.3489     26.0302     19.4677     82.4441
   703.0000    539.1874     26.0429     19.4864     82.4814
   703.2500    567.1909     26.0544     19.5038     82.5875
   703.5000    595.9417     26.0643     19.5209     82.4114
   703.7500    616.7565     26.0724     19.5399     82.0589
   704.0000    629.6880     26.0785     19.5630     81.4715
   704.2500    637.8275     26.0830     19.5905     81.2643
   704.5000    641.7520     26.0860     19.6226     81.4287
   704.7500    637.9521     26.0878     19.6609     81.8628
   705.0000    619.1381     26.0888     19.7078     83.0968
   705.2500    576.4840     26.0894     19.7636     84.4433
   705.5000    506.6019     26.0898     19.8265     87.2768
   705.7500    421.1599     26.0904     19.8952     89.3985
   706.0000    348.5459     26.0913     19.9749     91.8746
   706.2500    319.5400     26.0925     20.0800     92.4361
   706.5000    345.9250     26.0937     20.2298     91.2446
   706.7500    412.5765     26.0947     20.4382     89.3004
   707.0000    490.7544     26.0951     20.7009     85.3185
   707.2500    557.3937     26.0947     20.9862     82.4043
   707.5000    602.9958     26.0934     21.2372     78.6934
   707.7500    627.5482     26.0912     21.3847     77.3210
   708.0000    633.7283     26.0882     21.3704     77.3552
   708.2500    622.6561     26.0847     21.1624     78.4337
   708.5000    593.4695     26.0809     20.7573     80.7092
   708.7500    546.3779     26.0773     20.1723     82.4264
   709.0000    486.0598     26.0743     19.4376     85.6924
   709.2500    421.2370     26.0723     18.5945     88.8805
   709.5000    360.6250     26.0719     17.6929     96.0934
   709.7500    310.1393     26.0733     16.7840    102.5437
   710.0000    272.9462     26.0765     15.9103    113.4413
   710.2500    249.9438     26.0812     15.1002    120.4944
   710.5000    239.7971     26.0868     14.3692    129.5392
   710.7500    240.8082     26.0924     13.7249    134.1791
   711.0000    254.2675     26.0971     13.1698    138.5490
   711.2500    284.8475     26.1004     12.7021    139.5853
   711.5000    335.1217     26.1018     12.3134    138.8473
   711.7500    399.4014     26.1015     11.9893    137.6399
   712.0000    464.2875     26.0996     11.7116    136.4628
   712.2500    515.0922     26.0968     11.4621    136.7981
   712.5000    542.9905     26.0935     11.2254    138.8873
   712.7500    549.5991     26.0902     10.9908    140.5550
   713.0000    544.9136     26.0873     10.7540    142.0052
   713.2500    537.8348     26.0851     10.5181    142.0385
   713.5000    530.0285     26.0838     10.2940    141.3376
   713.7500    521.9822     26.0834     10.0981    140.6962
   714.0000    520.8663     26.0839      9.9475    139.1598
   714.2500    535.5250     26.0851      9.8567    137.4451
   714.5000    564.3959     26.0868      9.8358    134.2823
   714.7500    593.6091     26.0884      9.8920    132.5471
   715.0000    606.9172     26.0899     10.0298    131.0112
   715.2500    595.1964     26.0910     10.2510    129.8140
   715.5000    558.8522     26.0917     10.5540    125.2550
   715.7500    505.6070     26.0923     10.9344    119.7539
   716.0000    445.7090     26.0927     11.3873    109.7722
   716.2500    386.8146     26.0932     11.9078    104.2926
   716.5000    333.4128     26.0938     12.4893    101.0807
   716.7500    292.0986     26.0943     13.1173    102.5347
   717.0000    275.6366     26.0945     13.7636    107.6773
   717.2500    297.4482     26.0940     14.3859    111.0043
   717.5000    358.0587     26.0927     14.9348    113.5704
   717.7500    436.3246     26.0905     15.3678    113.7366
   718.0000    498.4604     26.0877     15.6611    113.2435
   718.2500    520.6006     26.0844     15.8146    113.1652
   718.5000    504.9915     26.0812     15.8464    113.7404
   718.7500    475.8893     26.0786     15.7820    114.6874
