~Version Information
VERS.                      2.0: CWLS Log ASCII Standard - VERSION 2.0
WRAP.                       NO: One line per depth step
~Well Information Block
STRT.FT                -2.0000: 
STOP.FT              1016.0000: 
STEP.FT                 0.2500: 
NULL.                -999.2500: 
COMP.          Evergreen Operating Corp.: COMPANY
WELL.              Sunset 24-3: WELL
FLD.           Purgatorie River: FIELD
LOC.           467' FSL & 2262' FWL--: LOCATION
PROV.                       CO: PROVINCE
CNTY.               Las Animas: COUNTRY
SRVC.                         : SERVICE COMPANY
DATE.          Mon Sep 27 13:40:22 2004: LOG DATE
UWI.           005 071 08158  : UNIQUE WELL ID
~Curve Information Block
DEPT.FT            0 000 00 00: Depth
GR.GAPI                       : Gamma Ray
CCL.                          : Casing Collar Locator
TT3.usec                      : CBL 3' Travel Time
AMP3.mV                       : CBL 3' Amplitude
~Parameter Information Block
~A  Depth        GR         CCL         TT3         AMP3    
# ...
   467.0000     70.2486      0.0000    760.7447      3.0614
   467.2500     68.2251      0.0000    774.6000      2.9132
   467.5000     67.2191      0.0000    779.8619      2.8167
   467.7500     66.9743      0.0000    777.8757      2.7718
   468.0000     65.8799      0.0000    773.0784      2.7536
   468.2500     63.0678      0.0000    768.9003      2.7337
   468.5000     59.8392      0.0000    766.9971      2.6949
   468.7500     58.6606      0.0000    767.4308      2.6360
   469.0000     60.8985      0.0000    768.8442      2.5696
   469.2500     65.6099      0.0000    769.2998      2.5087
   469.5000     70.4110      0.0000    767.6293      2.4498
   469.7500     73.5142      0.0000    763.9986      2.3676
   470.0000     74.9820      0.0000    759.1622      2.2269
   470.2500     76.1073      0.0000    753.7256      1.9971
   470.5000     77.7699      0.0000    748.5762      1.6637
   470.7500     79.4727      0.0000    745.3838      1.2429
   471.0000     79.9613      0.0000    745.5858      0.7902
   471.2500     78.7608      0.0000    748.7632      0.3821
   471.5000     76.7757      0.0000    752.9014      0.0781
   471.7500     75.1465      0.0000    756.9470     -0.1074
   472.0000     74.0341      0.0000    762.7362     -0.2029
   472.2500     73.1498      0.0000    772.8611     -0.2536
   472.5000     73.1963      0.0000    785.3266     -0.2879
   472.7500     75.8673      0.0000    791.9175     -0.3002
   473.0000     82.0960      0.0000    785.4803     -0.2674
   473.2500     90.7230      0.0000    769.5909     -0.1807
   473.5000     99.1620      0.0000    758.2409     -0.0592
   473.7500    105.1733      0.0000    764.6334      0.0625
   474.0000    107.9795      0.0000    790.9299      0.1564
   474.2500    108.1185      0.0000    827.9471      0.2138
   474.5000    106.7094      0.0000    862.9086      0.2473
   474.7500    104.9557      0.0000    887.7145      0.2828
   475.0000    104.0272      0.0000    901.6069      0.3445
   475.2500    104.8837      0.0000    907.9303      0.4422
   475.5000    107.6557      0.0000    909.8070      0.5662
   475.7500    111.0098      0.0000    908.5451      0.6939
   476.0000    112.6780      0.0000    903.9540      0.8069
   476.2500    111.4552      0.0000    894.9607      0.9045
   476.5000    108.5969      0.0000    881.3149      0.9991
   476.7500    106.5017      0.0000    866.0928      1.0947
   477.0000    106.2224      0.0000    854.9758      1.1798
   477.2500    107.0817      0.0000    850.8843      1.2470
   477.5000    108.3496      0.0000    850.0157      1.3146
   477.7500    110.2047      0.0000    845.2167      1.4133
   478.0000    113.0269      0.0000    833.4348      1.5500
   478.2500    116.4190      0.0000    819.5220      1.6945
   478.5000    119.1100      0.0000    813.4265      1.8000
   478.7500    119.7029      2.0000    822.7270      1.8277
   479.0000    117.7525      0.0000    845.6842      1.7519
   479.2500    114.4035      0.0000    871.5808      1.5636
   479.5000    111.7933      0.0000    889.0425      1.2916
   479.7500    111.3692      0.0000    894.2584      1.0133
   480.0000    112.6916      0.0000    892.0726      0.8167
   480.2500    114.0292      0.0000    890.6127      0.7349
   480.5000    113.9137      0.0000    894.6332      0.7266
   480.7500    111.9588      0.0000    902.9391      0.7270
   481.0000    108.7199      0.0000    911.2881      0.7100
   481.2500    105.2867      0.0000    916.6630      0.6986
   481.5000    102.8500      0.0000    918.3691      0.7318
   481.7500    102.4031      0.0000    916.2143      0.8331
   482.0000    104.6535      0.0000    908.9061      1.0032
   482.2500    109.6196      0.0000    894.6006      1.2233
   482.5000    115.8909      0.0000    873.1287      1.4599
   482.7500    120.7355      0.0000    847.5705      1.6769
   483.0000    121.6860      0.0000    823.2656      1.8557
   483.2500    118.2908      0.0000    805.3207      2.0097
   483.5000    112.4497      0.0000    797.0252      2.1762
   483.7500    107.1273      0.0000    799.1848      2.3843
   484.0000    104.5624      0.0000    809.6804      2.6324
   484.2500    105.2038      0.0000    824.6598      2.8934
   484.5000    107.7450      0.0000    841.5269      3.1316
   484.7500    110.1670      0.0000    859.9551      3.3121
   485.0000    111.5022      0.0000    879.2865      3.4081
   485.2500    112.8130      0.0000    896.5613      3.4173
   485.5000    115.8702      0.0000    908.1667      3.3709
   485.7500    120.6684      0.0000    911.9780      3.3207
   486.0000    124.7293      0.0000    907.0801      3.3111
   486.2500    125.0998      0.0000    892.9333      3.3557
   486.5000    120.8607      0.0000    870.4342      3.4335
   486.7500    113.6964      0.0000    843.4623      3.5081
   487.0000    106.1360      0.0000    817.8627      3.5601
   487.2500     99.3276      0.0000    798.2006      3.6060
   487.5000     92.7236      0.0000    785.6519      3.6806
   487.7500     85.7036      0.0000    778.7132      3.8001
   488.0000     78.8130      0.0000    775.0188      3.9447
   488.2500     73.2010      0.0000    772.4742      4.0762
   488.5000     69.4913      0.0000    769.8234      4.1680
   488.7500     67.6677      0.0000    766.9167      4.2187
   489.0000     67.6306      0.0000    764.3141      4.2423
   489.2500     69.1508      0.0000    762.4935      4.2491
   489.5000     71.3927      0.0000    761.5001      4.2409
   489.7500     73.0883      0.0000    761.1204      4.2198
   490.0000     73.5104      0.0000    761.1019      4.1955
   490.2500     73.1623      0.0000    761.1872      4.1764
   490.5000     73.3250      0.0000    761.1371      4.1579
   490.7500     74.8080      0.0000    760.8414      4.1234
   491.0000     77.1880      0.0000    760.3981      4.0567
   491.2500     79.4357      0.0000    760.0740      3.9536
   491.5000     81.1472      0.0000    760.2248      3.8261
   491.7500     82.6150      0.0000    761.3295      3.7015
   492.0000     83.6803      0.0000    764.0042      3.6139
   492.2500     83.4180      0.0000    768.6732      3.5902
   492.5000     81.5970      0.0000    774.9003      3.6345
   492.7500     79.8795      0.0000    781.1423      3.7230
   493.0000     80.7725      0.0000    785.6767      3.8149
   493.2500     85.2754      0.0000    788.0566      3.8721
   493.5000     91.8125      0.0000    789.3896      3.8784
   493.7500     97.4040      0.0000    791.0121      3.8467
   494.0000     99.7666      0.0000    793.2256      3.8061
   494.2500     98.5813      0.0000    795.4741      3.7786
   494.5000     95.3344      0.0000    797.3698      3.7623
   494.7500     92.0346      0.0000    799.3857      3.7389
   495.0000     89.7425      0.0000    803.0012      3.6928
   495.2500     88.2806      0.0000    810.3838      3.6241
   495.5000     87.3846      0.0000    823.0630      3.5487
   495.7500     87.6313      0.0000    840.0002      3.4904
   496.0000     89.6825      0.0000    857.4970      3.4662
   496.2500     92.8360      0.0000    872.2488      3.4723
   496.5000     95.0167      0.0000    884.1281      3.4857
   496.7500     94.5538      0.0000    894.8663      3.4804
   497.0000     91.8155      0.0000    904.8588      3.4450
   497.2500     88.8350      0.0000    912.7769      3.3879
   497.5000     87.3176      0.0000    917.6484      3.3291
   497.7500     87.1351      0.0000    919.9187      3.2879
   498.0000     86.9174      0.0000    920.6988      3.2683
   498.2500     85.9446      0.0000    920.7961      3.2549
   498.5000     84.9840      0.0000    920.4016      3.2257
   498.7500     85.1345      0.0000    919.1224      3.1742
   499.0000     86.3934      0.0000    916.1663      3.1170
   499.2500     87.7368      0.0000    910.9387      3.0768
   499.5000     88.3974      0.0000    904.0460      3.0597
   499.7500     88.6763      0.0000    897.7810      3.0481
   500.0000     89.2964      0.0000    894.9077      3.0174
   500.2500     90.0716      0.0000    896.2491      2.9586
