~Version Information
VERS.                      2.0: CWLS Log ASCII Standard - VERSION 2.0
WRAP.                       NO: One line per depth step
~Well Information Block
STRT.FT                -7.0000: 
STOP.FT               867.2500: 
STEP.FT                 0.2500: 
NULL.                -999.2500: 
COMP.          Pioneer Natural Resources: COMPANY
WELL.          Claim Jumper 41-22: WELL
FLD.           Purgatorie River: FIELD
LOC.           1120' FNL & 977' FEL--: LOCATION
PROV.                       CO: PROVINCE
CNTY.               Las Animas: COUNTRY
SRVC.          Patterson Wireline: SERVICE COMPANY
DATE.          Mon Jun 27 12:47:30 2005: LOG DATE
UWI.           05 071 08405 00: UNIQUE WELL ID
~Curve Information Block
DEPT.FT            0 000 00 00: Depth
CCL.                          : Casing Collar Locator
TT3.usec                      : CBL 3' Travel Time
AMP3.mV                       : CBL 3' Amplitude
GR.GAPI                       : Gamma Ray
~Parameter Information Block
~A  Depth       CCL         TT3         AMP3         GR     
# ...
   830.5000      0.0000    855.9713      8.7332     78.7528
   830.7500      0.0000    843.7310      8.8468     75.3941
   831.0000      0.0000    834.6533      8.8034     74.4328
   831.2500      0.0000    828.9692      8.6264     75.8772
   831.5000      0.0000    825.6561      8.3573     78.1061
   831.7500      0.0000    823.0988      8.0535     79.3995
   832.0000      0.0000    819.5026      7.7600     79.1688
   832.2500      0.0000    813.0128      7.4936     77.8583
   832.5000      0.0000    802.3052      7.2650     76.1851
   832.7500      0.0000    788.0989      7.0986     74.7478
   833.0000      0.0000    774.1219      7.0106     73.9534
   833.2500      0.0000    765.4853      6.9796     73.8444
   833.5000      0.0000    765.0362      6.9583     73.9784
   833.7500      0.0000    771.2514      6.9162     73.7279
   834.0000      0.0000    780.0121      6.8569     72.8462
   834.2500      0.0000    788.1373      6.7936     71.8165
   834.5000      0.0000    794.7279      6.7279     71.5010
   834.7500      0.0000    799.7985      6.6578     72.2395
   835.0000      0.0000    803.1740      6.5905     73.4905
   835.2500      0.0000    805.1125      6.5351     74.5831
   835.5000      0.0000    806.7811      6.4903     75.4855
   835.7500      0.0000    809.2310      6.4531     76.4888
   836.0000      0.0000    812.3093      6.4326     77.5001
   836.2500      0.0000    815.0446      6.4413     78.0350
   836.5000      0.0000    816.7608      6.4741     77.7406
   836.7500      0.0000    817.4996      6.5111     76.7472
   837.0000      0.0000    817.6634      6.5420     75.6494
   837.2500      0.0000    817.6007      6.5727     75.2026
   837.5000      0.0000    817.4828      6.6021     75.8976
   837.7500      0.0000    817.3706      6.6111     77.6091
   838.0000      0.0000    817.3088      6.5852     79.5306
   838.2500      0.0000    817.3649      6.5387     80.6118
   838.5000      0.0000    817.5846      6.5014     80.3882
   838.7500      0.0000    817.9482      6.4894     79.4560
   839.0000      0.0000    818.3979      6.5009     78.8890
   839.2500      0.0000    818.8994      6.5337     79.1901
   839.5000      0.0000    819.4773      6.5909     80.1021
   839.7500      0.0000    820.2324      6.6694     81.2780
   840.0000      0.0000    821.3813      6.7549     82.6356
   840.2500      0.0000    823.2157      6.8317     84.0120
   840.5000      0.0000    825.8165      6.8959     85.0244
   840.7500      0.0000    828.7341      6.9581     85.5653
   841.0000      0.0000    831.0776      7.0312     86.1249
   841.2500      0.0000    831.9529      7.1137     87.2608
   841.5000      0.0000    830.6056      7.1856     88.8801
   841.7500      0.0000    826.4969      7.2275     90.1517
   842.0000      0.0000    820.2815      7.2439     89.9868
   842.2500      0.0000    814.8680      7.2583     87.7131
   842.5000      0.0000    814.0796      7.2813     83.7486
   842.7500      0.0000    819.0948      7.2907     79.7982
   843.0000      0.0000    826.8447      7.2543     78.0483
   843.2500      0.0000    832.8239      7.1709     79.8024
   843.5000      0.0000    834.9323      7.0761     84.7479
   843.7500      0.0000    833.9666      7.0058     91.2925
   844.0000      0.0000    831.4681      6.9608     97.2185
   844.2500      0.0000    828.4252      6.9157    100.2707
   844.5000      0.0000    825.6294      6.8579     99.1873
   844.7500      0.0000    824.0537      6.8078     94.7598
   845.0000      0.0000    824.5426      6.7986     89.4683
   845.2500      0.0000    827.3093      6.8403     85.6739
   845.5000      0.0000    831.5179      6.9058     84.2304
   845.7500      0.0000    835.3510      6.9502     84.6117
   846.0000      0.0000    836.7823      6.9437     85.7598
   846.2500      0.0000    834.5362      6.8896     86.6792
   846.5000      0.0000    828.6251      6.8147     86.7956
   846.7500      0.0000    820.6220      6.7416     86.1195
   847.0000      0.0000    813.4379      6.6669     84.9861
   847.2500      0.0000    809.9338      6.5672     83.7154
   847.5000      0.0000    811.0039      6.4337     82.6332
   847.7500      0.0000    814.5884      6.2988     82.0626
   848.0000      0.0000    816.3936      6.2183     82.0719
   848.2500      0.0000    812.5107      6.2236     82.5144
   848.5000      0.0000    802.5217      6.2961     83.3674
   848.7500      0.0000    789.9428      6.3882     84.7305
   849.0000      0.0000    778.9326      6.4640     86.5161
   849.2500      0.0000    770.7644      6.5193     88.3601
   849.5000      0.0000    764.1054      6.5688     89.8171
   849.7500      0.0000    758.2405      6.6197     90.6702
   850.0000      0.0000    754.7633      6.6596     91.0960
   850.2500      0.0000    755.7307      6.6633     91.3700
   850.5000      0.0000    760.7471      6.6103     91.4932
   850.7500      0.0000    766.3680      6.5013     91.3682
   851.0000      0.0000    768.3463      6.3600     91.1985
   851.2500      0.0000    764.5601      6.2155     91.4357
   851.5000      0.0000    756.2889      6.0832     92.4311
   851.7500      0.0000    747.2646      5.9654     94.2514
   852.0000      0.0000    741.5448      5.8653     96.6856
   852.2500      0.0000    741.6153      5.7908     99.2389
   852.5000      0.0000    747.4220      5.7499    101.1469
   852.7500      0.0000    756.4835      5.7484    101.3918
   853.0000      0.0000    765.2420      5.7924     98.5581
   853.2500      0.0000    771.3760      5.8864     90.8776
   853.5000      0.0000    775.4360      6.0264     77.1667
   853.7500      0.0000    779.8139      6.1986     58.3909
   854.0000      0.0000    785.7617      6.3853     38.1704
   854.2500      0.0000    791.8080      6.5705     20.9993
   854.5000      0.0000    795.2238      6.7376      9.5252
   854.7500      0.0000    794.4870      6.8700      3.5079
   855.0000      0.0000    790.4554      6.9605      1.0371
   855.2500      0.0000    785.9351      7.0235      0.2436
   855.5000      0.0000    784.0467      7.0893      0.0447
   855.7500      0.0000    786.0965      7.1791      0.0058
   856.0000      0.0000    790.5229      7.2848      0.0000
   856.2500      0.0000    794.0953      7.3769   -999.2500
   856.5000      0.0000    794.4914      7.4342   -999.2500
   856.7500      0.0000    792.1244      7.4605   -999.2500
   857.0000      0.0000    789.7230      7.4727   -999.2500
   857.2500      0.0000    789.9070      7.4745   -999.2500
   857.5000      0.0000    792.7103      7.4449   -999.2500
   857.7500      0.0000    794.7291      7.3517   -999.2500
   858.0000      0.0000    789.4943      7.1676   -999.2500
   858.2500      0.0000    767.0481      6.8595   -999.2500
   858.5000      0.0000    713.5425      6.3576   -999.2500
   858.7500      0.0000    616.3241      5.5746   -999.2500
   859.0000      0.0000    476.7111      4.5098   -999.2500
   859.2500      0.0000    318.8192      3.3313   -999.2500
   859.5000      0.0000    179.0874      2.3010   -999.2500
   859.7500      0.0000     82.6715      1.5968   -999.2500
   860.0000      0.0000     30.8800      1.2217   -999.2500
   860.2500      0.0000      9.2306      1.0659   -999.2500
   860.5000      0.0000      2.1880      1.0156   -999.2500
   860.7500      0.0000      0.4059      1.0029   -999.2500
   861.0000      0.0000      0.0540      1.0004   -999.2500
   861.2500      0.0000   -999.2500   -999.2500   -999.2500
   861.5000      0.0000   -999.2500   -999.2500   -999.2500
   861.7500      0.0000   -999.2500   -999.2500   -999.2500
   862.0000      0.0000   -999.2500   -999.2500   -999.2500
   862.2500      0.0000   -999.2500   -999.2500   -999.2500
   862.5000      0.0000   -999.2500   -999.2500   -999.2500
   862.7500      0.0000   -999.2500   -999.2500   -999.2500
   863.0000      0.0000   -999.2500   -999.2500   -999.2500
   863.2500      0.0000   -999.2500   -999.2500   -999.2500
   863.5000      0.0000   -999.2500   -999.2500   -999.2500
   863.7500      0.0000   -999.2500   -999.2500   -999.2500
