~Version Information
VERS.                      2.0: CWLS Log ASCII Standard - VERSION 2.0
WRAP.                       NO: One line per depth step
~Well Information Block
STRT.FT               806.0000: 
STOP.FT              1814.0000: 
STEP.FT                 0.2500: 
NULL.                -999.2500: 
COMP.          Pioneer Natural Resources: COMPANY
WELL.            Hill 33-22 Tr: WELL
FLD.           Purgatoire River: FIELD
LOC.           1573' FSL & 1585' FEL: LOCATION
PROV.                 Colorado: PROVINCE
CNTY.               Las Animas: COUNTRY
SRVC.                Patterson: SERVICE COMPANY
DATE.          Thu Apr 14 09:13:17 2005: LOG DATE
UWI.           05 071 08316 00: UNIQUE WELL ID
~Curve Information Block
DEPT.FT            0 000 00 00: Depth
SN.Ohm-m                      : IEL Short Normal
SP.mV                         : IEL Spontaneous Potential
DIR.Ohm-m                     : IEL Induction Resistivity
GR.GAPI                       : Gamma Ray
~Parameter Information Block
~A  Depth        SN          SP         DIR          GR     
   806.0000   2000.0000   2000.0000    115.0846     88.6176
   806.2500   2000.0000   2000.0000    120.5861    100.6002
   806.5000   2000.0000   2000.0000    125.7768    118.4688
   806.7500   2000.0000   2000.0000    128.4128    128.2465
   807.0000   2000.0000   2000.0000    127.2167    137.8347
   807.2500   2000.0000   2000.0000    123.1619    141.1074
   807.5000   2000.0000   2000.0000    118.4352    142.9740
   807.7500   2000.0000   2000.0000    114.6221    142.6784
   808.0000   2000.0000   2000.0000    112.1341    139.2597
   808.2500   2000.0000   2000.0000    110.6616    134.6082
   808.5000   2000.0000   2000.0000    109.8147    125.3025
   808.7500   2000.0000   2000.0000    109.5046    119.1632
   809.0000   2000.0000   2000.0000    109.9580    111.7788
   809.2500   2000.0000   2000.0000    111.4989    107.4873
   809.5000   2000.0000   2000.0000    114.2549     99.5948
   809.7500   2000.0000   2000.0000    117.8650     92.7721
   810.0000   2000.0000   2000.0000    121.2264     81.7893
   810.2500   2000.0000   2000.0000    122.6946     75.5750
   810.5000   2000.0000   2000.0000    121.0809     69.8183
   810.7500   2000.0000   2000.0000    116.7854     68.6490
   811.0000   2000.0000   2000.0000    111.5392     70.5607
   811.2500   2000.0000   2000.0000    107.0998     73.8420
   811.5000   2000.0000   2000.0000    104.4428     80.6543
   811.7500   2000.0000   2000.0000    103.9222     85.6965
   812.0000   2000.0000   2000.0000    105.7585     93.1008
   812.2500   2000.0000   2000.0000    110.2881     97.7900
   812.5000   2000.0000   2000.0000    117.6894    104.5006
   812.7500   2000.0000   2000.0000    127.0814    108.7243
   813.0000   2000.0000   2000.0000    135.4515    114.6410
   813.2500   2000.0000   2000.0000    138.3884    118.4353
   813.5000   2000.0000   2000.0000    134.0120    124.1414
   813.7500   2000.0000   2000.0000    125.2064    127.8278
   814.0000   2000.0000   2000.0000    116.3109    132.5326
   814.2500   2000.0000   2000.0000    109.7463    134.7642
   814.5000   2000.0000   2000.0000    105.8929    136.5130
   814.7500   2000.0000   2000.0000    104.1719    136.7424
   815.0000   2000.0000   2000.0000    103.8124    136.4574
   815.2500   2000.0000   2000.0000    104.1952    136.4599
   815.5000   2000.0000   2000.0000    104.9399    137.3792
   815.7500   2000.0000   2000.0000    105.8365    138.5701
   816.0000   2000.0000   2000.0000    106.7014    140.7415
   816.2500   2000.0000   2000.0000    107.2486    141.9616
   816.5000   2000.0000   2000.0000    107.0331    142.3574
   816.7500   2000.0000   2000.0000    105.4737    141.2070
   817.0000   2000.0000   2000.0000    101.9518    137.5455
   817.2500   2000.0000   2000.0000     96.1365    134.3876
   817.5000   2000.0000   2000.0000     88.4756    129.3993
   817.7500   2000.0000   2000.0000     80.2597    125.8920
   818.0000   2000.0000   2000.0000     72.9609    119.7042
   818.2500   2000.0000   2000.0000     67.4955    114.7824
   818.5000   2000.0000   2000.0000     64.0017    107.1398
   818.7500   2000.0000   2000.0000     61.9978    103.0685
   819.0000   2000.0000   2000.0000     60.6328    100.6190
   819.2500   2000.0000   2000.0000     58.9987    102.1337
   819.5000   2000.0000   2000.0000     56.5620    108.8268
   819.7500   2000.0000   2000.0000     53.5435    115.0464
   820.0000   2000.0000   2000.0000     50.9562    123.6890
   820.2500   2000.0000   2000.0000     50.3907    127.1285
   820.5000   2000.0000   2000.0000     54.2356    127.2910
   820.7500   2000.0000   2000.0000     67.9312    124.2255
   821.0000   2000.0000   2000.0000    113.9773    115.9479
   821.2500   2000.0000   2000.0000    597.0319    108.7676
   821.5000   2000.0000   2000.0000 100000.0000     97.1394
   821.7500   2000.0000   2000.0000 100000.0000     89.9003
   822.0000   2000.0000   2000.0000 100000.0000     81.8223
   822.2500   2000.0000   2000.0000 100000.0000     79.4606
   822.5000   2000.0000   2000.0000 100000.0000     81.7270
   822.7500   2000.0000   2000.0000 100000.0000     86.9012
   823.0000   2000.0000   2000.0000 100000.0000     98.0786
   823.2500   2000.0000   2000.0000 100000.0000    106.1560
   823.5000   2000.0000   2000.0000 100000.0000    117.0227
   823.7500   2000.0000   2000.0000 100000.0000    122.9244
   824.0000   2000.0000   2000.0000 100000.0000    129.9182
   824.2500   2000.0000   2000.0000 100000.0000    133.5795
   824.5000   2000.0000   2000.0000 100000.0000    137.7533
   824.7500   2000.0000   2000.0000 100000.0000    139.6970
   825.0000   2000.0000   2000.0000 100000.0000    141.6461
   825.2500   2000.0000   2000.0000 100000.0000    142.7303
   825.5000   2000.0000   2000.0000 100000.0000    145.1287
   825.7500   2000.0000   2000.0000 100000.0000    147.6790
   826.0000   2000.0000   2000.0000 100000.0000    152.2691
   826.2500   2000.0000   2000.0000 100000.0000    154.6228
   826.5000   2000.0000   2000.0000 100000.0000    155.2400
   826.7500   2000.0000   2000.0000 100000.0000    153.8145
   827.0000   2000.0000   2000.0000 100000.0000    151.3387
   827.2500   2000.0000   2000.0000 100000.0000    151.1788
   827.5000   2000.0000   2000.0000 100000.0000    154.4232
   827.7500   2000.0000   2000.0000     10.5170    153.0709
   828.0000   2000.0000   2000.0000      4.5710    159.4118
   828.2500   2000.0000   2000.0000      3.2024    163.0247
   828.5000   2000.0000   2000.0000      2.8096    166.1141
   828.7500   2000.0000   2000.0000      2.8326    154.6736
   829.0000   2000.0000   2000.0000      3.1243    152.0357
   829.2500   2000.0000   2000.0000      3.6676    149.1181
   829.5000   2000.0000   2000.0000      4.5623    144.1472
   829.7500   2000.0000   2000.0000      6.1140    130.5425
   830.0000   2000.0000   2000.0000      9.0513    127.2379
   830.2500   2000.0000   2000.0000     14.8820    126.1226
   830.5000   2000.0000   2000.0000     24.7663    125.9045
   830.7500   2000.0000   2000.0000     31.1211    116.1776
   831.0000   2000.0000   2000.0000     25.6742    116.8713
   831.2500   2000.0000   2000.0000     18.6297    117.3878
   831.5000   2000.0000   2000.0000     14.5034    118.4234
   831.7500   2000.0000   2000.0000     12.4631    109.1392
   832.0000   2000.0000   2000.0000     11.5504    111.8036
   832.2500   2000.0000   2000.0000     11.2172    114.5867
   832.5000   2000.0000   2000.0000     11.1716    119.9347
   832.7500   2000.0000   2000.0000     11.2692    123.5365
   833.0000   2000.0000   2000.0000     11.4534    127.5410
   833.2500   2000.0000   2000.0000     11.7250    128.9763
   833.5000   2000.0000   2000.0000     12.1315    130.0592
   833.7500   2000.0000   2000.0000     12.7507    130.8709
   834.0000   2000.0000   2000.0000     13.6506    133.1362
   834.2500   2000.0000   2000.0000     14.8197    135.2292
   834.5000   2000.0000   2000.0000     16.0994    137.9714
   834.7500   2000.0000   2000.0000     17.1947    138.7273
   835.0000   2000.0000   2000.0000     17.8327    138.0948
   835.2500   2000.0000   2000.0000     17.9486    137.2195
   835.5000   2000.0000   2000.0000     17.6796    136.6606
   835.7500   2000.0000   2000.0000     17.2045    137.0687
   836.0000   2000.0000   2000.0000     16.6418    138.2771
   836.2500   2000.0000   2000.0000     16.0634    138.9863
   836.5000   2000.0000   2000.0000     15.5412    139.5569
   836.7500   2000.0000   2000.0000     15.1569    139.7656
   837.0000   2000.0000   2000.0000     14.9716    140.2442
   837.2500   2000.0000   2000.0000     14.9935    140.6747
   837.5000   2000.0000   2000.0000     15.1731    140.8862
   837.7500   2000.0000   2000.0000     15.4312    140.3257
   838.0000   2000.0000   2000.0000     15.7029    138.4951
   838.2500   2000.0000   2000.0000     15.9637    137.2521
   838.5000   2000.0000   2000.0000     16.2177    136.6163
   838.7500   2000.0000   2000.0000     16.4687    137.1738
   839.0000   2000.0000   2000.0000     16.7043    138.5782
   839.2500   2000.0000   2000.0000     16.9088    139.2850
