~Version Information
 VERS.                      2.0: CWLS Log ASCII Standard - VERSION 2.0
 WRAP.                       NO: One line per depth step
 ~Well Information Block
 STRT.FT               762.3000: 
 STOP.FT              2573.7000: 
 STEP.FT                 0.1000: 
 NULL.                -999.2500: 
 COMP.          Petrogulf Corporation: COMPANY
 WELL.               J&P 12-33V: WELL
 FLD.           Purgatorie River: FIELD
 LOC.           2005' FSL & 1928' FEL: LOCATION
 CNTY.               Las Animas: COUNTY
 SRVC.                         : SERVICE COMPANY
 DATE.          Sat Aug 28 11:34:36 2004: LOG DATE
 UWI.           05 071 08092 00: UNIQUE WELL ID
 STAT.                 Colorado: STATE
 PROV.                         :Province
 ~Curve Information Block
 DEPT.FT            0 000 00 00: Depth
 GR.GAPI                       : Gamma Ray
 DCAL.in                       : CDL Caliper
 DPOR.pu                       : CDL Density Porosity
 NPOR.pu                       : Neutron Porosity
 RHOB.g/cc                     : CDL Bulk Density
 RHOC.g/cc                     : CDL Density Correction
 ~Parameter Information Block
 ~A  Depth        GR         DCAL        DPOR        NPOR        RHOB        RHOC    
# ...
  1136.7000    152.5880      8.2195      7.3474     23.6003      2.5288      0.0375
  1136.8000    157.5104      8.2198      8.6540     23.7905      2.5072     -0.0104
  1136.9000    154.6549      8.2198      9.7883     24.0065      2.4885     -0.0260
  1137.0000    145.0818      8.2215      9.8971     24.3313      2.4867     -0.0038
  1137.1000    141.3573      8.2215      8.9277     24.7851      2.5027     -0.0485
  1137.2000    146.0616      8.2215      7.1175     25.1632      2.5326      0.0248
  1137.3000    151.4653      8.2243      5.5821     25.3509      2.5579      0.0340
  1137.4000    151.7467      8.2243      5.4144     25.3903      2.5607      0.0702
  1137.5000    146.6053      8.2289      6.0235     25.3679      2.5506      0.0144
  1137.6000    140.0236      8.2289      6.2451     25.3993      2.5470      0.0605
  1137.7000    134.9600      8.2289      6.1764     25.5424      2.5481      0.0518
  1137.8000    133.5984      8.2237      6.2370     25.6348      2.5471      0.0292
  1137.9000    137.8547      8.2237      6.4510     25.6391      2.5436      0.0119
  1138.0000    142.8473      8.2229      6.9400     25.7631      2.5355      0.0248
  1138.1000    144.2439      8.2229      7.5589     26.0387      2.5253     -0.0040
  1138.2000    144.7062      8.2229      7.7117     26.5119      2.5228      0.0025
  1138.3000    146.5096      8.2201      7.0879     27.0220      2.5330     -0.0003
  1138.4000    147.9966      8.2201      6.0172     27.3095      2.5507      0.0323
  1138.5000    148.5410      8.2173      4.9681     27.5085      2.5680      0.0241
  1138.6000    145.6440      8.2173      3.9153     27.7323      2.5854      0.0165
  1138.7000    137.9658      8.2173      2.7396     27.7905      2.6048      0.0507
  1138.8000    130.5065      8.2158      2.1395     27.6059      2.6147      0.0556
  1138.9000    125.8013      8.2158      2.8380     27.3231      2.6032      0.0111
  1139.0000    122.7252      8.2170      4.2988     27.1610      2.5791      0.0273
  1139.1000    123.2314      8.2170      5.6083     27.0657      2.5575      0.0264
  1139.2000    126.5744      8.2170      6.3998     26.9068      2.5444      0.0217
  1139.3000    126.4167      8.2166      6.2746     26.8156      2.5465     -0.0106
  1139.4000    121.6710      8.2166      5.0330     26.8446      2.5670     -0.0110
  1139.5000    118.3541      8.2153      3.3288     26.9828      2.5951      0.0816
  1139.6000    117.0210      8.2153      1.9703     27.1938      2.6175      0.0774
  1139.7000    111.2504      8.2153      1.3280     27.4312      2.6281      0.1002
  1139.8000    103.1864      8.2159      1.2573     27.6942      2.6293      0.0607
  1139.9000    101.6676      8.2159      0.8360     27.8256      2.6362      0.0216
  1140.0000    107.8277      8.2143     -0.1239     27.9401      2.6520      0.0810
  1140.1000    111.5529      8.2143     -0.5112     28.4260      2.6584      0.0744
  1140.2000    106.1709      8.2143      0.0005     28.9609      2.6500      0.0408
  1140.3000     99.7315      8.2139      0.8419     28.8253      2.6361      0.0709
  1140.4000    100.2564      8.2139      1.9733     28.1729      2.6174      0.0660
  1140.5000    106.2592      8.2106      3.6803     27.5623      2.5893      0.0755
  1140.6000    115.9534      8.2106      5.3312     27.0190      2.5620     -0.0055
  1140.7000    125.7993      8.2106      5.5987     26.5682      2.5576      0.0169
  1140.8000    130.5988      8.2136      4.4264     26.2997      2.5770      0.0252
  1140.9000    128.7724      8.2136      2.8426     26.1325      2.6031      0.0713
  1141.0000    122.0131      8.2177      1.3356     25.9867      2.6280      0.0830
  1141.1000    116.4603      8.2177     -0.5154     25.8436      2.6585      0.1050
  1141.2000    116.6079      8.2177     -3.2675     25.7754      2.7039      0.1314
  1141.3000    120.7335      8.2183     -5.8835     25.8195      2.7471      0.2102
  1141.4000    125.3611      8.2183     -5.9761     25.9174      2.7486      0.2038
  1141.5000    127.8296      8.2155     -2.9436     25.8631      2.6986      0.1658
  1141.6000    125.9101      8.2155      1.2182     25.5039      2.6299      0.0695
  1141.7000    120.6336      8.2155      4.4512     25.1104      2.5766      0.0169
  1141.8000    116.4396      8.2134      5.8143     25.1516      2.5541     -0.0066
  1141.9000    114.8525      8.2134      5.4134     25.5635      2.5607      0.0237
  1142.0000    115.9783      8.2138      4.4483     25.7951      2.5766      0.0157
  1142.1000    116.8469      8.2138      3.8104     25.5640      2.5871      0.0431
  1142.2000    114.5596      8.2138      3.3448     25.1526      2.5948      0.0664
  1142.3000    112.1748      8.2133      2.9164     24.9395      2.6019      0.0918
  1142.4000    111.8745      8.2133      2.8721     25.0257      2.6026      0.0846
  1142.5000    111.1697      8.2119      3.4257     25.3175      2.5935      0.0817
  1142.6000    107.9457      8.2119      4.6008     25.6869      2.5741      0.0723
  1142.7000    103.5659      8.2119      6.0342     26.0515      2.5504      0.0437
  1142.8000    100.4193      8.2117      6.6415     26.2731      2.5404      0.0072
  1142.9000     99.7679      8.2117      5.8547     26.1226      2.5534      0.0409
  1143.0000     98.2726      8.2112      4.5393     25.6356      2.5751      0.0196
  1143.1000     90.9423      8.2112      3.6368     25.2844      2.5900      0.0184
  1143.2000     81.1654      8.2112      3.4769     25.4411      2.5926      0.0782
  1143.3000     76.4996      8.2227      4.2050     25.8366      2.5806      0.1090
  1143.4000     74.7569      8.2227      5.2228     25.9000      2.5638      0.0454
  1143.5000     69.1043      8.2211      5.3624     25.5235      2.5615      0.0484
  1143.6000     61.1389      8.2211      4.1095     24.8633      2.5822      0.0067
  1143.7000     56.3724      8.2211      1.8700     24.0641      2.6191      0.0801
  1143.8000     55.5059      8.2216     -0.1528     23.4038      2.6525      0.1130
  1143.9000     55.4620      8.2216     -1.0487     22.8877      2.6673      0.1172
  1144.0000     57.3692      8.2202     -1.1081     22.2618      2.6683      0.1118
  1144.1000     64.6046      8.2202     -0.9127     21.4230      2.6651      0.1208
  1144.2000     71.5445      8.2202     -0.1777     20.3770      2.6529      0.1099
  1144.3000     71.8136      8.2187      1.7509     19.1928      2.6211      0.1084
  1144.4000     68.6317      8.2187      4.1511     18.1318      2.5815      0.0272
  1144.5000     67.8773      8.2114      5.2108     17.4792      2.5640      0.0136
  1144.6000     71.7743      8.2114      4.5962     17.0541      2.5742      0.0363
  1144.7000     78.4528      8.2114      3.8733     16.4839      2.5861      0.0491
  1144.8000     84.9750      8.2096      4.1816     15.7802      2.5810      0.0246
  1144.9000     90.5370      8.2096      5.1019     15.3567      2.5658     -0.0129
  1145.0000     94.9481      8.2138      6.0367     15.5466      2.5504      0.0208
  1145.1000     99.7126      8.2138      7.2316     16.0122      2.5307      0.0127
  1145.2000    104.9817      8.2138      8.8614     16.1984      2.5038     -0.0074
  1145.3000    108.9228      8.2141     10.7099     16.2917      2.4733      0.0198
  1145.4000    113.6914      8.2141     12.4293     16.7957      2.4449     -0.0119
  1145.5000    119.1916      8.2125     13.3328     17.6675      2.4300     -0.0034
  1145.6000    122.6850      8.2125     12.6870     18.5274      2.4407     -0.0195
  1145.7000    128.0196      8.2125     10.5348     19.1891      2.4762      0.0433
  1145.8000    137.0859      8.2202      8.3870     19.7020      2.5116      0.0901
  1145.9000    144.3486      8.2202      7.8476     20.0859      2.5205      0.0687
  1146.0000    147.5881      8.2226      8.6460     20.2976      2.5073      0.0608
  1146.1000    147.8244      8.2226      9.4089     20.3341      2.4948      0.0658
  1146.2000    143.3215      8.2226      9.5129     20.2733      2.4930      0.0711
