~Version Information
VERS.                      2.0: CWLS Log ASCII Standard - VERSION 2.0
WRAP.                       NO: One line per depth step
~Well Information Block
STRT.FT                -1.5000: 
STOP.FT              1317.0000: 
STEP.FT                 0.2500: 
NULL.                -999.2500: 
COMP.          Pioneer Natural Resources: COMPANY
WELL.              Border 21-3: WELL
FLD.           Purgatoire River: FIELD
LOC.           865' FNL & 1415' FWL: LOCATION
PROV.                 Colorado: PROVINCE
CNTY.               Las Animas: COUNTRY
SRVC.                Patterson: SERVICE COMPANY
DATE.          Tue Dec 14 14:08:05 2004: LOG DATE
UWI.           05 071 08169 00: UNIQUE WELL ID
~Curve Information Block
DEPT.FT            0 000 00 00: Depth
GR.GAPI                       : Gamma Ray
CCL.                          : Casing Collar Locator
TT3.usec                      : CBL 3' Travel Time
AMP3.mV                       : CBL 3' Amplitude
~Parameter Information Block
~A  Depth        GR         CCL         TT3         AMP3    
# ...
  1171.0000     89.5163      0.0000    705.9359      6.5502
  1171.2500     92.9499      0.0000    714.9151      6.5673
  1171.5000     95.7559      0.0000    725.5819      6.5886
  1171.7500     97.8750      0.0000    734.1150      6.6033
  1172.0000     98.5236      0.0000    738.6181      6.6110
  1172.2500     96.9510      0.0000    739.5739      6.6178
  1172.5000     93.5405      0.0000    738.5211      6.6261
  1172.7500     89.8477      0.0000    736.9188      6.6296
  1173.0000     87.5247      0.0000    735.9742      6.6187
  1173.2500     87.1368      0.0000    736.6542      6.5907
  1173.5000     87.8217      0.0000    739.4107      6.5539
  1173.7500     88.0139      0.0000    743.7954      6.5204
  1174.0000     86.5381      0.0000    748.0877      6.4967
  1174.2500     83.0486      0.0000    749.3773      6.4837
  1174.5000     77.7947      0.0000    744.9313      6.4826
  1174.7500     71.4742      0.0000    734.2871      6.4955
  1175.0000     65.2192      0.0000    719.9719      6.5185
  1175.2500     60.1418      0.0000    705.9408      6.5410
  1175.5000     56.6876      0.0000    695.2274      6.5525
  1175.7500     54.6768      0.0000    688.7541      6.5497
  1176.0000     53.8175      0.0000    685.7264      6.5358
  1176.2500     53.8426      0.0000    684.7383      6.5177
  1176.5000     54.3703      0.0000    684.6560      6.5042
  1176.7500     55.0322      0.0000    684.9489      6.5026
  1177.0000     55.5711      0.0000    685.6824      6.5146
  1177.2500     55.5991      0.0000    687.2931      6.5347
  1177.5000     54.6287      0.0000    690.1140      6.5530
  1177.7500     52.6513      0.0000    693.8422      6.5592
  1178.0000     50.4897      0.0000    697.5437      6.5469
  1178.2500     49.3759      0.0000    700.4915      6.5172
  1178.5000     50.2118      0.0000    703.0767      6.4774
  1178.7500     53.1638      0.0000    706.5267      6.4332
  1179.0000     57.7524      0.0000    711.3159      6.3839
  1179.2500     63.1791      0.0000    716.0302      6.3260
  1179.5000     68.6076      0.0000    718.4229      6.2637
  1179.7500     73.3912      0.0000    717.6044      6.2104
  1180.0000     77.3403      0.0000    714.5769      6.1819
  1180.2500     80.7342      0.0000    710.2943      6.1825
  1180.5000     83.8034      0.0000    703.5100      6.1980
  1180.7500     86.3325      0.0000    691.2671      6.2033
  1181.0000     88.1292      0.0000    672.2040      6.1826
  1181.2500     89.6229      0.0000    649.1705      6.1431
  1181.5000     91.4173      0.0000    627.8058      6.1054
  1181.7500     93.3777      0.0000    612.4551      6.0812
  1182.0000     94.7675      0.0000    603.8198      6.0650
  1182.2500     95.2950      0.0000    599.9966      6.0453
  1182.5000     95.4912      0.0000    598.6974      6.0189
  1182.7500     96.0279      0.0000    598.4461      5.9932
  1183.0000     97.1878      0.0000    598.6274      5.9767
  1183.2500     98.9039      0.0000    599.2401      5.9709
  1183.5000    100.6258      0.0000    600.8819      5.9687
  1183.7500    101.1693      0.0000    604.9593      5.9620
  1184.0000     99.5359      0.0000    613.6366      5.9482
  1184.2500     96.2373      0.0000    628.7327      5.9304
  1184.5000     93.3065      0.0000    649.6497      5.9117
  1184.7500     92.4907      0.0000    672.2084      5.8926
  1185.0000     93.4805      0.0000    690.3889      5.8725
  1185.2500     94.2184      0.0000    700.0146      5.8506
  1185.5000     93.0726      0.0000    701.0953      5.8257
  1185.7500     90.4932      0.0000    697.1198      5.7986
  1186.0000     88.3082      0.0000    692.6152      5.7779
  1186.2500     87.6444      0.0000    691.0735      5.7795
  1186.5000     88.1537      0.0000    694.1589      5.8138
  1186.7500     89.2847      0.0000    701.7684      5.8720
  1187.0000     91.3127      0.0000    712.3824      5.9275
  1187.2500     94.4325      0.0000    723.7397      5.9539
  1187.5000     97.5493      0.0000    733.8465      5.9451
  1187.7500     98.9198      0.0000    741.6027      5.9150
  1188.0000     97.8557      0.0000    746.5253      5.8820
  1188.2500     95.2816      0.0000    748.2413      5.8575
  1188.5000     92.8333      0.0000    746.5513      5.8473
  1188.7500     91.8091      0.0000    741.6263      5.8547
  1189.0000     92.5415      0.0000    733.7870      5.8796
  1189.2500     94.1156      0.0000    723.4603      5.9176
  1189.5000     94.8826      0.0000    711.7296      5.9606
  1189.7500     93.8226      0.0000    700.5583      5.9984
  1190.0000     91.4915      0.0000    691.9490      6.0199
  1190.2500     89.5617      0.0000    686.7817      6.0179
  1190.5000     89.5331      0.0000    684.5648      5.9948
  1190.7500     91.6954      0.0000    684.2227      5.9618
  1191.0000     94.9121      0.0000    685.1101      5.9312
  1191.2500     97.4309      0.0000    687.4305      5.9101
  1191.5000     98.1911      0.0000    691.7823      5.8978
  1191.7500     97.4640      0.0000    698.1628      5.8870
  1192.0000     96.3870      0.0000    705.3496      5.8679
  1192.2500     96.0775      0.0000    711.2875      5.8364
  1192.5000     96.9753      0.0000    713.9885      5.8020
  1192.7500     98.6845      0.0000    711.9225      5.7852
  1193.0000    100.2961      0.0000    704.1694      5.8078
  1193.2500    100.8931      0.0000    691.4153      5.8803
  1193.5000     99.9370      0.0000    677.0451      5.9927
  1193.7500     97.5841      0.0000    665.9210      6.1170
  1194.0000     94.7532      0.0000    661.0196      6.2231
  1194.2500     92.6873      0.0000    661.7200      6.2926
  1194.5000     92.2083      0.0000    665.5376      6.3178
  1194.7500     93.2323      0.0000    670.4151      6.2900
  1195.0000     94.8718      0.0000    675.1475      6.1988
  1195.2500     96.0717      0.0000    678.9673      6.0436
  1195.5000     96.3180      0.0000    681.5399      5.8392
  1195.7500     95.7454      0.0000    683.0740      5.6108
  1196.0000     94.5763      0.0000    684.3497      5.3948
  1196.2500     92.6998      0.0000    686.9953      5.2473
  1196.5000     89.9011      0.0000    693.7738      5.2245
  1196.7500     86.2168      0.0000    707.9725      5.3275
  1197.0000     81.8215      0.0000    731.7742      5.4822
  1197.2500     76.7958      0.0000    765.0379      5.6087
  1197.5000     71.3081      0.0000    805.5321      5.7002
  1197.7500     65.9036      0.0000    849.4831      5.8058
  1198.0000     61.3681     -2.0000    890.9266      5.9513
  1198.2500     58.4528     -2.0000    921.1636      6.1076
  1198.5000     57.8153      2.0000    930.9852      6.2333
  1198.7500     59.9222      0.0000    915.8334      6.3280
  1199.0000     64.7583      0.0000    880.2045      6.4242
  1199.2500     71.6337      0.0000    836.2497      6.5153
  1199.5000     79.1902      0.0000    796.2592      6.5067
  1199.7500     85.6553      0.0000    765.8550      6.2916
  1200.0000     89.5923      0.0000    743.8883      5.8961
  1200.2500     90.8185      0.0000    726.9519      5.5028
  1200.5000     90.5135      0.0000    712.8966      5.2980
  1200.7500     90.1854      0.0000    701.3787      5.3233
  1201.0000     90.3930      0.0000    692.8351      5.4845
  1201.2500     90.3725      0.0000    687.4099      5.6634
  1201.5000     89.0144      0.0000    684.5538      5.7968
  1201.7500     86.3932      0.0000    683.3131      5.8817
  1202.0000     84.1558      0.0000    682.6125      5.9428
  1202.2500     84.1579      0.0000    681.0172      6.0004
  1202.5000     86.9053      0.0000    676.4464      6.0533
  1202.7500     91.3603      0.0000    667.2234      6.0840
  1203.0000     95.8168      0.0000    654.6630      6.0800
  1203.2500     98.7711      0.0000    644.1950      6.0476
  1203.5000     99.4567      0.0000    641.8362      6.0064
  1203.7500     98.1367      0.0000    648.6809      5.9737
  1204.0000     95.9544      0.0000    659.9807      5.9585
  1204.2500     94.1769      0.0000    669.7760      5.9642
