~Version Information
VERS.                      2.0: CWLS Log ASCII Standard - VERSION 2.0
WRAP.                       NO: One line per depth step
~Well Information Block
STRT.FT               250.0000: 
STOP.FT              2600.7500: 
STEP.FT                 0.2500: 
NULL.                -999.2500: 
COMP.          Pioneer Natural Resources: COMPANY
WELL.              Quack 22-24: WELL
FLD.           Purgatoire River: FIELD
LOC.           2492' FNL & 2459' FWL--: LOCATION
PROV.                 Colorado: PROVINCE
CNTY.               Las Animas: COUNTRY
SRVC.                Patterson: SERVICE COMPANY
DATE.          Sun Jun 12 09:02:01 2005: LOG DATE
UWI.            05 071 0840200: UNIQUE WELL ID
~Curve Information Block
DEPT.FT            0 000 00 00: Depth
SN.Ohm-m                      : IEL Short Normal
SP.mV                         : IEL Spontaneous Potential
DIR.Ohm-m                     : IEL Induction Resistivity
GR.GAPI                       : Gamma Ray
~Parameter Information Block
~A  Depth        SN          SP         DIR          GR     
# ...
  1489.5000      2.9576   -310.7767      0.1509    104.8763
  1489.7500      2.0329   -345.5609      0.1509     96.8679
  1490.0000      1.3553   -380.5034      0.1951     83.1271
  1490.2500      0.8799   -413.9831      0.2763     74.2402
  1490.5000      0.5598   -444.4868      0.3495     63.2958
  1490.7500      0.3575   -470.8541      0.3484     57.8839
  1491.0000      0.2414   -492.4377      0.2891     51.7182
  1491.2500      0.1828   -509.1416      0.2412     48.2008
  1491.5000      0.1575   -521.3432      0.2404     43.4133
  1491.7500      0.1496   -529.7394      0.3042     40.9140
  1492.0000      0.1512   -535.1696      0.4598     39.0734
  1492.2500      0.1605   -538.4628      0.7529     39.2510
  1492.5000      0.1786   -540.3344      1.2437     40.9937
  1492.7500      0.2060   -541.3393      2.0222     42.5324
  1493.0000      0.2402   -541.8676      3.5971     44.4788
  1493.2500      0.2758   -542.1677     11.6549     45.2622
  1493.5000      0.3060   -542.3802 100000.0000     45.8622
  1493.7500      0.3244   -542.5721 100000.0000     46.2392
  1494.0000      0.3276   -542.7649 100000.0000     47.0023
  1494.2500      0.3176   -542.9564 100000.0000     47.3214
  1494.5000      0.3016   -543.1347 100000.0000     46.8216
  1494.7500      0.2871   -543.2865 100000.0000     45.8818
  1495.0000      0.2776   -543.3980 100000.0000     44.5728
  1495.2500      0.2710   -543.4516 100000.0000     44.4717
  1495.5000      0.2626   -543.4197 100000.0000     46.0473
  1495.7500      0.2494   -543.2520 100000.0000     48.1184
  1496.0000      0.2326   -542.8554 100000.0000     52.1801
  1496.2500      0.2197   -542.0696 100000.0000     55.2222
  1496.5000      0.2258   -540.6414 100000.0000     59.8637
  1496.7500      0.2749   -538.1982     20.6017     62.7387
  1497.0000      0.4051   -534.2333      3.4653     66.2972
  1497.2500      0.6697   -528.1154      1.6668     68.2211
  1497.5000      1.1129   -519.1345      0.9787     71.4517
  1497.7500      1.7180   -506.5881      0.6303     74.6899
  1498.0000      2.3765   -489.9052      0.4499     81.8377
  1498.2500      2.9393   -468.7749      0.3779     87.6410
  1498.5000      3.3265   -443.2603      0.3982     95.9163
  1498.7500      3.5965   -413.8519      0.5386     99.8097
  1499.0000      3.9172   -381.4432      0.9414    101.7909
  1499.2500      4.4745   -347.2261      2.4556    100.8818
  1499.5000      5.3752   -312.5306 100000.0000     98.9299
  1499.7500      6.5833   -278.6484 100000.0000     99.2283
  1500.0000      7.9201   -246.6809 100000.0000    103.9189
  1500.2500      9.1415   -217.4421 100000.0000    109.4817
  1500.5000     10.0495   -191.4291 100000.0000    119.0594
  1500.7500     10.5630   -168.8465 100000.0000    124.7298
  1501.0000     10.7162   -149.6735    143.6528    130.6159
  1501.2500     10.6127   -133.7390     12.3816    132.6949
  1501.5000     10.3730   -120.7856      7.9976    133.7005
  1501.7500     10.0954   -110.5097      7.1876    133.3693
  1502.0000      9.8376   -102.5757      7.5623    131.7459
  1502.2500      9.6187    -96.6154      8.6294    130.1032
  1502.5000      9.4346    -92.2281     10.1449    127.3838
  1502.7500      9.2737    -88.9954     11.8664    125.7601
  1503.0000      9.1277    -86.5125     13.5669    123.7994
  1503.2500      8.9946    -84.4322     15.1335    122.6758
  1503.5000      8.8744    -82.5021     16.7385    121.1139
  1503.7500      8.7619    -80.5825     19.0884    120.3030
  1504.0000      8.6425    -78.6383     23.7792    119.9380
  1504.2500      8.4973    -76.7087     34.3490    120.4694
  1504.5000      8.3130    -74.8643     57.6903    122.3431
  1504.7500      8.0889    -73.1700     81.0984    123.9579
  1505.0000      7.8363    -71.6634     54.3119    126.0485
  1505.2500      7.5729    -70.3504     27.5816    126.8739
  1505.5000      7.3142    -69.2112     16.0496    127.3975
  1505.7500      7.0676    -68.2122     11.0702    127.5557
  1506.0000      6.8359    -67.3163      8.7426    127.5207
  1506.2500      6.6252    -66.4877      7.6293    127.0526
  1506.5000      6.4478    -65.6971      7.1409    125.7519
  1506.7500      6.3138    -64.9180      6.9947    125.0743
  1507.0000      6.2201    -64.1293      7.0288    125.3595
  1507.2500      6.1495    -63.3146      7.1354    126.3943
  1507.5000      6.0782    -62.4640      7.2409    128.3438
  1507.7500      5.9856    -61.5763      7.3031    129.6611
  1508.0000      5.8586    -60.6589      7.3073    132.2752
  1508.2500      5.6917    -59.7301      7.2585    134.7864
  1508.5000      5.4871    -58.8201      7.1711    138.8607
  1508.7500      5.2541    -57.9739      7.0611    140.6148
  1509.0000      5.0085    -57.2541      6.9418    140.2861
  1509.2500      4.7693    -56.7369      6.8227    138.0829
  1509.5000      4.5557    -56.5080      6.7094    132.9810
  1509.7500      4.3831    -56.6499      6.6050    129.2729
  1510.0000      4.2618    -57.2251      6.5115    124.4350
  1510.2500      4.1967    -58.2596      6.4293    122.0274
  1510.5000      4.1878    -59.7308      6.3575    119.6284
  1510.7500      4.2283    -61.5657      6.2933    118.6055
  1511.0000      4.3032    -63.6512      6.2337    117.4630
  1511.2500      4.3913    -65.8544      6.1771    116.7793
  1511.5000      4.4721    -68.0466      6.1250    115.7586
  1511.7500      4.5333    -70.1256      6.0824    115.0917
  1512.0000      4.5741    -72.0279      6.0560    114.2067
  1512.2500      4.6038    -73.7309      6.0510    113.7645
  1512.5000      4.6342    -75.2452      6.0683    113.3664
  1512.7500      4.6727    -76.6017      6.1038    113.2308
  1513.0000      4.7204    -77.8382      6.1505    113.1371
  1513.2500      4.7752    -78.9900      6.2017    113.2117
  1513.5000      4.8345    -80.0846      6.2525    113.8796
  1513.7500      4.8953    -81.1409      6.3000    114.8298
  1514.0000      4.9538    -82.1702      6.3419    116.7596
  1514.2500      5.0068    -83.1786      6.3762    118.0975
  1514.5000      5.0548    -84.1682      6.4017    120.0616
  1514.7500      5.1032    -85.1381      6.4188    121.5064
  1515.0000      5.1570    -86.0850      6.4287    124.0226
  1515.2500      5.2130    -87.0039      6.4320    125.8318
  1515.5000      5.2578    -87.8896      6.4271    128.6671
  1515.7500      5.2715    -88.7370      6.4119    130.8060
  1516.0000      5.2342    -89.5421      6.3851    134.6557
  1516.2500      5.1324    -90.3026      6.3482    137.4017
  1516.5000      4.9646    -91.0174      6.3055    140.4888
  1516.7500      4.7477    -91.6858      6.2627    141.0477
  1517.0000      4.5200    -92.3071      6.2262    139.5109
  1517.2500      4.3331    -92.8812      6.2028    137.7953
  1517.5000      4.2321    -93.4086      6.1994    136.1492
  1517.7500      4.2384    -93.8918      6.2230    136.1479
  1518.0000      4.3480    -94.3358      6.2790    136.9783
  1518.2500      4.5441    -94.7495      6.3701    137.1953
  1518.5000      4.8114    -95.1458      6.4944    135.9645
  1518.7500      5.1396    -95.5413      6.6462    134.0262
  1519.0000      5.5153    -95.9556      6.8182    130.0250
  1519.2500      5.9150    -96.4089      7.0050    127.1404
  1519.5000      6.3072    -96.9188      7.2053    123.1448
  1519.7500      6.6652    -97.4973      7.4213    120.7820
  1520.0000      6.9764    -98.1479      7.6555    117.4310
  1520.2500      7.2389    -98.8645      7.9059    115.0895
  1520.5000      7.4478    -99.6322      8.1630    110.9073
  1520.7500      7.5870   -100.4294      8.4092    107.4340
  1521.0000      7.6420   -101.2313      8.6224    101.5537
  1521.2500      7.6230   -102.0120      8.7833     98.0903
  1521.5000      7.5736   -102.7468      8.8824     95.8049
  1521.7500      7.5499   -103.4142      8.9227     97.1535
  1522.0000      7.5856   -103.9971      8.9163    103.2049
  1522.2500      7.6698   -104.4850      8.8760    108.7191
  1522.5000      7.7527   -104.8755      8.8086    116.9777
  1522.7500      7.7741   -105.1748      8.7139    121.8244
