~Version Information
VERS.                      2.0: CWLS Log ASCII Standard - VERSION 2.0
WRAP.                       NO: One line per depth step
~Well Information Block
STRT.FT               953.8000: 
STOP.FT              2226.0000: 
STEP.FT                 0.1000: 
NULL.                -999.2500: 
COMP.          Petrogulf Corporation: COMPANY
WELL.             Burson 8-13R: WELL
FLD.           Purgatorie River: FIELD
LOC.           1045' FNL & 2189' FEL: LOCATION
CNTY.               Las Animas: COUNTY
SRVC.                         : SERVICE COMPANY
DATE.          Fri Apr 30 07:30:36 2004: LOG DATE
UWI.           05 071 08039 00: UNIQUE WELL ID
STAT.                 Colorado: STATE
~Curve Information Block
DEPT.FT            0 000 00 00: Depth
DCAL.in                       : CDL Caliper
RHOB.g/cc                     : CDL Bulk Density
RHOC.g/cc                     : CDL Density Correction
DPOR.pu                       : CDL Density Porosity
NPOR.pu                       : Neutron Porosity
GR.GAPI                       : Gamma Ray
~Parameter Information Block
~A  Depth       DCAL        RHOB        RHOC        DPOR        NPOR         GR     
# ...
  2182.6000      7.7454      2.0292      0.0897     37.6252     32.7737    104.6144
  2182.7000      7.7454      2.0701      0.1739     35.1427     32.1008    104.4026
  2182.8000      7.7530      2.1111      0.1653     32.6613     31.6524    102.7241
  2182.9000      7.7530      2.1557      0.1205     29.9601     31.6523     96.8902
  2183.0000      7.7488      2.2092      0.1652     26.7142     31.3825     90.6960
  2183.1000      7.7488      2.2573      0.1471     23.8018     30.2903     87.1149
  2183.2000      7.7488      2.2925      0.1323     21.6667     28.8535     87.5875
  2183.3000      7.7406      2.3257      0.0912     19.6569     28.1158     93.7391
  2183.4000      7.7406      2.3678      0.0615     17.1045     28.4265     99.9902
  2183.5000      7.7279      2.4156      0.0870     14.2063     28.7906     99.7957
  2183.6000      7.7279      2.4567      0.0742     11.7150     28.2929     96.3431
  2183.7000      7.7279      2.4839      0.0878     10.0671     27.0804     93.1622
  2183.8000      7.7368      2.4999      0.0713      9.0999     26.1147     89.1067
  2183.9000      7.7368      2.5145      0.0450      8.2099     25.9568     84.8648
  2184.0000      7.7367      2.5261      0.0997      7.5106     26.1158     82.0449
  2184.1000      7.7367      2.5264      0.0231      7.4899     26.0825     79.9623
  2184.2000      7.7367      2.5273      0.0222      7.4374     25.8552     80.3235
  2184.3000      7.7347      2.5373      0.0926      6.8333     25.6199     84.8511
  2184.4000      7.7347      2.5448      0.1158      6.3775     25.4707     90.3724
  2184.5000      7.7345      2.5435      0.0744      6.4563     25.6082     92.3527
  2184.6000      7.7345      2.5454      0.0284      6.3385     26.2522     89.9264
  2184.7000      7.7345      2.5539      0.0692      5.8236     27.0520     86.5037
  2184.8000      7.7316      2.5482      0.0876      6.1702     27.2200     85.7904
  2184.9000      7.7316      2.5225      0.0131      7.7289     26.5517     90.7266
  2185.0000      7.7366      2.5033      0.0277      8.8930     25.5258     98.1051
  2185.1000      7.7366      2.5055      0.0592      8.7593     24.6698     94.5739
  2185.2000      7.7366      2.5168      0.0421      8.0708     24.2738     69.5870
  2185.3000      7.7362      2.5237      0.0846      7.6539     24.3524     34.5439
  2185.4000      7.7362      2.5227      0.0560      7.7169     24.5088     10.5924
  2185.5000      7.7363      2.5219      0.0740      7.7611     24.4184      1.8867
  2185.6000      7.7363      2.5317      0.0312      7.1707     24.1953      0.1872
  2185.7000      7.7363      2.5524      0.0496      5.9178     24.0018      0.0097
  2185.8000      7.7341      2.5718      0.0767      4.7391     24.0692      0.0000
  2185.9000      7.7341      2.5759      0.1054      4.4911     24.3356   -999.2500
  2186.0000      7.7356      2.5622      0.0945      5.3195     24.4041   -999.2500
  2186.1000      7.7356      2.5412      0.0581      6.5910     24.1467   -999.2500
  2186.2000      7.7356      2.5274      0.0342      7.4297     23.7865   -999.2500
  2186.3000      7.7338      2.5236      0.0383      7.6619     23.4549   -999.2500
  2186.4000      7.7338      2.5251      0.0354      7.5700     23.0311   -999.2500
  2186.5000      7.7249      2.5328      0.0169      7.1044     22.5744   -999.2500
  2186.6000      7.7249      2.5432      0.0455      6.4757     22.3217   -999.2500
  2186.7000      7.7249      2.5478      0.0598      6.1956     22.4528   -999.2500
  2186.8000      7.7341      2.5502      0.0532      6.0495     22.8765   -999.2500
  2186.9000      7.7341      2.5599      0.0569      5.4603     23.0121   -999.2500
  2187.0000      7.7377      2.5746      0.0570      4.5721     22.5164   -999.2500
  2187.1000      7.7377      2.5823      0.0434      4.1008     21.8019   -999.2500
  2187.2000      7.7377      2.5790      0.0686      4.3025     21.3575   -999.2500
  2187.3000      7.7328      2.5712      0.0583      4.7735     21.3171   -999.2500
  2187.4000      7.7328      2.5683      0.0609      4.9494     21.4745   -999.2500
  2187.5000      7.7155      2.5696      0.0805      4.8702     21.8098   -999.2500
  2187.6000      7.7155      2.5737      0.0525      4.6256     22.2539   -999.2500
  2187.7000      7.7155      2.5864      0.0906      3.8569     22.2019   -999.2500
  2187.8000      7.7341      2.6059      0.1190      2.6754     21.7891   -999.2500
  2187.9000      7.7341      2.6224      0.0946      1.6735     21.7039   -999.2500
  2188.0000      7.7377      2.6233      0.1173      1.6190     21.6993   -999.2500
  2188.1000      7.7377      2.6028      0.0914      2.8594     21.5222   -999.2500
  2188.2000      7.7377      2.5792      0.0453      4.2893     21.5381   -999.2500
  2188.3000      7.7340      2.5741      0.0585      4.6003     21.5841   -999.2500
  2188.4000      7.7340      2.5814      0.0802      4.1604     21.4628   -999.2500
  2188.5000      7.7339      2.5852      0.0822      3.9282     21.3940   -999.2500
  2188.6000      7.7339      2.5872      0.0440      3.8052     21.4045   -999.2500
  2188.7000      7.7339      2.5988      0.0783      3.1045     21.6141   -999.2500
  2188.8000      7.7362      2.6202      0.0553      1.8050     21.7357   -999.2500
  2188.9000      7.7362      2.6366      0.0949      0.8115     21.3709   -999.2500
  2189.0000      7.7353      2.6340      0.0746      0.9690     21.0353   -999.2500
  2189.1000      7.7353      2.6199      0.0789      1.8223     21.0579   -999.2500
  2189.2000      7.7353      2.6115      0.0656      2.3325     20.9759   -999.2500
  2189.3000      7.7393      2.6098      0.0867      2.4354     20.4913   -999.2500
  2189.4000      7.7393      2.6040      0.0718      2.7862     19.9771   -999.2500
  2189.5000      7.7336      2.5990      0.0404      3.0910     20.0313   -999.2500
  2189.6000      7.7336      2.6097      0.0187      2.4416     20.6765   -999.2500
  2189.7000      7.7336      2.6336      0.0819      0.9933     21.3371   -999.2500
  2189.8000      7.7327      2.6520      0.1039     -0.1222     21.5888   -999.2500
  2189.9000      7.7327      2.6567      0.0727     -0.4057     21.3781   -999.2500
  2190.0000      7.7323      2.6457      0.1171      0.2625     20.8442   -999.2500
  2190.1000      7.7323      2.6189      0.0601      1.8835     20.2765   -999.2500
  2190.2000      7.7323      2.5934      0.0433      3.4312     19.8659   -999.2500
  2190.3000      7.7294      2.5813      0.0350      4.1621     19.4991   -999.2500
  2190.4000      7.7294      2.5781      0.0635      4.3600     19.2482   -999.2500
  2190.5000      7.7313      2.5741      0.0650      4.5992     19.2792   -999.2500
  2190.6000      7.7313      2.5639      0.0654      5.2188     19.6358   -999.2500
  2190.7000      7.7313      2.5592      0.0164      5.5042     21.7065   -999.2500
  2190.8000      7.7327      2.5711      0.0484      4.7796     28.6308   -999.2500
  2190.9000      7.7327      2.5791      0.0693      4.2946     39.4172   -999.2500
  2191.0000      7.7517      2.5639      0.0420      5.2183     47.2255   -999.2500
  2191.1000      7.7517      2.5410      0.0092      6.6037     50.0686   -999.2500
  2191.2000      7.7517      2.5301      0.0026      7.2648     50.6278   -999.2500
  2191.3000      7.7310      2.5261      0.0186      7.5088     50.6870   -999.2500
  2191.4000      7.7310      2.5203      0.0445      7.8635     50.6903   -999.2500
  2191.5000      7.7265      2.5159      0.0149      8.1276   -999.2500   -999.2500
  2191.6000      7.7265      2.5175      0.0209      8.0278   -999.2500   -999.2500
  2191.7000      7.7265      2.5289      0.0071      7.3410   -999.2500   -999.2500
  2191.8000      7.7174      2.5479      0.0670      6.1897   -999.2500   -999.2500
  2191.9000      7.7174      2.5652      0.0677      5.1369   -999.2500   -999.2500
  2192.0000      7.7187      2.5778      0.0562      4.3767   -999.2500   -999.2500
  2192.1000      7.7187      2.5820      0.0840      4.1217   -999.2500   -999.2500
