~Version Information
VERS.                      2.0: CWLS Log ASCII Standard - VERSION 2.0
WRAP.                       NO: One line per depth step
~Well Information Block
STRT.FT                15.0000: 
STOP.FT              2620.5000: 
STEP.FT                 0.2500: 
NULL.                -999.2500: 
COMP.          Pioneer Natural Resources: COMPANY
WELL.               Zink 44-10: WELL
FLD.           Purgatoire River: FIELD
LOC.           548' FSL & 473' FEL: LOCATION
PROV.                 Colorado: PROVINCE
CNTY.               Las Animas: COUNTRY
SRVC.                Patterson: SERVICE COMPANY
DATE.          Tue Jun 21 13:36:23 2005: LOG DATE
UWI.           05 071 08380 00: UNIQUE WELL ID
~Curve Information Block
DEPT.FT            0 000 00 00: Depth
GR.GAPI                       : Gamma Ray
CCL.                          : Casing Collar Locator
TT3.usec                      : CBL 3' Travel Time
AMP3.mV                       : CBL 3' Amplitude
~Parameter Information Block
~A  Depth        GR         CCL         TT3         AMP3    
# ...
  2594.5000     89.7554      0.0000    464.7048     15.1458
  2594.7500     86.4869      0.0000    397.4470     15.7322
  2595.0000     85.0240      0.0000    350.3836     16.1957
  2595.2500     84.6063      0.0000    324.9816     16.4913
  2595.5000     83.9944      0.0000    314.3129     16.6541
  2595.7500     82.5531      0.0000    310.8022     16.7657
  2596.0000     80.9352      0.0000    309.8612     16.9001
  2596.2500     80.4594      0.0000    309.5719     17.0906
  2596.5000     81.6208      0.0000    309.3928     17.3170
  2596.7500     83.4130      0.0000    309.3706     17.5043
  2597.0000     84.2865      0.0000    309.8717     17.5443
  2597.2500     83.5891      0.0000    311.7818     17.3489
  2597.5000     81.9598      0.0000    317.0205     16.9104
  2597.7500     80.6191      0.0000    328.9922     16.3132
  2598.0000     80.6209      0.0000    351.7775     15.6793
  2598.2500     82.5905      0.0000    387.0357     15.0933
  2598.5000     86.6220      0.0000    430.1389     14.5685
  2598.7500     92.0749      0.0000    470.2055     14.0675
  2599.0000     97.4487      0.0000    496.4546     13.5450
  2599.2500    100.8148      0.0000    505.6241     12.9823
  2599.5000    100.9869      0.0000    502.8642     12.3978
  2599.7500     98.5522      0.0000    496.2955     11.8323
  2600.0000     95.4364      0.0000    491.9612     11.3256
  2600.2500     93.1931      0.0000    493.2393     10.8994
  2600.5000     92.0014      0.0000    502.6200     10.5529
  2600.7500     91.4569      0.0000    521.8187     10.2675
  2601.0000     91.6433      0.0000    549.2874     10.0125
  2601.2500     92.7602      0.0000    578.7700      9.7511
  2601.5000     94.1068      0.0000    602.3693      9.4516
  2601.7500     94.4136      0.0000    616.2296      9.1010
  2602.0000     93.2715      0.0000    623.3929      8.7082
  2602.2500     91.4449      0.0000    631.4114      8.2936
  2602.5000     89.6196      0.0000    646.5264      7.8739
  2602.7500     87.6417      0.0000    668.5687      7.4576
  2603.0000     85.3328      0.0000    691.0598      7.0530
  2603.2500     83.4306      0.0000    706.9108      6.6783
  2603.5000     83.1431      0.0000    713.8998      6.3597
  2603.7500     84.9153      0.0000    714.6129      6.1115
  2604.0000     87.9781      0.0000    712.5850      5.9184
  2604.2500     91.0608      0.0000    710.0739      5.7408
  2604.5000     93.3691      0.0000    708.6395      5.5388
  2604.7500     94.8890      0.0000    709.3787      5.2916
  2605.0000     95.8599      0.0000    711.8472      4.9980
  2605.2500     96.1411      0.0000    713.4938      4.6659
  2605.5000     95.3204      0.0000    709.4980      4.3019
  2605.7500     93.3971      0.0000    691.1481      3.8948
  2606.0000     91.0254      0.0000    644.8184      3.3997
  2606.2500     89.0178      0.0000    557.7336      2.7577
  2606.5000     87.7404      0.0000    431.0494      1.9653
  2606.7500     86.9565      0.0000    287.6032      1.1264
  2607.0000     86.0802      0.0000    161.0803      0.4060
  2607.2500     84.6228      0.0000     74.1537     -0.0839
  2607.5000     82.6845      0.0000     27.6357     -0.3450
  2607.7500     81.1692      0.0000      8.2468     -0.4537
  2608.0000     81.2603      0.0000      1.9527     -0.4890
  2608.2500     83.3492      0.0000      0.3614     -0.4980
  2608.5000     86.5344      0.0000      0.0480     -0.4997
  2608.7500     89.3520      0.0000   -999.2500   -999.2500
  2609.0000     90.8764      0.0000   -999.2500   -999.2500
  2609.2500     90.9974      0.0000   -999.2500   -999.2500
  2609.5000     90.0118      0.0000   -999.2500   -999.2500
  2609.7500     88.3230      0.0000   -999.2500   -999.2500
  2610.0000     86.4871      0.0000   -999.2500   -999.2500
  2610.2500     85.3000      0.0000   -999.2500   -999.2500
  2610.5000     85.4246      0.0000   -999.2500   -999.2500
  2610.7500     86.6770      0.0000   -999.2500   -999.2500
  2611.0000     87.9681      0.0000   -999.2500   -999.2500
  2611.2500     88.3373      0.0000   -999.2500   -999.2500
  2611.5000     87.8025      0.0000   -999.2500   -999.2500
  2611.7500     86.8669      0.0000   -999.2500   -999.2500
  2612.0000     85.6392      0.0000   -999.2500   -999.2500
  2612.2500     84.0432      0.0000   -999.2500   -999.2500
  2612.5000     82.5480      0.0000   -999.2500   -999.2500
  2612.7500     81.9744      0.0000   -999.2500   -999.2500
  2613.0000     82.6863      0.0000   -999.2500   -999.2500
  2613.2500     84.3817      0.0000   -999.2500   -999.2500
  2613.5000     86.5111      0.0000   -999.2500   -999.2500
  2613.7500     88.5603      0.0000   -999.2500   -999.2500
  2614.0000     90.0971      0.0000   -999.2500   -999.2500
  2614.2500     90.8693   -999.2500   -999.2500   -999.2500
  2614.5000     90.8654   -999.2500   -999.2500   -999.2500
  2614.7500     90.2047   -999.2500   -999.2500   -999.2500
  2615.0000     89.0291   -999.2500   -999.2500   -999.2500
  2615.2500     87.5770   -999.2500   -999.2500   -999.2500
  2615.5000     86.1734   -999.2500   -999.2500   -999.2500
  2615.7500     84.7267   -999.2500   -999.2500   -999.2500
  2616.0000     82.0278   -999.2500   -999.2500   -999.2500
  2616.2500     75.9029   -999.2500   -999.2500   -999.2500
  2616.5000     64.6875   -999.2500   -999.2500   -999.2500
  2616.7500     48.9884   -999.2500   -999.2500   -999.2500
  2617.0000     31.9723   -999.2500   -999.2500   -999.2500
  2617.2500     17.5421   -999.2500   -999.2500   -999.2500
  2617.5000      7.9358   -999.2500   -999.2500   -999.2500
  2617.7500      2.9164   -999.2500   -999.2500   -999.2500
  2618.0000      0.8609   -999.2500   -999.2500   -999.2500
  2618.2500      0.2020   -999.2500   -999.2500   -999.2500
  2618.5000      0.0370   -999.2500   -999.2500   -999.2500
  2618.7500      0.0048   -999.2500   -999.2500   -999.2500
  2619.0000      0.0000   -999.2500   -999.2500   -999.2500
  2619.2500   -999.2500   -999.2500   -999.2500   -999.2500
  2619.5000   -999.2500   -999.2500   -999.2500   -999.2500
  2619.7500   -999.2500   -999.2500   -999.2500   -999.2500
  2620.0000   -999.2500   -999.2500   -999.2500   -999.2500
  2620.2500   -999.2500   -999.2500   -999.2500   -999.2500
  2620.5000   -999.2500   -999.2500   -999.2500   -999.2500
