~Version Information
VERS.                      2.0: CWLS Log ASCII Standard - VERSION 2.0
WRAP.                       NO: One line per depth step
~Well Information Block
STRT.FT               475.0000: 
STOP.FT              2336.7500: 
STEP.FT                 0.2500: 
NULL.                -999.2500: 
COMP.          Pioneer Natural Resources: COMPANY
WELL.              Bobsy 34-11: WELL
FLD.           Purgatoire River: FIELD
LOC.           1937' FEL & 451' FSL----: LOCATION
PROV.                 Colorado: PROVINCE
CNTY.               Las Animas: COUNTRY
SRVC.                Patterson: SERVICE COMPANY
DATE.          Fri Apr 08 05:21:25 2005: LOG DATE
UWI.           05 071 08330 00: UNIQUE WELL ID
~Curve Information Block
DEPT.FT            0 000 00 00: Depth
SN.Ohm-m                      : IEL Short Normal
SP.mV                         : IEL Spontaneous Potential
DIR.Ohm-m                     : IEL Induction Resistivity
GR.GAPI                       : Gamma Ray
~Parameter Information Block
~A  Depth        SN          SP         DIR          GR     
# ...
  1815.0000      9.5349   -136.9296      9.8409    120.6702
  1815.2500      9.8456   -137.2717      9.8728    123.6016
  1815.5000     10.1215   -137.6403      9.8692    128.0680
  1815.7500     10.2888   -138.0224      9.8286    130.2447
  1816.0000     10.3032   -138.4031      9.7540    131.7931
  1816.2500     10.1561   -138.7673      9.6558    131.7532
  1816.5000      9.8655   -139.1017      9.5478    130.2962
  1816.7500      9.4610   -139.3953      9.4413    128.4949
  1817.0000      8.9764   -139.6406      9.3403    124.9344
  1817.2500      8.4555   -139.8330      9.2421    122.4066
  1817.5000      7.9629   -139.9707      9.1408    119.3645
  1817.7500      7.5812   -140.0548      9.0312    118.5229
  1818.0000      7.3833   -140.0891      8.9101    120.1605
  1818.2500      7.3908   -140.0802      8.7742    123.4671
  1818.5000      7.5522   -140.0376      8.6184    131.0251
  1818.7500      7.7635   -139.9727      8.4365    136.7388
  1819.0000      7.9179   -139.8979      8.2247    144.3119
  1819.2500      7.9512   -139.8248      7.9858    147.9221
  1819.5000      7.8555   -139.7621      7.7300    150.6857
  1819.7500      7.6645   -139.7149      7.4714    150.7704
  1820.0000      7.4280   -139.6839      7.2240    148.8176
  1820.2500      7.1925   -139.6668      6.9994    147.0134
  1820.5000      6.9935   -139.6602      6.8072    145.6115
  1820.7500      6.8535   -139.6617      6.6550    146.2224
  1821.0000      6.7830   -139.6723      6.5493    148.6320
  1821.2500      6.7852   -139.6962      6.4940    150.0772
  1821.5000      6.8603   -139.7408      6.4907    150.6578
  1821.7500      7.0083   -139.8143      6.5386    149.7949
  1822.0000      7.2262   -139.9243      6.6356    146.1626
  1822.2500      7.5053   -140.0764      6.7795    141.6247
  1822.5000      7.8358   -140.2739      6.9693    131.6183
  1822.7500      8.2189   -140.5184      7.2070    123.9881
  1823.0000      8.6754   -140.8102      7.4974    113.9645
  1823.2500      9.2448   -141.1494      7.8482    109.0974
  1823.5000      9.9740   -141.5348      8.2678    103.9442
  1823.7500     10.8962   -141.9639      8.7626    101.2501
  1824.0000     12.0069   -142.4310      9.3330     98.0065
  1824.2500     13.2504   -142.9276      9.9714     96.4730
  1824.5000     14.5327   -143.4419     10.6621     94.7060
  1824.7500     15.7636   -143.9602     11.3843     93.4053
  1825.0000     16.8972   -144.4691     12.1170     91.0895
  1825.2500     17.9415   -144.9577     12.8430     89.6669
  1825.5000     18.9358   -145.4198     13.5506     88.1889
  1825.7500     19.9154   -145.8540     14.2340     87.4664
  1826.0000     20.8832   -146.2635     14.8910     86.1477
  1826.2500     21.7980   -146.6527     15.5198     84.9918
  1826.5000     22.5837   -147.0241     16.1165     83.3447
  1826.7500     23.1551   -147.3767     16.6729     82.8133
  1827.0000     23.4470   -147.7042     17.1773     83.4137
  1827.2500     23.4312   -147.9969     17.6147     84.5672
  1827.5000     23.1192   -148.2440     17.9669     86.4967
  1827.7500     22.5529   -148.4366     18.2132     87.5663
  1828.0000     21.7909   -148.5704     18.3315     89.2102
  1828.2500     20.8983   -148.6460     18.3008     90.7956
  1828.5000     19.9395   -148.6693     18.1041     94.1617
  1828.7500     18.9723   -148.6493     17.7336     96.7962
  1829.0000     18.0419   -148.5965     17.1986    100.8524
  1829.2500     17.1779   -148.5208     16.5297    103.7188
  1829.5000     16.3963   -148.4314     15.7777    108.9824
  1829.7500     15.7082   -148.3371     15.0057    113.3692
  1830.0000     15.1253   -148.2483     14.2785    120.5011
  1830.2500     14.6598   -148.1786     13.6510    124.7090
  1830.5000     14.3200   -148.1458     13.1592    129.1421
  1830.7500     14.1081   -148.1705     12.8185    130.8400
  1831.0000     14.0233   -148.2728     12.6273    131.5246
  1831.2500     14.0696   -148.4676     12.5760    130.0916
  1831.5000     14.2621   -148.7592     12.6565    123.3822
  1831.7500     14.6310   -149.1382     12.8674    115.6239
  1832.0000     15.2208   -149.5800     13.2141    101.1474
  1832.2500     16.0796   -150.0479     13.7053     91.7336
  1832.5000     17.2277   -150.4973     14.3477     81.1206
  1832.7500     18.6140   -150.8822     15.1406     77.1758
  1833.0000     20.0979   -151.1609     16.0677     75.3499
  1833.2500     21.4833   -151.2998     17.0833     75.8422
  1833.5000     22.5867   -151.2761     18.0973     77.6250
  1833.7500     23.2889   -151.0782     18.9759     79.1563
  1834.0000     23.5455   -150.7067     19.5730     81.9742
  1834.2500     23.3699   -150.1750     19.7886     84.2337
  1834.5000     22.8159   -149.5103     19.6154     88.0975
  1834.7500     21.9720   -148.7531     19.1378     90.8993
  1835.0000     20.9576   -147.9552     18.4864     95.3766
  1835.2500     19.9075   -147.1747     17.7894     98.5821
  1835.5000     18.9430   -146.4698     17.1437    103.6407
  1835.7500     18.1488   -145.8906     16.6099    106.8328
  1836.0000     17.5650   -145.4732     16.2169    110.2487
  1836.2500     17.1922   -145.2354     15.9696    110.9298
  1836.5000     17.0027   -145.1767     15.8568    108.8112
  1836.7500     16.9599   -145.2803     15.8595    105.2764
  1837.0000     17.0382   -145.5185     15.9577     97.5755
  1837.2500     17.2224   -145.8568     16.1353     91.7609
  1837.5000     17.4877   -146.2596     16.3817     84.0490
  1837.7500     17.7850   -146.6921     16.6896     80.6124
  1838.0000     18.0567   -147.1212     17.0507     78.5294
  1838.2500     18.2712   -147.5152     17.4496     78.6256
  1838.5000     18.4380   -147.8422     17.8576     79.6254
  1838.7500     18.5802   -148.0710     18.2279     80.5199
  1839.0000     18.6863   -148.1727     18.4956     82.3843
  1839.2500     18.6880   -148.1248     18.5856     84.0751
  1839.5000     18.4905   -147.9153     18.4314     87.3125
  1839.7500     18.0329   -147.5455     17.9990     90.1927
  1840.0000     17.3294   -147.0305     17.3052     96.4349
  1840.2500     16.4626   -146.3969     16.4164    102.1120
  1840.5000     15.5410   -145.6779     15.4261    112.1680
  1840.7500     14.6523   -144.9090     14.4248    119.0080
  1841.0000     13.8382   -144.1238     13.4777    128.1639
  1841.2500     13.0978   -143.3520     12.6192    133.2393
  1841.5000     12.4081   -142.6180     11.8599    139.4805
  1841.7500     11.7478   -141.9406     11.1965    142.9323
  1842.0000     11.1120   -141.3329     10.6218    147.1373
  1842.2500     10.5190   -140.8028     10.1298    149.1273
  1842.5000     10.0036   -140.3529      9.7174    150.6494
  1842.7500      9.6019   -139.9817      9.3835    150.8665
  1843.0000      9.3342   -139.6846      9.1262    150.8044
  1843.2500      9.1944   -139.4542      8.9404    150.9253
  1843.5000      9.1512   -139.2813      8.8168    151.5111
  1843.7500      9.1564   -139.1540      8.7426    151.9324
  1844.0000      9.1599   -139.0585      8.7026    151.9214
  1844.2500      9.1231   -138.9796      8.6808    151.1992
  1844.5000      9.0266   -138.9025      8.6613    149.3283
  1844.7500      8.8693   -138.8155      8.6303    148.0805
  1845.0000      8.6631   -138.7114      8.5791    146.6320
  1845.2500      8.4262   -138.5896      8.5065    145.5342
  1845.5000      8.1786   -138.4550      8.4191    142.7330
  1845.7500      7.9421   -138.3172      8.3280    140.1177
  1846.0000      7.7432   -138.1881      8.2447    136.0691
  1846.2500      7.6161   -138.0801      8.1797    133.8334
  1846.5000      7.5994   -138.0038      8.1421    131.4856
  1846.7500      7.7218   -137.9668      8.1410    130.4407
  1847.0000      7.9842   -137.9716      8.1844    128.7690
  1847.2500      8.3519   -138.0163      8.2786    126.7893
  1847.5000      8.7665   -138.0933      8.4263    121.6252
  1847.7500      9.1706   -138.1917      8.6265    116.9708
  1848.0000      9.5284   -138.2988      8.8747    109.6865
  1848.2500      9.8298   -138.4031      9.1640    105.5297
