~Version Information
VERS.                      2.0: CWLS Log ASCII Standard - VERSION 2.0
WRAP.                       NO: One line per depth step
~Well Information Block
STRT.FT               750.0000: 
STOP.FT              2431.5000: 
STEP.FT                 0.1000: 
NULL.                -999.2500: 
COMP.          Petrogulf Corporation: COMPANY
WELL.           McDaniel 9-34V: WELL
FLD.           Purgatorie River: FIELD
LOC.           620' FSL & 1800' FEL: LOCATION
PROV.                 Colorado: PROVINCE
CNTY.               Las Animas: COUNTRY
SRVC.                Patterson: SERVICE COMPANY
DATE.          Wed Sep 28 07:18:04 2005: LOG DATE
UWI.                          : UNIQUE WELL ID
~Curve Information Block
DEPT.FT            0 000 00 00: Depth
DCAL.in                       : CDL Caliper
RHOB.g/cc                     : CDL Bulk Density
RHOC.g/cc                     : CDL Density Correction
DPOR.pu                       : CDL Density Porosity
GR.GAPI                       : Gamma Ray
NPOR.pu                       : Neutron Porosity
~Parameter Information Block
~A  Depth       DCAL        RHOB        RHOC        DPOR         GR         NPOR    
# ...
  1191.6000      8.2454      2.6442      0.1680      0.3497    160.4209     29.6374
  1191.7000      8.2454      2.6526      0.1843     -0.1552    162.9137     29.7183
  1191.8000      8.2510      2.6491      0.1584      0.0560    164.2637     29.8470
  1191.9000      8.2510      2.6367      0.1466      0.8077    164.9273     29.8041
  1192.0000      8.2495      2.6250      0.1447      1.5174    166.8224     29.7647
  1192.1000      8.2495      2.6159      0.1038      2.0673    167.5003     29.6307
  1192.2000      8.2495      2.6099      0.0534      2.4325    164.8837     29.3516
  1192.3000      8.2565      2.6090      0.0544      2.4831    163.1853     29.3184
  1192.4000      8.2565      2.6021      0.0994      2.9017    163.8206     29.5703
  1192.5000      8.2668      2.5739      0.0728      4.6126    164.9977     29.8373
  1192.6000      8.2668      2.5385     -0.0103      6.7570    165.1115     29.9769
  1192.7000      8.2668      2.5221      0.0457      7.7489    163.3008     29.8105
  1192.8000      8.2705      2.5173      0.0651      8.0419    161.9997     29.3108
  1192.9000      8.2705      2.5037      0.0682      8.8696    162.3574     28.8589
  1193.0000      8.2821      2.4801      0.0752     10.2945    162.9883     28.6779
  1193.1000      8.2821      2.4529      0.0627     11.9435    162.7835     28.7014
  1193.2000      8.2821      2.4301      0.0147     13.3272    161.4040     28.9253
  1193.3000      8.2924      2.4205      0.0315     13.9067    160.7092     29.3321
  1193.4000      8.2924      2.4210      0.0657     13.8771    161.5369     29.7349
  1193.5000      8.3001      2.4227      0.0501     13.7731    162.5652     29.8289
  1193.6000      8.3001      2.4264      0.0603     13.5534    162.3443     29.6791
  1193.7000      8.3001      2.4351      0.1189     13.0237    161.8163     29.7149
  1193.8000      8.3218      2.4465      0.1155     12.3333    164.3080     29.9950
  1193.9000      8.3218      2.4554      0.1093     11.7963    169.6196     30.3451
  1194.0000      8.3427      2.4611      0.0986     11.4456    172.9519     30.5534
  1194.1000      8.3427      2.4660      0.1047     11.1523    170.6679     30.4926
  1194.2000      8.3427      2.4677      0.0967     11.0479    164.0290     30.4255
  1194.3000      8.3471      2.4645      0.0792     11.2433    158.2280     30.4535
  1194.4000      8.3471      2.4526      0.0894     11.9665    157.2914     30.5321
  1194.5000      8.3787      2.4296      0.0971     13.3549    158.6100     30.5338
  1194.6000      8.3787      2.4031      0.0836     14.9607    158.7781     30.1630
  1194.7000      8.3787      2.3774      0.1056     16.5240    159.6011     29.7312
  1194.8000      8.4021      2.3551      0.0629     17.8717    161.7270     29.8025
  1194.9000      8.4021      2.3481      0.1096     18.2984    163.9399     30.3697
  1195.0000      8.3938      2.3643      0.1152     17.3144    165.7900     30.9341
  1195.1000      8.3938      2.4036      0.1936     14.9317    166.8173     31.1424
  1195.2000      8.3938      2.4591      0.2390     11.5682    166.7658     31.0479
  1195.3000      8.4269      2.5167      0.3164      8.0761    165.2495     30.7908
  1195.4000      8.4269      2.5563      0.3993      5.6814    162.5898     30.5904
  1195.5000      8.4276      2.5690      0.3132      4.9117    158.4816     30.6482
  1195.6000      8.4276      2.5692      0.2863      4.8987    151.7408     30.7115
  1195.7000      8.4276      2.5639      0.3061      5.2173    144.8811     30.4483
  1195.8000      8.6085      2.5385      0.2890      6.7594    141.7943     29.9674
  1195.9000      8.6085      2.4863      0.2235      9.9229    143.5176     29.5725
  1196.0000      8.6212      2.4247      0.1492     13.6554    148.8091     29.6680
  1196.1000      8.6212      2.3726      0.1000     16.8101    153.9301     30.2270
  1196.2000      8.6212      2.3346      0.0765     19.1138    156.1007     30.4834
  1196.3000      8.6513      2.3113      0.0860     20.5247    156.8977     30.3155
  1196.4000      8.6513      2.3144      0.0804     20.3392    155.7075     30.2296
  1196.5000      8.7198      2.3527      0.1713     18.0208    149.9450     30.1819
  1196.6000      8.7198      2.3987      0.3771     15.2276    145.5600     30.1254
  1196.7000      8.7198      2.4088      0.3450     14.6165    149.4447     30.3779
  1196.8000      9.0956      2.3735      0.3275     16.7553    155.5465     30.9526
  1196.9000      9.0956      2.3030      0.3055     21.0287    156.3138     31.5193
  1197.0000      9.6901      2.2018      0.2599     27.1659    154.5742     31.7772
  1197.1000      9.6901      2.0794      0.1662     34.5789    153.9511     31.7516
  1197.2000      9.6901      1.9569      0.1111     42.0045    152.3121     31.7149
  1197.3000      9.9297      1.8652      0.0859     47.5654    147.8552     31.9557
  1197.4000      9.9297      1.8387      0.0889     49.1701    144.5681     32.5465
  1197.5000     10.0560      1.8831      0.2683     46.4787    146.0249     33.1496
  1197.6000     10.0560      1.9630      0.3033     41.6368    146.3851     33.4943
  1197.7000     10.0560      2.0389      0.3355     37.0393    139.2922     33.7689
  1197.8000      8.9464      2.0964      0.3038     33.5514    130.2298     34.0608
  1197.9000      8.9464      2.1459      0.3458     30.5517    127.0205     34.0815
  1198.0000      8.5374      2.1999      0.3047     27.2780    127.5310     33.7086
  1198.1000      8.5374      2.2527      0.3257     24.0804    127.2945     33.2916
  1198.2000      8.5374      2.2715      0.3381     22.9395    124.8841     33.1703
  1198.3000      8.4350      2.2266      0.2605     25.6607    121.1978     33.1890
  1198.4000      8.4350      2.1323      0.1541     31.3762    119.2172     33.1425
  1198.5000      8.5026      2.0343      0.1250     37.3180    117.4923     33.0060
  1198.6000      8.5026      1.9527      0.1753     42.2632    111.4307     32.8032
  1198.7000      8.5026      1.8604      0.1413     47.8526    103.1696     32.5941
  1198.8000      8.5713      1.7318      0.0673     55.6469     97.8179     32.4173
  1198.9000      8.5713      1.5866     -0.0059     64.4507     96.3536     32.3556
  1199.0000      8.4249      1.4764     -0.1142     71.1247     94.3539     32.4655
  1199.1000      8.4249      1.4297     -0.0163     73.9598     87.2825     32.5113
  1199.2000      8.4249      1.4201      0.0339     74.5375     79.0341     32.6258
  1199.3000      8.4537      1.4176      0.0046     74.6923     76.3890     33.1650
  1199.4000      8.4537      1.4208      0.0265     74.4994     78.1440     33.7490
  1199.5000      8.5397      1.4295      0.0463     73.9673     78.7961     34.1064
  1199.6000      8.5397      1.4352      0.0485     73.6216     77.0213     34.3534
  1199.7000      8.5397      1.4350      0.0419     73.6359     75.5583     34.3512
  1199.8000      8.7508      1.4350      0.0232     73.6357     75.4259     34.3172
  1199.9000      8.7508      1.4452      0.0083     73.0193     75.8644     34.5936
  1200.0000      8.8553      1.4743      0.0203     71.2542     77.0588     34.9338
  1200.1000      8.8553      1.5281      0.0162     67.9932     79.7649     34.9963
  1200.2000      8.8553      1.6032      0.0455     63.4423     85.0004     34.8166
  1200.3000      8.5671      1.6905      0.0997     58.1531     91.6270     34.7481
  1200.4000      8.5671      1.7868      0.1115     52.3167     95.5636     34.8683
  1200.5000      8.5983      1.8885      0.1396     46.1499     96.7317     34.8769
  1200.6000      8.5983      1.9868      0.1523     40.1940     99.4027     34.6721
  1200.7000      8.5983      2.0739      0.1843     34.9144    105.4419     34.3135
  1200.8000      8.4455      2.1426      0.1265     30.7541    113.8614     33.8001
  1200.9000      8.4455      2.1891      0.0864     27.9348    122.1337     33.2829
  1201.0000      8.3579      2.2195      0.1220     26.0931    128.1833     33.0111
  1201.1000      8.3579      2.2406      0.1144     24.8095    131.3040     32.9697
