~Version Information
VERS.                      2.0: CWLS Log ASCII Standard - VERSION 2.0
WRAP.                       NO: One line per depth step
~Well Information Block
STRT.FT               800.0000: 
STOP.FT              1933.5000: 
STEP.FT                 0.2500: 
NULL.                -999.2500: 
COMP.          Pioneer Natural Resources: COMPANY
WELL.            Nova 11-14 Tr: WELL
FLD.           Purgatoire River: FIELD
LOC.           706' FNL & 1109' FWL: LOCATION
PROV.                 Colorado: PROVINCE
CNTY.               Las Animas: COUNTRY
SRVC.                Patterson: SERVICE COMPANY
DATE.          Wed Jul 20 23:28:11 2005: LOG DATE
UWI.           05 071 08434 00: UNIQUE WELL ID
~Curve Information Block
DEPT.FT            0 000 00 00: Depth
SN.Ohm-m                      : IEL Short Normal
SP.mV                         : IEL Spontaneous Potential
DIR.Ohm-m                     : IEL Induction Resistivity
GR.GAPI                       : Gamma Ray
~Parameter Information Block
~A  Depth        SN          SP         DIR          GR     
# ...
  1101.5000     24.5661    -59.5188     24.2232    105.3285
  1101.7500     25.1577    -59.3642     24.8819    108.0711
  1102.0000     25.5437    -59.2177     25.5419    113.1391
  1102.2500     25.5950    -59.0623     26.1732    116.0206
  1102.5000     25.2804    -58.8815     26.7711    118.1216
  1102.7500     24.8125    -58.6827     27.3416    117.3898
  1103.0000     24.5332    -58.4969     27.8843    112.3659
  1103.2500     24.6065    -58.3533     28.3900    106.5175
  1103.5000     24.9706    -58.2573     28.8490     95.6008
  1103.7500     25.4934    -58.1929     29.2523     88.4401
  1104.0000     26.0831    -58.1466     29.5792     80.2971
  1104.2500     26.7384    -58.1244     29.7956     77.1328
  1104.5000     27.5058    -58.1469     29.8816     74.7970
  1104.7500     28.3293    -58.2284     29.8658     73.7450
  1105.0000     29.0010    -58.3667     29.8225     71.8914
  1105.2500     29.3298    -58.5499     29.8311     70.8344
  1105.5000     29.2950    -58.7727     29.9349     70.9516
  1105.7500     29.0249    -59.0413     30.1294     72.6309
  1106.0000     28.6620    -59.3576     30.3748     77.0144
  1106.2500     28.2646    -59.6960     30.6198     80.2810
  1106.5000     27.8427    -60.0001     30.8230     83.8395
  1106.7500     27.4235    -60.2133     30.9663     84.4873
  1107.0000     27.0776    -60.3143     31.0510     82.6242
  1107.2500     26.9291    -60.3299     31.0888     80.0411
  1107.5000     27.0904    -60.3194     31.1061     75.4081
  1107.7500     27.5300    -60.3482     31.1572     72.2804
  1108.0000     28.0858    -60.4663     31.3183     67.8054
  1108.2500     28.6272    -60.6967     31.6441     65.0630
  1108.5000     29.1174    -61.0351     32.1174     61.6384
  1108.7500     29.5760    -61.4537     32.6434     59.9926
  1109.0000     30.0266    -61.9056     33.1138     58.3790
  1109.2500     30.4324    -62.3321     33.4917     57.5749
  1109.5000     30.7719    -62.6799     33.8270     56.3259
  1109.7500     31.1038    -62.9218     34.1854     55.4235
  1110.0000     31.4467    -63.0710     34.5758     54.1092
  1110.2500     31.7540    -63.1776     34.9563     53.2757
  1110.5000     31.9895    -63.3031     35.2970     52.0491
  1110.7500     32.1029    -63.4859     35.6125     51.3676
  1111.0000     32.0718    -63.7181     35.9202     51.1457
  1111.2500     32.0075    -63.9518     36.1796     51.9626
  1111.5000     32.0325    -64.1316     36.2864     54.9995
  1111.7500     32.0870    -64.2266     36.1395     57.9202
  1112.0000     32.0412    -64.2367     35.7167     62.1518
  1112.2500     31.8805    -64.1754     35.0894     63.9088
  1112.5000     31.6542    -64.0531     34.3691     64.4659
  1112.7500     31.4108    -63.8742     33.6460     64.1417
  1113.0000     31.1733    -63.6406     32.9716     64.4717
  1113.2500     30.8720    -63.3576     32.3750     65.8162
  1113.5000     30.4400    -63.0474     31.8755     68.9757
  1113.7500     29.9802    -62.7636     31.4736     71.0783
  1114.0000     29.6568    -62.5778     31.1328     73.3435
  1114.2500     29.4523    -62.5318     30.7791     74.2387
  1114.5000     29.1781    -62.5925     30.3226     75.1135
  1114.7500     28.7247    -62.6560     29.6812     75.6618
  1115.0000     28.1668    -62.6118     28.7931     76.6841
  1115.2500     27.6029    -62.4235     27.6247     77.4825
  1115.5000     27.0688    -62.1656     26.1869     78.4944
  1115.7500     26.6376    -61.9865     24.5532     78.6945
  1116.0000     26.3997    -62.0284     22.8569     77.7768
  1116.2500     26.3280    -62.3630     21.2574     76.2395
  1116.5000     26.3290    -62.9781     19.8933     72.7051
  1116.7500     26.3516    -63.8034     18.8500     69.8659
  1117.0000     26.3506    -64.7485     18.1581     65.8386
  1117.2500     26.2840    -65.7343     17.8247     63.8516
  1117.5000     26.1624    -66.7098     17.9009     62.2825
  1117.7500     26.0593    -67.6476     18.6019     62.0404
  1118.0000     26.1146    -68.5230     20.5708     62.4976
  1118.2500     26.4213    -69.3062     25.8269     63.1939
  1118.5000     26.8561    -69.9867     44.5929     64.5714
  1118.7500     27.1852    -70.6040 100000.0000     65.4831
  1119.0000     27.3262    -71.2453 100000.0000     66.3424
  1119.2500     27.3379    -72.0121 100000.0000     66.2624
  1119.5000     27.2771    -72.9847 100000.0000     64.8072
  1119.7500     27.2250    -74.2057 100000.0000     63.0968
  1120.0000     27.2873    -75.6880 100000.0000     60.4146
  1120.2500     27.4778    -77.4579 100000.0000     59.1572
  1120.5000     27.7363    -79.6141 100000.0000     58.3384
  1120.7500     28.0156    -82.3585 100000.0000     58.2676
  1121.0000     28.2743    -85.9682 100000.0000     58.5031
  1121.2500     28.4576    -90.7477 100000.0000     58.8664
  1121.5000     28.4976    -97.0151 100000.0000     59.9436
  1121.7500     28.3292   -105.1314 100000.0000     61.3240
  1122.0000     27.9550   -115.5231 100000.0000     65.2350
  1122.2500     27.4541   -128.6483 100000.0000     69.5238
  1122.5000     26.8349   -144.8976 100000.0000     78.6534
  1122.7500     25.9429   -164.4356 100000.0000     86.1876
  1123.0000     24.5905   -186.9955 100000.0000     98.3131
  1123.2500     22.7357   -211.7123 100000.0000    105.8406
  1123.5000     20.5268   -237.2283 100000.0000    114.6764
  1123.7500     18.1486   -262.1562 100000.0000    118.7639
  1124.0000     15.6127   -285.4359 100000.0000    123.3978
  1124.2500     12.8358   -306.0410 100000.0000    126.3879
  1124.5000      9.9662   -322.4296 100000.0000    131.1119
  1124.7500      7.4126   -332.8380 100000.0000    133.8295
  1125.0000      5.4833   -336.5339      6.2580    135.9385
  1125.2500      4.1884   -334.8782      1.4580    135.8088
  1125.5000      3.3749   -331.1482      0.6307    134.3804
  1125.7500      2.8848   -329.0315      0.3281    133.7749
  1126.0000      2.6109   -330.6205      0.1913    135.0200
  1126.2500      2.4875   -335.3647      0.1314    137.3060
  1126.5000      2.4296   -340.9420      0.1136    141.0801
  1126.7500      2.3262   -345.2500      0.1266    142.2166
  1127.0000      2.1453   -347.6565      0.1774    139.4517
  1127.2500      1.9671   -348.7124      0.2925    133.8290
  1127.5000      1.8784   -349.1890      0.5327    119.6608
  1127.7500      1.8977   -349.5041      1.0762    107.2593
  1128.0000      1.9944   -349.7438      2.5484     87.4409
  1128.2500      2.1125   -349.8947      6.2468     75.9404
  1128.5000      2.1881   -349.9617      6.8247     64.8320
  1128.7500      2.1910   -349.9570      3.5677     62.1718
  1129.0000      2.1365   -349.8043      2.1031     63.8174
  1129.2500      2.0479   -349.1485      1.6308     67.0983
  1129.5000      1.9430   -347.0159      1.6698     72.9024
  1129.7500      1.8578   -341.5296      2.3175     76.4112
  1130.0000      1.8444   -330.2625      5.1305     79.9997
  1130.2500      1.9137   -311.6005 100000.0000     80.7264
  1130.5000      1.9750   -286.3088 100000.0000     78.6257
  1130.7500      1.8871   -257.6893 100000.0000     75.1102
  1131.0000      1.6347   -229.8939 100000.0000     67.8139
  1131.2500      1.4102   -205.8676 100000.0000     62.7281
  1131.5000      1.4067   -186.4829 100000.0000     56.4024
  1131.7500      1.6053   -170.9470 100000.0000     53.3949
  1132.0000      1.8455   -157.6702 100000.0000     50.4032
  1132.2500      1.9683   -145.0610 100000.0000     49.2104
  1132.5000      1.9415   -132.1373 100000.0000     48.9008
  1132.7500      1.9054   -118.8668 100000.0000     50.2166
  1133.0000      1.9911   -106.0605     20.1254     55.3674
  1133.2500      2.1560    -94.8422      5.1541     61.0864
  1133.5000      2.2890    -86.0267      2.5110     72.7398
  1133.7500      2.3898    -79.7961      1.6573     82.1257
  1134.0000      2.6121    -75.7589      1.3531     97.2507
  1134.2500      3.2276    -73.2153      1.3080    106.5583
  1134.5000      4.5834    -71.4355      1.4547    116.1562
  1134.7500      6.8737    -69.8656      1.8339    118.3057
