~Version Information
VERS.                      2.0: CWLS Log ASCII Standard - VERSION 2.0
WRAP.                       NO: One line per depth step
~Well Information Block
STRT.FT               -19.0000: 
STOP.FT              1343.5000: 
STEP.FT                 0.5000: 
NULL.                -999.2500: 
COMP.          Evergreen Operating Corporation: COMPANY
WELL.            Trigger 13-35: WELL
FLD.           Purgatorie River: FIELD
LOC.           2245' FSL & 594' FWL: LOCATION
PROV.                 Colorado: PROVINCE
CNTY.               Las Animas: COUNTRY
SRVC.                         : SERVICE COMPANY
DATE.          Mon Jun 23 12:06:52 2003: LOG DATE
UWI.           05-071-07838-00: UNIQUE WELL ID
~Curve Information Block
DEPT.FT            0 000 00 00: Depth
TT3.usec                      : CBL 3' Travel Time
AMP3.mV                       : CBL 3' Amplitude
GR.GAPI                       : Gamma Ray
CCL.                          : Casing Collar Locator
~Parameter Information Block
~A  Depth       TT3         AMP3         GR         CCL     
# ...
   249.0000    667.6298      1.6074     86.0929      0.0000
   249.5000    741.8225      1.7631     85.0185      0.0000
   250.0000    751.5692      1.9487     76.7580      0.0000
   250.5000    754.1771      2.2975     66.3008      0.0000
   251.0000    774.6259      2.4570     57.6633      0.0000
   251.5000    825.9514      2.4335     54.8937      0.0000
   252.0000    868.9135      2.4888     59.3260      0.0000
   252.5000    858.3826      2.4597     70.7575      0.0000
   253.0000    800.2885      2.3891     87.9373      0.0000
   253.5000    762.1611      2.3338     95.8764      0.0000
   254.0000    756.6279      2.0845     92.4187      0.0000
   254.5000    758.7358      1.8702     90.5054      0.0000
   255.0000    759.9273      1.7810     98.5490      0.0000
   255.5000    759.4373      1.7733    103.1460      0.0000
   256.0000    758.6140      1.8737     97.0449      0.0000
   256.5000    758.0925      1.9890     89.3895      0.0000
   257.0000    756.9036      2.0621     83.3596      0.0000
   257.5000    755.8717      2.1172     82.8895      0.0000
   258.0000    755.1324      2.2235     82.0939      0.0000
   258.5000    753.1116      2.2431     80.0668      0.0000
   259.0000    740.3788      2.2421     80.7264      0.0000
   259.5000    712.5460      2.0870     81.4159      0.0000
   260.0000    776.1185      1.6799     76.4634      0.0000
   260.5000    830.7959      1.4366     64.9997      0.0000
   261.0000    813.6829      1.3970     62.7634     -5.0000
   261.5000    849.9234      1.3481     72.1045      5.0000
   262.0000    839.9509      1.3713     78.9067      0.0000
   262.5000    764.7466      1.7189     83.6214      0.0000
   263.0000    768.7764      2.2535     91.3882      0.0000
   263.5000    770.3553      2.4647     90.6083      0.0000
   264.0000    760.0953      2.3701     73.2087      0.0000
   264.5000    758.7206      2.3943     57.2649      0.0000
   265.0000    763.8239      2.5377     52.3430      0.0000
   265.5000    765.2413      2.5431     52.5454      0.0000
   266.0000    760.8041      2.4335     51.6331      0.0000
   266.5000    771.8367      2.5213     52.0411      0.0000
   267.0000    789.9389      2.6146     56.0546      0.0000
   267.5000    791.3141      2.5847     59.5446      0.0000
   268.0000    748.2910      2.6333     63.7172      0.0000
   268.5000    618.5015      2.7360     70.6420      0.0000
   269.0000    540.8663      2.6317     76.7463      0.0000
   269.5000    551.2097      2.5551     78.9763      0.0000
   270.0000    533.1928      2.6269     80.2292      0.0000
   270.5000    548.9038      2.7690     81.7070      0.0000
   271.0000    573.7536      2.8428     78.2742      0.0000
   271.5000    563.6815      2.7618     75.2456      0.0000
   272.0000    517.9483      2.7614     75.9959      0.0000
   272.5000    481.4870      2.8676     79.1655      0.0000
   273.0000    486.9827      2.8014     84.5705      0.0000
   273.5000    507.6332      2.8056     87.8688      0.0000
   274.0000    482.4323      3.0345     87.5045      0.0000
   274.5000    453.0801      3.2078     84.0758      0.0000
   275.0000    445.4182      3.2651     79.9066      0.0000
   275.5000    438.7687      3.3901     74.6299      0.0000
   276.0000    423.5595      3.4166     68.9504      0.0000
   276.5000    430.5369      3.4008     66.4930      0.0000
   277.0000    442.9146      3.5612     68.8136      0.0000
   277.5000    439.0125      3.6766     72.9668      0.0000
   278.0000    422.3599      3.7273     75.2235      0.0000
   278.5000    414.9923      3.7708     73.6055      0.0000
   279.0000    410.3873      3.7035     71.9138      0.0000
   279.5000    415.1682      3.6386     74.3493      0.0000
   280.0000    422.3611      3.6658     76.4372      0.0000
   280.5000    438.9389      3.6631     75.8082      0.0000
   281.0000    445.6176      3.6143     74.7415      0.0000
   281.5000    454.3092      3.6217     76.3748      0.0000
   282.0000    504.1144      3.6715     83.7483      0.0000
   282.5000    601.2503      3.8667     95.1876      0.0000
   283.0000    704.3273      4.1875     97.1575      0.0000
   283.5000    776.7877      4.3190     90.2768      0.0000
   284.0000    776.8358      4.2666     90.2065      0.0000
   284.5000    780.1182      4.2949     92.7307      0.0000
   285.0000    788.5499      4.5147     95.7079      0.0000
   285.5000    790.9257      4.3792    101.6025      0.0000
   286.0000    795.0627      3.6045    103.5212      0.0000
   286.5000    799.5609      3.2207     93.8851      0.0000
   287.0000    790.4312      3.3089     86.7006      0.0000
   287.5000    780.1451      3.3065     94.2873      0.0000
   288.0000    778.1492      3.3236     97.6787      0.0000
   288.5000    778.6237      3.3731     98.7799      0.0000
   289.0000    779.3583      3.2889    109.7075      0.0000
   289.5000    778.9217      3.1674    113.3147      0.0000
   290.0000    777.9830      3.1979     98.4146      0.0000
   290.5000    777.3226      3.2375     84.3905      0.0000
   291.0000    776.8835      3.1020     89.8323      0.0000
   291.5000    777.6031      2.9937     97.1183      0.0000
   292.0000    781.0890      3.1060    101.4263      0.0000
   292.5000    793.6024      3.1920    111.7464      0.0000
   293.0000    792.2451      3.2390    123.2203      0.0000
   293.5000    779.6080      3.3785    124.7021      0.0000
   294.0000    778.1340      3.3931    119.2728      0.0000
   294.5000    778.7664      3.3106    115.3207      0.0000
   295.0000    779.2665      3.3290    113.0452      0.0000
   295.5000    778.9346      3.2549    115.3615      0.0000
   296.0000    778.6210      3.0322    118.0031      0.0000
   296.5000    778.8496      2.9999    125.0334      0.0000
   297.0000    778.4605      3.0076    136.2884      0.0000
   297.5000    778.2274      3.0605    141.1924      0.0000
   298.0000    778.2365      3.1195    139.0103      0.0000
   298.5000    777.8516      3.0657    131.5912      0.0000
   299.0000    777.4135      3.0311    124.2343      0.0000
   299.5000    776.9420      3.1158    121.7123      0.0000
   300.0000    776.7599      3.1015    118.4054      0.0000
   300.5000    776.9667      2.9607    115.2287      0.0000
   301.0000    776.3448      2.9145    110.9845      0.0000
   301.5000    776.0245      2.9682    109.0794      0.0000
   302.0000    775.8975      2.8699    113.7194      0.0000
   302.5000    770.3094      2.6779    123.7529      0.0000
   303.0000    762.5447      2.2727    134.3543      0.0000
   303.5000    775.4246      1.8640    135.9698      0.0000
   304.0000    798.6294      1.7845    125.8038     -5.0000
   304.5000    810.4438      1.8377    119.7814      5.0000
   305.0000    815.6857      1.7613    133.8652      0.0000
   305.5000    820.2520      1.7380    148.2319      0.0000
   306.0000    791.6212      1.9905    144.7373      0.0000
   306.5000    777.9532      2.5219    139.7942      0.0000
   307.0000    776.4788      2.8997    138.9645      0.0000
   307.5000    775.8772      3.0295    127.6273      0.0000
   308.0000    775.7655      2.9988    111.3669      0.0000
   308.5000    775.7358      2.9670    110.2515      0.0000
   309.0000    775.2554      3.0147    113.4168      0.0000
   309.5000    774.9748      2.9591    102.6564      0.0000
   310.0000    775.3922      2.9520     93.8664      0.0000
   310.5000    775.4008      2.8404     98.6773      0.0000
   311.0000    775.4261      2.6966    110.1625      0.0000
   311.5000    776.5558      2.7504    117.2438      0.0000
   312.0000    777.3849      2.7772    118.4622      0.0000
   312.5000    777.8078      2.7321    119.0472      0.0000
   313.0000    777.6798      2.7929    122.5634      0.0000
   313.5000    777.7480      2.7291    128.8183      0.0000
   314.0000    778.9421      2.6203    131.1705      0.0000
   314.5000    779.4838      2.6435    128.5891      0.0000
   315.0000    779.1262      2.7267    134.1516      0.0000
   315.5000    779.1653      2.6622    145.3044      0.0000
