~Version Information
VERS.                      2.0: CWLS Log ASCII Standard - VERSION 2.0
WRAP.                       NO: One line per depth step
~Well Information Block
STRT.FT               745.0000: 
STOP.FT              2945.7500: 
STEP.FT                 0.2500: 
NULL.                -999.2500: 
COMP.          Pioneer Natural Resources: COMPANY
WELL.          Old Yeller 31-32: WELL
FLD.           Purgatoire River: FIELD
LOC.           1832' FEL & 793' FNL--: LOCATION
STAT.                 Colorado: State
CNTY.               Las Animas: COUNTY
CTRY. USA : Country
SECT. 32 : Section
TOWN. 32S : Township
RANG. 67W : Range
SRVC.                Patterson: SERVICE COMPANY
DATE.          Sun Aug 28 20:20:00 2005: LOG DATE
API.           05 071 08356 00: UNIQUE WELL ID
~Curve Information Block
DEPT.FT            0 000 00 00: Depth
SN.Ohm-m                      : IEL Short Normal
SP.mV                         : IEL Spontaneous Potential
DIR.Ohm-m                     : IEL Induction Resistivity
GR.GAPI                       : Gamma Ray
~Parameter Information Block
~A  Depth        SN          SP         DIR          GR     
# ...
  1917.5000     21.4685     18.5305     16.8547    100.1256
  1917.7500     22.0295     17.3927     17.5153     98.9678
  1918.0000     22.6728     16.1793     18.2640     98.2005
  1918.2500     23.4083     14.9229     19.0897     98.2792
  1918.5000     24.2091     13.6566     19.9566     99.3475
  1918.7500     25.0096     12.4161     20.8042    100.7313
  1919.0000     25.7137     11.2401     21.5566    103.3686
  1919.2500     26.2205     10.1707     22.1396    104.8867
  1919.5000     26.4585      9.2503     22.4946    105.8542
  1919.7500     26.4101      8.5173     22.5885    105.5806
  1920.0000     26.1088      8.0012     22.4194    104.5489
  1920.2500     25.6158      7.7176     22.0195    103.9931
  1920.5000     24.9982      7.6654     21.4517    104.0519
  1920.7500     24.3128      7.8271     20.7942    104.9552
  1921.0000     23.5846      8.1717     20.1179    107.8122
  1921.2500     22.7943      8.6602     19.4667    110.5824
  1921.5000     21.8979      9.2518     18.8495    115.3731
  1921.7500     20.8765      9.9096     18.2454    118.5557
  1922.0000     19.7663     10.6040     17.6206    122.9565
  1922.2500     18.6403     11.3129     16.9473    125.6664
  1922.5000     17.5615     12.0205     16.2191    129.6183
  1922.7500     16.5535     12.7131     15.4535    132.4971
  1923.0000     15.6082     13.3757     14.6835    138.1823
  1923.2500     14.7183     13.9902     13.9442    143.2458
  1923.5000     13.9044     14.5341     13.2662    151.7327
  1923.7500     13.2127     14.9819     12.6746    156.6050
  1924.0000     12.6886     15.3067     12.1892    160.9142
  1924.2500     12.3457     15.4826     11.8234    161.7512
  1924.5000     12.1516     15.4872     11.5799    161.0470
  1924.7500     12.0393     15.3041     11.4496    159.6772
  1925.0000     11.9375     14.9257     11.4144    155.4517
  1925.2500     11.8071     14.3577     11.4545    150.1214
  1925.5000     11.6694     13.6216     11.5562    137.6501
  1925.7500     11.6108     12.7577     11.7173    127.5280
  1926.0000     11.7540     11.8240     11.9449    113.6032
  1926.2500     12.1984     10.8918     12.2478    107.2700
  1926.5000     12.9543     10.0362     12.6255    103.6989
  1926.7500     13.9118      9.3249     13.0599    104.8436
  1927.0000     14.8769      8.8056     13.5133    109.6510
  1927.2500     15.6644      8.4968     13.9358    113.3755
  1927.5000     16.1802      8.3833     14.2797    117.8762
  1927.7500     16.4356      8.4184     14.5145    119.9337
  1928.0000     16.5019      8.5321     14.6349    122.4680
  1928.2500     16.4589      8.6427     14.6572    124.3865
  1928.5000     16.3709      8.6694     14.6126    127.7510
  1928.7500     16.2879      8.5435     14.5429    129.9021
  1929.0000     16.2519      8.2160     14.4952    132.2482
  1929.2500     16.2971      7.6621     14.5152    133.0591
  1929.5000     16.4410      6.8819     14.6374    133.0119
  1929.7500     16.6737      5.8994     14.8774    131.8818
  1930.0000     16.9589      4.7594     15.2299    127.8560
  1930.2500     17.2538      3.5229     15.6716    123.3912
  1930.5000     17.5429      2.2611     16.1695    114.5356
  1930.7500     17.8624      1.0481     16.6906    108.1641
  1931.0000     18.2917     -0.0476     17.2091    100.3417
  1931.2500     18.9001     -0.9716     17.7084     97.4821
  1931.5000     19.6813     -1.6900     18.1771     97.0921
  1931.7500     20.5243     -2.1937     18.6008     98.6427
  1932.0000     21.2499     -2.4970     18.9535    101.9237
  1932.2500     21.6917     -2.6335     19.1979    104.0849
  1932.5000     21.7687     -2.6474     19.2963    106.6225
  1932.7500     21.5097     -2.5849     19.2315    107.4249
  1933.0000     21.0242     -2.4851     19.0214    106.8758
  1933.2500     20.4399     -2.3740     18.7126    105.7603
  1933.5000     19.8434     -2.2619     18.3552    104.6870
  1933.7500     19.2530     -2.1442     17.9755    105.1133
  1934.0000     18.6314     -2.0057     17.5674    107.0054
  1934.2500     17.9246     -1.8263     17.1054    108.1758
  1934.5000     17.1051     -1.5879     16.5688    108.9125
  1934.7500     16.1981     -1.2802     15.9576    109.0701
  1935.0000     15.2779     -0.9048     15.2931    110.1354
  1935.2500     14.4337     -0.4772     14.6086    112.1613
  1935.5000     13.7296     -0.0262     13.9392    118.2654
  1935.7500     13.1810      0.4097     13.3154    124.5877
  1936.0000     12.7600      0.7861     12.7587    135.9427
  1936.2500     12.4203      1.0586     12.2800    142.7317
  1936.5000     12.1245      1.1876     11.8812    148.1560
  1936.7500     11.8595      1.1430     11.5595    147.7200
  1937.0000     11.6357      0.9076     11.3119    142.1669
  1937.2500     11.4758      0.4797     11.1388    136.7188
  1937.5000     11.4034     -0.1254     11.0453    128.4162
  1937.7500     11.4338     -0.8760     11.0391    123.8061
  1938.0000     11.5667     -1.7253     11.1257    118.9199
  1938.2500     11.7776     -2.6159     11.3019    116.7000
  1938.5000     12.0148     -3.4849     11.5477    114.0666
  1938.7500     12.2114     -4.2705     11.8227    112.7177
  1939.0000     12.3057     -4.9193     12.0692    111.8687
  1939.2500     12.2602     -5.3918     12.2248    112.1959
  1939.5000     12.0709     -5.6667     12.2415    113.4785
  1939.7500     11.7634     -5.7424     12.1014    114.5751
  1940.0000     11.3786     -5.6363     11.8216    116.9412
  1940.2500     10.9528     -5.3810     11.4436    119.5593
  1940.5000     10.5097     -5.0196     11.0149    125.6790
  1940.7500     10.0645     -4.5991     10.5747    131.0715
  1941.0000      9.6303     -4.1648     10.1473    140.1776
  1941.2500      9.2167     -3.7550      9.7437    146.1918
  1941.5000      8.8274     -3.3980      9.3665    153.5984
  1941.7500      8.4647     -3.1105      9.0156    156.5255
  1942.0000      8.1371     -2.8990      8.6912    157.2068
  1942.2500      7.8593     -2.7619      8.3954    155.7303
  1942.5000      7.6417     -2.6921      8.1318    152.5918
  1942.7500      7.4805     -2.6798      7.9040    150.9218
  1943.0000      7.3572     -2.7145      7.7138    149.9157
  1943.2500      7.2500     -2.7858      7.5590    150.2122
  1943.5000      7.1436     -2.8843      7.4326    151.3575
  1943.7500      7.0319     -3.0014      7.3243    152.0357
  1944.0000      6.9151     -3.1298      7.2231    152.4935
  1944.2500      6.7967     -3.2639      7.1211    152.6143
  1944.5000      6.6821     -3.3998      7.0170    153.0503
  1944.7500      6.5776     -3.5365      6.9155    153.5519
  1945.0000      6.4900     -3.6756      6.8248    154.2533
  1945.2500      6.4274     -3.8218      6.7518    154.6050
  1945.5000      6.3976     -3.9824      6.7003    155.2293
  1945.7500      6.4021     -4.1656      6.6700    155.6978
  1946.0000      6.4306     -4.3798      6.6579    155.8750
  1946.2500      6.4630     -4.6320      6.6593    155.5229
  1946.5000      6.4811     -4.9262      6.6692    155.1806
  1946.7500      6.4803     -5.2637      6.6832    155.6166
  1947.0000      6.4704     -5.6421      6.6986    156.6853
  1947.2500      6.4647     -6.0564      6.7143    156.6661
  1947.5000      6.4680     -6.4988      6.7302    154.7042
  1947.7500      6.4747     -6.9594      6.7458    152.7413
  1948.0000      6.4750     -7.4259      6.7604    150.5276
  1948.2500      6.4631     -7.8845      6.7729    149.6966
  1948.5000      6.4418     -8.3202      6.7821    147.9824
  1948.7500      6.4236     -8.7180      6.7875    145.8501
  1949.0000      6.4239     -9.0650      6.7889    142.0459
  1949.2500      6.4493     -9.3524      6.7871    140.2611
  1949.5000      6.4920     -9.5770      6.7842    139.4117
  1949.7500      6.5367     -9.7427      6.7821    139.4065
  1950.0000      6.5735     -9.8603      6.7812    138.9768
  1950.2500      6.6021     -9.9468      6.7800    138.3921
  1950.5000      6.6275    -10.0240      6.7753    137.8379
  1950.7500      6.6551    -10.1157      6.7650    137.8772
