~Version Information
VERS.                      2.0: CWLS Log ASCII Standard - VERSION 2.0
WRAP.                       NO: One line per depth step
~Well Information Block
STRT.FT                -9.7500: 
STOP.FT              2374.2500: 
STEP.FT                 0.2500: 
NULL.                -999.2500: 
COMP.          Pioneer Natural Resources: COMPANY
WELL.            Chevron 13-13: WELL
FLD.           Purgatorie River: FIELD
LOC.           1560' FSL & 711' FWL--: LOCATION
CNTY.               Las Animas: COUNTY
SRVC.          Superior Well Services: SERVICE COMPANY
DATE.          Wed Apr 11 08:47:55 2007: LOG DATE
UWI.           05 071 08319 00: UNIQUE WELL ID
STAT.                       CO: STATE
~Curve Information Block
DEPT.FT            0 000 00 00: Depth
CCL.                          : Casing Collar Locator
TT3.usec                      : CBL 3' Travel Time
AMP3.mV                       : CBL 3' Amplitude
GR.GAPI                       : Gamma Ray
~Parameter Information Block
~A  Depth       CCL         TT3         AMP3         GR     
# ...
  1397.2500      0.0000    701.6897      4.1361    134.4320
  1397.5000      0.0000    700.9427      4.1202    141.8610
  1397.7500      0.0000    701.5464      4.1393    147.4036
  1398.0000      0.0000    704.3079      4.1912    150.2117
  1398.2500      0.0000    707.6021      4.2690    151.0403
  1398.5000      0.0000    708.8906      4.3472    151.7029
  1398.7500      0.0000    707.1847      4.3974    153.5913
  1399.0000      0.0000    703.6414      4.4194    156.4574
  1399.2500      0.0000    700.0712      4.4448    158.4108
  1399.5000      0.0000    697.4839      4.5056    157.5214
  1399.7500      0.0000    695.9604      4.6033    153.6546
  1400.0000      0.0000    695.2208      4.7097    148.3222
  1400.2500      0.0000    694.9949      4.7937    142.7454
  1400.5000      0.0000    695.0681      4.8424    136.8302
  1400.7500      0.0000    695.2563      4.8589    130.4322
  1401.0000      0.0000    695.4009      4.8479    124.8739
  1401.2500      0.0000    695.3856      4.8109    122.2485
  1401.5000      0.0000    695.1845      4.7516    123.4158
  1401.7500      0.0000    694.8774      4.6799    127.4824
  1402.0000      0.0000    694.5696      4.6057    132.9791
  1402.2500      0.0000    694.2817      4.5300    138.6687
  1402.5000      0.0000    693.9517      4.4474    143.3712
  1402.7500      0.0000    693.5504      4.3603    145.8896
  1403.0000      0.0000    693.1484      4.2882    145.4711
  1403.2500      0.0000    692.8591      4.2556    142.3753
  1403.5000      0.0000    692.7340      4.2722    138.0798
  1403.7500      0.0000    692.6962      4.3262    134.7401
  1404.0000      0.0000    692.3295      4.3942    134.0108
  1404.2500      0.0000    690.2908      4.4538    136.2821
  1404.5000      0.0000    683.3647      4.4922    140.8949
  1404.7500      0.0000    666.1897      4.5082    146.6209
  1405.0000      0.0000    633.5479      4.5071    151.9802
  1405.2500      0.0000    585.2209      4.4953    155.6745
  1405.5000      0.0000    528.9897      4.4778    156.9050
  1405.7500      0.0000    477.1546      4.4596    155.2127
  1406.0000      0.0000    439.1072      4.4406    150.5371
  1406.2500      0.0000    417.1938      4.4141    144.0562
  1406.5000      0.0000    408.1831      4.3724    138.6001
  1406.7500      0.0000    406.6963      4.3163    137.1027
  1407.0000      0.0000    407.7179      4.2569    140.1453
  1407.2500      0.0000    407.9853      4.2090    145.2796
  1407.5000      0.0000    406.3264      4.1829    148.9054
  1407.7500      0.0000    402.9660      4.1797    148.6451
  1408.0000      0.0000    398.4283      4.1944    144.1927
  1408.2500      0.0000    392.8160      4.2221    136.8812
  1408.5000      0.0000    385.8423      4.2602    128.8577
  1408.7500      0.0000    377.6231      4.3067    121.9343
  1409.0000      0.0000    369.4851      4.3598    116.5047
  1409.2500      0.0000    363.7234      4.4164    111.5994
  1409.5000      0.0000    362.2184      4.4677    106.2902
  1409.7500      0.0000    365.1089      4.4991    100.9982
  1410.0000      0.0000    370.7071      4.4980     97.1831
  1410.2500      0.0000    376.6928      4.4652     95.8817
  1410.5000      0.0000    381.5079      4.4165     96.9142
  1410.7500      0.0000    384.8168      4.3733     99.2487
  1411.0000      0.0000    386.9813      4.3506    101.5772
  1411.2500      0.0000    388.4064      4.3498    102.7033
  1411.5000      0.0000    389.3434      4.3631    102.1194
  1411.7500      0.0000    389.9967      4.3803    100.3148
  1412.0000      0.0000    390.5735      4.3907     98.0640
  1412.2500      0.0000    391.2012      4.3825     95.4265
  1412.5000      0.0000    391.8609      4.3489     91.8798
  1412.7500      0.0000    392.4247      4.2961     87.3027
  1413.0000      0.0000    392.7562      4.2396     82.2104
  1413.2500      0.0000    392.7868      4.1911     77.1124
  1413.5000      0.0000    392.5359      4.1512     72.4229
  1413.7500      0.0000    392.0912      4.1130     69.1033
  1414.0000      0.0000    391.5715      4.0709     68.5918
  1414.2500      0.0000    391.0821      4.0260     71.4670
  1414.5000      0.0000    390.6713      3.9848     76.3070
  1414.7500      0.0000    390.3147      3.9554     80.4481
  1415.0000      0.0000    389.9362      3.9438     82.2276
  1415.2500      0.0000    389.4368      3.9513     82.1863
  1415.5000      0.0000    388.7208      3.9739     81.7231
  1415.7500      0.0000    387.7846      4.0079     81.1599
  1416.0000      0.0000    386.8688      4.0558     80.0373
  1416.2500      0.0000    386.6964      4.1228     78.7921
  1416.5000      0.0000    388.8607      4.2055     78.6692
  1416.7500      0.0000    396.4314      4.2892     79.9010
  1417.0000      0.0000    414.0253      4.3591     81.2835
  1417.2500      0.0000    445.7476      4.4138     82.0530
  1417.5000      0.0000    491.0398      4.4626     83.2910
  1417.7500      0.0000    542.4958      4.5099     86.8977
  1418.0000      0.0000    589.6935      4.5410     93.7418
  1418.2500      0.0000    626.0611      4.5282    103.1198
  1418.5000      0.0000    651.4351      4.4552    113.3714
  1418.7500      0.0000    668.7974      4.3377    122.7442
  1419.0000      0.0000    680.5598      4.2157    130.0957
  1419.2500      0.0000    687.9808      4.1281    134.9491
  1419.5000      0.0000    692.1517      4.0938    136.9157
  1419.7500      0.0000    694.3114      4.1130    135.8172
  1420.0000      0.0000    695.4840      4.1730    132.7334
  1420.2500      0.0000    696.2601      4.2522    129.9250
  1420.5000      0.0000    696.8772      4.3224    128.9145
  1420.7500      0.0000    697.3991      4.3580    129.1997
  1421.0000      0.0000    697.8099      4.3478    129.2362
  1421.2500      0.0000    698.0490      4.3029    128.1092
  1421.5000      0.0000    698.0580      4.2489    126.1009
  1421.7500      0.0000    697.8585      4.2080    124.2721
  1422.0000      0.0000    697.5793      4.1873    123.6898
  1422.2500      0.0000    697.3898      4.1839    124.5987
  1422.5000      0.0000    697.3892      4.1977    126.1595
  1422.7500      0.0000    697.5127      4.2342    127.3566
  1423.0000      0.0000    697.4909      4.2951    128.1404
  1423.2500      0.0000    696.8715      4.3668    129.1864
  1423.5000      0.0000    695.2070      4.4243    130.5670
  1423.7500      0.0000    692.5137      4.4459    131.5024
  1424.0000      0.0000    689.6916      4.4258    131.5028
  1424.2500      0.0000    688.1732      4.3747    130.8573
  1424.5000      0.0000    688.7631      4.3136    129.8470
  1424.7500      0.0000    690.9125      4.2634    128.3668
  1425.0000      0.0000    693.3354      4.2359    126.4751
  1425.2500      0.0000    695.1251      4.2316    124.5908
  1425.5000      0.0000    696.1227      4.2443    123.1105
  1425.7500      0.0000    696.5459      4.2661    122.1678
  1426.0000      0.0000    696.6018      4.2895    121.6460
  1426.2500      0.0000    696.3937      4.3060    121.3621
  1426.5000      0.0000    695.9755      4.3068    121.3208
  1426.7500      0.0000    695.3961      4.2828    121.5947
  1427.0000      0.0000    694.6956      4.2235    121.7993
  1427.2500      0.0000    693.9586      4.1161    121.2071
  1427.5000      0.0000    693.5405      3.9505    119.8033
  1427.7500      0.0000    694.4334      3.7282    118.7149
  1428.0000      0.0000    698.1838      3.4694    118.8093
  1428.2500      0.0000    705.6729      3.2085    119.0388
  1428.5000      0.0000    715.4152      2.9814    116.8162
  1428.7500      0.0000    723.6966      2.8104    110.1938
  1429.0000      0.0000    727.4244      2.6979     99.7297
  1429.2500      0.0000    726.7855      2.6327     88.5800
  1429.5000      0.0000    724.5745      2.6024     80.8590
  1429.7500      0.0000    723.6252      2.6059     79.2072
  1430.0000      0.0000    725.4930      2.6590     83.3106
  1430.2500      0.0000    730.1479      2.7872     90.6867
  1430.5000      0.0000    735.1575      3.0056     98.9744
