~Version Information
VERS.                      2.0: CWLS Log ASCII Standard - VERSION 2.0
WRAP.                       NO: One line per depth step
~Well Information Block
STRT.FT                -7.0000: 
STOP.FT              1656.2500: 
STEP.FT                 0.2500: 
NULL.                -999.2500: 
COMP.          Pioneer Natural Resources: COMPANY
WELL.               Elmo 14-21: WELL
FLD.           Purgatorie River: FIELD
LOC.           623' FSL & 450' FWL--: LOCATION
PROV.                       CO: PROVINCE
CNTY.               Las Animas: COUNTRY
SRVC.          Patterson Wireline: SERVICE COMPANY
DATE.          Mon Jun 27 15:45:41 2005: LOG DATE
UWI.           05 071 08360 00: UNIQUE WELL ID
~Curve Information Block
DEPT.FT            0 000 00 00: Depth
CCL.                          : Casing Collar Locator
TT3.usec                      : CBL 3' Travel Time
AMP3.mV                       : CBL 3' Amplitude
GR.GAPI                       : Gamma Ray
~Parameter Information Block
~A  Depth       CCL         TT3         AMP3         GR     
    -7.0000   -999.2500   -999.2500   -999.2500     76.6961
    -6.7500   -999.2500   -999.2500   -999.2500     81.1817
    -6.5000   -999.2500   -999.2500   -999.2500     83.7833
    -6.2500   -999.2500   -999.2500   -999.2500     83.4668
    -6.0000   -999.2500   -999.2500   -999.2500     80.7833
    -5.7500   -999.2500   -999.2500   -999.2500     77.6634
    -5.5000   -999.2500   -999.2500   -999.2500     75.7654
    -5.2500   -999.2500   -999.2500   -999.2500     74.8698
    -5.0000   -999.2500   -999.2500   -999.2500     73.2226
    -4.7500   -999.2500   -999.2500   -999.2500     69.4981
    -4.5000   -999.2500   -999.2500   -999.2500     64.1935
    -4.2500   -999.2500   -999.2500   -999.2500     59.1632
    -4.0000   -999.2500   -999.2500   -999.2500     56.1208
    -3.7500   -999.2500   -999.2500   -999.2500     55.7407
    -3.5000   -999.2500   -999.2500   -999.2500     57.9373
    -3.2500   -999.2500   -999.2500   -999.2500     62.3802
    -3.0000   -999.2500   -999.2500   -999.2500     68.2433
    -2.7500   -999.2500   -999.2500   -999.2500     73.7165
    -2.5000   -999.2500   -999.2500   -999.2500     76.7022
    -2.2500   -999.2500   -999.2500   -999.2500     76.4458
    -2.0000   -999.2500   1170.0000      0.6929     74.0749
    -1.7500   -999.2500   1170.0000      0.6865     71.2894
    -1.5000   -999.2500   1170.0000      0.6795     68.8366
    -1.2500   -999.2500   1170.0000      0.6729     66.4096
    -1.0000   -999.2500   1170.0000      0.6662     63.6984
    -0.7500   -999.2500   1170.0000      0.6601     61.1150
    -0.5000   -999.2500   1170.0000      0.6568     59.4121
    -0.2500   -999.2500   1170.0000      0.6574     58.8740
     0.0000   -999.2500   1170.0000      0.6619     59.1734
     0.2500   -999.2500   1170.0000      0.6694     59.9994
     0.5000   -999.2500   1170.0000      0.6780     61.4536
     0.7500   -999.2500   1170.0000      0.6857     65.2099
     1.0000   -999.2500   1170.0000      0.6799     65.1342
     1.2500   -999.2500   1170.0000      0.6688     62.7961
     1.5000   -999.2500   1170.0000      0.6550     59.3891
     1.7500   -999.2500   1170.0000      0.6411     56.7403
     2.0000   -999.2500   1170.0000      0.6291     55.7998
     2.2500   -999.2500   1170.0000      0.6223     56.2140
     2.5000   -999.2500   1170.0000      0.6239     56.9510
     2.7500   -999.2500   1170.0000      0.6335     57.1838
     3.0000   -999.2500   1170.0000      0.6444     56.9080
     3.2500      0.0000   1170.0000      0.6479     56.8452
     3.5000      0.0000   1170.0000      0.6404     57.4847
     3.7500      0.0000   1170.0000      0.6266     58.2426
     4.0000      0.0000   1170.0000      0.6154     57.7521
     4.2500      0.0000   1170.0000      0.6130     54.9005
     4.5000      0.0000   1170.0000      0.6184     49.5739
     4.7500      0.0000   1170.0000      0.6260     42.7381
     5.0000      2.0000   1170.0000      0.6313     35.9930
     5.2500     -2.0000   1170.0000      0.6325     30.7925
     5.5000      2.0000   1170.0000      0.6304     27.6862
     5.7500      2.0000   1170.0000      0.6271     26.1547
     6.0000     -2.0000   1170.0000      0.6262     25.1684
     6.2500      0.0000   1170.0000      0.6304     23.9771
     6.5000      0.0000   1170.0000      0.6386     22.5601
     6.7500      0.0000   1170.0000      0.6462     21.6523
     7.0000      0.0000   1170.0000      0.6498     22.4357
     7.2500      0.0000   1170.0000      0.6497     25.9132
     7.5000     -2.0000   1170.0000      0.6476     32.1461
     7.7500      0.0000   1170.0000      0.6432     39.9957
     8.0000      0.0000   1170.0000      0.6359     47.7379
     8.2500      0.0000   1170.0000      0.6277     53.9870
     8.5000      0.0000   1170.0000      0.6221     58.1328
     8.7500      0.0000   1170.0000      0.6208     60.2800
     9.0000      0.0000   1170.0000      0.6226     61.0308
     9.2500      0.0000   1170.0000      0.6259     61.1716
     9.5000      0.0000   1170.0000      0.6287     61.2653
     9.7500      0.0000   1170.0000      0.6296     61.4511
    10.0000      0.0000   1170.0000      0.6297     61.7085
    10.2500      0.0000   1170.0000      0.6331     62.3209
    10.5000      0.0000   1170.0000      0.6412     63.8482
    10.7500      0.0000   1170.0000      0.6499     66.4684
    11.0000      0.0000   1170.0000      0.6533     69.6864
    11.2500      0.0000   1170.0000      0.6502     73.1121
    11.5000      0.0000   1170.0000      0.6449     77.0597
    11.7500      0.0000   1170.0000      0.6419     81.5846
    12.0000      0.0000   1170.0000      0.6421     85.4052
    12.2500      0.0000   1170.0000      0.6434     87.0429
    12.5000      0.0000   1170.0000      0.6441     86.9204
    12.7500      0.0000   1169.9423      0.6471     86.9860
    13.0000      0.0000   1169.5629      0.6618     88.0617
    13.2500      0.0000   1167.6317      0.7197     88.7476
    13.5000      0.0000   1159.9713      0.9332     87.2969
    13.7500      0.0000   1136.2880      1.6128     83.6821
    14.0000      0.0000   1079.2030      3.3570     79.4509
    14.2500      0.0000    971.9030      6.9008     76.2112
    14.5000      0.0000    814.5644     12.5908     74.5078
    14.7500      0.0000    634.5022     19.8310     73.6903
    15.0000      0.0000    473.5833     27.1597     72.5317
    15.2500      0.0000    361.1952     33.0930     70.1524
    15.5000      0.0000    299.7758     36.9784     66.6588
    15.7500      0.0000    273.4353     39.0967     63.0248
    16.0000      0.0000    264.4900     40.1329     60.4277
    16.2500      0.0000    262.0126     40.6562     59.6474
    16.5000      0.0000    261.4094     40.9596     60.7366
    16.7500      0.0000    261.2692     41.1544     62.9992
    17.0000      0.0000    261.2454     41.2941     65.4340
    17.2500      0.0000    261.2281     41.4238     67.2610
    17.5000      0.0000    261.1997     41.5691     67.8871
    17.7500      0.0000    261.1978     41.7130     66.6010
    18.0000      0.0000    261.3467     41.7782     62.7556
    18.2500      0.0000    261.9391     41.6148     56.3419
    18.5000      0.0000    263.5614     41.0018     48.2874
    18.7500      0.0000    267.0782     39.7136     40.1976
    19.0000      0.0000    273.1833     37.6875     33.6314
    19.2500      0.0000    281.6196     35.1991     29.3435
    19.5000      0.0000    290.8405     32.8259     27.0803
    19.7500      0.0000    298.7732     31.1238     26.0819
    20.0000      0.0000    304.1157     30.2852     25.7277
    20.2500      0.0000    306.8964     30.1149     25.7267
    20.5000      0.0000    307.9229     30.2981     25.9192
    20.7500      0.0000    307.8772     30.6713     26.2023
    21.0000      0.0000    306.7740     31.3317     26.6967
    21.2500      0.0000    303.9566     32.5753     27.7175
    21.5000      0.0000    298.6410     34.6325     29.4124
    21.7500      0.0000    290.8232     37.3069     31.5519
    22.0000      0.0000    281.7988     39.9160     33.7779
    22.2500      0.0000    273.5590     41.7765     35.9808
    22.5000      0.0000    267.5262     42.7469     38.3172
    22.7500      0.0000    263.8956     43.1957     40.7741
    23.0000      0.0000    262.0262     43.5325     42.7494
    23.2500      0.0000    261.1599     43.9216     43.3818
    23.5000      0.0000    260.7878     44.3404     42.5156
    23.7500      0.0000    260.6487     44.7181     41.1212
    24.0000      0.0000    260.6159     44.9981     40.5040
    24.2500      0.0000    260.6171     45.1631     41.2223
    24.5000      0.0000    260.6101     45.2420     42.8250
    24.7500      0.0000    260.5889     45.2791     44.4640
    25.0000      0.0000    260.5735     45.2941     45.7674
    25.2500      0.0000    260.5821     45.2779     47.3144
    25.5000      0.0000    260.6072     45.2282     50.2091
    25.7500      0.0000    260.6211     45.1770     54.9899
    26.0000      0.0000    260.6026     45.1762     61.0209
    26.2500      0.0000    260.5586     45.2574     67.0436
