~Version Information
 VERS.                                  2.0 : CWLS LAS VERSION
 WRAP.                                   NO : WRAPING MODE
 SWARE .                 MController 2.5.0N : SOFTWARE VERSION
~Well Information
 WELL.                           King 22-13 : WELL
 COMP.    Pioneer Natural Resources USA Inc : COMPANY
 FLD.                      Purgatoire River : FIELD
 LOC.                SE/NW Sec 13 T32S R66W : LOCATION
 DATE.                           3/30-31/05 : DATE(S) LOGGED
 SRVC.       Blanco Geological Services LLC : SERVICE COMPANY
 STAT.                                   CO : STATE
 CNTY.                           Las Animas : COUNTY
 CTRY.                                  USA : COUNTRY
 API.                       05-071-08318-00 : API NUMBER
 STRT.FT                             603.00 : START DEPTH
 STOP.FT                            2185.00 : STOP DEPTH
 STEP.FT                               1.00 : DEPTH INCREMENT
 NULL.                                -9999 : NULL VALUE
~Curve information
 DEPTH.FT                                   :
 ROP.MIN/FT                                 :
 GAS.UNITS                                  :
~ASCII Log data
# ...
      1003.0         0.17       4286.8 
      1004.0         0.17       4247.5 
      1005.0         0.17       4247.5 
      1006.0         0.17       4104.2 
      1007.0         0.13       3962.9 
      1008.0         0.13       3786.6 
      1009.0         0.17       3890.9 
      1010.0         0.13       3890.9 
      1011.0         0.17       4329.3 
      1012.0         0.13       4329.3 
      1013.0         0.17       4577.9 
      1014.0         0.23       5305.5 
      1015.0         0.75       6565.0 
      1016.0         3.05       6589.6 
      1017.0         0.23       4765.1 
      1018.0         0.40       4636.8 
      1019.0         0.20       4402.9 
      1020.0         0.20       4337.2 
      1021.0         0.20       4301.5 
      1022.0         0.20       4244.3 
      1023.0         0.20       4198.5 
      1024.0         0.20       4182.1 
      1025.0         0.23       4173.6 
      1026.0         0.20       4173.6 
      1027.0         0.20       4176.9 
      1028.0         0.20       4185.7 
      1029.0         0.23       4178.5 
      1030.0         0.25       4166.1 
      1031.0         0.17       4188.3 
      1032.0         0.17       4202.7 
      1033.0         0.23       4202.7 
      1034.0         0.17       4176.9 
      1035.0         0.20       4061.1 
      1036.0         0.20       3848.4 
      1037.0         0.20       3735.5 
      1038.0         0.17       3773.5 
      1039.0         0.20       4311.6 
      1040.0         0.17       4311.6 
      1041.0         0.20       4899.2 
      1042.0         0.27       5742.6 
      1043.0         0.20       6426.7 
      1044.0         0.33       6889.2 
      1045.0         0.10       6975.9 
      1046.0         2.65       7175.5 
      1047.0         0.27       4800.4 
      1048.0         0.33       4627.7 
      1049.0         0.27       4622.4 
      1050.0         0.32       4522.7 
      1051.0         0.30       4397.7 
      1052.0         0.30       4336.2 
      1053.0         0.30       4225.6 
      1054.0         0.23       4166.4 
      1055.0         0.23       4195.5 
      1056.0         0.27       4224.3 
      1057.0         0.23       4235.1 
      1058.0         0.20       4218.1 
      1059.0         0.20       4218.1 
      1060.0         0.17       4202.1 
      1061.0         0.20       4139.6 
      1062.0         0.17       4045.7 
      1063.0         0.17       4045.7 
      1064.0         0.18       4012.0 
      1065.0         0.20       3954.7 
      1066.0         0.20       3733.9 
      1067.0         0.20       3733.9 
      1068.0         0.23       3669.5 
      1069.0         0.20       3555.3 
      1070.0         0.20       3807.8 
      1071.0         0.17       3807.8 
      1072.0         0.17       4398.3 
      1073.0         0.17       4643.7 
      1074.0         0.13       4919.8 
      1075.0         0.20       5393.2 
      1076.0         3.05       6594.2 
      1077.0         0.30       4701.3 
      1078.0         0.33       4613.6 
      1079.0         0.33       4505.0 
      1080.0         0.27       4270.8 
      1081.0         0.32       4208.3 
      1082.0         0.23       4185.0 
      1083.0         0.27       4123.2 
      1084.0         0.27       4083.0 
      1085.0         0.27       4134.0 
      1086.0         0.23       4134.0 
      1087.0         0.23       4159.2 
      1088.0         0.20       4186.0 
      1089.0         0.23       4185.4 
      1090.0         0.23       4176.9 
      1091.0         0.17       4156.6 
      1092.0         0.23       4175.2 
      1093.0         0.20       4174.9 
      1094.0         0.23       4152.0 
      1095.0         0.23       4091.8 
      1096.0         0.25       4048.0 
      1097.0         0.23       4021.8 
      1098.0         0.23       3997.3 
      1099.0         0.27       3941.3 
      1100.0         0.30       4165.4 
      1101.0         0.23       4165.4 
      1102.0         0.27       5062.5 
      1103.0         0.30       5668.0 
      1104.0         0.27       6114.2 
      1105.0         0.27       6272.6 
      1106.0         2.72       6133.2 
      1107.0         0.27       4633.2 
      1108.0         0.20       4482.7 
      1109.0         0.17       4428.1 
      1110.0         0.17       4375.4 
      1111.0         0.30       4339.5 
      1112.0         0.38       4279.9 
      1113.0         0.33       4237.4 
      1114.0         0.33       4165.1 
      1115.0         0.43       4182.1 
      1116.0         0.47       4010.7 
      1117.0         0.43       4077.7 
      1118.0         0.23       4155.9 
      1119.0         0.17       4220.7 
      1120.0         0.20       4208.3 
      1121.0         0.20       4208.3 
      1122.0         0.17       4133.0 
      1123.0         0.13       4133.0 
      1124.0         0.28       4072.5 
      1125.0         0.13       3704.1 
      1126.0         0.23       3598.8 
      1127.0         0.20       3598.8 
      1128.0         0.23       4060.4 
      1129.0         0.27       4767.7 
      1130.0         0.20       5880.0 
      1131.0         0.20       6416.2 
      1132.0         0.20       6416.2 
      1133.0         0.20       6603.0 
      1134.0         0.27       6579.8 
      1135.0         0.27       5817.2 
      1136.0         1.92       5546.6 
      1137.0         0.33       4354.8 
      1138.0         0.30       4283.5 
      1139.0         0.33       4164.4 
      1140.0         0.23       3822.2 
      1141.0         0.23       3775.5 
      1142.0         0.30       3779.0 
      1143.0         0.33       3960.0 
      1144.0         0.35       4041.4 
      1145.0         0.37       4095.7 
      1146.0         0.33       4071.5 
      1147.0         0.30       4063.0 
      1148.0         0.33       3954.1 
      1149.0         0.37       3941.3 
      1150.0         0.50       3884.4 
      1151.0         0.57       3822.6 
      1152.0         0.68       3587.0 
      1153.0         0.60       3643.3 
      1154.0         0.60       4045.0 
      1155.0         0.33       4073.2 
      1156.0         0.33       4036.2 
      1157.0         0.27       3920.7 
      1158.0         0.27       3824.9 
      1159.0         0.37       3740.4 
      1160.0         0.38       3747.3 
      1161.0         0.37       3648.8 
      1162.0         0.37       3480.0 
      1163.0         0.40       4470.6 
      1164.0         0.40       5384.7 
      1165.0         0.40       6959.3 
      1166.0         2.98       7847.8 
      1167.0         0.50       3712.6 
      1168.0         0.50       3796.1 
      1169.0         0.30       3845.1 
      1170.0         0.30       3889.3 
      1171.0         0.32       3888.0 
      1172.0         0.23       3825.5 
      1173.0         0.27       3691.4 
      1174.0         0.23       3655.4 
      1175.0         0.30       3662.3 
      1176.0         0.30       3665.2 
      1177.0         0.33       3673.4 
      1178.0         0.33       3673.1 
      1179.0         0.30       3635.8 
      1180.0         0.33       3570.7 
      1181.0         0.37       3576.2 
      1182.0         0.35       3603.4 
      1183.0         0.40       3639.0 
      1184.0         0.33       3642.6 
      1185.0         0.33       3636.4 
      1186.0         0.33       3607.0 
      1187.0         0.33       3535.0 
      1188.0         0.33       3590.0 
      1189.0         0.33       3629.2 
      1190.0         0.33       3660.9 
      1191.0         0.33       3534.7 
      1192.0         0.25       3209.2 
      1193.0         0.40       2795.0 
      1194.0         0.37       3291.6 
      1195.0         0.43       4938.8 
      1196.0         2.95       7928.9 
      1197.0         0.37       2638.0 
      1198.0         0.47       2626.8 
      1199.0         0.53       2981.8 
      1200.0         0.60       3285.1 
      1201.0         0.62       3473.2 
      1202.0         0.47       3557.2 
