~Version Information
VERS.                      2.0: CWLS Log ASCII Standard - VERSION 2.0
WRAP.                       NO: One line per depth step
~Well Information Block
STRT.FT               420.0000: 
STOP.FT              1527.5000: 
STEP.FT                 0.1000: 
NULL.                -999.2500: 
COMP.          Evergreen Operating Corporation: COMPANY
WELL.              Chase 21-10: WELL
FLD.           Purgatoire River: FIELD
LOC.           1122' FNL & 1544' FWL: LOCATION
PROV.                       CO: PROVINCE
CNTY.               Las Animas: COUNTRY
SRVC.                         : SERVICE COMPANY
DATE.          Tue May 25 08:18:37 2004: LOG DATE
UWI.           05 071 08006 00: UNIQUE WELL ID
~Curve Information Block
DEPT.FT            0 000 00 00: Depth
DCAL.in                       : CDL Caliper
RHOB.g/cc                     : CDL Bulk Density
RHOC.g/cc                     : CDL Density Correction
DPOR.pu                       : CDL Density Porosity
GR.GAPI                       : Gamma Ray
NPOR.pu                       : Neutron Porosity
~Parameter Information Block
~A  Depth       DCAL        RHOB        RHOC        DPOR         GR         NPOR    
   420.0000      8.1491      2.2636     -0.5393     23.4177     76.4629     17.0369
   420.1000      8.1491      2.2350     -0.5491     25.1542     81.4712     17.2834
   420.2000      8.1491      2.2251     -0.4276     25.7541     85.4240     16.9893
   420.3000      8.1310      2.2313     -0.5260     25.3745     90.2198     16.6170
   420.4000      8.1310      2.2663     -0.5209     23.2569     93.1229     16.4786
   420.5000      8.1204      2.3112     -0.4687     20.5316     91.8257     16.3953
   420.6000      8.1204      2.3231     -0.5405     19.8113     84.4925     16.3536
   420.7000      8.1204      2.2955     -0.4680     21.4860     75.5318     16.5255
   420.8000      8.1202      2.2551     -0.4478     23.9305     71.5133     16.8295
   420.9000      8.1202      2.2325     -0.4755     25.3010     69.6910     17.0394
   421.0000      8.0760      2.2388     -0.5624     24.9191     67.1958     16.9751
   421.1000      8.0760      2.2502     -0.4712     24.2286     69.0783     16.6107
   421.2000      8.0760      2.2380     -0.4557     24.9714     75.4382     16.2705
   421.3000      8.0730      2.2084     -0.4939     26.7613     77.8985     16.1141
   421.4000      8.0730      2.1877     -0.5306     28.0195     73.2669     15.8912
   421.5000      8.0634      2.1837     -0.5459     28.2614     66.4084     15.6559
   421.6000      8.0634      2.1826     -0.5792     28.3267     61.4384     15.3975
   421.7000      8.0634      2.1778     -0.5361     28.6186     59.3611     14.8597
   421.8000      8.0772      2.1801     -0.5419     28.4770     59.4797     14.5082
   421.9000      8.0772      2.1962     -0.4573     27.5048     56.5309     14.8089
   422.0000      8.0815      2.2212     -0.4692     25.9900     53.0195     15.5531
   422.1000      8.0815      2.2454     -0.5131     24.5196     60.7096     16.4022
   422.2000      8.0815      2.2497     -0.4876     24.2615     76.6019     16.9746
   422.3000      8.0565      2.2266     -0.4643     25.6585     88.1850     16.8121
   422.4000      8.0565      2.2028     -0.6334     27.1019     90.7814     16.1817
   422.5000      8.0567      2.1983     -0.5071     27.3734     85.1185     15.7305
   422.6000      8.0567      2.2011     -0.4708     27.2054     75.8132     15.6936
   422.7000      8.0567      2.2022     -0.4851     27.1419     69.4255     15.9835
   422.8000      8.0525      2.2005     -0.5165     27.2430     68.6973     16.1978
   422.9000      8.0525      2.1946     -0.4851     27.6020     69.0465     15.9493
   423.0000      8.0500      2.1935     -0.4689     27.6638     65.2198     15.4138
   423.1000      8.0500      2.2127     -0.4681     26.5005     60.5376     15.0906
   423.2000      8.0500      2.2384     -0.4221     24.9479     60.8115     15.1814
   423.3000      8.0588      2.2471     -0.5076     24.4195     65.6489     15.5316
   423.4000      8.0588      2.2468     -0.4876     24.4387     69.3136     15.9939
   423.5000      8.0781      2.2422     -0.4901     24.7161     68.4029     16.5373
   423.6000      8.0781      2.2348     -0.5046     25.1662     65.6475     17.0105
   423.7000      8.0781      2.2459     -0.5631     24.4919     61.6706     17.2837
   423.8000      8.1091      2.2703     -0.4218     23.0111     58.0601     17.3509
   423.9000      8.1091      2.2761     -0.4370     22.6597     57.9407     17.1390
   424.0000      8.1045      2.2786     -0.5654     22.5116     58.2879     16.8129
   424.1000      8.1045      2.3086     -0.5178     20.6923     57.0006     16.7150
   424.2000      8.1045      2.3335     -0.4227     19.1810     55.6097     16.7512
   424.3000      8.1007      2.3229     -0.4468     19.8265     53.2895     16.7302
   424.4000      8.1007      2.3144     -0.4401     20.3366     49.8768     16.6708
   424.5000      8.0793      2.3156     -0.3623     20.2670     50.4133     16.6368
   424.6000      8.0793      2.2676     -0.4146     23.1754     59.3943     16.7045
   424.7000      8.0793      2.1653     -0.6014     29.3774     72.5578     16.6792
   424.8000      8.0847      2.0924     -0.7031     33.7924     81.1732     16.2401
   424.9000      8.0847      2.1089     -0.6255     32.7967     84.3134     15.7363
   425.0000      8.0969      2.1830     -0.4939     28.3006     84.4022     15.6843
   425.1000      8.0969      2.2601     -0.5646     23.6320     80.8616     15.8836
   425.2000      8.0969      2.2924     -0.3493     21.6734     76.5008     16.0173
   425.3000      8.0912      2.2383     -0.4966     24.9502     76.4883     16.1067
   425.4000      8.0912      2.1323     -0.5127     31.3759     79.4234     15.9989
   425.5000      8.0918      2.0614     -0.6861     35.6729     80.1224     15.5474
   425.6000      8.0918      2.0657     -0.5040     35.4137     80.1027     14.9449
   425.7000      8.0918      2.0910     -0.3956     33.8767     82.9082     14.4575
   425.8000      8.1077      2.0648     -0.4248     35.4637     86.3853     14.2547
   425.9000      8.1077      2.0012     -0.5658     39.3192     85.8370     14.4827
   426.0000      8.1414      1.9843     -0.6513     40.3427     79.6212     15.2157
   426.1000      8.1414      2.0563     -0.5778     35.9809     74.0165     16.0852
   426.2000      8.1414      2.1699     -0.3654     29.0996     74.5297     16.4649
   426.3000      8.1584      2.2670     -0.3514     23.2104     75.5451     16.1330
   426.4000      8.1584      2.3403     -0.2955     18.7679     71.7871     15.7538
   426.5000      8.2055      2.3888     -0.2376     15.8321     65.0384     16.0087
   426.6000      8.2055      2.4092     -0.2708     14.5937     60.0397     16.3715
   426.7000      8.2055      2.4112     -0.2061     14.4732     59.6529     16.1053
   426.8000      8.1812      2.3961     -0.2216     15.3864     62.8792     15.6092
   426.9000      8.1812      2.3726     -0.2069     16.8142     64.2328     15.5743
   427.0000      8.1945      2.3596     -0.2675     17.6007     61.6236     15.8905
   427.1000      8.1945      2.3534     -0.2643     17.9759     60.4947     16.0044
   427.2000      8.1945      2.3299     -0.2984     19.4003     63.9152     15.9314
   427.3000      8.2129      2.2843     -0.3383     22.1616     66.7307     16.0224
   427.4000      8.2129      2.2326     -0.2786     25.2975     64.7202     16.2120
   427.5000      8.1916      2.2011     -0.3573     27.2045     62.0505     16.1746
   427.6000      8.1916      2.2210     -0.4390     25.9988     62.9216     15.7263
   427.7000      8.1916      2.2824     -0.2271     22.2762     63.1801     15.1642
   427.8000      8.1839      2.3428     -0.3136     18.6166     60.2480     14.9776
   427.9000      8.1839      2.3881     -0.2025     15.8712     59.9190     15.2390
   428.0000      8.2018      2.4276     -0.3004     13.4814     64.0963     15.6251
   428.1000      8.2018      2.4561     -0.1714     11.7525     68.6133     16.1015
   428.2000      8.2018      2.4553     -0.2640     11.8019     71.8982     16.7569
   428.3000      8.1959      2.4404     -0.3852     12.7038     74.6629     17.1425
   428.4000      8.1959      2.4426     -0.3122     12.5714     76.4002     16.9531
   428.5000      8.1926      2.4604     -0.4200     11.4931     77.8499     16.3830
   428.6000      8.1926      2.4621     -0.3203     11.3896     81.4460     15.7820
   428.7000      8.1926      2.4204     -0.4058     13.9161     87.7743     15.3332
   428.8000      8.1932      2.3618     -0.4670     17.4680     97.3872     15.0762
   428.9000      8.1932      2.3318     -0.5401     19.2836    109.6483     15.2101
   429.0000      8.1880      2.3259     -0.3507     19.6406    118.9016     15.5531
   429.1000      8.1880      2.3069     -0.5154     20.7950    119.6701     15.7103
   429.2000      8.1880      2.2675     -0.4164     23.1791    117.9944     16.0324
   429.3000      8.2010      2.2284     -0.4834     25.5513    121.5407     16.7648
   429.4000      8.2010      2.2046     -0.4960     26.9969    127.0303     17.4658
   429.5000      8.1794      2.1938     -0.4528     27.6502    130.2014     18.0782
