~Version Information
VERS.                      2.0: CWLS Log ASCII Standard - VERSION 2.0
WRAP.                       NO: One line per depth step
~Well Information Block
STRT.FT                 0.0000: 
STOP.FT              2006.5000: 
STEP.FT                 0.2500: 
NULL.                -999.2500: 
COMP.          Petrogulf Corporation: COMPANY
WELL.           Lavedure 7-44R: WELL
FLD.           Purgatorie River: FIELD
LOC.           946' FSL & 521' FEL: LOCATION
STAT.                 Colorado: State
CNTY.               Las Animas: COUNTY
CTRY. USA : Country
SECT. 7 : Section
TOWN. 33S : Township
RANG. 67W : Range
SRVC.                Patterson: SERVICE COMPANY
DATE.          Thu Nov 10 15:49:38 2005: LOG DATE
API. 05-071-08090       : UNIQUE WELL ID
~Curve Information Block
DEPT.FT            0 000 00 00: Depth
CCL.                          : Casing Collar Locator
TT3.usec                      : CBL 3' Travel Time
AMP3.mV                       : CBL 3' Amplitude
GR.GAPI                       : Gamma Ray
~Parameter Information Block
~A  Depth       CCL         TT3         AMP3         GR     
# ...
  1842.5000      0.0000    693.2141      5.9959    112.8772
  1842.7500      0.0000    675.8397      5.7276    109.8454
  1843.0000      0.0000    664.5093      5.3641    108.1549
  1843.2500      0.0000    658.6856      4.9511    109.1157
  1843.5000      0.0000    657.5880      4.5613    112.3978
  1843.7500      0.0000    662.9557      4.2384    115.4314
  1844.0000      0.0000    677.7897      3.9603    115.2055
  1844.2500      0.0000    699.8982      3.6556    111.1923
  1844.5000      0.0000    720.8033      3.3004    106.4321
  1844.7500      0.0000    736.4902      2.9689    105.2377
  1845.0000      0.0000    750.6418      2.7332    109.3541
  1845.2500      0.0000    759.9658      2.5724    116.4071
  1845.5000      0.0000    752.2129      2.4463    122.3511
  1845.7500      0.0000    725.6886      2.3744    125.1592
  1846.0000      0.0000    694.0291      2.3793    125.8286
  1846.2500      0.0000    670.5088      2.4382    126.4364
  1846.5000      0.0000    659.4248      2.5156    127.9793
  1846.7500      0.0000    657.7877      2.5808    129.7919
  1847.0000      0.0000    658.8738      2.6063    130.4349
  1847.2500      0.0000    658.9186      2.5840    129.2210
  1847.5000      0.0000    661.2168      2.5292    127.0263
  1847.7500      0.0000    670.4467      2.4654    125.4565
  1848.0000      0.0000    685.9767      2.4098    125.4609
  1848.2500      0.0000    704.8516      2.3633    127.1349
  1848.5000      0.0000    727.1130      2.3148    130.2580
  1848.7500      0.0000    749.2351      2.2699    134.1469
  1849.0000      0.0000    758.3298      2.2468    137.3498
  1849.2500      0.0000    746.3318      2.2340    138.3532
  1849.5000      0.0000    720.7784      2.2109    136.7392
  1849.7500      0.0000    691.5244      2.1870    133.4741
  1850.0000      0.0000    662.8436      2.1720    130.1189
  1850.2500      0.0000    642.2629      2.1550    127.6550
  1850.5000      0.0000    639.1517      2.1336    125.8629
  1850.7500      0.0000    655.1567      2.1253    123.8375
  1851.0000      0.0000    682.1864      2.1515    120.9132
  1851.2500      0.0000    707.3760      2.2218    116.8741
  1851.5000      0.0000    720.3138      2.3287    111.8102
  1851.7500      0.0000    718.2439      2.4535    106.4333
  1852.0000      0.0000    707.9557      2.5726    102.1544
  1852.2500      0.0000    701.1136      2.6828    100.0585
  1852.5000      0.0000    705.5304      2.8120     99.8799
  1852.7500      0.0000    720.3629      2.9691    100.4984
  1853.0000      0.0000    736.0561      3.1245    101.2576
  1853.2500      0.0000    741.4633      3.2499    102.1777
  1853.5000      0.0000    734.5212      3.3366    103.0837
  1853.7500      0.0000    721.5300      3.4040    103.2675
  1854.0000      0.0000    708.7936      3.5038    102.1405
  1854.2500      0.0000    700.0773      3.6696     99.8386
  1854.5000      0.0000    695.8344      3.8564     97.3058
  1854.7500      0.0000    692.8248      3.9957     95.9665
  1855.0000      0.0000    686.9270      4.0901     96.8783
  1855.2500      0.0000    674.7232      4.2063     99.9382
  1855.5000      0.0000    657.5619      4.4152    104.1857
  1855.7500      0.0000    644.2756      4.7483    108.8005
  1856.0000      0.0000    643.0692      5.1762    113.3582
  1856.2500      0.0000    652.2175      5.6278    117.3780
  1856.5000      0.0000    660.8096      6.0323    120.2585
  1856.7500      0.0000    660.8406      6.3116    121.6183
  1857.0000      0.0000    657.1115      6.3889    121.4353
  1857.2500      0.0000    659.4393      6.2726    120.0699
  1857.5000      0.0000    671.1005      6.0455    118.2859
  1857.7500      0.0000    688.5330      5.8180    116.7602
  1858.0000      0.0000    704.6603      5.7204    115.5359
  1858.2500      0.0000    711.2539      5.7579    114.6654
  1858.5000      2.0000    704.9501      5.7789    115.4028
  1858.7500      0.0000    692.8746      5.6625    119.6414
  1859.0000      0.0000    683.1536      5.3907    127.6879
  1859.2500      0.0000    672.2492      4.9948    137.2667
  1859.5000      0.0000    654.6215      4.5324    145.0733
  1859.7500      0.0000    635.4926      4.0802    148.9002
  1860.0000      0.0000    624.0967      3.6850    148.2282
  1860.2500      0.0000    622.9585      3.3146    143.6619
  1860.5000      0.0000    626.8558      2.9151    136.5321
  1860.7500      0.0000    627.5453      2.5067    128.7253
  1861.0000      0.0000    621.7898      2.1569    122.0854
  1861.2500      0.0000    614.3629      1.9086    117.6205
  1861.5000      0.0000    610.7121      1.7741    115.2549
  1861.7500      0.0000    611.1414      1.7388    114.3436
  1862.0000      0.0000    612.4136      1.7470    114.4794
  1862.2500      0.0000    611.7690      1.7263    115.7700
  1862.5000      0.0000    609.3786      1.6422    118.2942
  1862.7500      0.0000    607.8507      1.5264    121.4874
  1863.0000      0.0000    609.1198      1.4631    124.3306
  1863.2500      0.0000    612.6619      1.5164    126.0793
  1863.5000      0.0000    618.2081      1.6442    126.6543
  1863.7500      0.0000    627.2028      1.7364    126.3505
  1864.0000      0.0000    637.1541      1.7398    125.2609
  1864.2500      0.0000    638.6550      1.7098    123.1987
  1864.5000      0.0000    628.2421      1.7297    120.2454
  1864.7500      0.0000    617.7985      1.8021    116.9341
  1865.0000      0.0000    618.3251      1.8791    113.5614
  1865.2500      0.0000    624.8860      1.9531    109.6017
  1865.5000      0.0000    627.3735      2.0320    104.0635
  1865.7500      0.0000    625.2341      2.0888     96.3253
  1866.0000      0.0000    624.1440      2.1029     86.6024
  1866.2500      0.0000    625.9423      2.0991     75.8513
  1866.5000      0.0000    626.8003      2.1198     65.3958
  1866.7500      0.0000    623.9704      2.1749     56.5699
  1867.0000      0.0000    621.8903      2.2203     50.5923
  1867.2500      0.0000    627.0494      2.2005     48.5483
  1867.5000      0.0000    640.5867      2.1005     51.3194
  1867.7500      0.0000    660.8207      1.9494     59.3549
  1868.0000      0.0000    684.6135      1.7986     72.1857
  1868.2500      0.0000    702.7360      1.6840     87.9543
  1868.5000      0.0000    705.7477      1.6052    103.8519
  1868.7500      0.0000    695.4708      1.5500    117.5428
  1869.0000      0.0000    677.8226      1.5137    128.0651
  1869.2500      0.0000    655.2736      1.4932    135.2068
  1869.5000      0.0000    634.2648      1.4840    138.6258
  1869.7500      0.0000    621.9031      1.4781    138.2700
  1870.0000      0.0000    617.5083      1.4675    135.4385
  1870.2500      0.0000    616.6603      1.4747    132.6182
  1870.5000      0.0000    616.9707      1.5447    131.7580
  1870.7500      0.0000    618.5984      1.6961    132.8765
  1871.0000      0.0000    623.7510      1.9046    134.6192
  1871.2500      0.0000    635.1058      2.1343    135.6717
  1871.5000      0.0000    649.0403      2.3560    135.2177
  1871.7500      0.0000    652.7820      2.5115    132.9118
  1872.0000      0.0000    640.7383      2.5451    129.5698
  1872.2500      0.0000    626.8586      2.4916    127.3707
  1872.5000      0.0000    625.9502      2.4638    128.3262
  1872.7500      0.0000    636.1393      2.5509    132.5971
  1873.0000      0.0000    649.3665      2.7354    138.6779
  1873.2500      0.0000    664.4020      2.9215    144.7486
  1873.5000      0.0000    681.8325      3.0564    149.3041
  1873.7500      0.0000    694.6207      3.1538    151.0221
  1874.0000      0.0000    692.8848      3.2017    149.1250
  1874.2500      0.0000    678.2176      3.1524    144.1948
  1874.5000      0.0000    662.9845      3.0037    138.0155
  1874.7500      0.0000    654.8802      2.8282    132.3108
  1875.0000      0.0000    651.0996      2.7126    127.8699
  1875.2500      0.0000    645.4490      2.6728    124.6605
  1875.5000      0.0000    636.2985      2.6546    122.1788
  1875.7500      0.0000    627.2849      2.5952    119.9875
