~Version Information
VERS.                      2.0: CWLS Log ASCII Standard - VERSION 2.0
WRAP.                       NO: One line per depth step
~Well Information Block
STRT.FT               920.0000: 
STOP.FT              3300.2000: 
STEP.FT                 0.1000: 
NULL.                -999.2500: 
COMP.          Pioneer Natural Resources: COMPANY
WELL.              Vespar 43-7: WELL
FLD.           Purgatoire River: FIELD
LOC.           2338' FSL & 1141' FEL: LOCATION
PROV.                 Colorado: PROVINCE
CNTY.               Las Animas: COUNTRY
SRVC.                Patterson: SERVICE COMPANY
DATE.          Wed Jan 26 13:38:02 2005: LOG DATE
UWI.           05 071 07955 00: UNIQUE WELL ID
~Curve Information Block
DEPT.FT            0 000 00 00: Depth
DCAL.in                       : CDL Caliper
RHOB.g/cc                     : CDL Bulk Density
RHOC.g/cc                     : CDL Density Correction
DPOR.pu                       : CDL Density Porosity
NPOR.pu                       : Neutron Porosity
GR.GAPI                       : Gamma Ray
~Parameter Information Block
~A  Depth       DCAL        RHOB        RHOC        DPOR        NPOR         GR     
# ...
  3272.0000      7.7187      2.5054      0.0924      8.7608     14.0628   -999.2500
  3272.1000      7.7187      2.5008      0.0795      9.0412     14.4498   -999.2500
  3272.2000      7.7187      2.4743      0.0258     10.6475     14.5484   -999.2500
  3272.3000      7.7127      2.4533      0.0431     11.9208     14.1284   -999.2500
  3272.4000      7.7127      2.4516      0.0375     12.0242     13.4895   -999.2500
  3272.5000      7.6954      2.4628      0.0606     11.3428     13.0283   -999.2500
  3272.6000      7.6954      2.4710      0.0621     10.8491     12.9369   -999.2500
  3272.7000      7.6954      2.4726      0.0504     10.7500     13.1324   -999.2500
  3272.8000      7.6734      2.4781      0.0490     10.4153     13.2638   -999.2500
  3272.9000      7.6734      2.4886      0.0706      9.7847     13.3095   -999.2500
  3273.0000      7.6639      2.4970      0.0918      9.2698     13.5501   -999.2500
  3273.1000      7.6639      2.5020      0.0850      8.9726     13.7138   -999.2500
  3273.2000      7.6639      2.5008      0.1317      9.0399     13.4767   -999.2500
  3273.3000      7.6623      2.4889      0.0980      9.7644     13.8201   -999.2500
  3273.4000      7.6623      2.4732      0.0715     10.7140     17.1685   -999.2500
  3273.5000      7.6546      2.4681      0.0680     11.0265     26.7689   -999.2500
  3273.6000      7.6546      2.4717      0.0675     10.8069     40.6162   -999.2500
  3273.7000      7.6546      2.4747      0.0657     10.6217     49.9799   -999.2500
  3273.8000      7.6445      2.4762      0.0741     10.5311     53.1984   -999.2500
  3273.9000      7.6445      2.4731      0.0838     10.7207     53.8151   -999.2500
  3274.0000      7.6465      2.4634      0.0490     11.3093     53.8799   -999.2500
  3274.1000      7.6465      2.4512      0.0473     12.0466     53.8836   -999.2500
  3274.2000      7.6465      2.4388      0.0390     12.8002   -999.2500   -999.2500
  3274.3000      7.6504      2.4345      0.0010     13.0619   -999.2500   -999.2500
  3274.4000      7.6504      2.4469      0.0276     12.3086   -999.2500   -999.2500
  3274.5000      7.6457      2.4613      0.0528     11.4386   -999.2500   -999.2500
  3274.6000      7.6457      2.4601      0.0717     11.5079   -999.2500   -999.2500
  3274.7000      7.6457      2.4539      0.0391     11.8870   -999.2500   -999.2500
  3274.8000      7.6405      2.4580      0.0949     11.6394   -999.2500   -999.2500
  3274.9000      7.6405      2.4676      0.0519     11.0562   -999.2500   -999.2500
  3275.0000      7.6382      2.4725      0.0673     10.7552   -999.2500   -999.2500
  3275.1000      7.6382      2.4769      0.0324     10.4893   -999.2500   -999.2500
  3275.2000      7.6382      2.4898      0.0713      9.7083   -999.2500   -999.2500
  3275.3000      7.6350      2.4995      0.1157      9.1200   -999.2500   -999.2500
  3275.4000      7.6350      2.4927      0.0569      9.5357   -999.2500   -999.2500
  3275.5000      7.6311      2.4801      0.0648     10.2963   -999.2500   -999.2500
  3275.6000      7.6311      2.4781      0.0418     10.4196   -999.2500   -999.2500
  3275.7000      7.6311      2.4919      0.0768      9.5810   -999.2500   -999.2500
  3275.8000      7.6319      2.5139      0.0921      8.2503   -999.2500   -999.2500
  3275.9000      7.6319      2.5330      0.0847      7.0915   -999.2500   -999.2500
  3276.0000      7.6346      2.5401      0.1113      6.6631   -999.2500   -999.2500
  3276.1000      7.6346      2.5287      0.0801      7.3544   -999.2500   -999.2500
  3276.2000      7.6346      2.5094      0.0398      8.5221   -999.2500   -999.2500
  3276.3000      7.6349      2.4995      0.0654      9.1187   -999.2500   -999.2500
  3276.4000      7.6349      2.5030      0.0735      8.9089   -999.2500   -999.2500
  3276.5000      7.6340      2.5147      0.0431      8.1998   -999.2500   -999.2500
  3276.6000      7.6340      2.5249      0.0974      7.5799   -999.2500   -999.2500
  3276.7000      7.6340      2.5268      0.0694      7.4653   -999.2500   -999.2500
  3276.8000      7.6316      2.5239      0.1147      7.6454   -999.2500   -999.2500
  3276.9000      7.6316      2.5195      0.0640      7.9096   -999.2500   -999.2500
  3277.0000      7.6302      2.5177      0.0841      8.0211   -999.2500   -999.2500
  3277.1000      7.6302      2.5223      0.0448      7.7373   -999.2500   -999.2500
  3277.2000      7.6302      2.5238      0.0919      7.6507   -999.2500   -999.2500
  3277.3000      7.6302      2.5084      0.0399      8.5799   -999.2500   -999.2500
  3277.4000      7.6302      2.4897      0.0277      9.7158   -999.2500   -999.2500
  3277.5000      7.6238      2.4890      0.0521      9.7594   -999.2500   -999.2500
  3277.6000      7.6238      2.5033      0.0701      8.8919   -999.2500   -999.2500
  3277.7000      7.6238      2.5135      0.0782      8.2744   -999.2500   -999.2500
  3277.8000      7.6165      2.5134      0.0410      8.2787   -999.2500   -999.2500
  3277.9000      7.6165      2.5154      0.0103      8.1574   -999.2500   -999.2500
  3278.0000      7.6139      2.5209      0.0820      7.8257   -999.2500   -999.2500
  3278.1000      7.6139      2.5272      0.0108      7.4396   -999.2500   -999.2500
  3278.2000      7.6139      2.5460      0.0666      6.3023   -999.2500   -999.2500
  3278.3000      7.6139      2.5702      0.1075      4.8335   -999.2500   -999.2500
  3278.4000      7.6139      2.5777      0.1069      4.3820   -999.2500   -999.2500
  3278.5000      7.6148      2.5645      0.1023      5.1817   -999.2500   -999.2500
  3278.6000      7.6148      2.5372      0.0918      6.8371   -999.2500   -999.2500
  3278.7000      7.6148      2.5046      0.0439      8.8135   -999.2500   -999.2500
  3278.8000      7.6143      2.4819      0.0358     10.1890   -999.2500   -999.2500
  3278.9000      7.6143      2.4812     -0.0047     10.2306   -999.2500   -999.2500
  3279.0000      7.6089      2.5014      0.0275      9.0089   -999.2500   -999.2500
  3279.1000      7.6089      2.5238      0.0702      7.6506   -999.2500   -999.2500
  3279.2000      7.6089      2.5329      0.0935      7.0979   -999.2500   -999.2500
  3279.3000      7.5990      2.5273      0.0904      7.4346   -999.2500   -999.2500
  3279.4000      7.5990      2.5046      0.0783      8.8148   -999.2500   -999.2500
  3279.5000      7.5900      2.4687      0.0320     10.9855   -999.2500   -999.2500
  3279.6000      7.5900      2.4392      0.0316     12.7783   -999.2500   -999.2500
  3279.7000      7.5900      2.4309      0.0082     13.2790   -999.2500   -999.2500
  3279.8000      7.5831      2.4460      0.0388     12.3627   -999.2500   -999.2500
  3279.9000      7.5831      2.4740      0.0201     10.6673   -999.2500   -999.2500
  3280.0000      7.5732      2.4941      0.0777      9.4474   -999.2500   -999.2500
  3280.1000      7.5732      2.4894      0.0658      9.7329   -999.2500   -999.2500
  3280.2000      7.5732      2.4700      0.0284     10.9116   -999.2500   -999.2500
  3280.3000      7.5547      2.4620      0.0476     11.3952   -999.2500   -999.2500
  3280.4000      7.5547      2.4709      0.0708     10.8551   -999.2500   -999.2500
  3280.5000      7.5269      2.4830      0.0593     10.1214   -999.2500   -999.2500
  3280.6000      7.5269      2.4895      0.0814      9.7267   -999.2500   -999.2500
  3280.7000      7.5269      2.4868      0.0821      9.8887   -999.2500   -999.2500
  3280.8000      7.4943      2.4738      0.0859     10.6775   -999.2500   -999.2500
  3280.9000      7.4943      2.4736      0.0412     10.6920   -999.2500   -999.2500
  3281.0000      7.4235      2.5359      0.0182      6.9147   -999.2500   -999.2500
  3281.1000      7.4235      2.5576      0.0912      5.6022   -999.2500   -999.2500
  3281.2000      7.4235      2.1374      0.5799     31.0654   -999.2500   -999.2500
  3281.3000      6.9941      1.2127      0.0400     87.1074   -999.2500   -999.2500
  3281.4000      6.9941      0.4110      0.0400    135.6987   -999.2500   -999.2500
  3281.5000      5.3362      0.0780   -999.2500    155.8783   -999.2500   -999.2500
