~Version Information
VERS.                      2.0: CWLS Log ASCII Standard - VERSION 2.0
WRAP.                       NO: One line per depth step
~Well Information Block
STRT.FT               780.0000: 
STOP.FT              3152.2000: 
STEP.FT                 0.1000: 
NULL.                -999.2500: 
COMP.          Pioneer Natural Resources: COMPANY
WELL.            Paradise 13-8: WELL
FLD.           Purgatoire River: FIELD
LOC.           1896' FSL & 1120' FWL: LOCATION
PROV.                 Colorado: PROVINCE
CNTY.               Las Animas: COUNTRY
SRVC.                Patterson: SERVICE COMPANY
DATE.          Sat Jan 22 20:51:32 2005: LOG DATE
UWI.           05 071 07946 00: UNIQUE WELL ID
~Curve Information Block
DEPT.FT            0 000 00 00: Depth
DCAL.in                       : CDL Caliper
RHOB.g/cc                     : CDL Bulk Density
RHOC.g/cc                     : CDL Density Correction
DPOR.pu                       : CDL Density Porosity
NPOR.pu                       : Neutron Porosity
GR.GAPI                       : Gamma Ray
~Parameter Information Block
~A  Depth       DCAL        RHOB        RHOC        DPOR        NPOR         GR     
# ...
  1557.6000      8.1108      2.6376      0.0633      0.7502     23.8751    117.2309
  1557.7000      8.1108      2.6117      0.0169      2.3238     25.1579    120.7078
  1557.8000      8.1134      2.5732      0.0288      4.6569     26.4973    120.8783
  1557.9000      8.1134      2.5293     -0.0228      7.3148     27.3655    123.3335
  1558.0000      8.1119      2.4936     -0.0417      9.4812     26.8936    127.7311
  1558.1000      8.1119      2.4754      0.0165     10.5794     24.9256    129.1589
  1558.2000      8.1119      2.4756     -0.0255     10.5720     23.4289    128.6544
  1558.3000      8.1108      2.4860      0.0675      9.9369     23.9657    126.3577
  1558.4000      8.1108      2.4956      0.0446      9.3558     25.2114    121.4533
  1558.5000      8.1105      2.5048      0.0581      8.8008     25.7460    114.6780
  1558.6000      8.1105      2.5113      0.0656      8.4073     25.9571    107.1669
  1558.7000      8.1105      2.5085      0.0803      8.5742     26.5262    103.4993
  1558.8000      8.1103      2.4991      0.1323      9.1435     27.4217    107.7527
  1558.9000      8.1103      2.4891      0.0732      9.7497     27.8882    116.5582
  1559.0000      8.1120      2.4808      0.1123     10.2523     27.0340    123.5043
  1559.1000      8.1120      2.4688      0.1292     10.9832     25.1377    126.1616
  1559.2000      8.1120      2.4468      0.1121     12.3149     24.1124    124.4142
  1559.3000      8.1151      2.4130      0.0969     14.3651     24.9482    119.9520
  1559.4000      8.1151      2.3711      0.0339     16.9022     26.4199    116.3383
  1559.5000      8.1163      2.3359     -0.0146     19.0353     27.3129    115.3278
  1559.6000      8.1163      2.3149      0.0155     20.3118     27.2368    114.7768
  1559.7000      8.1163      2.3011      0.0013     21.1438     26.5305    112.7702
  1559.8000      8.1173      2.2965     -0.0137     21.4236     26.2396    110.0857
  1559.9000      8.1173      2.3071      0.0191     20.7818     26.5023    107.9762
  1560.0000      8.1191      2.3308      0.0535     19.3450     26.4968    108.1884
  1560.1000      8.1191      2.3647      0.0868     17.2910     25.6255    113.0201
  1560.2000      8.1191      2.4064      0.1022     14.7664     24.2119    121.6603
  1560.3000      8.1201      2.4519      0.1052     12.0046     23.8353    126.6455
  1560.4000      8.1201      2.4952      0.1036      9.3813     25.1139    125.8541
  1560.5000      8.1201      2.5260      0.1339      7.5126     26.5525    127.6688
  1560.6000      8.1201      2.5343      0.1449      7.0144     26.6799    134.4431
  1560.7000      8.1201      2.5233      0.1285      7.6791     25.7251    140.6667
  1560.8000      8.1186      2.5149      0.0990      8.1907     24.7122    141.0968
  1560.9000      8.1186      2.5206      0.1265      7.8413     24.0459    133.0882
  1561.0000      8.1113      2.5257      0.1193      7.5332     23.2574    123.8067
  1561.1000      8.1113      2.5216      0.0771      7.7813     22.1528    120.4570
  1561.2000      8.1113      2.5184      0.0713      7.9752     21.6076    120.1384
  1561.3000      8.0911      2.5231      0.0504      7.6929     21.8357    119.7120
  1561.4000      8.0911      2.5312      0.0285      7.1999     21.9702    118.6010
  1561.5000      8.0725      2.5300      0.0369      7.2715     21.5886    117.9838
  1561.6000      8.0725      2.5186      0.0098      7.9627     20.6067    119.8102
  1561.7000      8.0725      2.5149      0.0230      8.1885     19.4134    122.4495
  1561.8000      8.0734      2.5282      0.0489      7.3832     19.5921    123.8948
  1561.9000      8.0734      2.5507      0.0585      6.0159     21.5626    126.2867
  1562.0000      8.0795      2.5722      0.0554      4.7136     22.8904    129.0060
  1562.1000      8.0795      2.5863      0.0568      3.8631     21.6241    126.9044
  1562.2000      8.0795      2.5893      0.0895      3.6778     19.1140    122.2489
  1562.3000      8.0802      2.5851      0.0526      3.9362     17.1012    117.9177
  1562.4000      8.0802      2.5889      0.0436      3.7050     15.6349    111.0428
  1562.5000      8.0792      2.6097      0.0815      2.4400     15.0146    103.8121
  1562.6000      8.0792      2.6322      0.0916      1.0768     15.6924     98.3408
  1562.7000      8.0792      2.6374      0.0884      0.7664     16.8358     92.8359
  1562.8000      8.0801      2.6295      0.0751      1.2412     17.4330     91.8708
  1562.9000      8.0801      2.6198      0.1090      1.8303     17.7508     96.7305
  1563.0000      8.0809      2.6066      0.0489      2.6303     18.2464     99.8157
  1563.1000      8.0809      2.5909      0.0699      3.5816     18.4844     99.0625
  1563.2000      8.0809      2.5825      0.0235      4.0915     18.4583     98.4206
  1563.3000      8.0802      2.5842      0.0772      3.9855     18.7992    101.4281
  1563.4000      8.0802      2.5823      0.0680      4.1010     19.3477    108.5465
  1563.5000      8.0802      2.5696      0.0190      4.8751     19.6646    114.4868
  1563.6000      8.0802      2.5560      0.0434      5.6942     19.6746    112.3183
  1563.7000      8.0802      2.5520      0.0235      5.9377     19.3863    103.9329
  1563.8000      8.0834      2.5587      0.0720      5.5348     18.7889    100.9018
  1563.9000      8.0834      2.5700      0.0693      4.8461     18.7440    106.5989
  1564.0000      8.0880      2.5793      0.0845      4.2845     20.3983    112.1631
  1564.1000      8.0880      2.5772      0.0898      4.4129     22.5697    113.5322
  1564.2000      8.0880      2.5600      0.0391      5.4522     22.9903    115.0575
  1564.3000      8.0915      2.5395      0.0166      6.6977     21.7480    118.5755
  1564.4000      8.0915      2.5304      0.0041      7.2456     20.5186    121.5560
  1564.5000      8.0974      2.5389      0.0324      6.7359     20.4396    122.1237
  1564.6000      8.0974      2.5582      0.0536      5.5621     21.5775    120.6920
  1564.7000      8.0974      2.5717      0.0759      4.7432     23.2500    120.2843
  1564.8000      8.1055      2.5675      0.0579      4.9991     24.7080    121.2296
  1564.9000      8.1055      2.5529      0.0346      5.8834     25.2110    121.8659
  1565.0000      8.1095      2.5452      0.0339      6.3495     24.5467    122.4486
  1565.1000      8.1095      2.5481      0.0512      6.1762     23.7106    121.6930
  1565.2000      8.1095      2.5491      0.0693      6.1147     23.8727    117.9739
  1565.3000      8.1109      2.5411      0.0440      6.6019     24.8710    114.0882
  1565.4000      8.1109      2.5200      0.0897      7.8767     26.0932    114.0862
  1565.5000      8.1120      2.4706      0.0527     10.8725     27.8115    117.7900
  1565.6000      8.1120      2.3943     -0.0089     15.4950     29.8118    123.6532
  1565.7000      8.1120      2.3209     -0.0124     19.9478     31.3432    130.1534
  1565.8000      8.1138      2.2763     -0.0544     22.6463     31.9755    134.0846
  1565.9000      8.1138      2.2661      0.0116     23.2678     31.7184    132.8608
  1566.0000      8.1369      2.2789      0.0073     22.4879     31.4264    125.6003
  1566.1000      8.1369      2.3012      0.0048     21.1402     31.9291    117.3759
  1566.2000      8.1369      2.3151      0.0523     20.2972     32.7572    116.0691
  1566.3000      8.2290      2.3044      0.0802     20.9434     32.7419    120.4637
  1566.4000      8.2290      2.2771      0.0988     22.6000     31.6956    125.3448
  1566.5000      8.3703      2.2550      0.1577     23.9387     30.6823    128.1830
  1566.6000      8.3703      2.2451      0.1690     24.5369     30.3650    127.7856
  1566.7000      8.3703      2.2456      0.1402     24.5078     30.3077    126.5407
  1566.8000      8.4208      2.2597      0.1295     23.6536     29.7715    126.5648
  1566.9000      8.4208      2.2858      0.1218     22.0754     28.1497    126.1132
  1567.0000      8.3118      2.3104      0.1668     20.5839     25.6025    123.2296
  1567.1000      8.3118      2.3271      0.1534     19.5719     23.1084    117.3663
