~Version Information
VERS.                      2.0: CWLS Log ASCII Standard - VERSION 2.0
WRAP.                       NO: One line per depth step
~Well Information Block
STRT.FT               647.0000: 
STOP.FT              1167.5000: 
STEP.FT                 0.2500: 
NULL.                -999.2500: 
COMP.          Pioneer Natural Resources: COMPANY
WELL.             Linda T 32-3: WELL
FLD.           Purgatoire River: FIELD
LOC.           1350' FNL & 2290' FEL: LOCATION
PROV.                 Colorado: PROVINCE
CNTY.               Las Animas: COUNTRY
SRVC.                Patterson: SERVICE COMPANY
DATE.          Sat Feb 05 06:41:02 2005: LOG DATE
UWI.           05 071 08215 00: UNIQUE WELL ID
~Curve Information Block
DEPT.FT            0 000 00 00: Depth
SN.Ohm-m                      : IEL Short Normal
SP.mV                         : IEL Spontaneous Potential
DIR.Ohm-m                     : IEL Induction Resistivity
GR.GAPI                       : Gamma Ray
~Parameter Information Block
~A  Depth        SN          SP         DIR          GR     
# ...
   714.0000     32.9763     -4.8366     24.4468     55.3840
   714.2500     30.2553     -4.7395     22.4653     64.3823
   714.5000     27.3449     -4.6920     20.7877     82.3053
   714.7500     24.5468     -4.6930     19.3662     96.6060
   715.0000     22.0941     -4.7277     18.1350    118.3317
   715.2500     20.0439     -4.7661     17.0375    130.7661
   715.5000     18.3356     -4.7711     16.0364    144.0076
   715.7500     16.9244     -4.7147     15.1136    149.0956
   716.0000     15.8103     -4.5917     14.2658    152.2494
   716.2500     14.9706     -4.4231     13.4989    152.2386
   716.5000     14.3422     -4.2477     12.8218    150.3768
   716.7500     13.8589     -4.1059     12.2426    148.6299
   717.0000     13.4715     -4.0238     11.7661    146.5796
   717.2500     13.1468     -4.0021     11.3933    146.1620
   717.5000     12.8686     -4.0209     11.1205    146.8186
   717.7500     12.6496     -4.0619     10.9391    147.4409
   718.0000     12.5156     -4.1287     10.8363    147.6721
   718.2500     12.4660     -4.2421     10.7990    147.4093
   718.5000     12.4767     -4.4101     10.8175    147.3842
   718.7500     12.5374     -4.6126     10.8879    148.1960
   719.0000     12.6633     -4.8172     11.0094    150.7764
   719.2500     12.8634     -5.0068     11.1792    152.8546
   719.5000     13.0936     -5.1867     11.3900    155.0144
   719.7500     13.2919     -5.3755     11.6342    154.9733
   720.0000     13.4639     -5.5972     11.9113    151.7985
   720.2500     13.6765     -5.8764     12.2319    147.7124
   720.5000     14.0056     -6.2315     12.6141    140.0411
   720.7500     14.5117     -6.6605     13.0757    135.0228
   721.0000     15.2011     -7.1324     13.6281    128.9913
   721.2500     16.0008     -7.5918     14.2739    126.2251
   721.5000     16.8259     -7.9784     15.0056    123.6763
   721.7500     17.6677     -8.2478     15.8045    122.5329
   722.0000     18.5768     -8.3850     16.6420    120.4089
   722.2500     19.6054     -8.4043     17.4865    118.1394
   722.5000     20.7810     -8.3374     18.3122    113.2491
   722.7500     22.0857     -8.2171     19.1036    109.2619
   723.0000     23.4450     -8.0628     19.8463    102.8638
   723.2500     24.7551     -7.8776     20.5107     98.8118
   723.5000     25.9277     -7.6552     21.0419     94.2019
   723.7500     26.9129     -7.3872     21.3755     92.7885
   724.0000     27.6854     -7.0654     21.4776     93.7225
   724.2500     28.1990     -6.6823     21.3783     96.2321
   724.5000     28.3536     -6.2374     21.1614    102.1059
   724.7500     28.0537     -5.7465     20.9152    106.9737
   725.0000     27.3108     -5.2450     20.6858    115.0737
   725.2500     26.2568     -4.7792     20.4655    120.7458
   725.5000     25.0620     -4.3915     20.2216    129.2122
   725.7500     23.8600     -4.1050     19.9397    134.3374
   726.0000     22.7554     -3.9129     19.6450    139.9681
   726.2500     21.8672     -3.7790     19.3828    141.7301
   726.5000     21.2874     -3.6536     19.1805    141.2881
   726.7500     21.0021     -3.5010     19.0292    139.3802
   727.0000     20.9230     -3.3135     18.8970    134.9241
   727.2500     20.9964     -3.1019     18.7584    131.1040
   727.5000     21.2361     -2.8794     18.6128    124.0510
   727.7500     21.6700     -2.6593     18.4811    118.4102
   728.0000     22.2812     -2.4581     18.3918    108.8350
   728.2500     22.9791     -2.2932     18.3720    102.2977
   728.5000     23.6240     -2.1778     18.4453     93.8313
   728.7500     24.1029     -2.1187     18.6335     89.8846
   729.0000     24.3794     -2.1127     18.9548     86.8795
   729.2500     24.4647     -2.1399     19.4150     86.4206
   729.5000     24.3622     -2.1598     19.9937     86.9543
   729.7500     24.0839     -2.1130     20.6305     87.5108
   730.0000     23.7272     -1.9325     21.2235     87.6079
   730.2500     23.4882     -1.5648     21.6488     86.5177
   730.5000     23.5619     -0.9940     21.8056     82.2789
   730.7500     24.0008     -0.2520     21.6654     77.7743
   731.0000     24.6485      0.5957     21.2920     70.0931
   731.2500     25.2340      1.4794     20.8095     66.0325
   731.5000     25.5518      2.3522     20.3414     64.5153
   731.7500     25.5370      3.2011     19.9611     67.4776
   732.0000     25.2079      4.0377     19.6794     77.0820
   732.2500     24.6213      4.8774     19.4617     85.2893
   732.5000     23.8751      5.7232     19.2590     96.9765
   732.7500     23.0767      6.5615     19.0341    102.9246
   733.0000     22.2872      7.3659     18.7710    108.4028
   733.2500     21.5176      8.1033     18.4714    110.3308
   733.5000     20.7876      8.7406     18.1456    112.2275
   733.7500     20.1526      9.2568     17.8064    113.4297
   734.0000     19.6547      9.6556     17.4673    115.1491
   734.2500     19.3001      9.9697     17.1427    115.9081
   734.5000     19.0733     10.2489     16.8492    116.0237
   734.7500     18.9377     10.5361     16.6075    115.3377
   735.0000     18.8524     10.8485     16.4380    113.1417
   735.2500     18.8072     11.1805     16.3521    111.0105
   735.5000     18.8142     11.5232     16.3438    107.7342
   735.7500     18.8662     11.8807     16.3888    106.4091
   736.0000     18.9356     12.2660     16.4535    106.7306
   736.2500     19.0109     12.6824     16.5065    108.1425
   736.5000     19.1013     13.1155     16.5271    110.0215
   736.7500     19.2092     13.5480     16.5075    109.8077
   737.0000     19.3088     13.9762     16.4521    106.2921
   737.2500     19.3329     14.4058     16.3735    102.3949
   737.5000     19.1924     14.8384     16.2870     96.7606
   737.7500     18.8570     15.2708     16.2065     94.7602
   738.0000     18.4082     15.7019     16.1443     95.9224
   738.2500     17.9714     16.1320     16.1123     99.2880
   738.5000     17.6183     16.5523     16.1219    106.3992
   738.7500     17.3619     16.9394     16.1794    111.0634
   739.0000     17.2046     17.2632     16.2816    115.8428
   739.2500     17.1530     17.5006     16.4161    117.0230
   739.5000     17.2080     17.6461     16.5687    116.3336
   739.7500     17.3594     17.7129     16.7344    115.0558
   740.0000     17.5986     17.7251     16.9222    113.0476
   740.2500     17.9402     17.7074     17.1499    111.8052
   740.5000     18.4024     17.6799     17.4303    109.9032
   740.7500     18.9747     17.6631     17.7592    108.6363
   741.0000     19.6292     17.6825     18.1155    107.0815
   741.2500     20.3197     17.7578     18.4782    106.3293
   741.5000     20.9903     17.8860     18.8492    105.1554
   741.7500     21.6341     18.0376     19.2597    103.9460
   742.0000     22.2774     18.1679     19.7505    101.2463
   742.2500     22.9085     18.2366     20.3446     99.0899
   742.5000     23.4827     18.2212     21.0339     96.1070
   742.7500     23.9683     18.1187     21.7891     94.8085
   743.0000     24.3560     17.9395     22.5779     94.6005
   743.2500     24.6561     17.7008     23.3717     95.6532
   743.5000     24.9030     17.4250     24.1387     98.2023
   743.7500     25.1344     17.1369     24.8379     99.8118
   744.0000     25.3796     16.8553     25.4287    101.0045
   744.2500     25.6690     16.5853     25.8906    100.5770
   744.5000     26.0210     16.3196     26.2325     98.0066
   744.7500     26.4226     16.0474     26.4887     95.5346
   745.0000     26.8610     15.7618     26.7121     92.4553
   745.2500     27.3615     15.4562     26.9763     91.7658
   745.5000     27.9671     15.1164     27.3761     93.0648
   745.7500     28.6886     14.7193     28.0046     94.7726
   746.0000     29.4859     14.2456     28.9071     96.7990
   746.2500     30.2942     13.6947     30.0380     97.1155
   746.5000     31.0570     13.0937     31.2589     96.1300
   746.7500     31.7322     12.4915     32.3934     95.0576
   747.0000     32.3061     11.9410     33.3075     93.7829
   747.2500     32.8124     11.4754     33.9324     93.3790
