~Version Information
 VERS.                                  2.0 : CWLS LAS VERSION
 WRAP.                                   NO : WRAPING MODE
 SWARE .                 MController 2.5.0N : SOFTWARE VERSION
~Well Information
 WELL.                   Sand Pebbles 13-33 : WELL
 COMP.    Pioneer Natural Resources USA Inc : COMPANY
 FLD.                      Purgatoire River : FIELD
 LOC.                 NW/SW Sec 33 T32S R67W : LOCATION
 DATE.                           3/08-10/05 : DATE(S) LOGGED
 SRVC.         Blanco Geological Services LLC : SERVICE COMPANY
 STAT.                                   CO : STATE
 CNTY.                           Las Animas : COUNTY
 CTRY.                                  USA : COUNTRY
 API.                       05-071-08224-00 : API NUMBER
 STRT.FT                             655.00 : START DEPTH
 STOP.FT                            2730.00 : STOP DEPTH
 STEP.FT                               1.00 : DEPTH INCREMENT
 NULL.                                -9999 : NULL VALUE
~Curve information
 DEPTH.FT                                   :
 ROP.MIN/FT                                 :
 GAS.UNITS                                  :
~ASCII Log data
# ...
      1455.0         0.32         10.4 
      1456.0         0.37          6.6 
      1457.0         0.40          4.7 
      1458.0         0.37          4.2 
      1459.0         0.40          5.3 
      1460.0         0.37          8.1 
      1461.0         0.33         11.3 
      1462.0         0.37         12.5 
      1463.0         2.58          8.6 
      1464.0         0.67         11.8 
      1465.0         0.30         15.7 
      1466.0         0.38         17.7 
      1467.0         0.33         12.0 
      1468.0         0.40          7.7 
      1469.0         0.43          7.5 
      1470.0         0.37          9.8 
      1471.0         3.65         18.5 
      1472.0         0.80         23.2 
      1473.0         0.68         30.5 
      1474.0         0.40         36.0 
      1475.0         0.27         39.0 
      1476.0         0.20         39.4 
      1477.0         0.23         38.6 
      1478.0         0.30         33.1 
      1479.0         0.23         39.1 
      1480.0         0.20         33.4 
      1481.0         0.23         16.7 
      1482.0         0.17         10.2 
      1483.0         0.23          6.2 
      1484.0         0.37          4.2 
      1485.0         0.27          4.1 
      1486.0         0.32          3.9 
      1487.0         0.20          3.7 
      1488.0         0.33          3.9 
      1489.0         0.43          6.0 
      1490.0         0.40         13.6 
      1491.0         0.50         28.2 
      1492.0         0.47         38.6 
      1493.0         0.60         22.0 
      1494.0         0.52         15.7 
      1495.0         0.53         17.9 
      1496.0         0.53         22.4 
      1497.0         0.57         20.9 
      1498.0         0.60         16.3 
      1499.0         0.73          8.5 
      1500.0         0.85          4.2 
      1501.0        13.13          3.3 
      1502.0         1.30          3.7 
      1503.0         0.87          4.0 
      1504.0         0.57          4.0 
      1505.0         0.55          4.4 
      1506.0         0.57          7.0 
      1507.0         0.50         76.2 
      1508.0         0.47         36.5 
      1509.0         0.23         26.6 
      1510.0         0.23         18.5 
      1511.0         0.20         13.0 
      1512.0         0.27          8.4 
      1513.0         0.30          6.2 
      1514.0         0.25          5.0 
      1515.0         0.13          4.5 
      1516.0         0.27          3.9 
      1517.0         0.23          3.7 
      1518.0         0.43          5.6 
      1519.0         0.43          7.8 
      1520.0         0.43          4.5 
      1521.0         0.43          3.5 
      1522.0         0.50          7.1 
      1523.0         0.43         13.6 
      1524.0         0.45         11.7 
      1525.0         0.23          8.9 
      1526.0         0.23          9.0 
      1527.0         0.13          8.4 
      1528.0         0.20          8.3 
      1529.0         0.23          9.0 
      1530.0         0.77         13.7 
      1531.0         9.55          3.0 
      1532.0         0.27          3.1 
      1533.0         0.23          3.2 
      1534.0         0.20          3.1 
      1535.0         0.30          3.0 
      1536.0         0.35          2.9 
      1537.0         0.27          3.0 
      1538.0         0.30          4.8 
      1539.0         0.30         19.3 
      1540.0         0.33         32.7 
      1541.0         0.37         10.4 
      1542.0         0.37          3.9 
      1543.0         0.40          3.0 
      1544.0         0.40          3.0 
      1545.0         0.58          2.8 
      1546.0         0.60          3.2 
      1547.0         0.53          4.2 
      1548.0         0.57         12.5 
      1549.0         0.53         12.4 
      1550.0         0.47          5.7 
      1551.0         0.55          3.2 
      1552.0         0.53          3.1 
      1553.0         0.43          3.0 
      1554.0         0.43          2.8 
      1555.0         0.40          3.4 
      1556.0         0.43          5.4 
      1557.0         0.40          8.5 
      1558.0         0.47          9.3 
      1559.0         0.55          8.4 
      1560.0         0.37          6.7 
      1561.0         7.27          2.9 
      1562.0         0.80          3.1 
      1563.0         0.57          3.1 
      1564.0         0.47          3.2 
      1565.0         0.45          3.2 
      1566.0         0.40          3.5 
      1567.0         0.43          3.7 
      1568.0         0.67         33.9 
      1569.0         0.43         10.8 
      1570.0         0.50          4.3 
      1571.0         0.40          3.0 
      1572.0         0.42          4.0 
      1573.0         0.43          4.3 
      1574.0         0.40          4.6 
      1575.0         0.37          6.8 
      1576.0         0.40         10.6 
      1577.0         0.37         11.9 
      1578.0         0.37          8.8 
      1579.0         0.37          6.0 
      1580.0         0.42          3.6 
      1581.0         0.33          3.7 
      1582.0         0.33          4.3 
      1583.0         0.30          4.1 
      1584.0         0.40          5.3 
      1585.0         0.43          8.8 
      1586.0         0.63          9.8 
      1587.0         0.67          8.4 
      1588.0         0.42          7.1 
      1589.0         0.23          6.7 
      1590.0         0.60          6.9 
      1591.0         8.53          2.8 
      1592.0         0.82          2.8 
      1593.0         0.37          2.7 
      1594.0         0.43          2.8 
      1595.0         0.33          2.8 
      1596.0         0.43          2.8 
      1597.0         0.47         15.8 
      1598.0         0.47         39.1 
      1599.0         0.52          7.7 
      1600.0         0.43          3.5 
      1601.0         0.43          3.1 
      1602.0         0.80          3.1 
      1603.0         0.17          3.4 
      1604.0         0.20          3.8 
      1605.0         0.17          4.8 
      1606.0         0.20          4.4 
      1607.0         0.20          5.1 
      1608.0         0.23          6.1 
      1609.0         0.27          9.7 
      1610.0         0.35         10.2 
      1611.0         0.23          9.7 
      1612.0         0.17          7.2 
      1613.0         0.20          5.3 
      1614.0         0.13          5.2 
      1615.0         0.37          5.3 
      1616.0         0.37          5.9 
      1617.0         0.43          6.3 
      1618.0         0.23          6.0 
      1619.0         0.53          4.4 
      1620.0         0.37          3.7 
      1621.0        10.60          2.7 
      1622.0         0.23          2.8 
      1623.0         0.53          2.8 
      1624.0         0.43          2.9 
      1625.0         0.23          3.2 
      1626.0         0.33         10.5 
      1627.0         0.57         29.5 
      1628.0         0.58          4.8 
      1629.0         0.37          2.8 
      1630.0         0.37          2.4 
      1631.0         0.43          2.6 
      1632.0         0.57          2.9 
      1633.0         0.40          4.7 
      1634.0         0.37         13.7 
      1635.0         0.23         23.2 
      1636.0         0.23         25.0 
      1637.0         0.23         19.8 
      1638.0         0.22         14.3 
      1639.0         0.30          8.2 
      1640.0         0.37          4.1 
      1641.0         0.60          3.0 
      1642.0         0.47          2.5 
      1643.0         0.50          2.8 
      1644.0         0.57          7.6 
      1645.0         0.65          9.3 
      1646.0         0.60          6.4 
      1647.0         0.63          5.2 
      1648.0         0.57          8.5 
      1649.0         0.43         14.2 
      1650.0         0.73         11.1 
      1651.0         8.95          2.8 
      1652.0         0.33          3.0 
      1653.0         0.40          2.6 
      1654.0         0.33          3.4 
