~Version Information
VERS.                      2.0: CWLS Log ASCII Standard - VERSION 2.0
WRAP.                       NO: One line per depth step
~Well Information Block
STRT.FT               652.0000: 
STOP.FT              1880.0000: 
STEP.FT                 0.1000: 
NULL.                -999.2500: 
COMP.          Pioneer Natural Resources: COMPANY
WELL.          Corkscrew 33-12 Tr: WELL
FLD.           Purgatoire River: FIELD
LOC.           1870' FSL & 1706' FEL: LOCATION
PROV.                 Colorado: PROVINCE
CNTY.               Las Animas: COUNTRY
SRVC.                Patterson: SERVICE COMPANY
DATE.          Tue Mar 29 09:18:51 2005: LOG DATE
UWI.           05 071 08295 00: UNIQUE WELL ID
~Curve Information Block
DEPT.FT            0 000 00 00: Depth
DCAL.in                       : CDL Caliper
RHOB.g/cc                     : CDL Bulk Density
RHOC.g/cc                     : CDL Density Correction
DPOR.pu                       : CDL Density Porosity
GR.GAPI                       : Gamma Ray
NPOR.pu                       : Neutron Porosity
~Parameter Information Block
~A  Depth       DCAL        RHOB        RHOC        DPOR         GR         NPOR    
# ...
  1295.2000      7.8387      2.5525      0.0378      5.9080    106.1953     28.7425
  1295.3000      7.8358      2.5328     -0.0082      7.1037    109.9821     28.6349
  1295.4000      7.8358      2.5260      0.0515      7.5167    113.9898     28.6126
  1295.5000      7.8381      2.5245      0.0241      7.6066    118.3993     28.1938
  1295.6000      7.8381      2.5171      0.0435      8.0545    122.2787     27.5155
  1295.7000      7.8381      2.5126     -0.0088      8.3249    125.2519     27.3589
  1295.8000      7.8411      2.5214     -0.0182      7.7944    126.1499     27.8353
  1295.9000      7.8411      2.5337      0.0741      7.0458    126.9516     28.0858
  1296.0000      7.8398      2.5375      0.0518      6.8160    134.1585     27.7614
  1296.1000      7.8398      2.5370      0.0463      6.8506    141.8769     27.2928
  1296.2000      7.8398      2.5323      0.0405      7.1326    138.4092     27.2239
  1296.3000      7.8452      2.5228      0.0139      7.7104    126.6275     27.6555
  1296.4000      7.8452      2.5157      0.0046      8.1403    115.2698     27.9409
  1296.5000      7.8450      2.5118      0.0205      8.3767    109.6369     27.7378
  1296.6000      7.8450      2.5121     -0.0283      8.3569    108.5021     27.6236
  1296.7000      7.8450      2.5202      0.0465      7.8663    106.7636     27.7891
  1296.8000      7.8431      2.5297      0.0520      7.2937    102.7341     28.1949
  1296.9000      7.8431      2.5374      0.0176      6.8270    100.2921     28.9359
  1297.0000      7.8282      2.5451      0.0452      6.3552    104.7920     29.6533
  1297.1000      7.8282      2.5429      0.0388      6.4897    112.8696     29.8159
  1297.2000      7.8282      2.5222      0.0267      7.7478    116.1270     29.2249
  1297.3000      7.8364      2.5000     -0.0163      9.0930    114.5030     28.5605
  1297.4000      7.8364      2.4992      0.0347      9.1390    113.0913     28.8954
  1297.5000      7.8117      2.5160      0.0370      8.1189    112.1600     29.7912
  1297.6000      7.8117      2.5322      0.0653      7.1365    109.6430     29.7566
  1297.7000      7.8117      2.5396      0.0455      6.6900    107.7064     28.9829
  1297.8000      7.8037      2.5422      0.0459      6.5354    107.2255     28.8354
  1297.9000      7.8037      2.5405      0.0403      6.6381    104.5373     29.4039
  1298.0000      7.8078      2.5318      0.0130      7.1632    102.0722     29.6316
  1298.1000      7.8078      2.5148      0.0319      8.1927    103.8900     29.0492
  1298.2000      7.8078      2.4939      0.0239      9.4613    105.4861     28.5935
  1298.3000      7.8194      2.4811     -0.0182     10.2372    104.4087     28.9752
  1298.4000      7.8194      2.4800     -0.0126     10.3002    106.2304     29.3764
  1298.5000      7.8006      2.4783      0.0083     10.4052    111.8991     29.1619
  1298.6000      7.8006      2.4725     -0.0393     10.7586    114.3971     28.6617
  1298.7000      7.8006      2.4771     -0.0139     10.4795    108.5057     28.1587
  1298.8000      7.7980      2.4902      0.0368      9.6838     99.6322     27.5775
  1298.9000      7.7980      2.4988      0.0040      9.1632     98.3668     26.8767
  1299.0000      7.7989      2.5066      0.0018      8.6899    105.5302     26.4735
  1299.1000      7.7989      2.5178     -0.0037      8.0101    112.8469     26.6699
  1299.2000      7.7989      2.5293     -0.0033      7.3174    114.6589     27.3482
  1299.3000      7.7953      2.5451      0.0634      6.3569    111.3714     28.1224
  1299.4000      7.7953      2.5734      0.0596      4.6448    109.6390     28.4276
  1299.5000      7.7954      2.6038      0.0843      2.7998    114.6043     28.5105
  1299.6000      7.7954      2.6096      0.1022      2.4493    119.4676     29.1967
  1299.7000      7.7954      2.5892      0.0169      3.6827    115.6884     29.4089
  1299.8000      7.7960      2.5630      0.0253      5.2736    104.0378     28.0996
  1299.9000      7.7960      2.5430     -0.0275      6.4873     91.4389     26.8670
  1300.0000      7.7969      2.5420     -0.0177      6.5472     86.8161     27.0048
  1300.1000      7.7969      2.5657     -0.0152      5.1064     95.1951     27.8266
  1300.2000      7.7969      2.6029      0.0170      2.8532    109.6892     28.2090
  1300.3000      7.8015      2.6394      0.0116      0.6443    116.4100     27.7511
  1300.4000      7.8015      2.6650      0.0258     -0.9108    111.4478     27.0883
  1300.5000      7.8414      2.6774     -0.0009     -1.6630    101.9172     26.8033
  1300.6000      7.8414      2.6730      0.0950     -1.3968     94.9106     26.9115
  1300.7000      7.8414      2.6428      0.0345      0.4354     95.4194     27.3664
  1300.8000      7.8430      2.6020     -0.0436      2.9084    101.9725     27.9372
  1300.9000      7.8430      2.5760      0.0188      4.4845    107.5033     28.1876
  1301.0000      7.8069      2.5723     -0.0226      4.7117    108.9693     28.1126
  1301.1000      7.8069      2.5896      0.0246      3.6598    103.8997     27.8224
  1301.2000      7.8069      2.6114      0.0340      2.3371     92.2394     27.0724
  1301.3000      7.7944      2.6085      0.0109      2.5132     83.2058     26.0564
  1301.4000      7.7944      2.5709     -0.0232      4.7939     83.8800     25.5948
  1301.5000      7.7983      2.5220     -0.0131      7.7561     90.5857     26.0357
  1301.6000      7.7983      2.4861     -0.0148      9.9325     95.6164     26.3976
  1301.7000      7.7983      2.4655     -0.0541     11.1810     95.9138     25.7117
  1301.8000      7.8203      2.4626     -0.1175     11.3599     92.7709     24.4199
  1301.9000      7.8203      2.4742      0.0120     10.6557     88.8620     23.4381
  1302.0000      7.8427      2.4807      0.0031     10.2589     88.4970     23.4477
  1302.1000      7.8427      2.4883     -0.0154      9.8011     93.3106     24.9891
  1302.2000      7.8427      2.5234      0.0391      7.6751    100.0319     27.2799
  1302.3000      7.8529      2.5835      0.0757      4.0280    105.6324     28.7477
  1302.4000      7.8529      2.6388      0.1431      0.6805    108.5041     29.1911
  1302.5000      7.8590      2.6665      0.1799     -1.0004    107.1206     29.0752
  1302.6000      7.8590      2.6736      0.1732     -1.4323    103.4573     28.6593
  1302.7000      7.8590      2.6768      0.1418     -1.6254    100.4663     28.2228
  1302.8000      7.8815      2.6693      0.1242     -1.1691     98.9414     27.9161
  1302.9000      7.8815      2.6480      0.0098      0.1231     97.7736     27.9598
  1303.0000      7.9561      2.6376     -0.0264      0.7502     98.7989     28.3687
  1303.1000      7.9561      2.6383      0.0390      0.7081    105.4105     28.2504
  1303.2000      7.9561      2.6225     -0.0018      1.6668    113.7132     27.3811
  1303.3000      7.8094      2.6006     -0.0492      2.9944    117.6724     26.9769
  1303.4000      7.8094      2.5993      0.0025      3.0725    116.2131     27.1729
  1303.5000      7.8035      2.6056      0.0366      2.6888    106.8345     27.2278
  1303.6000      7.8035      2.5938      0.0186      3.4082     90.7556     27.5396
  1303.7000      7.8035      2.5646      0.0201      5.1732     80.3448     28.4340
  1303.8000      7.8443      2.5373      0.0247      6.8325     84.4524     28.9005
  1303.9000      7.8443      2.5256     -0.0114      7.5400     95.1667     28.6518
  1304.0000      7.8531      2.5277     -0.0208      7.4100    100.8922     28.5933
  1304.1000      7.8531      2.5276      0.0354      7.4175    100.4006     28.8638
  1304.2000      7.8531      2.5181     -0.0397      7.9929     99.5467     28.9120
  1304.3000      7.8556      2.5188     -0.0377      7.9533    102.2649     28.8442
  1304.4000      7.8556      2.5326      0.0815      7.1159    107.4076     28.6200
  1304.5000      7.8635      2.5254      0.0687      7.5541    113.1608     27.8636
  1304.6000      7.8635      2.4954     -0.0398      9.3670    117.9020     27.2959
  1304.7000      7.8635      2.4837     -0.0142     10.0771    119.7655     28.0772
