~Version Information
VERS.                      2.0: CWLS Log ASCII Standard - VERSION 2.0
WRAP.                       NO: One line per depth step
~Well Information Block
STRT.FT               400.0000: 
STOP.FT              2201.0000: 
STEP.FT                 0.1000: 
NULL.                -999.2500: 
COMP.          Evergreen Operating Corporation: COMPANY
WELL.            Triumph 13-10: WELL
FLD.           Purgatorie River: FIELD
LOC.           1551' FSL & 522' FWL: LOCATION
PROV.                 Colorado: PROVINCE
CNTY.               Las Animas: COUNTRY
SRVC.                Patterson: SERVICE COMPANY
DATE.          Mon Jul 26 07:55:18 2004: LOG DATE
UWI.           05 071 08108 00: UNIQUE WELL ID
~Curve Information Block
DEPT.FT            0 000 00 00: Depth
DCAL.in                       : CDL Caliper
RHOB.g/cc                     : CDL Bulk Density
RHOC.g/cc                     : CDL Density Correction
DPOR.pu                       : CDL Density Porosity
NPOR.pu                       : Neutron Porosity
GR.GAPI                       : Gamma Ray
~Parameter Information Block
~A  Depth       DCAL        RHOB        RHOC        DPOR        NPOR         GR     
# ...
  1811.2000      8.0193      2.5215      0.0271      7.7906     21.7222     70.1265
  1811.3000      8.0182      2.5430      0.0586      6.4824     21.5974     73.4150
  1811.4000      8.0182      2.5445      0.0749      6.3938     21.5100     77.0555
  1811.5000      8.0216      2.5241      0.0536      7.6280     21.3248     78.7729
  1811.6000      8.0216      2.5039     -0.0143      8.8540     21.3573     77.2765
  1811.7000      8.0216      2.4938      0.0222      9.4650     21.4528     74.0708
  1811.8000      8.0182      2.4812      0.0401     10.2333     21.0489     71.5131
  1811.9000      8.0182      2.4623     -0.0311     11.3786     20.3211     67.7557
  1812.0000      8.0166      2.4501      0.0164     12.1132     19.9852     62.7298
  1812.1000      8.0166      2.4445      0.0166     12.4565     20.0029     59.0694
  1812.2000      8.0166      2.4383     -0.0099     12.8306     19.7956     56.8247
  1812.3000      8.0152      2.4376     -0.0034     12.8744     19.4153     55.6793
  1812.4000      8.0152      2.4494      0.0176     12.1583     19.3852     57.0563
  1812.5000      8.0136      2.4717      0.0227     10.8087     19.6524     58.7716
  1812.6000      8.0136      2.4944      0.0238      9.4312     19.7008     55.9590
  1812.7000      8.0136      2.5035      0.0960      8.8776     19.3800     50.1393
  1812.8000      8.0157      2.4981      0.0288      9.2063     19.0421     46.9263
  1812.9000      8.0157      2.4908      0.0512      9.6491     18.9115     45.4830
  1813.0000      8.0132      2.4821      0.0640     10.1782     18.8784     43.0445
  1813.1000      8.0132      2.4650      0.0439     11.2116     18.6951     42.9994
  1813.2000      8.0132      2.4444      0.0231     12.4596     18.0747     47.2168
  1813.3000      8.0215      2.4316      0.0111     13.2351     17.2601     50.0567
  1813.4000      8.0215      2.4301      0.0106     13.3273     16.9142     48.7714
  1813.5000      8.0387      2.4381     -0.0348     12.8396     17.1068     46.9868
  1813.6000      8.0387      2.4501      0.0464     12.1147     17.3149     45.2793
  1813.7000      8.0387      2.4552      0.0414     11.8035     17.2769     41.8462
  1813.8000      8.0428      2.4572      0.0410     11.6850     17.1896     36.8288
  1813.9000      8.0428      2.4644      0.0611     11.2456     17.1249     33.0133
  1814.0000      8.0431      2.4754      0.0401     10.5797     16.8397     34.1406
  1814.1000      8.0431      2.4828      0.0594     10.1303     16.2357     37.4815
  1814.2000      8.0431      2.4714      0.0637     10.8230     15.7460     36.6891
  1814.3000      8.0443      2.4403     -0.0005     12.7099     15.6742     33.9817
  1814.4000      8.0443      2.4192     -0.0313     13.9850     16.0349     34.7322
  1814.5000      8.0533      2.4242      0.0171     13.6852     16.7928     36.6771
  1814.6000      8.0533      2.4291      0.0707     13.3902     17.2774     36.3369
  1814.7000      8.0533      2.4176      0.0384     14.0876     17.0396     35.3182
  1814.8000      8.0496      2.4147     -0.0600     14.2610     16.9210     36.4359
  1814.9000      8.0496      2.4337      0.0382     13.1105     17.3776     40.0108
  1815.0000      8.0409      2.4549      0.0467     11.8229     17.9247     45.2888
  1815.1000      8.0409      2.4722      0.0558     10.7729     18.6246     51.3434
  1815.2000      8.0409      2.4893      0.0628      9.7381     19.7243     55.8342
  1815.3000      8.0416      2.4947      0.0896      9.4102     20.4337     56.5778
  1815.4000      8.0416      2.4853      0.0826      9.9838     20.3887     52.8002
  1815.5000      8.0420      2.4822      0.0490     10.1679     20.4385     49.1037
  1815.6000      8.0420      2.5018      0.0543      8.9839     21.0923     51.4930
  1815.7000      8.0420      2.5285      0.0688      7.3615     22.3088     56.0899
  1815.8000      8.0399      2.5403      0.0635      6.6507     23.6531     59.4115
  1815.9000      8.0399      2.5341      0.0098      7.0267     24.4482     67.4495
  1816.0000      8.0179      2.5169      0.0134      8.0672     24.7093     80.4596
  1816.1000      8.0179      2.4998     -0.0160      9.1028     24.9164     91.9248
  1816.2000      8.0179      2.4964      0.0277      9.3111     25.3133     99.5964
  1816.3000      8.0195      2.5041      0.0123      8.8449     25.9568    104.6779
  1816.4000      8.0195      2.5110      0.0279      8.4249     26.8568    108.3089
  1816.5000      8.0195      2.5098      0.0611      8.4954     27.7258    112.2810
  1816.6000      8.0195      2.4926      0.0633      9.5384     27.9736    116.7828
  1816.7000      8.0195      2.4656      0.0291     11.1763     27.8824    120.6633
  1816.8000      8.0148      2.4567      0.0027     11.7130     28.2384    125.8952
  1816.9000      8.0148      2.4798      0.0821     10.3122     28.7658    131.5781
  1817.0000      8.0144      2.5160      0.0934      8.1196     29.0194    135.6628
  1817.1000      8.0144      2.5445      0.1371      6.3910     29.1577    140.6403
  1817.2000      8.0144      2.5650      0.1384      5.1491     29.1983    146.9639
  1817.3000      8.0190      2.5873      0.1455      3.7997     28.9472    149.9042
  1817.4000      8.0190      2.6035      0.1714      2.8170     28.4126    149.0490
  1817.5000      8.0412      2.5954      0.1675      3.3066     27.9757    149.3798
  1817.6000      8.0412      2.5638      0.1782      5.2214     27.7825    151.6808
  1817.7000      8.0412      2.5275      0.1284      7.4257     27.7175    151.4935
  1817.8000      8.0564      2.5088      0.0643      8.5589     27.9307    147.9060
  1817.9000      8.0564      2.5102      0.0926      8.4737     28.3976    143.1661
  1818.0000      8.0420      2.5099      0.0642      8.4893     28.7033    139.4142
  1818.1000      8.0420      2.5000      0.0126      9.0928     28.1903    141.2285
  1818.2000      8.0420      2.4912      0.0654      9.6229     27.0124    147.1992
  1818.3000      8.0680      2.4854      0.0698      9.9750     26.1135    150.1490
  1818.4000      8.0680      2.4847      0.0600     10.0202     25.6918    147.5723
  1818.5000      8.0905      2.5043      0.0536      8.8277     25.5459    143.4326
  1818.6000      8.0905      2.5458      0.1222      6.3182     25.9721    140.7913
  1818.7000      8.0905      2.5822      0.1594      4.1119     27.0219    139.3726
  1818.8000      8.0668      2.5945      0.1251      3.3626     27.6755    136.1005
  1818.9000      8.0668      2.5904      0.1331      3.6137     27.1153    130.2589
  1819.0000      8.0629      2.5770      0.1151      4.4259     25.9924    125.9401
  1819.1000      8.0629      2.5531      0.1262      5.8702     25.3263    123.0072
  1819.2000      8.0629      2.5334     -0.0213      7.0687     25.2161    122.0598
  1819.3000      8.0201      2.5349      0.0328      6.9731     25.2259    127.4163
  1819.4000      8.0201      2.5398      0.0410      6.6775     25.0358    135.6441
  1819.5000      8.0138      2.5301      0.0448      7.2689     24.7119    136.8719
  1819.6000      8.0138      2.5214      0.0298      7.7910     24.7315    128.1902
  1819.7000      8.0138      2.5283      0.0410      7.3765     25.1369    116.4716
  1819.8000      8.0116      2.5391      0.0448      6.7240     25.4404    110.6419
  1819.9000      8.0116      2.5392      0.0333      6.7168     25.3256    112.4961
  1820.0000      8.0189      2.5323      0.0276      7.1312     24.9186    117.3306
  1820.1000      8.0189      2.5324      0.0095      7.1296     24.7669    122.7562
  1820.2000      8.0189      2.5486      0.0451      6.1448     24.9554    129.1284
  1820.3000      8.0414      2.5750      0.0858      4.5478     25.1757    136.3884
  1820.4000      8.0414      2.5918      0.1210      3.5244     25.5023    142.0920
  1820.5000      8.0448      2.5921      0.0534      3.5087     25.7142    141.7574
  1820.6000      8.0448      2.5941      0.0376      3.3863     25.4978    135.0623
  1820.7000      8.0448      2.6078      0.0652      2.5598     25.3440    128.0427
