~Version Information
VERS.                      2.0: CWLS Log ASCII Standard - VERSION 2.0
WRAP.                       NO: One line per depth step
~Well Information Block
STRT.FT               300.0000: 
STOP.FT               871.2000: 
STEP.FT                 0.1000: 
NULL.                -999.2500: 
COMP.          Pioneer Natural Resources: COMPANY
WELL.            Hustler 12-17: WELL
FLD.           Purgatoire River: FIELD
LOC.           2150' FNL & 450' FWL: LOCATION
PROV.                 Colorado: PROVINCE
CNTY.               Las Animas: COUNTRY
SRVC.                Patterson: SERVICE COMPANY
DATE.          Mon Dec 20 11:14:19 2004: LOG DATE
UWI.           05 071 08236 00: UNIQUE WELL ID
~Curve Information Block
DEPT.FT            0 000 00 00: Depth
DCAL.in                       : CDL Caliper
RHOB.g/cc                     : CDL Bulk Density
RHOC.g/cc                     : CDL Density Correction
DPOR.pu                       : CDL Density Porosity
NPOR.pu                       : Neutron Porosity
GR.GAPI                       : Gamma Ray
~Parameter Information Block
~A  Depth       DCAL        RHOB        RHOC        DPOR        NPOR         GR     
   300.0000      8.0217      2.4396     -0.1617     12.7499     36.3131     65.7747
   300.1000      8.0217      2.4252     -0.2070     13.6260     36.5099     63.8722
   300.2000      8.0217      2.4158     -0.2528     14.1922     37.0433     62.5026
   300.3000      8.0210      2.4371     -0.1871     12.9003     37.4677     61.0545
   300.4000      8.0210      2.4848     -0.1751     10.0118     37.5242     60.4331
   300.5000      8.0212      2.5340     -0.1311      7.0279     37.5566     60.9346
   300.6000      8.0212      2.5613     -0.1103      5.3786     37.9939     62.1187
   300.7000      8.0212      2.5690     -0.1627      4.9078     38.6807     65.7578
   300.8000      8.0220      2.5805     -0.1774      4.2111     38.9417     71.5609
   300.9000      8.0220      2.5914     -0.0968      3.5510     38.7004     76.9432
   301.0000      8.0213      2.5865     -0.1968      3.8482     38.7075     81.6868
   301.1000      8.0213      2.5771     -0.1820      4.4157     39.1378     84.5930
   301.2000      8.0213      2.5673     -0.1730      5.0127     39.4599     83.5167
   301.3000      8.0195      2.5527     -0.1883      5.8982     39.5592     81.9314
   301.4000      8.0195      2.5423     -0.1907      6.5292     39.7186     83.9945
   301.5000      8.0180      2.5416     -0.1737      6.5705     39.9600     87.0873
   301.6000      8.0180      2.5459     -0.1827      6.3113     40.1762     88.5857
   301.7000      8.0180      2.5519     -0.1555      5.9435     40.2324     88.5297
   301.8000      8.0180      2.5602     -0.1917      5.4449     40.0674     86.6707
   301.9000      8.0180      2.5663     -0.1376      5.0730     39.8322     85.5559
   302.0000      8.0192      2.5689     -0.1405      4.9173     39.7031     88.8918
   302.1000      8.0192      2.5837     -0.1786      4.0189     39.7288     95.9979
   302.2000      8.0192      2.6208     -0.1458      1.7700     39.8401    102.2248
   302.3000      8.0199      2.6723     -0.1308     -1.3523     39.8750    103.0662
   302.4000      8.0199      2.7336     -0.0603     -5.0655     39.7462    101.1877
   302.5000      8.0188      2.8036     -0.0857     -9.3109     39.5968    101.9838
   302.6000      8.0188      2.8675     -0.0209    -13.1838     39.5362    101.9039
   302.7000      8.0188      2.9030     -0.0708    -15.3321     39.6843     95.3986
   302.8000      8.0168      2.9069     -0.0995    -15.5693     40.2406     85.5225
   302.9000      8.0168      2.8858     -0.1117    -14.2915     41.0031     79.8137
   303.0000      8.0169      2.8475     -0.2438    -11.9727     41.4831     78.6249
   303.1000      8.0169      2.8111     -0.2788     -9.7609     41.5370     77.1440
   303.2000      8.0169      2.7853     -0.2226     -8.2022     41.4634     76.5998
   303.3000      8.0189      2.7688     -0.2487     -7.2023     41.4373     78.0356
   303.4000      8.0189      2.7540     -0.1545     -6.3030     41.2415     77.3117
   303.5000      8.0192      2.7199     -0.1791     -4.2382     40.7973     74.2830
   303.6000      8.0192      2.6726     -0.1891     -1.3674     40.3225     75.3540
   303.7000      8.0192      2.6468     -0.2240      0.1910     39.9578     83.7967
   303.8000      8.0184      2.6376     -0.0978      0.7510     39.6885     92.1624
   303.9000      8.0184      2.6053     -0.1452      2.7065     39.6281     92.2128
   304.0000      8.0182      2.5571     -0.1935      5.6332     39.9955     89.3672
   304.1000      8.0182      2.5269     -0.1851      7.4604     40.5150     91.4301
   304.2000      8.0182      2.5166     -0.1846      8.0874     40.6645     94.4840
   304.3000      8.0183      2.5017     -0.1745      8.9871     40.4527     95.6505
   304.4000      8.0183      2.4680     -0.2371     11.0311     40.0434     99.8380
   304.5000      8.0159      2.4290     -0.2457     13.3924     39.4779    105.2339
   304.6000      8.0159      2.4013     -0.2378     15.0751     39.1542    106.3132
   304.7000      8.0159      2.3825     -0.2731     16.2114     39.5165    104.7934
   304.8000      8.0151      2.3617     -0.1973     17.4723     40.3564    104.0956
   304.9000      8.0151      2.3435     -0.2507     18.5728     41.0712    104.0042
   305.0000      8.0151      2.3529     -0.2583     18.0073     41.2257    102.9021
   305.1000      8.0151      2.3890     -0.1744     15.8156     41.0306    102.2303
   305.2000      8.0151      2.4204     -0.1707     13.9157     41.0181    103.3174
   305.3000      8.0139      2.4352     -0.1676     13.0174     41.3755    103.2446
   305.4000      8.0139      2.4415     -0.1114     12.6350     41.7283    100.7685
   305.5000      8.0157      2.4373     -0.1527     12.8890     41.4499     99.3045
   305.6000      8.0157      2.4203     -0.1806     13.9218     40.6309    100.1387
   305.7000      8.0157      2.3984     -0.1552     15.2500     40.0347    102.3070
   305.8000      8.0202      2.3843     -0.2133     16.1016     39.7555    102.7564
   305.9000      8.0202      2.3873     -0.1844     15.9229     39.5372     99.7240
   306.0000      8.0226      2.4046     -0.2367     14.8709     39.6550     98.4505
   306.1000      8.0226      2.4298     -0.1452     13.3456     40.0537    100.9534
   306.2000      8.0226      2.4581     -0.1785     11.6277     40.2136    102.9327
   306.3000      8.0209      2.4867     -0.1308      9.8972     40.0866    105.5762
   306.4000      8.0209      2.5091     -0.0902      8.5378     40.0298    109.0925
   306.5000      8.0187      2.5205     -0.1520      7.8477     40.0469    108.3071
   306.6000      8.0187      2.5157     -0.1010      8.1380     39.8834    104.2802
   306.7000      8.0187      2.4909     -0.1467      9.6421     39.6277    100.2330
   306.8000      8.0173      2.4567     -0.1334     11.7172     39.6509     97.8097
   306.9000      8.0173      2.4336     -0.2671     13.1123     39.9672     99.4589
   307.0000      8.0149      2.4348     -0.2002     13.0445     40.1422    101.1787
   307.1000      8.0149      2.4469     -0.1780     12.3095     40.0800     99.2541
   307.2000      8.0149      2.4539     -0.0964     11.8832     40.1757     98.3561
   307.3000      8.0139      2.4611     -0.1853     11.4465     40.5775     99.7660
   307.4000      8.0139      2.4748     -0.1482     10.6205     40.9195     99.8612
   307.5000      8.0184      2.4767     -0.1416     10.5017     40.9318     97.0848
   307.6000      8.0184      2.4591     -0.2228     11.5713     40.7699     94.2313
   307.7000      8.0184      2.4479     -0.1771     12.2491     40.6569     95.3094
   307.8000      8.0251      2.4664     -0.1704     11.1251     40.7389     99.0708
   307.9000      8.0251      2.5069     -0.1670      8.6697     41.1777    101.3943
   308.0000      8.0286      2.5309     -0.1174      7.2194     41.8226     99.5540
   308.1000      8.0286      2.5100     -0.1510      8.4854     42.1065     92.9425
   308.2000      8.0286      2.4680     -0.2043     11.0292     41.8841     84.7342
   308.3000      8.0271      2.4365     -0.1760     12.9423     41.7717     79.6374
   308.4000      8.0271      2.4087     -0.1962     14.6254     42.2673     80.1746
   308.5000      8.0267      2.3719     -0.2398     16.8528     42.8358     83.4028
   308.6000      8.0267      2.3263     -0.2194     19.6169     42.7201     83.9615
   308.7000      8.0267      2.2764     -0.2423     22.6421     41.9793     83.5145
   308.8000      8.0249      2.2354     -0.3218     25.1299     41.2252     86.6675
   308.9000      8.0249      2.2122     -0.2685     26.5312     40.9803     90.6282
   309.0000      8.0200      2.2049     -0.2912     26.9728     41.1149     90.8919
   309.1000      8.0200      2.2201     -0.2783     26.0544     41.0144     90.4554
   309.2000      8.0200      2.2711     -0.2705     22.9612     40.4276     91.8250
   309.3000      8.0176      2.3487     -0.1920     18.2606     39.7845     91.8555
   309.4000      8.0176      2.4143     -0.1603     14.2826     39.4693     89.6393
   309.5000      8.0209      2.4364     -0.1789     12.9473     39.1735     87.5734
