~Version Information
VERS.                      2.0: CWLS Log ASCII Standard - VERSION 2.0
WRAP.                       NO: One line per depth step
~Well Information Block
STRT.FT                -7.0000: 
STOP.FT              1656.2500: 
STEP.FT                 0.2500: 
NULL.                -999.2500: 
COMP.          Pioneer Natural Resources: COMPANY
WELL.               Elmo 14-21: WELL
FLD.           Purgatorie River: FIELD
LOC.           623' FSL & 450' FWL--: LOCATION
PROV.                       CO: PROVINCE
CNTY.               Las Animas: COUNTRY
SRVC.          Patterson Wireline: SERVICE COMPANY
DATE.          Mon Jun 27 15:45:41 2005: LOG DATE
UWI.           05 071 08360 00: UNIQUE WELL ID
~Curve Information Block
DEPT.FT            0 000 00 00: Depth
CCL.                          : Casing Collar Locator
TT3.usec                      : CBL 3' Travel Time
AMP3.mV                       : CBL 3' Amplitude
GR.GAPI                       : Gamma Ray
~Parameter Information Block
~A  Depth       CCL         TT3         AMP3         GR     
# ...
  1400.0000      0.0000    403.2166      6.4125     54.8720
  1400.2500      0.0000    405.9886      6.3727     54.8274
  1400.5000      0.0000    414.6573      6.3008     56.0607
  1400.7500      0.0000    434.9746      6.2722     57.5062
  1401.0000      0.0000    472.3507      6.3821     57.6246
  1401.2500      0.0000    525.4230      6.7557     55.8200
  1401.5000      0.0000    581.9397      7.5330     53.1834
  1401.7500      0.0000    622.6028      8.8086     51.6293
  1402.0000      0.0000    630.7103     10.5749     52.4009
  1402.2500      0.0000    600.0294     12.7194     55.4221
  1402.5000      0.0000    537.5515     15.0624     59.6015
  1402.7500      0.0000    461.3202     17.3922     63.3913
  1403.0000      0.0000    392.4394     19.5011     65.5218
  1403.2500      0.0000    344.3873     21.2304     65.8683
  1403.5000      0.0000    318.3066     22.4787     65.7217
  1403.7500      0.0000    307.5101     23.1554     66.9146
  1404.0000      0.0000    305.1156     23.1488     70.6533
  1404.2500      0.0000    308.6258     22.3618     77.2203
  1404.5000      0.0000    321.2859     20.7859     86.1155
  1404.7500      0.0000    351.0958     18.5520     95.6853
  1405.0000      0.0000    405.8389     15.9277    103.0934
  1405.2500      0.0000    484.3163     13.2592    105.8966
  1405.5000      0.0000    571.1963     10.8738    103.9931
  1405.7500      0.0000    642.9645      8.9851     99.6192
  1406.0000      0.0000    680.9704      7.6596     95.4856
  1406.2500      0.0000    679.9265      6.8579     93.0533
  1406.5000      0.0000    647.4013      6.4928     92.1204
  1406.7500      0.0000    598.3351      6.4517     91.5169
  1407.0000      0.0000    548.4071      6.5944     90.2680
  1407.2500      0.0000    508.4315      6.7707     88.3533
  1407.5000      0.0000    482.1856      6.8719     86.4886
  1407.7500      0.0000    468.0078      6.8738     85.2533
  1408.0000      0.0000    461.5486      6.8234     84.6262
  1408.2500      0.0000    457.4371      6.7764     84.4230
  1408.5000      0.0000    450.5313      6.7512     84.8534
  1408.7500      0.0000    438.0345      6.7396     86.2669
  1409.0000      0.0000    421.3340      6.7395     88.4094
  1409.2500      0.0000    404.9666      6.7597     90.2396
  1409.5000      0.0000    393.1086      6.7954     90.5429
  1409.7500      0.0000    387.2542      6.8232     88.7674
  1410.0000      0.0000    387.1001      6.8295     85.4829
  1410.2500      0.0000    393.1264      6.8309     82.1783
  1410.5000      0.0000    407.8505      6.8538     80.5345
  1410.7500      0.0000    434.0267      6.8922     81.5749
  1411.0000      0.0000    471.2455      6.8937     85.0460
  1411.2500      0.0000    515.0965      6.7946     89.4157
  1411.5000      0.0000    560.0518      6.5806     92.7586
  1411.7500      0.0000    601.5022      6.3153     93.9114
  1412.0000      0.0000    634.1412      6.0981     92.8429
  1412.2500      0.0000    650.9206      5.9911     90.2319
  1412.5000      0.0000    647.1749      5.9839     87.0376
  1412.7500      0.0000    626.9122      6.0179     84.2217
  1413.0000      0.0000    603.4918      6.0382     82.3886
  1413.2500      0.0000    591.6993      6.0303     81.6844
  1413.5000      0.0000    598.3349      6.0180     82.1643
  1413.7500      0.0000    619.8555      6.0253     84.0152
  1414.0000      0.0000    646.2209      6.0467     87.1067
  1414.2500      0.0000    665.5648      6.0695     90.4182
  1414.5000      0.0000    668.6946      6.1115     92.2310
  1414.7500      0.0000    653.9755      6.2075     91.1086
  1415.0000      0.0000    629.3752      6.3479     86.9473
  1415.2500      0.0000    608.1006      6.4597     81.3874
  1415.5000      0.0000    599.9366      6.4651     77.0790
  1415.7500      0.0000    606.1612      6.3480     75.9960
  1416.0000      0.0000    622.4078      6.1530     78.1749
  1416.2500      0.0000    644.1945      5.9380     82.1408
  1416.5000      0.0000    668.2658      5.7392     86.3249
  1416.7500      0.0000    690.7043      5.5743     89.7647
  1417.0000      0.0000    706.9527      5.4558     91.7871
  1417.2500      0.0000    714.1714      5.3905     91.8254
  1417.5000      0.0000    712.8346      5.3681     89.9215
  1417.7500      0.0000    706.3582      5.3650     87.1986
  1418.0000      0.0000    699.4467      5.3604     85.3916
  1418.2500      0.0000    695.5479      5.3447     85.5971
  1418.5000      0.0000    694.3120      5.3177     87.4249
  1418.7500      0.0000    690.6773      5.2901     89.4713
  1419.0000      0.0000    676.9142      5.2830     90.6705
  1419.2500      0.0000    647.6938      5.3137     91.0192
  1419.5000      0.0000    605.1431      5.3734     91.0070
  1419.7500      0.0000    558.3159      5.4302     90.9917
  1420.0000      0.0000    515.8676      5.4625     91.5577
  1420.2500      0.0000    479.9765      5.4838     93.6750
  1420.5000      0.0000    448.7999      5.5297     97.5419
  1420.7500      0.0000    422.3915      5.6274    101.6895
  1421.0000      0.0000    403.1925      5.7708    103.9989
  1421.2500      0.0000    392.2421      5.9135    103.4099
  1421.5000      0.0000    387.7034      5.9911    100.3891
  1421.7500      0.0000    386.8163      5.9639     96.3102
  1422.0000      0.0000    387.9729      5.8414     92.7534
  1422.2500      0.0000    391.0529      5.6650     90.8057
  1422.5000      0.0000    396.3882      5.4780     90.4018
  1422.7500      0.0000    403.3018      5.3153     90.4381
  1423.0000      0.0000    409.4751      5.2068     89.8212
  1423.2500      0.0000    412.2911      5.1700     88.3823
  1423.5000      0.0000    411.3853      5.1943     86.7084
  1423.7500      0.0000    409.8805      5.2436     85.1896
  1424.0000      0.0000    412.1632      5.2806     83.4339
  1424.2500      0.0000    419.3073      5.2930     80.7346
  1424.5000      0.0000    426.5998      5.2987     77.1215
  1424.7500      0.0000    426.9199      5.3265     73.8210
  1425.0000      0.0000    417.4617      5.3810     72.4093
  1425.2500      0.0000    402.3592      5.4284     73.4039
  1425.5000      0.0000    388.4450      5.4278     75.8484
  1425.7500      0.0000    379.8901      5.3743     78.2680
  1426.0000      0.0000    377.2145      5.3008     79.6359
  1426.2500      0.0000    379.2271      5.2456     79.4156
  1426.5000      0.0000    384.1120      5.2377     77.4003
  1426.7500      0.0000    389.2839      5.2995     73.9612
  1427.0000      0.0000    392.1863      5.4405     70.0932
  1427.2500      0.0000    392.4833      5.6398     66.8873
  1427.5000      0.0000    393.4852      5.8505     65.0040
  1427.7500      0.0000    400.4251      6.0314     64.6109
  1428.0000      0.0000    415.7711      6.1720     65.6436
  1428.2500      0.0000    435.7719      6.2860     68.0543
  1428.5000      0.0000    452.9026      6.3865     71.8319
  1428.7500      0.0000    462.3359      6.4710     76.7365
  1429.0000      0.0000    464.3676      6.5258     81.9742
  1429.2500      0.0000    460.8556      6.5391     86.2528
  1429.5000      0.0000    453.0064      6.5048     88.5036
  1429.7500      0.0000    443.1946      6.4211     88.7668
  1430.0000      0.0000    435.0424      6.2962     88.1045
  1430.2500      0.0000    430.1579      6.1592     87.3612
  1430.5000      0.0000    426.6478      6.0448     86.4482
  1430.7500      0.0000    421.4661      5.9576     85.2300
  1431.0000      0.0000    413.3431      5.8634     84.3053
  1431.2500      0.0000    403.4312      5.7332     84.2081
  1431.5000      0.0000    393.9912      5.5841     84.5993
  1431.7500      0.0000    386.7464      5.4626     84.9414
  1432.0000      0.0000    382.2065      5.3959     85.3238
  1432.2500      0.0000    380.0817      5.3729     86.1215
  1432.5000      0.0000    379.9954      5.3703     87.3665
  1432.7500      0.0000    381.9635      5.3774     88.7436
  1433.0000      0.0000    386.5072      5.3927     89.8791
  1433.2500      0.0000    394.2687      5.4065     90.6394
