~Version Information
VERS.                      2.0: CWLS Log ASCII Standard - VERSION 2.0
WRAP.                       NO: One line per depth step
~Well Information Block
STRT.FT               946.8000: 
STOP.FT              2134.5000: 
STEP.FT                 0.1000: 
NULL.                -999.2500: 
COMP.          Petrogulf Corporation: COMPANY
WELL.             Valejo 8-12R: WELL
FLD.           Purgatorie River: FIELD
LOC.           1351'' FNL & 1562' FWL: LOCATION
CNTY.               Las Animas: COUNTY
SRVC.                         : SERVICE COMPANY
DATE.          Wed Apr 28 13:22:45 2004: LOG DATE
UWI.           05 071 08038 00: UNIQUE WELL ID
STAT.                 Colorado: STATE
~Curve Information Block
DEPT.FT            0 000 00 00: Depth
DCAL.in                       : CDL Caliper
RHOB.g/cc                     : CDL Bulk Density
RHOC.g/cc                     : CDL Density Correction
DPOR.pu                       : CDL Density Porosity
NPOR.pu                       : Neutron Porosity
GR.GAPI                       : Gamma Ray
~Parameter Information Block
~A  Depth       DCAL        RHOB        RHOC        DPOR        NPOR         GR     
# ...
  1263.6000      7.9588      2.5348      0.0720      6.9820     19.1462     82.2565
  1263.7000      7.9588      2.5528      0.0676      5.8881     19.7101     82.2310
  1263.8000      7.9649      2.5751      0.0978      4.5369     20.7107     84.7134
  1263.9000      7.9649      2.5951      0.1275      3.3299     21.4064     90.5041
  1264.0000      7.9727      2.6155      0.1189      2.0899     21.4108     95.3970
  1264.1000      7.9727      2.6457      0.1224      0.2598     21.1066     98.1304
  1264.2000      7.9727      2.6838      0.1380     -2.0478     21.2417     96.8650
  1264.3000      7.9823      2.7099      0.1841     -3.6301     22.1648     89.3503
  1264.4000      7.9823      2.7087      0.1308     -3.5549     23.3692     80.8776
  1264.5000      7.9846      2.6912      0.1126     -2.4952     24.0975     79.6682
  1264.6000      7.9846      2.6772      0.0709     -1.6494     24.2267     86.0166
  1264.7000      7.9846      2.6714      0.1016     -1.2989     24.2034     95.0493
  1264.8000      7.9971      2.6666      0.0686     -1.0075     24.3183    103.6939
  1264.9000      7.9971      2.6620      0.0402     -0.7280     24.6490    107.8604
  1265.0000      7.9975      2.6612      0.0200     -0.6803     25.4671    107.3583
  1265.1000      7.9975      2.6598      0.0590     -0.5935     26.5910    109.2200
  1265.2000      7.9975      2.6485      0.0774      0.0879     26.9247    117.2301
  1265.3000      8.0012      2.6361     -0.0096      0.8448     26.1598    122.4790
  1265.4000      8.0012      2.6453      0.0084      0.2857     25.4714    118.6033
  1265.5000      7.9977      2.6749      0.0118     -1.5114     25.4656    114.4227
  1265.6000      7.9977      2.6974      0.0521     -2.8707     25.5016    110.8653
  1265.7000      7.9977      2.6942      0.0680     -2.6778     24.9460    104.3329
  1265.8000      7.9955      2.6771      0.0574     -1.6413     24.0675    102.7850
  1265.9000      7.9955      2.6675      0.0762     -1.0625     23.5814    106.6937
  1266.0000      7.9964      2.6737      0.0622     -1.4337     23.6076    107.8859
  1266.1000      7.9964      2.6906      0.0600     -2.4596     23.3786    108.7592
  1266.2000      7.9964      2.7034      0.0949     -3.2358     22.6420    113.4403
  1266.3000      7.9962      2.6973      0.1013     -2.8657     22.1627    115.8312
  1266.4000      7.9962      2.6753      0.1011     -1.5320     22.2096    114.7654
  1266.5000      7.9981      2.6564      0.0621     -0.3908     22.4563    118.8153
  1266.6000      7.9981      2.6548      0.1025     -0.2884     22.9413    126.4433
  1266.7000      7.9981      2.6630      0.0713     -0.7863     23.6811    127.9473
  1266.8000      7.9996      2.6614      0.1208     -0.6938     24.1641    126.4935
  1266.9000      7.9996      2.6409      0.0616      0.5540     24.3529    127.6177
  1267.0000      8.0070      2.6107      0.0545      2.3843     25.0809    124.8598
  1267.1000      8.0070      2.5779      0.0267      4.3691     26.7046    114.2405
  1267.2000      8.0070      2.5328      0.0577      7.1008     28.7330    104.2576
  1267.3000      8.0286      2.4609      0.0162     11.4592     30.2145    103.6921
  1267.4000      8.0286      2.3705     -0.0351     16.9398     30.6444    110.8151
  1267.5000      8.0352      2.2952     -0.0558     21.5016     30.6820    116.8183
  1267.6000      8.0352      2.2633     -0.0487     23.4363     30.9181    118.9096
  1267.7000      8.0352      2.2740     -0.0459     22.7871     31.1538    122.7110
  1267.8000      8.0358      2.3044      0.0009     20.9453     31.1518    129.9339
  1267.9000      8.0358      2.3343      0.0690     19.1348     30.7422    136.0042
  1268.0000      8.0358      2.3619      0.1053     17.4590     29.7990    136.0405
  1268.1000      8.0358      2.3948      0.1335     15.4640     28.6802    128.6452
  1268.2000      8.0358      2.4333      0.2115     13.1341     27.8314    120.4609
  1268.3000      8.0367      2.4724      0.2071     10.7629     27.3674    120.0753
  1268.4000      8.0367      2.5096      0.1823      8.5098     27.2645    127.5671
  1268.5000      8.0478      2.5400      0.1209      6.6670     27.0570    135.5177
  1268.6000      8.0478      2.5576      0.1251      5.6019     26.3241    138.9543
  1268.7000      8.0478      2.5642      0.0878      5.1999     25.3339    138.0557
  1268.8000      8.0742      2.5689      0.0908      4.9170     24.6757    135.1611
  1268.9000      8.0742      2.5670      0.1435      5.0323     24.6132    133.0817
  1269.0000      8.0483      2.5486      0.0722      6.1432     24.4686    132.1203
  1269.1000      8.0483      2.5305      0.0122      7.2409     23.7450    127.9664
  1269.2000      8.0483      2.5352      0.0572      6.9569     23.0112    120.0284
  1269.3000      8.0415      2.5593      0.0721      5.4990     22.4882    115.9826
  1269.4000      8.0415      2.5880      0.0657      3.7547     21.7783    118.2742
  1269.5000      8.0444      2.6097      0.1032      2.4394     21.3408    119.8913
  1269.6000      8.0444      2.6134      0.0873      2.2185     21.8226    115.9173
  1269.7000      8.0444      2.5944      0.1072      3.3702     22.6241    111.2681
  1269.8000      8.0443      2.5629      0.0229      5.2758     23.2750    113.3910
  1269.9000      8.0443      2.5362      0.0486      6.8947     24.2775    120.4182
  1270.0000      8.0372      2.5165      0.0051      8.0926     25.7257    124.2980
  1270.1000      8.0372      2.4980      0.0270      9.2109     26.7073    122.0143
  1270.2000      8.0372      2.4807      0.0019     10.2578     26.7586    118.4075
  1270.3000      8.0455      2.4636      0.0549     11.2967     26.9178    118.4762
  1270.4000      8.0455      2.4458      0.0129     12.3752     28.0458    123.0237
  1270.5000      8.0551      2.4392      0.0019     12.7759     29.5760    129.1786
  1270.6000      8.0551      2.4496      0.0553     12.1426     30.5954    133.0594
  1270.7000      8.0551      2.4648      0.0888     11.2266     30.9342    134.8327
  1270.8000      8.0619      2.4754      0.0785     10.5788     30.8576    135.4543
  1270.9000      8.0619      2.4833      0.1327     10.1019     30.6108    134.8580
  1271.0000      8.0634      2.4918      0.1087      9.5858     30.4595    134.7938
  1271.1000      8.0634      2.5003      0.1314      9.0742     30.3860    137.8738
  1271.2000      8.0634      2.4992      0.1595      9.1403     30.2188    146.1667
  1271.3000      8.0670      2.4906      0.1097      9.6629     30.0065    156.5894
  1271.4000      8.0670      2.4956      0.0952      9.3554     30.0608    163.4778
  1271.5000      8.0564      2.5145      0.1366      8.2132     30.5678    163.8866
  1271.6000      8.0564      2.5285      0.0485      7.3646     30.9890    155.1969
  1271.7000      8.0564      2.5367      0.0580      6.8664     30.9523    146.5939
  1271.8000      8.0528      2.5389      0.0832      6.7339     30.9009    149.1442
  1271.9000      8.0528      2.5281      0.0747      7.3909     31.0909    156.0268
  1272.0000      8.0598      2.5110      0.0571      8.4272     31.0599    156.0494
  1272.1000      8.0598      2.4991      0.0717      9.1445     30.3466    147.2971
  1272.2000      8.0598      2.4918      0.0939      9.5856     29.4467    137.4802
  1272.3000      8.0538      2.4883      0.0336      9.7983     29.2530    136.1210
  1272.4000      8.0538      2.4931      0.0668      9.5099     29.5986    140.4824
  1272.5000      8.0530      2.5002      0.0411      9.0784     29.6994    140.9696
  1272.6000      8.0530      2.5047      0.0371      8.8071     29.3661    135.4376
  1272.7000      8.0530      2.5078      0.1025      8.6189     28.8408    127.4444
  1272.8000      8.0534      2.5111      0.0661      8.4184     28.4004    122.4459
  1272.9000      8.0534      2.5235      0.0978      7.6673     28.2188    123.3600
  1273.0000      8.0519      2.5480      0.1438      6.1817     27.8421    128.9023
  1273.1000      8.0519      2.5736      0.1386      4.6297     27.0247    135.1705
