~Version Information
VERS.                      2.0: CWLS Log ASCII Standard - VERSION 2.0
WRAP.                       NO: One line per depth step
~Well Information Block
STRT.FT               260.0000: 
STOP.FT              2610.0000: 
STEP.FT                 0.1000: 
NULL.                -999.2500: 
COMP.          Pioneer Natural Resources: COMPANY
WELL.           Costello 44-24: WELL
FLD.           Purgatoire River: FIELD
LOC.           327' FSL & 378' FEL: LOCATION
PROV.                 Colorado: PROVINCE
CNTY.               Las Animas: COUNTRY
SRVC.                Patterson: SERVICE COMPANY
DATE.          Mon Jul 11 10:42:19 2005: LOG DATE
UWI.           05 071 08413 00: UNIQUE WELL ID
~Curve Information Block
DEPT.FT            0 000 00 00: Depth
DCAL.in                       : CDL Caliper
RHOB.g/cc                     : CDL Bulk Density
RHOC.g/cc                     : CDL Density Correction
DPOR.pu                       : CDL Density Porosity
GR.GAPI                       : Gamma Ray
NPOR.pu                       : Neutron Porosity
~Parameter Information Block
~A  Depth       DCAL        RHOB        RHOC        DPOR         GR         NPOR    
# ...
  1968.8000      8.0103      2.6046      0.0046      2.7525    116.9545     23.5035
  1968.9000      8.0103      2.6160      0.1160      2.0584    115.3013     23.8644
  1969.0000      8.0181      2.6128      0.0757      2.2573    109.2024     24.5496
  1969.1000      8.0181      2.5881      0.0478      3.7491    105.2523     24.9437
  1969.2000      8.0181      2.5616      0.0649      5.3562    108.1254     24.9224
  1969.3000      8.0009      2.5472      0.0527      6.2283    110.7926     24.9333
  1969.4000      8.0009      2.5541      0.0165      5.8133    106.9329     25.1133
  1969.5000      8.0155      2.5841      0.0562      3.9931    101.8565     25.1306
  1969.6000      8.0155      2.6206      0.0844      1.7813    100.1504     24.9653
  1969.7000      8.0155      2.6426      0.1361      0.4463    100.4861     24.9120
  1969.8000      8.0142      2.6416      0.0947      0.5072    102.8601     24.9446
  1969.9000      8.0142      2.6217      0.1165      1.7161    106.3529     24.6996
  1970.0000      8.0348      2.5956      0.0768      3.2981    108.0292     24.0323
  1970.1000      8.0348      2.5748      0.0875      4.5585    106.2480     23.3131
  1970.2000      8.0348      2.5605      0.0466      5.4270    101.4816     22.7204
  1970.3000      8.0322      2.5513      0.0652      5.9809     97.3642     22.1559
  1970.4000      8.0322      2.5494      0.0654      6.0967     97.9363     22.0144
  1970.5000      7.9692      2.5574      0.0787      5.6129     99.8461     22.3908
  1970.6000      7.9692      2.5698      0.1359      4.8591     96.8340     22.8235
  1970.7000      7.9692      2.5758      0.1446      4.4996     91.0730     23.0832
  1970.8000      7.9438      2.5757      0.1552      4.5057     87.2407     23.2533
  1970.9000      7.9438      2.5798      0.1388      4.2570     83.2194     23.3229
  1971.0000      7.9435      2.5909      0.1513      3.5841     75.4223     23.4120
  1971.1000      7.9435      2.6035      0.1363      2.8171     66.8689     23.5381
  1971.2000      7.9435      2.6143      0.1277      2.1616     61.9920     23.4559
  1971.3000      7.9311      2.6193      0.1162      1.8609     60.7643     23.0680
  1971.4000      7.9311      2.6184      0.1268      1.9174     60.7766     22.5686
  1971.5000      7.9980      2.6094      0.1944      2.4581     61.9513     22.2404
  1971.6000      7.9980      2.5864      0.0933      3.8519     65.4983     21.9587
  1971.7000      7.9980      2.5639      0.0917      5.2210     70.8729     21.6828
  1971.8000      7.9817      2.5668      0.0591      5.0437     76.3343     21.6698
  1971.9000      7.9817      2.6020      0.1599      2.9079     79.6727     21.7113
  1972.0000      7.9588      2.6455      0.2018      0.2728     80.6249     21.5494
  1972.1000      7.9588      2.6686      0.2017     -1.1280     80.2486     21.3971
  1972.2000      7.9588      2.6722      0.1385     -1.3429     78.4673     21.3038
  1972.3000      7.9593      2.6753      0.1129     -1.5319     75.4327     21.1478
  1972.4000      7.9593      2.6727      0.1825     -1.3771     70.7506     20.9312
  1972.5000      7.9616      2.6402      0.1309      0.5942     63.6739     20.6014
  1972.6000      7.9616      2.5879      0.0563      3.7613     57.8738     20.2373
  1972.7000      7.9616      2.5511      0.0536      5.9960     54.9891     20.0846
  1972.8000      7.9773      2.5333      0.0725      7.0725     51.1751     20.0908
  1972.9000      7.9773      2.5193      0.0784      7.9211     46.2378     20.0153
  1973.0000      7.9936      2.5120      0.0653      8.3631     44.2868     20.0660
  1973.1000      7.9936      2.5178      0.0763      8.0110     44.4755     20.2689
  1973.2000      7.9936      2.5275      0.1023      7.4271     43.9754     20.1487
  1973.3000      7.9938      2.5322      0.0994      7.1383     44.3677     19.7683
  1973.4000      7.9938      2.5400      0.1230      6.6647     45.8627     19.6250
  1973.5000      8.0046      2.5617      0.1761      5.3492     47.0689     19.7574
  1973.6000      8.0046      2.5973      0.1908      3.1969     49.3432     19.9892
  1973.7000      8.0046      2.6314      0.2291      1.1301     53.0895     20.3689
  1973.8000      7.9780      2.6483      0.2008      0.1001     56.3170     20.8178
  1973.9000      7.9780      2.6553      0.1882     -0.3239     58.9756     21.1712
  1974.0000      7.9179      2.6620      0.1304     -0.7301     61.2158     21.2761
  1974.1000      7.9179      2.6577      0.1549     -0.4680     62.4818     20.9471
  1974.2000      7.9179      2.6252      0.1420      1.5055     64.3427     20.4833
  1974.3000      7.9446      2.5700      0.0953      4.8510     66.5238     20.5445
  1974.4000      7.9446      2.5164      0.0624      8.0966     67.1483     20.9485
  1974.5000      7.9616      2.4903      0.0587      9.6798     69.5313     20.9848
  1974.6000      7.9616      2.5127     -0.0037      8.3236     77.0642     20.8166
  1974.7000      7.9616      2.5738      0.0674      4.6161     85.9046     20.8992
  1974.8000      7.9933      2.6216      0.1200      1.7215     92.3446     21.0843
  1974.9000      7.9933      2.6224      0.0806      1.6730     96.9356     21.2514
  1975.0000      8.0520      2.5966      0.1055      3.2392    101.4059     21.5240
  1975.1000      8.0520      2.5729      0.1910      4.6741    107.2884     21.7247
  1975.2000      8.0520      2.5565      0.1719      5.6668    112.3471     21.8576
  1975.3000      8.0277      2.5488      0.1396      6.1322    113.2594     22.3023
  1975.4000      8.0277      2.5585      0.1306      5.5429    112.7909     23.0031
  1975.5000      7.9498      2.5859      0.1136      3.8821    116.2820     23.4936
  1975.6000      7.9498      2.6178      0.1655      1.9493    122.0277     23.6908
  1975.7000      7.9498      2.6388      0.1525      0.6776    123.7816     24.0884
  1975.8000      7.9456      2.6464      0.1617      0.2155    121.8081     24.7989
  1975.9000      7.9456      2.6511      0.1298     -0.0659    120.5933     25.1330
  1976.0000      7.9642      2.6587      0.1534     -0.5283    120.8858     24.9466
  1976.1000      7.9642      2.6656      0.1908     -0.9464    122.6922     24.8419
  1976.2000      7.9642      2.6657      0.1617     -0.9507    126.3083     25.0513
  1976.3000      8.0229      2.6609      0.1266     -0.6612    127.6922     25.5827
  1976.4000      8.0229      2.6565      0.1285     -0.3964    125.1382     26.3225
  1976.5000      8.0112      2.6475      0.1644      0.1533    121.0846     26.8646
  1976.6000      8.0112      2.6273      0.1401      1.3787    115.6709     26.9586
  1976.7000      8.0112      2.6030      0.1106      2.8512    111.7671     26.8114
  1976.8000      8.0138      2.5932      0.1036      3.4395    113.3467     26.6670
  1976.9000      8.0138      2.6096      0.0889      2.4469    117.2879     26.3983
  1977.0000      8.0285      2.6415      0.1121      0.5162    119.1534     26.0139
  1977.1000      8.0285      2.6681      0.1549     -1.0988    119.8776     25.8013
  1977.2000      8.0285      2.6814      0.1216     -1.9025    120.8724     25.7406
  1977.3000      8.0003      2.6880      0.1454     -2.3031    123.6449     25.5867
  1977.4000      8.0003      2.6958      0.0872     -2.7741    127.8496     25.2987
  1977.5000      7.9876      2.7054      0.1061     -3.3582    128.7122     25.0209
  1977.6000      7.9876      2.6981      0.1115     -2.9175    124.4631     25.0310
  1977.7000      7.9876      2.6647      0.0533     -0.8924    120.8749     25.4008
  1977.8000      8.0067      2.6324      0.0104      1.0685    123.7023     25.7537
  1977.9000      8.0067      2.6191      0.0501      1.8716    128.3615     25.6358
  1978.0000      8.0012      2.6151      0.0884      2.1174    124.8880     24.8787
  1978.1000      8.0012      2.6194      0.0750      1.8555    112.8983     24.1527
  1978.2000      8.0012      2.6359      0.0668      0.8528    101.8289     24.2723
  1978.3000      7.9880      2.6506      0.0686     -0.0349     98.6032     24.7957
