~Version Information
 VERS.                      2.0: CWLS Log ASCII Standard - VERSION 2.0
 WRAP.                       NO: One line per depth step
 ~Well Information Block
 STRT.FT                -8.0000: 
 STOP.FT              2581.0000: 
 STEP.FT                 0.2500: 
 NULL.                -999.2500: 
 COMP.          Petrogulf Corporation: COMPANY
 WELL.               YWAM 7-23V: WELL
 FLD.           Purgatorie River: FIELD
 LOC.           230' FSL & 225' FWL: LOCATION
 CNTY.               Las Animas: COUNTY
 SRVC.                         : SERVICE COMPANY
 DATE.          Mon Nov 22 10:51:24 2004: LOG DATE
 UWI.           05-071-08227-00: UNIQUE WELL ID
 STAT.                 Colorado: STATE
 PROV.                         :Province
 ~Curve Information Block
 DEPT.FT            0 000 00 00: Depth
 TT3.usec                      : CBL 3' Travel Time
 AMP3.mV                       : CBL 3' Amplitude
 GR.GAPI                       : Gamma Ray
 CCL.                          : Casing Collar Locator
 ~Parameter Information Block
 ~A  Depth       TT3         AMP3         GR         CCL     
# ...
   327.0000    285.0521     68.5347     62.2789      0.0000
   327.2500    285.4578     67.8723     71.2110      0.0000
   327.5000    286.6554     66.3407     79.0650      0.0000
   327.7500    289.2659     63.4708     85.3193      0.0000
   328.0000    293.6073     59.3612     89.7175      0.0000
   328.2500    299.0866     54.8688     92.4980      0.0000
   328.5000    304.1260     51.0189     94.3938      0.0000
   328.7500    306.9683     48.2222     96.1932      0.0000
   329.0000    306.7801     46.2678     98.4145      0.0000
   329.2500    304.1570     44.8966    101.2953      0.0000
   329.5000    300.6567     44.0383    104.7651      0.0000
   329.7500    297.7759     43.6163    108.4206     -4.9484
   330.0000    296.2453     43.4603    111.8078      2.6199
   330.2500    296.1395     43.4251    114.9175      0.0000
   330.5000    297.2841     43.5154    118.2496      0.0000
   330.7500    299.2072     43.9396    122.0450      0.0000
   331.0000    300.8044     45.0431    125.4604      0.0000
   331.2500    300.6482     47.0771    126.9251      0.0000
   331.5000    298.1236     50.0025    125.6844      0.0000
   331.7500    294.0955     53.5577    122.9064      0.0000
   332.0000    290.1688     57.3778    120.9890      0.0000
   332.2500    287.4156     60.9715    121.7180      0.0000
   332.5000    285.9382     63.8030    125.0761      0.0000
   332.7500    285.3085     65.5949    129.4447      0.0000
   333.0000    285.0911     66.4818    132.6892      0.0000
   333.2500    285.0326     66.8242    133.4747      0.0000
   333.5000    285.0263     66.9433    132.0883      0.0000
   333.7500    285.0377     67.0079    129.9737      0.0000
   334.0000    285.0554     67.0624    128.3071      0.0000
   334.2500    285.0748     67.0910    127.1617      0.0000
   334.5000    285.0928     67.0814    125.8639      0.0000
   334.7500    285.1073     67.0444    123.5307      0.0000
   335.0000    285.1191     66.9911    119.2664      0.0000
   335.2500    285.1308     66.9070    112.6537      0.0000
   335.5000    285.1449     66.7639    104.5243      0.0000
   335.7500    285.1613     66.5593     96.8689      0.0000
   336.0000    285.1779     66.3301     91.5922      0.0000
   336.2500    285.1919     66.1247     89.3212      0.0000
   336.5000    285.2035     65.9672     89.3812      0.0000
   336.7500    285.2155     65.8529     90.6378      0.0000
   337.0000    285.2317     65.7709     92.1666      0.0000
   337.2500    285.2540     65.7244     93.3652      0.0000
   337.5000    285.2808     65.7263     93.9634      0.0000
   337.7500    285.3087     65.7773     94.1743      0.0000
   338.0000    285.3356     65.8480     94.6268      0.0000
   338.2500    285.3622     65.8901     95.8832      0.0000
   338.5000    285.3897     65.8709     98.0876      0.0000
   338.7500    285.4172     65.7946    101.3143      0.0000
   339.0000    285.4409     65.6880    106.0459      0.0000
   339.2500    285.4586     65.5778    112.5903      0.0000
   339.5000    285.4712     65.4929    119.7510      0.0000
   339.7500    285.4827     65.4714    124.8015      0.0000
   340.0000    285.4975     65.5357    125.6075      0.0000
   340.2500    285.5183     65.6615    122.7341      0.0000
   340.5000    285.5460     65.7922    119.0451      0.0000
   340.7500    285.5781     65.8778    117.1677      0.0000
   341.0000    285.6111     65.8874    117.4241      0.0000
   341.2500    285.6434     65.8009    117.9712      0.0000
   341.5000    285.6754     65.6187    116.5771      0.0000
   341.7500    285.7052     65.3757    112.1573      0.0000
   342.0000    285.7286     65.1288    105.0043      0.0000
   342.2500    285.7424     64.9240     96.2032      0.0000
   342.5000    285.7485     64.7787     87.0150      0.0000
   342.7500    285.7524     64.6886     78.4209      0.0000
   343.0000    285.7599     64.6429     70.9123      0.0000
   343.2500    285.7751     64.6393     64.5857      0.0000
   343.5000    285.8000     64.6907     59.3408      0.0000
   343.7500    285.8330     64.8090     55.0911      0.0000
   344.0000    285.8702     64.9739     51.9401      0.0000
   344.2500    285.9078     65.1246     50.0977      0.0000
   344.5000    285.9437     65.1981     49.5232      0.0000
   344.7500    285.9759     65.1735     49.6897      0.0000
   345.0000    286.0029     65.0773     49.8076      0.0000
   345.2500    286.0237     64.9533     49.3254      0.0000
   345.5000    286.0378     64.8351     48.1704      0.0000
   345.7500    286.0440     64.7375     46.5048      0.0000
   346.0000    286.0422     64.6642     44.4043      0.0000
   346.2500    286.0356     64.6173     41.9401      0.0000
   346.5000    286.0307     64.6006     39.5611      0.0000
   346.7500    286.0354     64.6153     38.1873      0.0000
   347.0000    286.0540     64.6601     38.6255      0.0000
   347.2500    286.0828     64.7330     40.7186      0.0000
   347.5000    286.1116     64.8314     43.2051      0.0000
   347.7500    286.1287     64.9455     44.6410      0.0000
   348.0000    286.1271     65.0494     44.5274      0.0000
   348.2500    286.1087     65.1023     43.6262      0.0000
   348.5000    286.0840     65.0754     43.3612      0.0000
   348.7500    286.0663     64.9823     44.8481      0.0000
   349.0000    286.0629     64.8747     48.1737      0.0000
   349.2500    286.0729     64.7995     52.4400      0.0000
   349.5000    286.0916     64.7706     56.6384      0.0000
   349.7500    286.1147     64.7849     60.5803      0.0000
   350.0000    286.1376     64.8500     64.9145      0.0000
   350.2500    286.1533     64.9794     70.2592      0.0000
   350.5000    286.1555     65.1666     76.5129      0.0000
   350.7500    286.1435     65.3732     83.1920      0.0000
   351.0000    286.1219     65.5446     90.2502      0.0000
   351.2500    286.0981     65.6408     97.9237      0.0000
   351.5000    286.0790     65.6657    105.4610      0.0000
   351.7500    286.0705     65.6638    110.6868      0.0000
   352.0000    286.0745     65.6772    111.7404      0.0000
   352.2500    286.0897     65.7074    109.1878      0.0000
   352.5000    286.1115     65.7266    105.7037      0.0000
   352.7500    286.1333     65.7168    103.5906      0.0000
   353.0000    286.1476     65.6876    103.0580      0.0000
   353.2500    286.1495     65.6658    102.7317      0.0000
   353.5000    286.1393     65.6766    101.2086      0.0000
   353.7500    286.1226     65.7225     97.9959      0.0000
   354.0000    286.1077     65.7709     93.4396      0.0000
   354.2500    286.0999     65.7670     88.2544      0.0000
   354.5000    286.0989     65.6693     83.1061      0.0000
   354.7500    286.0996     65.4777     78.3063      0.0000
   355.0000    286.0957     65.2357     73.8361      0.0000
   355.2500    286.0840     65.0052     69.7590      0.0000
   355.5000    286.0649     64.8319     66.4124      0.0000
   355.7500    286.0412     64.7269     63.9015      0.0000
   356.0000    286.0154     64.6690     61.6280      0.0000
   356.2500    285.9896     64.6245     58.8242      0.0000
   356.5000    285.9656     64.5714     55.5314      0.0000
   356.7500    285.9446     64.5152     52.6713      0.0000
   357.0000    285.9259     64.4821     51.0956      0.0000
   357.2500    285.9067     64.4863     50.8050      0.0000
   357.5000    285.8853     64.5034     51.1709      0.0000
   357.7500    285.8634     64.4779     51.5905      0.0000
   358.0000    285.8450     64.3630     51.6623      0.0000
   358.2500    285.8320     64.1586     50.9703      0.0000
   358.5000    285.8207     63.9206     49.2670      0.0000
   358.7500    285.8030     63.7349     47.0723      0.0000
   359.0000    285.7707     63.6697     45.7621      0.0000
   359.2500    285.7204     63.7357     46.5825      0.0000
   359.5000    285.6570     63.8859     49.3431      0.0000
   359.7500    285.5914     64.0571     52.2524      0.0000
   360.0000    285.5330     64.2126     53.4105      0.0000
   360.2500    285.4842     64.3473     52.5700      0.0000
