~Version Information
 VERS.                                  2.0 : CWLS LAS VERSION
 WRAP.                                   NO : WRAPING MODE
 SWARE .                 MController 2.5.0N : SOFTWARE VERSION
~Well Information
 WELL.                                  N/A : WELL
 COMP.                                  N/A : COMPANY
 FLD.                                   N/A : FIELD
 LOC.                                   N/A : LOCATION
 DATE.                                  N/A : DATE(S) LOGGED
 SRVC.                                  N/A : SERVICE COMPANY
 STAT.                                  N/A : STATE
 CNTY.                                  N/A : COUNTY
 CTRY.                                  N/A : COUNTRY
 API.                                   N/A : API NUMBER
 STRT.FT                               0.00 : START DEPTH
 STOP.FT                            2050.00 : STOP DEPTH
 STEP.FT                               1.00 : DEPTH INCREMENT
 NULL.                                -9999 : NULL VALUE
~Curve information
 DEPTH.FT                                   :
 ROP.MIN/FT                                 :
 GAS.UNITS                                  :
~ASCII Log data
# ...
       800.0         0.27          4.1 
       801.0         0.23          3.9 
       802.0         0.20          3.1 
       803.0         0.30          3.6 
       804.0         0.30          3.7 
       805.0         0.23          4.1 
       806.0         1.28          9.6 
       807.0         0.20         11.1 
       808.0         0.33         13.0 
       809.0         0.30         12.9 
       810.0         0.27         12.6 
       811.0         0.30         13.5 
       812.0         0.30         15.6 
       813.0         0.28         15.4 
       814.0         0.27         14.9 
       815.0         0.27         14.2 
       816.0         0.30         12.4 
       817.0         0.27         11.1 
       818.0         0.13         10.8 
       819.0         0.13         10.1 
       820.0         0.13          9.5 
       821.0         0.17          9.4 
       822.0         0.13          9.4 
       823.0         0.23          8.9 
       824.0         0.27          8.9 
       825.0         0.27          8.7 
       826.0         0.43          8.7 
       827.0         0.42          8.2 
       828.0         0.27          8.9 
       829.0         0.27          7.5 
       830.0         0.27          4.0 
       831.0         0.27          3.4 
       832.0         0.23          3.1 
       833.0         0.23          3.1 
       834.0         0.17          2.9 
       835.0         0.20          3.0 
       836.0         1.68          6.9 
       837.0         0.23          8.8 
       838.0         0.20         10.4 
       839.0         0.17         11.0 
       840.0         0.17         11.5 
       841.0         0.13         11.7 
       842.0         0.13         10.7 
       843.0         0.23         11.3 
       844.0         0.30         10.7 
       845.0         0.20         10.0 
       846.0         0.32          9.9 
       847.0         0.30          8.9 
       848.0         0.30          7.6 
       849.0         0.30          6.8 
       850.0         0.30          6.8 
       851.0         0.27          6.1 
       852.0         0.30          5.9 
       853.0         0.30          5.8 
       854.0         0.35          5.3 
       855.0         0.27          5.3 
       856.0         0.43          5.2 
       857.0         0.30          5.2 
       858.0         0.30          5.0 
       859.0         0.33          4.8 
       860.0         0.27          4.8 
       861.0         0.27          3.9 
       862.0         0.30          2.4 
       863.0         0.27          2.3 
       864.0         0.27          2.3 
       865.0         0.35          2.4 
       866.0         2.03          4.2 
       867.0         0.47          5.3 
       868.0         0.40          5.8 
       869.0         0.32          6.4 
       870.0         0.40          6.5 
       871.0         0.43          5.9 
       872.0         0.40          5.4 
       873.0         0.47          5.4 
       874.0         0.50          4.8 
       875.0         0.37          4.6 
       876.0         0.37          5.0 
       877.0         0.55          4.7 
       878.0         0.53          4.3 
       879.0         0.60          4.4 
       880.0         0.70          4.3 
       881.0         0.37          3.6 
       882.0         0.33          3.1 
       883.0         0.42          3.2 
       884.0         0.70          5.7 
       885.0         0.53          3.7 
       886.0         2.22          3.9 
       887.0         0.50          3.8 
       888.0         0.37          3.8 
       889.0         0.47          3.7 
       890.0         0.37          2.9 
       891.0         0.27          2.9 
       892.0         0.27          2.8 
       893.0         0.27          2.9 
       894.0         0.28          3.0 
       895.0         0.47          3.0 
       896.0         1.57          3.3 
       897.0         0.27          3.4 
       898.0         0.27          4.3 
       899.0         0.30          5.0 
       900.0         0.27          5.8 
       901.0         0.38          6.2 
       902.0         0.30          6.3 
       903.0         0.23          6.0 
       904.0         0.37          6.0 
       905.0         0.30          5.1 
       906.0         0.27          5.2 
       907.0         0.27          4.9 
       908.0         0.23          4.5 
       909.0         0.23          4.4 
       910.0         0.30          4.0 
       911.0         0.35          3.8 
       912.0         0.30          3.4 
       913.0         0.33          3.4 
       914.0         0.40          3.4 
       915.0         0.53          4.9 
       916.0         0.47          3.4 
       917.0         0.33          3.3 
       918.0         0.33          3.4 
       919.0         0.30          2.9 
       920.0         0.35          3.1 
       921.0         0.33          2.6 
       922.0         0.30          2.2 
       923.0         0.40          2.3 
       924.0         0.33          2.3 
       925.0         0.43          2.7 
       926.0         9.52          3.8 
       927.0         0.47          3.3 
       928.0         0.37          3.3 
       929.0         0.35          3.4 
       930.0         0.33          2.9 
       931.0         0.33          8.4 
       932.0         0.30          9.8 
       933.0         0.30          4.3 
       934.0         0.30          0.4 
       935.0         0.23          0.3 
       936.0         0.33          0.5 
       937.0         0.33          0.7 
       938.0         0.07          3.4 
       939.0         0.13          4.3 
       940.0         0.23          4.2 
       941.0         0.20          4.1 
       942.0         0.23          3.6 
       943.0         0.17          4.0 
       944.0         0.13          4.7 
       945.0         0.10          4.7 
       946.0         0.15          5.8 
       947.0         0.23          6.8 
       948.0         0.40          6.9 
       949.0         0.20          5.4 
       950.0         0.13          4.9 
       951.0         0.13          4.3 
       952.0         0.13          4.2 
       953.0         0.17          4.2 
       954.0         0.10         16.2 
       955.0         0.10         42.3 
       956.0         0.13         83.2 
       957.0         0.27        103.7 
       958.0         1.25         99.2 
       959.0         0.27         10.9 
       960.0         0.17          6.8 
       961.0         0.17          4.9 
       962.0         0.33          3.2 
       963.0         0.47          2.1 
       964.0         0.50          2.1 
       965.0         0.17          2.3 
       966.0         0.40          3.2 
       967.0         0.37          3.2 
       968.0         0.43          3.3 
       969.0         0.32          3.3 
       970.0         0.23          3.4 
       971.0         0.20          3.2 
       972.0         0.23          3.2 
       973.0         0.27          3.8 
       974.0         0.23          3.5 
       975.0         0.27          3.6 
       976.0         0.27          3.5 
       977.0         0.23          3.4 
       978.0         0.83          4.1 
       979.0         0.30          4.2 
       980.0         0.32          4.1 
       981.0         0.30          3.9 
       982.0         0.23          4.0 
       983.0         0.23          3.7 
       984.0         0.70          4.2 
       985.0         0.40          3.8 
       986.0         0.33          4.2 
       987.0         0.30          3.8 
       988.0         1.45          5.7 
       989.0         0.27          5.0 
       990.0         0.13          4.4 
       991.0         0.13          3.9 
       992.0         0.10          3.6 
       993.0         0.20          3.8 
       994.0         0.27          3.9 
       995.0         0.30          3.7 
       996.0         0.33          3.7 
       997.0         0.40          3.8 
       998.0         0.38          3.5 
       999.0         0.37          2.9 
