~Version Information
VERS.                      2.0: CWLS Log ASCII Standard - VERSION 2.0
WRAP.                       NO: One line per depth step
~Well Information Block
STRT.FT                -7.5000: 
STOP.FT              2304.7500: 
STEP.FT                 0.2500: 
NULL.                -999.2500: 
COMP.          Pioneer Natural Resources: COMPANY
WELL.          Foothills 12-36: WELL
FLD.           Purgatorie River: FIELD
LOC.           2450' FNL & 201' FWL--: LOCATION
PROV.                       CO: PROVINCE
CNTY.               Las Animas: COUNTRY
SRVC.          Patterson Wireline: SERVICE COMPANY
DATE.          Tue Apr 26 11:10:08 2005: LOG DATE
UWI.           05 071 08339 00: UNIQUE WELL ID
~Curve Information Block
DEPT.FT            0 000 00 00: Depth
CCL.                          : Casing Collar Locator
TT3.usec                      : CBL 3' Travel Time
AMP3.mV                       : CBL 3' Amplitude
GR.GAPI                       : Gamma Ray
~Parameter Information Block
~A  Depth       CCL         TT3         AMP3         GR     
# ...
  1969.0000      0.0000    801.3615      4.5758     82.3859
  1969.2500      0.0000    799.8943      4.5338     86.7389
  1969.5000      0.0000    792.0554      4.5162     90.0287
  1969.7500      0.0000    775.6600      4.5115     91.5660
  1970.0000      0.0000    751.3531      4.4948     91.4364
  1970.2500      0.0000    724.1830      4.4581     90.2520
  1970.5000      0.0000    701.6097      4.4131     88.4617
  1970.7500      0.0000    689.0156      4.3824     86.1549
  1971.0000      0.0000    686.9286      4.3827     83.5355
  1971.2500      0.0000    691.7106      4.3942     81.0897
  1971.5000      0.0000    697.8619      4.3621     79.2922
  1971.7500      0.0000    700.3606      4.2525     78.5687
  1972.0000      0.0000    696.9935      4.0798     79.3407
  1972.2500      0.0000    689.5783      3.8684     81.5116
  1972.5000      0.0000    682.5315      3.6343     83.8675
  1972.7500      0.0000    679.8640      3.4217     84.5959
  1973.0000      0.0000    683.3716      3.3091     82.9607
  1973.2500      0.0000    692.4393      3.3538     80.2355
  1973.5000      0.0000    704.2026      3.5531     78.2584
  1973.7500      0.0000    714.2579      3.8490     77.1404
  1974.0000      0.0000    718.9932      4.1445     75.1650
  1974.2500      0.0000    718.2158      4.3389     70.9905
  1974.5000      0.0000    715.0621      4.3864     65.3895
  1974.7500      0.0000    713.2863      4.3213     60.8360
  1975.0000      0.0000    715.3569      4.2122     59.6924
  1975.2500      0.0000    722.7689      4.0955     62.6182
  1975.5000      0.0000    735.9994      3.9730     68.2894
  1975.7500      0.0000    752.7191      3.8632     74.6132
  1976.0000      0.0000    767.2198      3.8082     80.4363
  1976.2500      0.0000    773.8566      3.8231     86.1813
  1976.5000      0.0000    771.7894      3.8755     92.8115
  1976.7500      0.0000    765.8265      3.9253    100.2935
  1977.0000      0.0000    762.6063      3.9534    107.1446
  1977.2500      0.0000    765.5736      3.9580    111.3163
  1977.5000      0.0000    772.1873      3.9499    111.5432
  1977.7500      0.0000    775.2719      3.9519    108.1575
  1978.0000      0.0000    768.0079      3.9887    102.7503
  1978.2500      0.0000    748.9764      4.0690     96.9586
  1978.5000      0.0000    723.2469      4.1663     91.6773
  1978.7500      0.0000    698.7133      4.2287     87.4429
  1979.0000      0.0000    681.0336      4.2255     85.0538
  1979.2500      0.0000    671.4609      4.1680     85.3147
  1979.5000      0.0000    668.2079      4.0727     88.3965
  1979.7500      0.0000    668.5405      3.9285     93.7102
  1980.0000      0.0000    669.7159      3.7243     99.9011
  1980.2500      0.0000    669.7004      3.4907    104.7589
  1980.5000      0.0000    668.2994      3.2851    106.0485
  1980.7500      0.0000    667.1141      3.1489    103.1916
  1981.0000      0.0000    667.6560      3.1031     97.8222
  1981.2500      0.0000    670.3629      3.1647     92.4048
  1981.5000      0.0000    675.9429      3.3314     88.5819
  1981.7500      0.0000    685.7593      3.5625     86.7459
  1982.0000     -2.0000    699.5115      3.7925     86.4296
  1982.2500     -2.0000    714.4660      3.9597     86.6762
  1982.5000      0.0000    728.4512      4.0341     86.4735
  1982.7500      0.0000    741.1609      4.0420     85.4524
  1983.0000      0.0000    750.8177      4.0584     84.2024
  1983.2500      0.0000    752.5261      4.1405     83.6615
  1983.5000      0.0000    742.7719      4.2742     84.3526
  1983.7500      0.0000    724.2323      4.4106     86.2460
  1984.0000      0.0000    704.1474      4.5292     88.9269
  1984.2500      0.0000    688.4377      4.6275     91.6858
  1984.5000      0.0000    678.2645      4.6876     93.7145
  1984.7500      0.0000    671.0857      4.6970     94.4677
  1985.0000      0.0000    663.3800      4.6826     94.0134
  1985.2500      0.0000    652.6453      4.6869     93.1845
  1985.5000      0.0000    638.2625      4.7104     93.2892
  1985.7500      0.0000    621.3730      4.7009     95.4369
  1986.0000      0.0000    604.4225      4.6138     99.8841
  1986.2500      0.0000    591.5029      4.4675    105.7278
  1986.5000      0.0000    588.8508      4.3265    111.2055
  1986.7500      0.0000    602.8126      4.2352    114.6802
  1987.0000      0.0000    634.8602      4.1838    115.4777
  1987.2500      0.0000    677.7032      4.1360    113.6484
  1987.5000      0.0000    717.4276      4.0725    109.2675
  1987.7500      0.0000    741.4869      4.0041    102.6672
  1988.0000      0.0000    746.1513      3.9493     95.3202
  1988.2500      0.0000    737.1149      3.9112     89.6230
  1988.5000      0.0000    723.6046      3.8834     87.2583
  1988.7500      0.0000    712.0007      3.8730     87.9916
  1989.0000      0.0000    704.1984      3.9023     90.2803
  1989.2500      0.0000    700.3535      3.9748     92.7127
  1989.5000      0.0000    701.4387      4.0582     94.5835
  1989.7500      0.0000    708.3384      4.1125     95.4556
  1990.0000      0.0000    719.2076      4.1292     94.8616
  1990.2500      0.0000    729.4462      4.1320     92.6550
  1990.5000      0.0000    735.0382      4.1479     89.2532
  1990.7500      0.0000    735.2482      4.1830     85.2374
  1991.0000      0.0000    731.9492      4.2281     80.8605
  1991.2500      0.0000    727.5754      4.2838     76.0636
  1991.5000      0.0000    724.4838      4.3675     70.8700
  1991.7500      0.0000    725.2817      4.4859     65.8077
  1992.0000      0.0000    732.1292      4.6146     62.0832
  1992.2500      0.0000    744.9138      4.7243     61.2578
  1992.5000      0.0000    760.2366      4.8184     64.3755
  1992.7500      0.0000    772.8134      4.9271     70.9649
  1993.0000      0.0000    778.7688      5.0674     78.7364
  1993.2500      0.0000    778.5078      5.2158     84.5674
  1993.5000      0.0000    776.3795      5.3190     86.3804
  1993.7500      0.0000    776.5515      5.3325     84.3656
  1994.0000      0.0000    779.0198      5.2563     80.3971
  1994.2500      0.0000    780.4982      5.1341     76.5389
  1994.5000      0.0000    778.3868      5.0166     74.3778
  1994.7500      0.0000    772.3210      4.9298     75.0899
  1995.0000      0.0000    763.0831      4.8706     78.9423
  1995.2500      0.0000    752.1243      4.8208     84.5604
  1995.5000      0.0000    741.3745      4.7597     89.4875
  1995.7500      0.0000    732.1817      4.6775     91.8463
  1996.0000      0.0000    725.2628      4.5846     91.3007
  1996.2500      0.0000    721.9470      4.5069     88.6407
  1996.5000      0.0000    723.8403      4.4644     84.9837
  1996.7500      0.0000    730.6108      4.4492     81.3672
  1997.0000      0.0000    739.0956      4.4302     78.5169
  1997.2500      0.0000    745.1942      4.3841     76.5556
  1997.5000      0.0000    746.4565      4.3237     75.0098
  1997.7500      0.0000    743.1749      4.2909     73.3827
  1998.0000      0.0000    737.8579      4.3196     71.7358
  1998.2500      0.0000    733.6813      4.4007     70.4227
  1998.5000      0.0000    732.6495      4.4815     69.2599
  1998.7500      0.0000    734.6716      4.5065     67.4712
  1999.0000      0.0000    737.9747      4.4600     64.7725
  1999.2500      0.0000    740.2365      4.3704     62.1135
  1999.5000      0.0000    739.9146      4.2807     60.7882
  1999.7500      0.0000    737.3091      4.2202     60.8698
  2000.0000      0.0000    734.3566      4.1979     61.1244
  2000.2500      0.0000    732.8510      4.2075     60.6136
  2000.5000      0.0000    732.7808      4.2364     59.7119
  2000.7500      0.0000    732.6926      4.2772     59.2171
  2001.0000      0.0000    731.4896      4.3331     59.1784
  2001.2500      0.0000    729.2269      4.4119     59.1445
  2001.5000      0.0000    725.9944      4.5116     58.9938
  2001.7500      0.0000    720.0676      4.6142     58.8338
  2002.0000      0.0000    708.0313      4.6940     58.3364
  2002.2500      0.0000    688.8369      4.7299     56.8978
