~Version Information
VERS.                      2.0: CWLS Log ASCII Standard - VERSION 2.0
WRAP.                       NO: One line per depth step
~Well Information Block
STRT.FT               866.0000: 
STOP.FT              2027.5000: 
STEP.FT                 0.1000: 
NULL.                -999.2500: 
COMP.          Petrogulf Corporation: COMPANY
WELL.             State 16-21R: WELL
FLD.           Purgatorie River: FIELD
LOC.           203' FNL & 1560' FWL: LOCATION
PROV.                 Colorado: PROVINCE
CNTY.               Las Animas: COUNTRY
SRVC.                Patterson: SERVICE COMPANY
DATE.          Tue Aug 16 13:32:09 2005: LOG DATE
UWI.                071 08313 : UNIQUE WELL ID
~Curve Information Block
DEPT.FT            0 000 00 00: Depth
DCAL.in                       : CDL Caliper
RHOB.g/cc                     : CDL Bulk Density
RHOC.g/cc                     : CDL Density Correction
DPOR.pu                       : CDL Density Porosity
GR.GAPI                       : Gamma Ray
NPOR.pu                       : Neutron Porosity
~Parameter Information Block
~A  Depth       DCAL        RHOB        RHOC        DPOR         GR         NPOR    
# ...
  1547.6000      7.9552      2.5988      0.0568      3.1010     71.6981     17.4563
  1547.7000      7.9552      2.6003      0.0202      3.0114     70.0038     16.8713
  1547.8000      7.9369      2.6054      0.0170      2.7039     69.1848     16.1504
  1547.9000      7.9369      2.6124      0.0941      2.2762     69.2887     15.1636
  1548.0000      7.9418      2.6150      0.0354      2.1218     69.4600     14.1381
  1548.1000      7.9418      2.6184      0.0769      1.9153     68.5184     13.4727
  1548.2000      7.9418      2.6246      0.0531      1.5385     67.5355     13.3207
  1548.3000      7.9640      2.6209      0.0845      1.7621     68.4491     13.6393
  1548.4000      7.9640      2.6027      0.0586      2.8690     71.1281     14.0876
  1548.5000      7.9312      2.5814      0.0266      4.1571     74.9290     14.3567
  1548.6000      7.9312      2.5711      0.0002      4.7837     79.9756     14.6400
  1548.7000      7.9312      2.5780      0.0076      4.3609     85.9354     15.1274
  1548.8000      7.9727      2.5915      0.0760      3.5439     90.3633     15.8180
  1548.9000      7.9727      2.5915      0.0574      3.5484     91.6533     16.7181
  1549.0000      7.9619      2.5751      0.0766      4.5401     94.1309     17.5477
  1549.1000      7.9619      2.5541      0.0672      5.8107    102.8340     18.0890
  1549.2000      7.9619      2.5390      0.0662      6.7292    115.2416     18.7179
  1549.3000      7.9627      2.5320      0.0494      7.1486    124.8201     19.7065
  1549.4000      7.9627      2.5331      0.0502      7.0823    129.9707     20.7313
  1549.5000      7.9457      2.5422      0.0710      6.5340    132.5390     21.6782
  1549.6000      7.9457      2.5516      0.1108      5.9666    133.6751     22.6882
  1549.7000      7.9457      2.5538      0.0810      5.8295    133.7355     23.5550
  1549.8000      7.9955      2.5510      0.0988      5.9970    133.2986     24.2318
  1549.9000      7.9955      2.5465      0.0925      6.2723    135.3872     24.9750
  1550.0000      8.0008      2.5464      0.0769      6.2804    141.3271     25.5564
  1550.1000      8.0008      2.5569      0.1075      5.6425    146.4238     25.6181
  1550.2000      8.0008      2.5739      0.1135      4.6113    146.5155     25.3587
  1550.3000      7.9576      2.5886      0.1178      3.7206    142.9890     24.9527
  1550.4000      7.9576      2.5935      0.1073      3.4231    138.7985     24.5179
  1550.5000      8.0154      2.5882      0.0908      3.7429    136.1930     24.3782
  1550.6000      8.0154      2.5782      0.0993      4.3494    137.5603     24.6206
  1550.7000      8.0154      2.5636      0.0800      5.2374    140.8820     24.9072
  1550.8000      8.0397      2.5459      0.0558      6.3072    141.5819     25.0398
  1550.9000      8.0397      2.5371      0.0334      6.8438    139.3316     25.0780
  1551.0000      8.0523      2.5342      0.1162      7.0174    138.3082     25.0439
  1551.1000      8.0523      2.5183      0.0729      7.9821    140.6645     25.0024
  1551.2000      8.0523      2.4947      0.0526      9.4151    144.2616     25.0057
  1551.3000      8.0503      2.4864      0.0462      9.9142    147.0429     24.8995
  1551.4000      8.0503      2.4963      0.0707      9.3121    148.7128     24.5523
  1551.5000      8.0143      2.5139      0.0528      8.2467    149.4729     24.1328
  1551.6000      8.0143      2.5375      0.0608      6.8197    148.2249     23.9511
  1551.7000      8.0143      2.5631      0.0932      5.2669    144.5747     24.2386
  1551.8000      8.0033      2.5764      0.1322      4.4632    142.3236     24.7379
  1551.9000      8.0033      2.5685      0.1196      4.9422    143.7325     24.9070
  1552.0000      8.0021      2.5496      0.1224      6.0852    144.7280     24.6546
  1552.1000      8.0021      2.5393      0.0912      6.7086    144.3687     24.3666
  1552.2000      8.0021      2.5447      0.0775      6.3847    147.0218     24.4122
  1552.3000      8.0517      2.5556      0.0795      5.7210    149.9675     24.7851
  1552.4000      8.0517      2.5615      0.0909      5.3635    145.8473     25.2399
  1552.5000      8.0295      2.5661      0.0337      5.0868    135.9151     25.3346
  1552.6000      8.0295      2.5763      0.0710      4.4696    126.8426     24.8093
  1552.7000      8.0295      2.5860      0.0691      3.8800    121.1066     23.8576
  1552.8000      8.0487      2.5918      0.0551      3.5291    116.4301     22.8691
  1552.9000      8.0487      2.6019      0.0620      2.9125    109.4025     22.1688
  1553.0000      8.0515      2.6220      0.0750      1.6971    100.6233     21.6089
  1553.1000      8.0515      2.6458      0.0889      0.2546     93.4022     20.8725
  1553.2000      8.0515      2.6578      0.1140     -0.4722     88.1634     20.0078
  1553.3000      8.0329      2.6499      0.0720      0.0038     83.4782     19.2366
  1553.4000      8.0329      2.6354      0.0544      0.8877     79.4995     18.5886
  1553.5000      7.9160      2.6300      0.0371      1.2092     76.9651     17.8036
  1553.6000      7.9160      2.6352      0.0517      0.8984     74.8721     16.8724
  1553.7000      7.9160      2.6431      0.0581      0.4172     71.4335     16.1618
  1553.8000      7.9116      2.6492      0.0514      0.0465     68.0321     15.7019
  1553.9000      7.9116      2.6548      0.0716     -0.2929     66.9342     15.2620
  1554.0000      7.9267      2.6591      0.0989     -0.5496     68.3827     14.8708
  1554.1000      7.9267      2.6551      0.0823     -0.3061     70.9540     14.5058
  1554.2000      7.9267      2.6439      0.0665      0.3687     72.9224     14.0106
  1554.3000      7.9657      2.6360      0.0811      0.8474     72.8751     13.6991
  1554.4000      7.9657      2.6351      0.0730      0.9009     71.6262     13.9423
  1554.5000      7.9306      2.6375      0.0839      0.7551     72.1160     14.4545
  1554.6000      7.9306      2.6429      0.1004      0.4317     74.7302     14.5555
  1554.7000      7.9306      2.6541      0.0990     -0.2490     76.6678     14.2752
  1554.8000      7.9172      2.6698      0.0854     -1.2020     76.9723     14.2421
  1554.9000      7.9172      2.6812      0.0982     -1.8880     77.7015     14.5747
  1555.0000      7.9398      2.6745      0.1126     -1.4855     80.7587     14.9458
  1555.1000      7.9398      2.6418      0.1164      0.4965     85.6968     15.2015
  1555.2000      7.9398      2.5946      0.0819      3.3576     90.0950     15.4875
  1555.3000      7.9177      2.5583     -0.0104      5.5590     92.9833     15.9262
  1555.4000      7.9177      2.5420      0.0753      6.5446     95.9087     16.5341
  1555.5000      7.9056      2.5251      0.0837      7.5715     98.5280     17.3661
  1555.6000      7.9056      2.4925      0.0313      9.5460     99.9026     18.5479
  1555.7000      7.9056      2.4599      0.0075     11.5242    102.2250     19.9443
  1555.8000      7.8826      2.4485      0.0410     12.2107    106.5500     20.8688
  1555.9000      7.8826      2.4625      0.0601     11.3661    110.7650     21.0149
  1556.0000      7.8344      2.4961      0.0772      9.3296    112.3061     20.9391
  1556.1000      7.8344      2.5439      0.1200      6.4307    112.2731     21.0914
  1556.2000      7.8344      2.5939      0.1802      3.4011    116.1416     21.4076
  1556.3000      7.8403      2.6306      0.2124      1.1762    125.8453     21.5918
  1556.4000      7.8403      2.6478      0.2276      0.1318    135.0818     21.5021
  1556.5000      7.8778      2.6421      0.2311      0.4770    138.3858     21.5729
  1556.6000      7.8778      2.6123      0.1681      2.2864    138.0581     22.1912
  1556.7000      7.8778      2.5734      0.1233      4.6430    139.2793     23.0185
  1556.8000      7.9143      2.5493      0.0574      6.1019    142.0698     23.6315
  1556.9000      7.9143      2.5503      0.0880      6.0406    141.7443     23.8930
  1557.0000      7.9598      2.5628      0.0905      5.2867    137.6687     23.8867
  1557.1000      7.9598      2.5693      0.0793      4.8916    133.4401     24.0645
