~Version Information
VERS.                      2.0: CWLS Log ASCII Standard - VERSION 2.0
WRAP.                       NO: One line per depth step
~Well Information Block
STRT.FT               235.0000: 
STOP.FT              1633.0000: 
STEP.FT                 0.1000: 
NULL.                -999.2500: 
COMP.          Petrogulf Corporation: COMPANY
WELL.             State 16-41R: WELL
FLD.           Purgatorie River: FIELD
LOC.           280' FNL & 907' FEL: LOCATION
PROV.                 Colorado: PROVINCE
CNTY.               Las Animas: COUNTRY
SRVC.                Patterson: SERVICE COMPANY
DATE.          Wed Oct 19 07:05:20 2005: LOG DATE
API.           05-071-08345    : API
~Curve Information Block
DEPT.FT            0 000 00 00: Depth
DCAL.in                       : CDL Caliper
RHOB.g/cc                     : CDL Bulk Density
RHOC.g/cc                     : CDL Density Correction
DPOR.pu                       : CDL Density Porosity
GR.GAPI                       : Gamma Ray
NPOR.pu                       : Neutron Porosity
~Parameter Information Block
~A  Depth       DCAL        RHOB        RHOC        DPOR         GR         NPOR    
# ...
  1617.4000      7.7719      2.5650      0.0642      5.1487    119.0591   -999.2500
  1617.5000      7.7651      2.5529      0.0420      5.8848    118.8773   -999.2500
  1617.6000      7.7651      2.5499      0.0660      6.0667    118.4970   -999.2500
  1617.7000      7.7651      2.5405      0.0639      6.6340    120.1649   -999.2500
  1617.8000      7.7803      2.5254      0.0198      7.5540    121.2500   -999.2500
  1617.9000      7.7803      2.5194      0.0278      7.9174    118.8039   -999.2500
  1618.0000      7.7823      2.5297     -0.0001      7.2899    115.3323   -999.2500
  1618.1000      7.7823      2.5569      0.0452      5.6444    112.6177   -999.2500
  1618.2000      7.7823      2.5862      0.0538      3.8691    109.5348   -999.2500
  1618.3000      7.7874      2.5957      0.1028      3.2923    106.6087   -999.2500
  1618.4000      7.7874      2.5851      0.0477      3.9304    105.7210   -999.2500
  1618.5000      7.7752      2.5698      0.0845      4.8613    104.7482   -999.2500
  1618.6000      7.7752      2.5528      0.0681      5.8901    102.0642   -999.2500
  1618.7000      7.7752      2.5369      0.0606      6.8560     99.0984   -999.2500
  1618.8000      7.7302      2.5300      0.0523      7.2743     96.0045   -999.2500
  1618.9000      7.7302      2.5384     -0.0043      6.7622     93.7907   -999.2500
  1619.0000      7.7064      2.5628      0.0592      5.2829     94.9258   -999.2500
  1619.1000      7.7064      2.5929      0.0489      3.4609     98.8092   -999.2500
  1619.2000      7.7064      2.6179      0.0977      1.9478    101.1748   -999.2500
  1619.3000      7.6642      2.6267      0.1591      1.4122     97.8807   -999.2500
  1619.4000      7.6642      2.6134      0.1380      2.2183     89.3805   -999.2500
  1619.5000      7.6585      2.5923      0.1196      3.4942     76.3546   -999.2500
  1619.6000      7.6585      2.5811      0.0717      4.1757     54.6958   -999.2500
  1619.7000      7.6585      2.5789      0.0553      4.3117     27.8092   -999.2500
  1619.8000      7.6238      2.5754      0.0564      4.5183      8.8071   -999.2500
  1619.9000      7.6238      2.5714      0.0360      4.7665      1.6079   -999.2500
  1620.0000      7.7040      2.5752      0.0589      4.5308      0.1621   -999.2500
  1620.1000      7.7040      2.5859      0.0665      3.8824      0.0086   -999.2500
  1620.2000      7.7040      2.5943      0.0878      3.3742      0.0000   -999.2500
  1620.3000      7.7481      2.5928      0.1037      3.4681   -999.2500   -999.2500
  1620.4000      7.7481      2.5888      0.0489      3.7092   -999.2500   -999.2500
  1620.5000      7.7315      2.6059      0.0804      2.6754   -999.2500   -999.2500
  1620.6000      7.7315      2.6425      0.1406      0.4520   -999.2500   -999.2500
  1620.7000      7.7315      2.6654      0.1234     -0.9346   -999.2500   -999.2500
  1620.8000      7.6790      2.6594      0.1051     -0.5691   -999.2500   -999.2500
  1620.9000      7.6790      2.6412      0.1136      0.5338   -999.2500   -999.2500
  1621.0000      7.6250      2.6318      0.1186      1.1007   -999.2500   -999.2500
  1621.1000      7.6250      2.6388      0.0811      0.6814   -999.2500   -999.2500
  1621.2000      7.6250      2.6501      0.1291     -0.0031   -999.2500   -999.2500
  1621.3000      7.6506      2.6485      0.1012      0.0891   -999.2500   -999.2500
  1621.4000      7.6506      2.6352      0.0747      0.8940   -999.2500   -999.2500
  1621.5000      7.6929      2.6177      0.0870      1.9601   -999.2500   -999.2500
  1621.6000      7.6929      2.6019      0.0489      2.9130   -999.2500   -999.2500
  1621.7000      7.6929      2.5955      0.0229      3.3023   -999.2500   -999.2500
  1621.8000      7.6709      2.5912      0.0828      3.5621   -999.2500   -999.2500
  1621.9000      7.6709      2.5763      0.0572      4.4658   -999.2500   -999.2500
  1622.0000      7.6569      2.5573      0.0825      5.6203   -999.2500   -999.2500
  1622.1000      7.6569      2.5455      0.0476      6.3307   -999.2500   -999.2500
  1622.2000      7.6569      2.5412      0.1028      6.5955   -999.2500   -999.2500
  1622.3000      7.5700      2.5360      0.0884      6.9092   -999.2500   -999.2500
  1622.4000      7.5700      2.5315      0.0473      7.1845   -999.2500   -999.2500
  1622.5000      7.5941      2.5380      0.0340      6.7898   -999.2500   -999.2500
  1622.6000      7.5941      2.5495      0.0945      6.0928   -999.2500   -999.2500
  1622.7000      7.5941      2.5497      0.0689      6.0810   -999.2500   -999.2500
  1622.8000      7.6593      2.5419      0.0378      6.5489   -999.2500   -999.2500
  1622.9000      7.6593      2.5393      0.0532      6.7093   -999.2500   -999.2500
  1623.0000      7.6551      2.5389      0.0762      6.7356   -999.2500   -999.2500
  1623.1000      7.6551      2.5324      0.0882      7.1256   -999.2500   -999.2500
  1623.2000      7.6551      2.5258      0.0675      7.5246   -999.2500   -999.2500
  1623.3000      7.6478      2.5232      0.0909      7.6821   -999.2500   -999.2500
  1623.4000      7.6478      2.5197      0.1003      7.8983   -999.2500   -999.2500
  1623.5000      7.6293      2.5232      0.0995      7.6841   -999.2500   -999.2500
  1623.6000      7.6293      2.5406      0.1417      6.6303   -999.2500   -999.2500
  1623.7000      7.6293      2.5564      0.1310      5.6740   -999.2500   -999.2500
  1623.8000      7.6906      2.5628      0.1293      5.2850   -999.2500   -999.2500
  1623.9000      7.6906      2.5707      0.1415      4.8066   -999.2500   -999.2500
  1624.0000      7.7092      2.5849      0.1588      3.9481   -999.2500   -999.2500
  1624.1000      7.7092      2.5959      0.1498      3.2772   -999.2500   -999.2500
  1624.2000      7.7092      2.5942      0.1281      3.3792   -999.2500   -999.2500
  1624.3000      7.7399      2.5846      0.1387      3.9653   -999.2500   -999.2500
  1624.4000      7.7399      2.5773      0.1199      4.4066   -999.2500   -999.2500
  1624.5000      7.7645      2.5704      0.1409      4.8262   -999.2500   -999.2500
  1624.6000      7.7645      2.5543      0.0887      5.7973   -999.2500   -999.2500
  1624.7000      7.7645      2.5364      0.0243      6.8860   -999.2500   -999.2500
  1624.8000      7.7634      2.5304      0.0679      7.2512   -999.2500   -999.2500
  1624.9000      7.7634      2.5341      0.0282      7.0262   -999.2500   -999.2500
  1625.0000      7.7695      2.5416      0.0764      6.5714   -999.2500   -999.2500
  1625.1000      7.7695      2.5497      0.0995      6.0767   -999.2500   -999.2500
  1625.2000      7.7695      2.5583      0.0594      5.5579   -999.2500   -999.2500
  1625.3000      7.7593      2.5659      0.0836      5.0972   -999.2500   -999.2500
  1625.4000      7.7593      2.5608      0.1100      5.4039   -999.2500   -999.2500
  1625.5000      7.7576      2.5424      0.0523      6.5230   -999.2500   -999.2500
  1625.6000      7.7576      2.5274      0.0565      7.4275   -999.2500   -999.2500
  1625.7000      7.7576      2.5250      0.0903      7.5755   -999.2500   -999.2500
  1625.8000      7.7495      2.5308      0.0803      7.2229   -999.2500   -999.2500
  1625.9000      7.7495      2.5362      0.0438      6.8980   -999.2500   -999.2500
  1626.0000      7.7577      2.5356      0.0367      6.9323   -999.2500   -999.2500
  1626.1000      7.7577      2.5377      0.0050      6.8033   -999.2500   -999.2500
  1626.2000      7.7577      2.5535      0.0199      5.8494   -999.2500   -999.2500
  1626.3000      7.7676      2.5744      0.0792      4.5790   -999.2500   -999.2500
  1626.4000      7.7676      2.5881      0.0428      3.7533   -999.2500   -999.2500
  1626.5000      7.7725      2.5933      0.0790      3.4394   -999.2500   -999.2500
  1626.6000      7.7725      2.5848      0.0876      3.9521   -999.2500   -999.2500
  1626.7000      7.7725      2.5616      0.0606      5.3551   -999.2500   -999.2500
  1626.8000      7.7698      2.5436     -0.0175      6.4482   -999.2500   -999.2500
  1626.9000      7.7698      2.5423      0.0500      6.5279   -999.2500   -999.2500
