~Version Information
VERS.                      2.0: CWLS Log ASCII Standard - VERSION 2.0
WRAP.                       NO: One line per depth step
~Well Information Block
STRT.FT               650.0000: 
STOP.FT              2087.0000: 
STEP.FT                 0.2500: 
NULL.                -999.2500: 
COMP.          Pioneer Natural Resources: COMPANY
WELL.           Galloway 32-13: WELL
FLD.           Purgatoire River: FIELD
LOC.           1809' FNL & 2004' FEL: LOCATION
PROV.                 Colorado: PROVINCE
CNTY.               Las Animas: COUNTRY
SRVC.                Patterson: SERVICE COMPANY
DATE.          Fri Jul 08 15:50:04 2005: LOG DATE
UWI.           05 071 08423 00: UNIQUE WELL ID
~Curve Information Block
DEPT.FT            0 000 00 00: Depth
SN.Ohm-m                      : IEL Short Normal
SP.mV                         : IEL Spontaneous Potential
DIR.Ohm-m                     : IEL Induction Resistivity
GR.GAPI                       : Gamma Ray
~Parameter Information Block
~A  Depth        SN          SP         DIR          GR     
# ...
  1018.5000     14.4837   -428.9115     14.7273    111.5995
  1018.7500     14.8165   -429.6703     15.2734    112.6129
  1019.0000     15.2362   -429.9178     15.8251    114.5062
  1019.2500     15.6910   -429.9835     16.3377    116.0085
  1019.5000     16.1097   -429.9979     16.8371    118.2697
  1019.7500     16.5687   -430.0000     17.4720    119.2140
  1020.0000     17.2493   -430.0003     18.5032    118.5447
  1020.2500     18.2085   -430.0003     20.2694    116.1960
  1020.5000     19.3105   -430.0003     23.2055    109.9221
  1020.7500     20.4521   -430.0003     28.0204    104.6994
  1021.0000     21.7083   -430.0003     36.4578     97.4390
  1021.2500     23.1243   -430.0003     55.3791     93.9872
  1021.5000     24.5212   -430.0003    150.7499     91.2945
  1021.7500     25.6146   -430.0003 100000.0000     90.8460
  1022.0000     26.2194   -430.0003 100000.0000     91.7198
  1022.2500     26.2824   -430.0003 100000.0000     93.1398
  1022.5000     25.7876   -430.0003 100000.0000     95.7492
  1022.7500     24.8049   -430.0003 100000.0000     97.2369
  1023.0000     23.6240   -430.0003 100000.0000     98.9257
  1023.2500     22.5921   -430.0003 100000.0000    100.1863
  1023.5000     21.8328   -430.0003 100000.0000    103.1174
  1023.7500     21.2668   -430.0003 100000.0000    105.7025
  1024.0000     20.8053   -430.0003 100000.0000    109.4530
  1024.2500     20.4135   -430.0003 100000.0000    111.0882
  1024.5000     20.0360   -430.0003 100000.0000    111.5123
  1024.7500     19.5829   -430.0003 100000.0000    110.6904
  1025.0000     19.0260   -430.0003     44.7240    109.4532
  1025.2500     18.4428   -430.0003     12.5838    109.9513
  1025.5000     17.9256   -430.0003      7.1732    114.2402
  1025.7500     17.4943   -430.0003      5.0902    119.2877
  1026.0000     17.1090   -430.0003      3.9976    127.9785
  1026.2500     16.7123   -430.0003      3.2461    132.9084
  1026.5000     16.2512   -430.0003      2.6090    137.3085
  1026.7500     15.7049   -430.0003      2.0507    138.2013
  1027.0000     15.0816   -430.0003      1.5998    137.5083
  1027.2500     14.3478   -430.0003      1.2635    136.4638
  1027.5000     13.3694   -430.0003      1.0157    134.9975
  1027.7500     11.9424   -430.0003      0.8183    134.2919
  1028.0000      9.9775   -430.0003      0.6413    133.6637
  1028.2500      7.7189   -430.0003      0.4765    133.6568
  1028.5000      5.6532   -430.0003      0.3332    134.3863
  1028.7500      4.1248   -430.0003      0.2228    134.7134
  1029.0000      3.1797   -430.0003      0.1484    132.3200
  1029.2500      2.7319   -430.0003      0.1042    127.4488
  1029.5000      2.6837   -430.0003      0.0808    115.7009
  1029.7500      2.9484   -430.0003      0.0705    106.8107
  1030.0000      3.5808   -430.0003      0.0691     95.4808
  1030.2500      5.0459   -430.0003      0.0756     90.3770
  1030.5000      8.3026   -430.0003      0.0928     86.3776
  1030.7500     14.1654   -430.0003      0.1285     85.4982
  1031.0000     22.1899   -430.0003      0.1989     85.5008
  1031.2500     30.5054   -430.0003      0.3330     85.7149
  1031.5000     37.1460   -430.0003      0.5897     85.4803
  1031.7500     41.2841   -430.0003      1.1410     84.4790
  1032.0000     43.1837   -430.0003      2.7019     81.0273
  1032.2500     43.5410   -430.0003     13.1381     77.4575
  1032.5000     43.0395   -430.0003 100000.0000     71.4777
  1032.7500     42.1640   -430.0003 100000.0000     68.2148
  1033.0000     41.1558   -430.0003 100000.0000     65.6909
  1033.2500     40.0666   -430.0003 100000.0000     65.5766
  1033.5000     38.8861   -430.0003 100000.0000     67.0000
  1033.7500     37.6554   -430.0003 100000.0000     68.5590
  1034.0000     36.4276   -430.0003 100000.0000     71.1143
  1034.2500     35.1725   -430.0003 100000.0000     72.5537
  1034.5000     33.7883   -430.0003 100000.0000     73.9238
  1034.7500     32.1828   -430.0003 100000.0000     74.4062
  1035.0000     30.2880   -430.0003 100000.0000     74.8203
  1035.2500     27.9712   -430.0003      6.7594     74.8618
  1035.5000     25.0318   -430.0003      1.9156     74.1316
  1035.7500     21.3368   -430.0003      0.8883     73.0401
  1036.0000     16.9767   -430.0003      0.4947     71.4097
  1036.2500     12.4081   -430.0000      0.3064     71.3239
  1036.5000      8.3476   -429.9922      0.2098     73.9847
  1036.7500      5.3522   -429.9414      0.1614     77.6038
  1037.0000      3.5329   -429.6875      0.1386     84.5599
  1037.2500      2.6015   -428.6886      0.1281     89.1341
  1037.5000      2.1252   -425.5800      0.1211     94.0083
  1037.7500      1.8171   -417.9063      0.1125     95.2424
  1038.0000      1.6015   -402.8177      0.1010     94.7156
  1038.2500      1.5057   -379.0262      0.0885     94.3217
  1038.5000      1.5546   -348.6175      0.0783     96.6659
  1038.7500      1.6938   -316.5815      0.0731    100.8979
  1039.0000      1.8447   -288.0442      0.0753    109.9817
  1039.2500      2.0676   -265.7379      0.0882    116.3772
  1039.5000      2.6063   -249.6648      0.1185    124.4567
  1039.7500      3.7935   -238.3815      0.1792    128.4397
  1040.0000      5.8638   -230.3036      0.2924    132.7878
  1040.2500      8.6616   -224.2763      0.4993    135.0951
  1040.5000     11.6614   -219.5813      0.9072    138.0249
  1040.7500     14.4752   -215.7541      1.9033    139.4556
  1041.0000     17.1055   -212.4374      5.9398    140.4448
  1041.2500     19.6407   -209.3502 100000.0000    140.3334
  1041.5000     22.0252   -206.3304 100000.0000    139.3515
  1041.7500     24.1728   -203.3749 100000.0000    138.4245
  1042.0000     26.0461   -200.6121 100000.0000    137.0055
  1042.2500     27.5834   -198.2116 100000.0000    136.0754
  1042.5000     28.7159   -196.2885 100000.0000    134.2384
  1042.7500     29.4796   -194.8577 100000.0000    132.3226
  1043.0000     30.0281   -193.8358 100000.0000    128.1750
  1043.2500     30.5566   -193.0527 100000.0000    124.7093
  1043.5000     31.2338   -192.2571 100000.0000    118.4602
  1043.7500     32.1497   -191.1451 100000.0000    113.3146
  1044.0000     33.2968   -189.4571 100000.0000    104.0571
  1044.2500     34.6372   -187.1353 100000.0000     97.5395
  1044.5000     36.1393   -184.4265 100000.0000     89.4250
  1044.7500     37.7723   -181.7906 100000.0000     86.4819
  1045.0000     39.6451   -179.6378 100000.0000     87.1553
  1045.2500     41.9260   -178.1157 100000.0000     90.7110
  1045.5000     44.3204   -177.1202 100000.0000     98.1645
  1045.7500     45.9836   -176.4622 100000.0000    102.6228
  1046.0000     46.2162   -176.0057 100000.0000    106.6889
  1046.2500     45.0116   -175.6918 100000.0000    107.9675
  1046.5000     42.8752   -175.4920 100000.0000    109.6425
  1046.7500     40.3872   -175.3651 100000.0000    111.4651
  1047.0000     38.0133   -175.2572    166.1084    115.3146
  1047.2500     36.0225   -175.1296     35.8747    118.0482
  1047.5000     34.3717   -174.9780     22.2424    121.3253
  1047.7500     32.8186   -174.8221     17.4830    122.5651
  1048.0000     31.2307   -174.6816     15.3154    122.9031
  1048.2500     29.6499   -174.5645     14.2425    122.5255
  1048.5000     28.1225   -174.4726     13.7364    122.5554
  1048.7500     26.6742   -174.4142     13.5885    123.7603
  1049.0000     25.3645   -174.4083     13.7223    127.3138
  1049.2500     24.2393   -174.4792     14.1115    130.0340
  1049.5000     23.3085   -174.6406     14.7329    133.1470
  1049.7500     22.5979   -174.8824     15.5383    134.2108
  1050.0000     22.1607   -175.1664     16.4413    134.3274
  1050.2500     22.0338   -175.4416     17.3231    133.3405
  1050.5000     22.2521   -175.6703     18.0529    129.5888
  1050.7500     22.8705   -175.8480     18.5161    125.2827
  1051.0000     23.9448   -176.0002     18.6361    116.8820
  1051.2500     25.4897   -176.1598     18.3907    111.2021
  1051.5000     27.3595   -176.3430     17.8256    104.8588
  1051.7500     29.2019   -176.5403     17.0531    102.8938
