~Version Information
 VERS.                                  2.0 : CWLS LAS VERSION
 WRAP.                                   NO : WRAPING MODE
 SWARE .                 MController 2.5.0J : SOFTWARE VERSION
~Well Information
 WELL.                      Sumatra 34-22Tr : WELL
 COMP.    Pioneer Natural Resources USA Inc : COMPANY
 FLD.                      Purgatoire River : FIELD
 LOC.                SW/SE sec 22 T33S R67W : LOCATION
 DATE.                              6/08/05 : DATE(S) LOGGED
 SRVC.       Blanco Geological Services LLC : SERVICE COMPANY
 STAT.                                   CO : STATE
 CNTY.                           Las Animas : COUNTY
 CTRY.                                  USA : COUNTRY
 API.                       05-071-08383-00 : API NUMBER
 STRT.FT                             575.00 : START DEPTH
 STOP.FT                            1500.00 : STOP DEPTH
 STEP.FT                               1.00 : DEPTH INCREMENT
 NULL.                                -9999 : NULL VALUE
~Curve information
 DEPTH.FT                                   :
 ROP.MIN/FT                                 :
 GAS.UNITS                                  :
~ASCII Log data
       575.0     -9999.00          2.1 
       576.0         0.13          2.1 
       577.0         4.67          2.7 
       578.0         1.30          2.7 
       579.0         0.17          2.2 
       580.0         0.23          2.7 
       581.0         0.07          2.7 
       582.0        12.57         11.7 
       583.0         0.10          3.7 
       584.0         0.20          3.6 
       585.0         0.23          4.1 
       586.0         0.13          4.1 
       587.0         0.20          3.9 
       588.0         0.20          3.9 
       589.0         0.23          4.1 
       590.0         0.17          4.4 
       591.0         1.72          4.8 
       592.0         8.92          5.8 
       593.0         0.20          3.6 
       594.0         0.13          3.6 
       595.0         0.17          4.0 
       596.0         0.13          4.0 
       597.0         0.13          3.8 
       598.0         0.10          4.1 
       599.0         0.47          4.0 
       600.0         0.17          4.2 
       601.0         0.40          4.8 
       602.0         0.13          4.8 
       603.0         0.20          4.3 
       604.0         0.17          4.3 
       605.0         0.23          4.5 
       606.0         0.17          4.5 
       607.0         0.17          4.6 
       608.0         0.20          4.5 
       609.0         0.68          5.1 
       610.0         0.33          4.6 
       611.0         0.27          4.4 
       612.0         0.27          4.7 
       613.0         0.30          4.3 
       614.0         0.27          4.6 
       615.0         0.37          4.6 
       616.0         0.37          4.8 
       617.0         0.43          5.0 
       618.0         0.22          4.6 
       619.0         0.23          4.6 
       620.0         0.27          4.6 
       621.0         5.52          5.6 
       622.0         0.78          5.3 
       623.0         1.17          3.7 
       624.0         0.43          3.4 
       625.0         0.13          4.1 
       626.0         0.17          4.1 
       627.0         0.17          4.0 
       628.0         0.37          4.5 
       629.0         0.60          5.0 
       630.0         0.18          5.0 
       631.0         0.43          5.0 
       632.0         0.17          5.2 
       633.0         0.13          5.2 
       634.0         0.13          5.4 
       635.0         0.10          5.4 
       636.0         0.13          5.2 
       637.0         0.13          5.2 
       638.0         0.10          5.2 
       639.0         0.73          6.3 
       640.0         0.33          6.2 
       641.0         0.53          5.6 
       642.0         0.55          5.5 
       643.0         0.33          5.6 
       644.0         0.13          5.4 
       645.0         0.37          5.5 
       646.0         0.83          6.2 
       647.0         0.53          6.0 
       648.0         1.28          6.1 
       649.0         0.77          6.1 
       650.0         0.67          3.5 
       651.0        55.00          4.5 
       652.0         9.45         -0.8 
       653.0         5.73          6.8 
       654.0         2.82          5.8 
       655.0         0.13          5.8 
       656.0         0.10          5.5 
       657.0         0.13          5.8 
       658.0         0.23          5.6 
       659.0         0.47          6.2 
       660.0         0.43          5.9 
       661.0         0.43          5.9 
       662.0         0.10          5.7 
       663.0         0.10          5.7 
       664.0         0.15          6.0 
       665.0         0.23          6.1 
       666.0         0.33          5.9 
       667.0         0.33          5.8 
       668.0         0.47          6.2 
       669.0         0.43          6.0 
       670.0         0.43          6.1 
       671.0         0.43          6.1 
       672.0         0.33          6.2 
       673.0         0.27          5.7 
       674.0         0.42          5.9 
       675.0         0.37          5.8 
       676.0         0.37          6.0 
       677.0         0.40          6.1 
       678.0         0.27          6.0 
       679.0         0.20          5.9 
       680.0         0.20          6.1 
       681.0         4.28          6.2 
       682.0         0.13          5.5 
       683.0         0.22          6.2 
       684.0         0.27          5.7 
       685.0         0.33          5.7 
       686.0         0.23          6.1 
       687.0         0.17          5.6 
       688.0         0.17          5.6 
       689.0         0.23          5.9 
       690.0         0.30          5.8 
       691.0         0.73          5.9 
       692.0         0.33          5.6 
       693.0         0.45          5.6 
       694.0         0.40          5.6 
       695.0         0.33         22.3 
       696.0         0.30         21.5 
       697.0         0.40         12.2 
       698.0         0.37          5.5 
       699.0         0.53          9.3 
       700.0         0.53         17.9 
       701.0         0.48         20.4 
       702.0         0.47         21.6 
       703.0         0.40         22.7 
       704.0         0.37         23.9 
       705.0         0.53         23.7 
       706.0         0.43         23.3 
       707.0         0.43         23.1 
       708.0         0.43         23.5 
       709.0         0.35         21.4 
       710.0         0.37          9.4 
       711.0         3.28          7.2 
       712.0         0.50          5.7 
       713.0         0.53          5.8 
       714.0         0.47          5.7 
       715.0         0.43          5.9 
       716.0         0.40          5.7 
       717.0         0.43          5.8 
       718.0         0.42          5.7 
       719.0         0.43          5.7 
       720.0         0.43          5.8 
       721.0         0.43          5.5 
       722.0         0.47          5.6 
       723.0         0.40          5.5 
       724.0         0.40          5.9 
       725.0         0.30          5.5 
       726.0         0.23          5.8 
       727.0         0.18          5.5 
       728.0         0.13          5.5 
       729.0         0.27          8.3 
       730.0         0.47          8.6 
       731.0         0.43          8.1 
       732.0         0.37          8.2 
       733.0         0.40          9.9 
       734.0         0.37         12.2 
       735.0         0.27         17.6 
       736.0         0.23         66.1 
       737.0         0.23         70.7 
       738.0         0.15         59.2 
       739.0         0.17         44.8 
       740.0         0.40         23.3 
       741.0         2.92          9.9 
       742.0         0.63          4.5 
       743.0         0.37          4.1 
       744.0         0.33          3.9 
       745.0         0.33          3.9 
       746.0         0.40          3.7 
       747.0         0.43          3.9 
       748.0         0.37          3.6 
       749.0         0.35          3.3 
       750.0         0.30          3.6 
       751.0         0.37          3.4 
       752.0         0.30          3.3 
       753.0         0.30          3.3 
       754.0         0.33         11.2 
       755.0         0.33         10.5 
       756.0         0.33          5.5 
       757.0         0.33          6.8 
       758.0         0.30          6.0 
       759.0         0.35          4.6 
       760.0         0.30          4.3 
       761.0         0.33          4.5 
       762.0         0.37          4.9 
       763.0         0.37          5.2 
       764.0         0.27          6.4 
       765.0         0.30          8.5 
       766.0         0.33         10.5 
       767.0         0.23         12.3 
       768.0         0.20         12.3 
       769.0         0.17          8.9 
       770.0         0.13          7.0 
       771.0         3.22          6.7 
       772.0         0.48          5.6 
       773.0         0.60          5.5 
       774.0         0.57          5.5 
