~Version Information
VERS.                      2.0: CWLS Log ASCII Standard - VERSION 2.0
WRAP.                       NO: One line per depth step
~Well Information Block
STRT.FT                -9.7500: 
STOP.FT              2566.5000: 
STEP.FT                 0.2500: 
NULL.                -999.2500: 
COMP.          Petrogulf Corporation: COMPANY
WELL.             Valejo 8-12V: WELL
FLD.           Purgatorie River: FIELD
LOC.           1510' FNL & 1460' FWL: LOCATION
CNTY.               Las Animas: COUNTY
SRVC.                         : SERVICE COMPANY
DATE.          Tue Nov 18 14:36:15 2003: LOG DATE
UWI.                          : UNIQUE WELL ID
STAT.                 Colorado: STATE
~Curve Information Block
DEPT.FT            0 000 00 00: Depth
CCL.                          : Casing Collar Locator
TT3.usec                      : CBL 3' Travel Time
AMP3.mV                       : CBL 3' Amplitude
GR.GAPI                       : Gamma Ray
~Parameter Information Block
~A  Depth       CCL         TT3         AMP3         GR     
# ...
   995.2500      0.0000    762.8930      3.5382     86.9543
   995.5000      0.0000    727.5323      3.4567     86.0556
   995.7500      0.0000    689.2650      3.4298     84.5089
   996.0000      0.0000    655.5854      3.4769     83.6823
   996.2500      0.0000    630.6407      3.5301     84.1971
   996.5000      0.0000    614.7462      3.4934     85.4803
   996.7500      0.0000    604.4979      3.3207     86.3028
   997.0000      0.0000    594.3352      3.0537     85.8476
   997.2500      0.0000    578.6566      2.8153     84.3681
   997.5000      0.0000    553.5374      2.7443     82.8306
   997.7500      0.0000    518.7258      2.8861     82.0886
   998.0000      0.0000    478.9309      3.1467     82.4887
   998.2500      0.0000    441.7340      3.3761     83.8998
   998.5000      0.0000    413.0900      3.4828     85.6726
   998.7500      0.0000    395.2903      3.4555     86.7499
   999.0000      0.0000    388.8711      3.3254     86.2884
   999.2500      0.0000    395.4943      3.1483     84.2383
   999.5000      0.0000    418.5433      2.9931     81.0808
   999.7500      0.0000    460.4336      2.9055     77.1319
  1000.0000      0.0000    518.0757      2.8907     72.6003
  1000.2500      0.0000    580.8784      2.9339     68.3541
  1000.5000      0.0000    635.0674      3.0174     66.0179
  1000.7500      0.0000    671.7328      3.1211     66.8210
  1001.0000      0.0000    691.2199      3.2334     70.5278
  1001.2500      0.0000    700.2450      3.3588     75.7825
  1001.5000      0.0000    705.5002      3.4934     81.3391
  1001.7500      0.0000    709.9072      3.5985     86.6225
  1002.0000      0.0000    713.4577      3.6270     91.1220
  1002.2500      0.0000    715.8147      3.5819     93.7735
  1002.5000      0.0000    717.7288      3.5242     93.5612
  1002.7500      0.0000    721.0805      3.5094     90.7752
  1003.0000      0.0000    728.4467      3.5284     87.1382
  1003.2500      0.0000    742.2805      3.5217     84.3635
  1003.5000      0.0000    763.4947      3.4425     82.9164
  1003.7500      0.0000    790.5280      3.2888     82.4238
  1004.0000      0.0000    820.0217      3.0845     82.6475
  1004.2500      0.0000    848.0435      2.8468     83.3383
  1004.5000      0.0000    869.9902      2.5851     83.5810
  1004.7500      0.0000    880.2045      2.3324     82.2731
  1005.0000      0.0000    874.0695      2.1576     79.4154
  1005.2500      0.0000    852.5995      2.1307     76.4807
  1005.5000      0.0000    824.8410      2.2731     75.5210
  1005.7500      0.0000    803.5827      2.5487     78.0905
  1006.0000      0.0000    796.9134      2.8922     84.5582
  1006.2500      0.0000    803.9952      3.2364     93.8239
  1006.5000      0.0000    818.5980      3.5298    103.7893
  1006.7500      0.0000    834.8624      3.7455    112.5195
  1007.0000      0.0000    849.6033      3.8669    118.9015
  1007.2500      0.0000    861.7209      3.8716    122.2467
  1007.5000      0.0000    871.1027      3.7527    121.9610
  1007.7500      0.0000    877.7852      3.5513    117.8998
  1008.0000      0.0000    882.0504      3.3298    110.5742
  1008.2500      0.0000    885.2650      3.1180    101.0307
  1008.5000      0.0000    889.6330      2.9172     90.8730
  1008.7500      0.0000    896.3849      2.7444     81.9531
  1009.0000      0.0000    904.6237      2.6427     75.4829
  1009.2500      0.0000    912.4535      2.6437     71.7025
  1009.5000      0.0000    918.4819      2.7299     70.4827
  1009.7500      0.0000    921.6481      2.8417     71.6157
  1010.0000      0.0000    920.5365      2.9315     74.3832
  1010.2500      0.0000    914.1543      3.0068     77.5538
  1010.5000      0.0000    903.2255      3.1043     80.3232
  1010.7500      0.0000    889.7386      3.2274     82.9054
  1011.0000      0.0000    875.5281      3.3367     85.7570
  1011.2500      0.0000    862.6350      3.3955     88.4991
  1011.5000      0.0000    854.8163      3.4066     90.2335
  1011.7500      0.0000    856.1080      3.3995     90.8886
  1012.0000      0.0000    866.5491      3.3893     91.5687
  1012.2500      0.0000    881.1890      3.3578     93.3327
  1012.5000      0.0000    894.5396      3.2879     96.3018
  1012.7500      0.0000    904.2866      3.2073    100.3610
  1013.0000      2.0000    910.0056      3.1779    106.0157
  1013.2500      2.0000    910.8908      3.2568    113.8768
  1013.5000      0.0000    906.3361      3.4909    123.5293
  1013.7500      0.0000    897.2774      3.9241    133.3424
  1014.0000      0.0000    885.3845      4.5625    141.5040
  1014.2500      0.0000    871.2734      5.3268    147.1136
  1014.5000      0.0000    854.5884      6.0561    150.0776
  1014.7500      0.0000    836.3854      6.5817    150.3042
  1015.0000      0.0000    821.0721      6.8303    147.8490
  1015.2500      0.0000    814.3328      6.8653    143.8069
  1015.5000      0.0000    817.7929      6.8147    140.1677
  1015.7500      0.0000    826.6125      6.7655    138.4310
  1016.0000      0.0000    833.9099      6.7343    138.4290
  1016.2500      0.0000    837.1172      6.7025    138.2304
  1016.5000      0.0000    838.5435      6.6527    135.1793
  1016.7500      0.0000    840.3890      6.5880    127.9727
  1017.0000      0.0000    841.5685      6.5322    118.4286
  1017.2500      0.0000    840.3247      6.5063    110.8871
  1017.5000      0.0000    838.1718      6.4975    109.3635
  1017.7500      0.0000    838.9995      6.4640    115.1080
  1018.0000      0.0000    844.5482      6.3810    126.3690
  1018.2500      0.0000    852.9484      6.2808    139.7609
  1018.5000      0.0000    861.6714      6.2345    151.7607
  1018.7500      0.0000    869.7145      6.2843    159.6903
  1019.0000      0.0000    876.2816      6.3952    162.2948
  1019.2500      0.0000    879.1962      6.4818    159.9335
  1019.5000      0.0000    876.2200      6.4831    154.1663
  1019.7500      0.0000    867.4418      6.4101    147.0564
  1020.0000      0.0000    855.0357      6.3214    140.7582
  1020.2500      0.0000    840.9746      6.2686    137.0273
  1020.5000      0.0000    826.6194      6.2714    136.0770
  1020.7500      0.0000    814.7625      6.3211    135.9511
  1021.0000      0.0000    809.7724      6.3832    133.9349
  1021.2500      0.0000    813.8607      6.4067    128.9628
  1021.5000      0.0000    823.8652      6.3574    122.3225
  1021.7500      0.0000    833.1736      6.2536    116.1200
  1022.0000      0.0000    836.7508      6.1720    111.4317
  1022.2500      0.0000    833.3634      6.1938    107.8886
  1022.5000      0.0000    823.5516      6.3241    104.5810
  1022.7500      0.0000    807.7192      6.4781    101.1322
  1023.0000      0.0000    787.4578      6.5578     97.9314
  1023.2500      0.0000    767.6270      6.5449     95.5292
  1023.5000      0.0000    755.0935      6.5204     93.8746
  1023.7500      0.0000    754.5076      6.5865     92.1926
  1024.0000      0.0000    765.1259      6.7557     89.8192
  1024.2500      0.0000    781.3404      6.9236     87.2201
  1024.5000      0.0000    796.3150      6.9640     85.8943
  1024.7500      0.0000    806.0410      6.8439     87.1769
  1025.0000      0.0000    810.3147      6.6377     91.4211
  1025.2500      0.0000    810.1306      6.4401     98.1299
  1025.5000      0.0000    806.0760      6.2867    106.1416
  1025.7500      0.0000    800.5003      6.1583    113.7418
  1026.0000      0.0000    798.5623      6.0350    119.6111
  1026.2500      0.0000    803.8608      5.9328    123.9614
  1026.5000      0.0000    813.9054      5.8939    127.9952
  1026.7500      0.0000    822.7614      5.9410    132.0173
  1027.0000      0.0000    828.1586      6.0405    134.6465
  1027.2500      0.0000    833.5536      6.1186    134.3051
  1027.5000      0.0000    842.5652      6.1137    131.1085
  1027.7500      0.0000    853.1759      6.0145    126.8981
  1028.0000      0.0000    858.4706      5.8634    123.7181
  1028.2500      0.0000    852.4558      5.7240    122.7209
  1028.5000      0.0000    835.0328      5.6364    124.1473
