~Version Information
VERS.                      2.0: CWLS Log ASCII Standard - VERSION 2.0
WRAP.                       NO: One line per depth step
~Well Information Block
STRT.FT               840.0000: 
STOP.FT              2268.0000: 
STEP.FT                 0.2500: 
NULL.                -999.2500: 
COMP.          Pioneer Natural Resources: COMPANY
WELL.              Tonto 42-23: WELL
FLD.           Purgatoire River: FIELD
LOC.           2217' FNL & 423' FEL: LOCATION
PROV.                 Colorado: PROVINCE
CNTY.               Las Animas: COUNTRY
SRVC.                Patterson: SERVICE COMPANY
DATE.          Sun Apr 17 01:24:47 2005: LOG DATE
UWI.           05 071 08335 00: UNIQUE WELL ID
~Curve Information Block
DEPT.FT            0 000 00 00: Depth
SN.Ohm-m                      : IEL Short Normal
SP.mV                         : IEL Spontaneous Potential
DIR.Ohm-m                     : IEL Induction Resistivity
GR.GAPI                       : Gamma Ray
~Parameter Information Block
~A  Depth        SN          SP         DIR          GR     
# ...
  1510.0000     37.5912   -103.3948     31.1246     73.3577
  1510.2500     37.4600   -103.3827     31.3986     74.0182
  1510.5000     37.0608   -103.3828     31.5284     74.5608
  1510.7500     36.4428   -103.4148     31.4058     75.0306
  1511.0000     35.7449   -103.5095     31.0323     76.6123
  1511.2500     35.0163   -103.6841     30.4921     78.2965
  1511.5000     34.2171   -103.9232     29.8892     81.4649
  1511.7500     33.3220   -104.1879     29.2996     83.9367
  1512.0000     32.3492   -104.4362     28.7539     88.1661
  1512.2500     31.3431   -104.6365     28.2432     91.1180
  1512.5000     30.3582   -104.7730     27.7351     95.1871
  1512.7500     29.4454   -104.8488     27.1959     97.5888
  1513.0000     28.6338   -104.8826     26.6126    101.1306
  1513.2500     27.9048   -104.8991     26.0059    103.6511
  1513.5000     27.2485   -104.9246     25.4303    107.5003
  1513.7500     26.7399   -104.9816     24.9626    109.7250
  1514.0000     26.4604   -105.0753     24.6806    111.5274
  1514.2500     26.3951   -105.1762     24.6378    111.0664
  1514.5000     26.4733   -105.2287     24.8442    107.4945
  1514.7500     26.6410   -105.1846     25.2621    103.7334
  1515.0000     26.8810   -105.0330     25.8239     97.9305
  1515.2500     27.2044   -104.8034     26.4576     95.0004
  1515.5000     27.6313   -104.5518     27.1011     92.5962
  1515.7500     28.1841   -104.3416     27.6984     91.8094
  1516.0000     28.8714   -104.2202     28.1861     90.2170
  1516.2500     29.6519   -104.1983     28.4931     88.1242
  1516.5000     30.4444   -104.2466     28.5616     83.3349
  1516.7500     31.1439   -104.3166     28.3731     79.7143
  1517.0000     31.6519   -104.3676     27.9539     75.3198
  1517.2500     31.9393   -104.3825     27.3508     73.8310
  1517.5000     31.9947   -104.3669     26.6005     74.1648
  1517.7500     31.7564   -104.3444     25.7223     75.9632
  1518.0000     31.1839   -104.3482     24.7377     80.5842
  1518.2500     30.2784   -104.4039     23.6904     84.7189
  1518.5000     29.0254   -104.5137     22.6424     92.3531
  1518.7500     27.4436   -104.6600     21.6464     98.4105
  1519.0000     25.6751   -104.8286     20.7190    108.5670
  1519.2500     23.9471   -105.0238     19.8334    115.3825
  1519.5000     22.4083   -105.2564     18.9441    124.2738
  1519.7500     21.0628   -105.5192     18.0269    128.7878
  1520.0000     19.8965   -105.7766     17.1031    133.1960
  1520.2500     18.9561   -105.9788     16.2265    134.6528
  1520.5000     18.2944   -106.0899     15.4489    135.0099
  1520.7500     17.9009   -106.1090     14.7953    134.3281
  1521.0000     17.6821   -106.0694     14.2637    132.4827
  1521.2500     17.5148   -106.0170     13.8385    131.1407
  1521.5000     17.3258   -105.9823     13.5022    129.9436
  1521.7500     17.0845   -105.9638     13.2409    130.2339
  1522.0000     16.7749   -105.9309     13.0427    132.7992
  1522.2500     16.4151   -105.8410     12.8955    135.8054
  1522.5000     16.0499   -105.6597     12.7850    141.0916
  1522.7500     15.7332   -105.3774     12.6965    143.9828
  1523.0000     15.4943   -105.0103     12.6191    145.5175
  1523.2500     15.2780   -104.5915     12.5488    144.2980
  1523.5000     14.9859   -104.1612     12.4880    140.1536
  1523.7500     14.5885   -103.7584     12.4406    137.1273
  1524.0000     14.1231   -103.4090     12.4080    134.3031
  1524.2500     13.6833   -103.1146     12.3895    134.1419
  1524.5000     13.4665   -102.8566     12.3841    135.8781
  1524.7500     13.6454   -102.6183     12.3944    137.3325
  1525.0000     14.1581   -102.4018     12.4263    138.2744
  1525.2500     14.7479   -102.2251     12.4844    137.7597
  1525.5000     15.1660   -102.1055     12.5653    135.9740
  1525.7500     15.3135   -102.0456     12.6534    134.7128
  1526.0000     15.2751   -102.0328     12.7241    133.2030
  1526.2500     15.2011   -102.0506     12.7521    132.4717
  1526.5000     15.1655   -102.0933     12.7225    132.0169
  1526.7500     15.1765   -102.1712     12.6350    132.3661
  1527.0000     15.2328   -102.3020     12.5010    133.6421
  1527.2500     15.3118   -102.4916     12.3374    134.3746
  1527.5000     15.3511   -102.7216     12.1611    134.3865
  1527.7500     15.2881   -102.9538     11.9852    133.8561
  1528.0000     15.1227   -103.1464     11.8173    133.5761
  1528.2500     14.9323   -103.2707     11.6596    134.3266
  1528.5000     14.8029   -103.3177     11.5102    136.6841
  1528.7500     14.7362   -103.2964     11.3641    138.5771
  1529.0000     14.6421   -103.2272     11.2135    141.3824
  1529.2500     14.4496   -103.1345     11.0501    143.2685
  1529.5000     14.1853   -103.0387     10.8692    146.2989
  1529.7500     13.9008   -102.9493     10.6747    148.4320
  1530.0000     13.6352   -102.8629     10.4808    151.5865
  1530.2500     13.4584   -102.7637     10.3079    153.4379
  1530.5000     13.3733   -102.6304     10.1737    155.1492
  1530.7500     13.2739   -102.4450     10.0859    155.1055
  1531.0000     13.1329   -102.2022     10.0410    153.1176
  1531.2500     13.0103   -101.9162     10.0309    151.1601
  1531.5000     12.9017   -101.6217     10.0493    148.9574
  1531.7500     12.7965   -101.3663     10.0948    148.3779
  1532.0000     12.7780   -101.1911     10.1665    147.7848
  1532.2500     12.9524   -101.1089     10.2592    146.5152
  1532.5000     13.3475   -101.0944     10.3633    142.1482
  1532.7500     13.8755   -101.1011     10.4683    137.5422
  1533.0000     14.3017   -101.0902     10.5676    128.9379
  1533.2500     14.3493   -101.0500     10.6602    122.9760
  1533.5000     13.9940   -100.9923     10.7513    115.3108
  1533.7500     13.5492   -100.9354     10.8538    111.6540
  1534.0000     13.3701   -100.8902     10.9891    108.7285
  1534.2500     13.5637   -100.8588     11.1818    108.4981
  1534.5000     13.9974   -100.8454     11.4507    110.3959
  1534.7500     14.4816   -100.8653     11.7985    112.6395
  1535.0000     14.8984   -100.9423     12.2072    116.2501
  1535.2500     15.2271   -101.0935     12.6433    118.3126
  1535.5000     15.5125   -101.3159     13.0714    120.7950
  1535.7500     15.8136   -101.5822     13.4705    122.1249
  1536.0000     16.1833   -101.8487     13.8409    123.0336
  1536.2500     16.7054   -102.0713     14.1962    122.1025
  1536.5000     17.4760   -102.2232     14.5484    117.2648
  1536.7500     18.5218   -102.3042     14.8974    111.8376
  1537.0000     19.8327   -102.3374     15.2331    102.0537
  1537.2500     21.4553   -102.3564     15.5473     95.8432
  1537.5000     23.3827   -102.3863     15.8406     89.0389
  1537.7500     25.3558   -102.4300     16.1152     86.8008
  1538.0000     26.9424   -102.4651     16.3571     86.9003
  1538.2500     27.8057   -102.4570     16.5241     88.6564
  1538.5000     27.8779   -102.3802     16.5531     91.8134
  1538.7500     27.3751   -102.2364     16.3859     92.8847
  1539.0000     26.6145   -102.0576     15.9990     91.2982
  1539.2500     25.7335   -101.8913     15.4148     88.0903
  1539.5000     24.5973   -101.7771     14.6915     82.0097
  1539.7500     22.9988   -101.7269     13.9031     79.1086
  1540.0000     20.9850   -101.7206     13.1228     79.7839
  1540.2500     18.9325   -101.7188     12.4106     84.4697
  1540.5000     17.2096   -101.6861     11.8037     96.9450
  1540.7500     15.8587   -101.6102     11.3119    107.4149
  1541.0000     14.6874   -101.5046     10.9216    123.4967
  1541.2500     13.5793   -101.3944     10.6064    133.0423
  1541.5000     12.6400   -101.2980     10.3406    143.8309
  1541.7500     12.0604   -101.2192     10.1070    148.1980
  1542.0000     11.9082   -101.1502      9.8984    150.8587
  1542.2500     12.0577   -101.0825      9.7145    150.7494
  1542.5000     12.3019   -101.0206      9.5610    149.2740
  1542.7500     12.5542   -100.9869      9.4490    148.2937
  1543.0000     12.9190   -101.0089      9.3941    148.0759
  1543.2500     13.4950   -101.0969      9.4113    149.0475
