~Version Information
VERS.                      2.0: CWLS Log ASCII Standard - VERSION 2.0
WRAP.                       NO: One line per depth step
~Well Information Block
STRT.FT               875.6000: 
STOP.FT              2510.0000: 
STEP.FT                 0.1000: 
NULL.                -999.2500: 
COMP.          Petrogulf Corporation: COMPANY
WELL.          Collister 17-31 V: WELL
FLD.           Purgatoire River: FIELD
LOC.           910' FNL & 1594' FEL: LOCATION
PROV.                 Colorado: PROVINCE
CNTY.               Las Animas: COUNTRY
SRVC.                Patterson: SERVICE COMPANY
DATE.          Fri Dec 12 13:49:30 2003: LOG DATE
UWI.                          : UNIQUE WELL ID
~Curve Information Block
DEPT.FT            0 000 00 00: Depth
DCAL.in                       : CDL Caliper
DPOR.pu                       : CDL Density Porosity
NPOR.pu                       : Neutron Porosity
RHOB.g/cc                     : CDL Bulk Density
RHOC.g/cc                     : CDL Density Correction
GR.GAPI                       : Gamma Ray
~Parameter Information Block
~A  Depth       DCAL        DPOR        NPOR        RHOB        RHOC         GR     
# ...
  1960.4000      8.1953      6.6507     18.1124      2.5403     -0.0026     73.8267
  1960.5000      8.1963      6.6528     17.3865      2.5402      0.0413     76.4307
  1960.6000      8.1963      6.9174     16.2436      2.5359      0.0701     84.4888
  1960.7000      8.1963      7.6445     15.5434      2.5239      0.0707     91.1066
  1960.8000      8.1968      7.5849     15.4737      2.5248      0.0532     90.4278
  1960.9000      8.1968      6.8487     15.3234      2.5370      0.1216     85.3662
  1961.0000      8.1769      6.5370     15.1179      2.5421      0.0501     79.6470
  1961.1000      8.1769      6.7670     14.9971      2.5383      0.0940     75.0892
  1961.2000      8.1769      7.2402     14.5392      2.5305      0.0234     74.1863
  1961.3000      8.1784      7.8401     13.8716      2.5206      0.0440     76.0791
  1961.4000      8.1784      9.3563     13.3428      2.4956      0.1021     77.3660
  1961.5000      8.1780     12.0567     12.8118      2.4511     -0.0144     77.1875
  1961.6000      8.1780     13.8640     12.4044      2.4212     -0.0732     79.1605
  1961.7000      8.1780     13.6379     12.2161      2.4250      0.0286     84.6774
  1961.8000      8.1699     12.8620     11.7757      2.4378      0.0486     87.6336
  1961.9000      8.1699     12.3221     10.9060      2.4467      0.0286     86.0037
  1962.0000      8.1679     11.4348      9.9800      2.4613      0.0721     82.1134
  1962.1000      8.1679     10.3441      9.3572      2.4793      0.1193     73.4429
  1962.2000      8.1679      9.7714      9.1661      2.4888      0.1349     63.1460
  1962.3000      8.1719      9.9352      9.3180      2.4861      0.1193     61.2379
  1962.4000      8.1719     10.4518      9.4929      2.4775      0.1638     66.7887
  1962.5000      8.1568     11.1002      9.1975      2.4668      0.1786     68.6140
  1962.6000      8.1568     11.6845      8.3331      2.4572      0.1470     64.1019
  1962.7000      8.1568     11.8224      7.4084      2.4549      0.1153     59.0247
  1962.8000      8.1419     11.9662      6.9564      2.4526      0.1172     54.5423
  1962.9000      8.1419     12.3800      6.9994      2.4457      0.0768     49.1319
  1963.0000      8.1490     11.7954      7.0393      2.4554      0.0539     45.1417
  1963.1000      8.1490     10.3274      6.8348      2.4796      0.1597     43.5464
  1963.2000      8.1490      9.9449      6.6007      2.4859      0.1693     42.7738
  1963.3000      8.1628     10.6209      6.6123      2.4748      0.0893     41.7518
  1963.4000      8.1628     10.7869      7.0740      2.4720      0.1299     38.3800
  1963.5000      8.1505     10.3276      7.8137      2.4796      0.1293     32.6194
  1963.6000      8.1505     10.4573      8.5279      2.4775      0.1509     27.7629
  1963.7000      8.1505     11.4302      9.0171      2.4614      0.0550     25.2551
  1963.8000      8.1537     12.1781      9.0241      2.4491      0.0648     25.1981
  1963.9000      8.1537     12.4913      8.6960      2.4439      0.0706     26.9005
  1964.0000      8.1574     12.8010      8.4745      2.4388      0.0759     28.7642
  1964.1000      8.1574     12.6881      8.4579      2.4406      0.0039     31.4918
  1964.2000      8.1574     11.8730      8.5232      2.4541      0.0769     34.8550
  1964.3000      8.1393     11.4268      8.6132      2.4615      0.0510     36.3805
  1964.4000      8.1393     11.8552      8.8462      2.4544      0.0301     37.2640
  1964.5000      8.1669     12.2874      9.4121      2.4473      0.0398     42.5367
  1964.6000      8.1669     12.1996     10.1950      2.4487      0.0918     52.0293
  1964.7000      8.1669     11.6866     10.9818      2.4572      0.0461     56.2683
  1964.8000      8.1937     10.7514     11.7025      2.4726      0.0401     50.4178
  1964.9000      8.1937     10.2021     12.4071      2.4817      0.0688     42.2158
  1965.0000      8.2170     10.9841     13.3029      2.4688      0.0289     37.3470
  1965.1000      8.2170     12.3364     14.4489      2.4464      0.0441     35.3573
  1965.2000      8.2170     13.5738     15.6405      2.4260      0.0495     36.4311
  1965.3000      8.2075     15.2593     16.5870      2.3982      0.0591     40.2235
  1965.4000      8.2075     17.0113     17.1370      2.3693     -0.0287     44.4537
  1965.5000      8.1849     17.8331     17.3777      2.3558      0.0291     48.4343
  1965.6000      8.1849     17.9105     17.3269      2.3545     -0.0079     51.5310
  1965.7000      8.1849     17.2021     17.0969      2.3662     -0.0072     52.1252
  1965.8000      8.1793     15.5138     17.1549      2.3940      0.0626     52.0903
  1965.9000      8.1793     13.6756     17.7073      2.4244      0.0843     52.9011
  1966.0000      8.1806     11.6447     18.3668      2.4579      0.0370     54.0580
  1966.1000      8.1806      8.5692     18.7654      2.5086      0.1624     54.5635
  1966.2000      8.1806      5.2105     18.9471      2.5640      0.2326     52.9836
  1966.3000      8.1920      3.0736     19.3812      2.5993      0.2370     50.0857
  1966.4000      8.1920      2.5122     20.2589      2.6085      0.1769     50.2008
  1966.5000      8.1365      2.6681     20.9149      2.6060      0.1302     55.8170
  1966.6000      8.1365      2.7622     21.0140      2.6044      0.1342     63.6304
  1966.7000      8.1365      3.1195     20.8560      2.5985      0.1684     69.0221
  1966.8000      8.1193      3.8012     20.6822      2.5873      0.1253     68.8824
  1966.9000      8.1193      3.6563     20.7829      2.5897      0.1169     67.5252
  1967.0000      8.1200      2.1221     21.0810      2.6150      0.1465     71.9285
  1967.1000      8.1200      1.0796     21.1505      2.6322      0.2439     79.6458
  1967.2000      8.1200      2.6009     21.1763      2.6071      0.2008     84.2050
  1967.3000      8.1346      4.5457     21.7919      2.5750      0.0328     84.6368
  1967.4000      8.1346      3.0173     22.8804      2.6002      0.0608     86.4705
  1967.5000      8.1344     -0.7276     23.9152      2.6620      0.2391     95.1123
  1967.6000      8.1344     -2.6023     24.8950      2.6929      0.1706    103.1534
  1967.7000      8.1344     -2.5756     25.6679      2.6925      0.0723     98.9131
  1967.8000      8.1299     -2.5212     26.2223      2.6916      0.1214     89.4537
  1967.9000      8.1299     -2.0989     26.9480      2.6846      0.1512     89.5573
  1968.0000      8.1209     -0.4860     27.6680      2.6580      0.1619     97.8889
  1968.1000      8.1209      1.6017     28.3114      2.6236      0.0898    102.1759
  1968.2000      8.1209      3.0047     28.9107      2.6004      0.0520     98.9852
  1968.3000      8.0923      4.0567     29.3325      2.5831      0.0240     95.6324
  1968.4000      8.0923      5.1164     29.4489      2.5656     -0.0402     97.9670
  1968.5000      8.0743      5.6597     28.9802      2.5566      0.0272    105.3314
  1968.6000      8.0743      5.8932     28.2990      2.5528      0.0523    113.9095
  1968.7000      8.0743      6.0057     28.4434      2.5509      0.0079    119.3451
  1968.8000      8.1522      5.8945     29.4183      2.5527      0.0868    119.3584
  1968.9000      8.1522      5.8612     30.1529      2.5533      0.0538    115.0411
  1969.0000      8.1795      6.2169     29.8925      2.5474      0.1009    110.5368
  1969.1000      8.1795      6.9820     29.0730      2.5348      0.0066    111.2864
  1969.2000      8.1795      7.3997     28.4985      2.5279      0.0439    116.8503
  1969.3000      8.1562      6.6941     28.1976      2.5395      0.0685    119.9314
  1969.4000      8.1562      4.9332     28.0795      2.5686      0.0487    119.0811
  1969.5000      8.1459      3.0532     28.2943      2.5996      0.1156    117.4415
  1969.6000      8.1459      2.0788     28.5180      2.6157      0.0963    112.6078
  1969.7000      8.1459      1.8709     28.4187      2.6191      0.0943    106.7303
  1969.8000      8.1370      1.4866     28.3762      2.6255      0.0469    106.0235
  1969.9000      8.1370      0.9408     28.5633      2.6345      0.0850    104.6167
