~Version Information
VERS.                      2.0: CWLS Log ASCII Standard - VERSION 2.0
WRAP.                       NO: One line per depth step
~Well Information Block
STRT.FT               292.0000: 
STOP.FT               801.0000: 
STEP.FT                 0.1000: 
NULL.                -999.2500: 
COMP.          Pioneer Natural Resources: COMPANY
WELL.          HG Duran 34-27 Tr: WELL
FLD.           Purgatoire River: FIELD
LOC.           1076' FSL & 1465' FEL: LOCATION
PROV.                 Colorado: PROVINCE
CNTY.               Las Animas: COUNTRY
SRVC.                Patterson: SERVICE COMPANY
DATE.          Wed Apr 13 08:36:06 2005: LOG DATE
UWI.           05 071 08218 00: UNIQUE WELL ID
~Curve Information Block
DEPT.FT            0 000 00 00: Depth
DCAL.in                       : CDL Caliper
RHOB.g/cc                     : CDL Bulk Density
RHOC.g/cc                     : CDL Density Correction
DPOR.pu                       : CDL Density Porosity
GR.GAPI                       : Gamma Ray
NPOR.pu                       : Neutron Porosity
~Parameter Information Block
~A  Depth       DCAL        RHOB        RHOC        DPOR         GR         NPOR    
# ...
   656.8000      7.8376      2.5040      0.0694      8.8480     78.7175     19.1030
   656.9000      7.8376      2.5268      0.0284      7.4664     79.9875     19.5086
   657.0000      7.8433      2.5582      0.0289      5.5657     80.1007     19.9813
   657.1000      7.8433      2.5848      0.0585      3.9494     80.5077     19.8702
   657.2000      7.8433      2.5780      0.0337      4.3646     82.5956     19.4207
   657.3000      7.8449      2.5370      0.0415      6.8470     85.3793     19.4377
   657.4000      7.8449      2.4899      0.0314      9.7013     87.6624     19.9481
   657.5000      7.8366      2.4589      0.0078     11.5845     89.3958     20.1040
   657.6000      7.8366      2.4468      0.0027     12.3128     91.0695     19.5787
   657.7000      7.8366      2.4407      0.0132     12.6833     89.9105     19.2171
   657.8000      7.8268      2.4275     -0.0145     13.4838     86.2677     19.5813
   657.9000      7.8268      2.4176     -0.0430     14.0830     85.3861     20.1635
   658.0000      7.8293      2.4337     -0.0371     13.1069     87.5370     20.3886
   658.1000      7.8293      2.4693      0.0488     10.9522     89.4884     20.2298
   658.2000      7.8293      2.4974      0.0263      9.2463     91.2067     19.8025
   658.3000      7.8350      2.5059      0.0625      8.7353     92.8325     19.1807
   658.4000      7.8350      2.4946      0.0629      9.4205     90.6767     18.6494
   658.5000      7.8282      2.4750      0.0441     10.6038     84.6104     18.5243
   658.6000      7.8282      2.4643      0.0430     11.2519     80.9973     18.6555
   658.7000      7.8282      2.4625      0.0533     11.3657     82.1844     18.7253
   658.8000      7.8295      2.4529      0.0507     11.9482     83.8386     18.6716
   658.9000      7.8295      2.4372      0.0179     12.8988     83.7204     18.6037
   659.0000      7.8368      2.4462     -0.0050     12.3519     83.7983     18.7299
   659.1000      7.8368      2.4882      0.1006      9.8083     83.9000     19.1801
   659.2000      7.8368      2.5334      0.1348      7.0685     83.1678     19.6053
   659.3000      7.8421      2.5639      0.1573      5.2179     82.8974     19.5906
   659.4000      7.8421      2.5819      0.2235      4.1276     83.4217     19.2742
   659.5000      7.8314      2.5869      0.2111      3.8232     85.2007     19.0004
   659.6000      7.8314      2.5802      0.1816      4.2325     87.5825     18.8784
   659.7000      7.8314      2.5644      0.1334      5.1882     86.1559     18.9942
   659.8000      7.8204      2.5372      0.0949      6.8354     80.0297     19.4400
   659.9000      7.8204      2.5023      0.0543      8.9488     74.8833     19.8970
   660.0000      7.8235      2.4724      0.0471     10.7607     74.4605     19.9779
   660.1000      7.8235      2.4536      0.0406     11.9055     76.9096     19.7144
   660.2000      7.8235      2.4345      0.0185     13.0587     78.5605     19.2825
   660.3000      7.8457      2.4028      0.0422     14.9835     76.6571     18.8285
   660.4000      7.8457      2.3712     -0.0341     16.8945     71.1959     18.4911
   660.5000      7.8528      2.3659     -0.0231     17.2184     66.3346     18.3379
   660.6000      7.8528      2.3838      0.0313     16.1323     67.0632     18.3462
   660.7000      7.8528      2.4019      0.0656     15.0382     71.8353     18.6148
   660.8000      7.8507      2.4135      0.0552     14.3337     74.5134     19.2050
   660.9000      7.8507      2.4241      0.0581     13.6888     73.1034     19.7033
   661.0000      7.8394      2.4322      0.0666     13.2017     71.3160     19.7527
   661.1000      7.8394      2.4423      0.0299     12.5902     70.1820     19.7628
   661.2000      7.8394      2.4710      0.0802     10.8481     68.4709     20.1086
   661.3000      7.8253      2.5159      0.1302      8.1267     68.2221     20.5619
   661.4000      7.8253      2.5486      0.1295      6.1450     71.2536     20.9424
   661.5000      7.8310      2.5439      0.1108      6.4285     76.4050     21.2933
   661.6000      7.8310      2.5102      0.0395      8.4702     81.8950     21.6708
   661.7000      7.8310      2.4790      0.0427     10.3614     85.4963     22.0555
   661.8000      7.8451      2.4625      0.0364     11.3632     86.6143     22.3574
   661.9000      7.8451      2.4573     -0.0456     11.6763     84.6778     22.3660
   662.0000      7.8507      2.4581      0.0362     11.6322     81.0648     21.9179
   662.1000      7.8507      2.4532     -0.0378     11.9283     81.6925     21.2769
   662.2000      7.8507      2.4404     -0.0055     12.7046     87.2912     20.7878
   662.3000      7.8480      2.4309     -0.0394     13.2805     91.1434     20.5968
   662.4000      7.8480      2.4442     -0.0126     12.4706     89.8468     20.7739
   662.5000      7.8496      2.4790      0.0527     10.3661     88.0722     21.1318
   662.6000      7.8496      2.5051      0.0949      8.7805     88.7990     21.4079
   662.7000      7.8496      2.5041      0.0956      8.8435     90.6650     21.4158
   662.8000      7.8558      2.4847      0.1008     10.0157     93.0537     20.8350
   662.9000      7.8558      2.4666      0.0531     11.1172     95.0351     19.8549
   663.0000      7.8424      2.4546      0.0430     11.8452     95.2409     19.2665
   663.1000      7.8424      2.4383      0.0305     12.8281     93.0082     19.2117
   663.2000      7.8424      2.4213      0.0070     13.8616     87.2988     19.1082
   663.3000      7.8262      2.4260      0.0252     13.5748     79.1982     18.7552
   663.4000      7.8262      2.4561      0.0667     11.7530     75.7632     18.4503
   663.5000      7.8152      2.4743      0.1714     10.6456     78.5444     18.2781
   663.6000      7.8152      2.4576      0.0917     11.6594     81.4924     17.9322
   663.7000      7.8152      2.4344      0.0535     13.0656     82.8622     17.4243
   663.8000      7.8120      2.4272      0.1126     13.5024     83.1047     17.0935
   663.9000      7.8120      2.4332      0.0870     13.1365     81.3750     16.9424
   664.0000      7.8083      2.4580      0.0852     11.6391     79.8136     16.7607
   664.1000      7.8083      2.4871      0.1543      9.8698     80.0728     16.5771
   664.2000      7.8083      2.4925      0.1001      9.5460     78.1262     16.4660
   664.3000      7.8774      2.4857      0.0626      9.9550     74.1813     16.3876
   664.4000      7.8774      2.4861      0.1215      9.9312     73.1265     16.4279
   664.5000      7.8087      2.4848      0.1074     10.0136     74.3624     16.6505
   664.6000      7.8087      2.4782      0.1189     10.4146     73.9896     16.9299
   664.7000      7.8087      2.4639      0.1097     11.2804     71.3475     17.1308
   664.8000      7.7558      2.4337      0.0376     13.1076     68.6431     17.1879
   664.9000      7.7558      2.4013      0.0392     15.0731     66.5309     17.1519
   665.0000      7.7847      2.3942      0.0016     15.5010     64.1743     17.1821
   665.1000      7.7847      2.4137      0.0744     14.3193     60.9674     17.1777
   665.2000      7.7847      2.4315      0.0273     13.2429     57.3675     17.0986
   665.3000      7.8131      2.4269      0.0619     13.5187     56.1862     17.2347
   665.4000      7.8131      2.4038      0.0403     14.9183     58.9882     17.4435
   665.5000      7.8238      2.3827      0.0273     16.2022     63.5651     17.3242
   665.6000      7.8238      2.3809      0.0566     16.3104     65.5850     17.0557
   665.7000      7.8238      2.4011      0.0920     15.0861     64.2328     16.9219
   665.8000      7.8224      2.4308      0.1344     13.2878     62.8697     16.8216
   665.9000      7.8224      2.4536      0.1372     11.9019     63.8548     16.9054
   666.0000      7.8207      2.4610      0.1521     11.4575     67.8617     17.4519
   666.1000      7.8207      2.4501      0.1316     12.1158     72.2702     18.0684
   666.2000      7.8207      2.4312      0.0748     13.2600     73.2180     18.1578
   666.3000      7.8354      2.4195      0.0750     13.9677     72.1415     18.0278
