~Version Information
VERS.                      2.0: CWLS Log ASCII Standard - VERSION 2.0
WRAP.                       NO: One line per depth step
~Well Information Block
STRT.FT                -7.5000: 
STOP.FT              1716.7500: 
STEP.FT                 0.2500: 
NULL.                -999.2500: 
COMP.          Pioneer Natural Resources: COMPANY
WELL.          Lookout Point 31-23 Tr: WELL
FLD.           Purgatorie River: FIELD
LOC.           541' FNL & 1786' FEL--------: LOCATION
PROV.                       CO: PROVINCE
CNTY.               Las Animas: COUNTRY
SRVC.                         : SERVICE COMPANY
DATE.          Fri Jan 28 08:30:47 2005: LOG DATE
UWI.         005 071 08260 : UNIQUE WELL ID
~Curve Information Block
DEPT.FT            0 000 00 00: Depth
CCL.                          : Casing Collar Locator
TT3.usec                      : CBL 3' Travel Time
AMP3.mV                       : CBL 3' Amplitude
GR.GAPI                       : Gamma Ray
~Parameter Information Block
~A  Depth       CCL         TT3         AMP3         GR     
# ...
  1667.5000      0.0000    572.4979      7.0866    155.5158
  1667.7500      0.0000    541.2050      7.0477    151.5856
  1668.0000      0.0000    530.2289      6.9512    146.6973
  1668.2500      0.0000    540.8305      6.8645    143.3566
  1668.5000      0.0000    564.3197      6.8486    142.4648
  1668.7500      0.0000    586.9073      6.8798    143.0216
  1669.0000      0.0000    596.2382      6.8588    142.8941
  1669.2500      0.0000    588.1101      6.7101    140.7018
  1669.5000      0.0000    568.6166      6.4737    137.3878
  1669.7500      0.0000    548.4925      6.2722    135.3230
  1670.0000      0.0000    534.6675      6.1837    135.6982
  1670.2500      0.0000    527.0174      6.1756    137.4464
  1670.5000      0.0000    521.7567      6.1684    138.5696
  1670.7500      0.0000    516.3453      6.1165    137.5722
  1671.0000      0.0000    510.9907      6.0126    133.7932
  1671.2500      0.0000    506.9343      5.8657    127.6978
  1671.5000      0.0000    505.0328      5.7138    121.3734
  1671.7500      0.0000    506.0749      5.6280    117.8920
  1672.0000      0.0000    511.0738      5.6545    119.2036
  1672.2500      0.0000    520.2031      5.7517    124.3478
  1672.5000      0.0000    531.9343      5.8127    129.8762
  1672.7500      0.0000    543.7400      5.7593    132.5173
  1673.0000      0.0000    553.2048      5.6105    131.7771
  1673.2500      0.0000    558.3433      5.4624    129.8206
  1673.5000      0.0000    557.8770      5.4021    128.8713
  1673.7500      0.0000    552.0701      5.4461    129.4752
  1674.0000      0.0000    543.0903      5.5542    131.4071
  1674.2500      0.0000    533.9199      5.6725    134.9536
  1674.5000      0.0000    526.5507      5.7500    140.2208
  1674.7500      0.0000    521.0403      5.7473    145.6930
  1675.0000      0.0000    516.0024      5.6568    148.7281
  1675.2500      0.0000    509.9671      5.5127    147.9757
  1675.5000      0.0000    502.6130      5.3694    144.7603
  1675.7500      0.0000    494.8494      5.2648    141.6265
  1676.0000      0.0000    487.4080      5.2106    139.9478
  1676.2500      0.0000    479.3347      5.2130    139.2583
  1676.5000      0.0000    468.5382      5.2883    138.2753
  1676.7500      0.0000    454.4979      5.4502    136.0492
  1677.0000      0.0000    440.6361      5.6782    132.3533
  1677.2500      0.0000    433.7883      5.8983    127.3381
  1677.5000      0.0000    440.6765      6.0207    121.2533
  1677.7500      0.0000    464.0350      6.0155    114.9351
  1678.0000      0.0000    501.4650      5.9348    110.0471
  1678.2500      0.0000    547.0820      5.8581    107.8076
  1678.5000      0.0000    593.3535      5.8406    107.6319
  1678.7500      0.0000    632.4410      5.9064    108.0367
  1679.0000      0.0000    659.0905      6.0425    108.6600
  1679.2500      0.0000    673.8290      6.1806    110.1547
  1679.5000      0.0000    681.9241      6.2285    112.3425
  1679.7500      0.0000    688.6335      6.1501    113.9417
  1680.0000      0.0000    696.0603      5.9934    114.3811
  1680.2500      0.0000    703.6150      5.8199    114.8009
  1680.5000      0.0000    709.9109      5.6231    116.6396
  1680.7500      0.0000    714.2410      5.3441    119.4585
  1681.0000      0.0000    716.9916      4.9642    120.5524
  1681.2500      0.0000    718.8112      4.5457    117.1786
  1681.5000      0.0000    719.4742      4.1680    109.4917
  1681.7500      0.0000    717.8937      3.8533    101.0181
  1682.0000      0.0000    713.3985      3.5774     95.7261
  1682.2500      0.0000    706.6743      3.3282     94.4033
  1682.5000      0.0000    699.4089      3.1278     93.9493
  1682.7500      0.0000    693.3990      3.0098     90.2631
  1683.0000      0.0000    690.0158      2.9885     81.8357
  1683.2500      0.0000    689.9427      3.0380     70.6264
  1683.5000      0.0000    693.1311      3.0949     59.9116
  1683.7500      0.0000    699.1544      3.0984     51.7963
  1684.0000      0.0000    707.3516      3.0377     46.6614
  1684.2500      0.0000    716.3036      2.9648     44.0454
  1684.5000      0.0000    723.5782      2.9585     43.2798
  1684.7500      0.0000    727.0894      3.0678     43.5028
  1685.0000      0.0000    727.1768      3.2715     43.8428
  1685.2500      0.0000    726.5145      3.4860     43.9321
  1685.5000      0.0000    727.3960      3.6223     44.0911
  1685.7500      0.0000    729.6682      3.6512     45.0349
  1686.0000      0.0000    731.2631      3.6199     47.6208
  1686.2500      0.0000    729.1632      3.6165     52.8759
  1686.5000      0.0000    719.9148      3.7075     61.8025
  1686.7500      0.0000    701.5001      3.8895     74.5904
  1687.0000      0.0000    675.6953      4.1017     89.9160
  1687.2500      0.0000    647.6832      4.2933    105.3169
  1687.5000      0.0000    622.7516      4.4641    118.5367
  1687.7500      0.0000    603.2688      4.6369    128.5225
  1688.0000      0.0000    587.7920      4.8277    135.2405
  1688.2500      0.0000    573.2930      5.0532    138.8405
  1688.5000      0.0000    559.5573      5.3169    139.2020
  1688.7500      0.0000    550.5186      5.5587    135.9811
  1689.0000      0.0000    549.1109      5.6684    128.7286
  1689.2500      0.0000    551.9974      5.6018    117.3083
  1689.5000      0.0000    552.0716      5.4536    102.8076
  1689.7500      0.0000    545.3798      5.3825     87.7976
  1690.0000      0.0000    533.5824      5.4709     75.0902
  1690.2500      0.0000    520.8016      5.6657     66.2600
  1690.5000      0.0000    510.1890      5.8446     61.4058
  1690.7500      0.0000    502.8163      5.9303     59.7053
  1691.0000      0.0000    498.0625      5.9306     59.7756
  1691.2500      0.0000    494.6488      5.8846     60.0148
  1691.5000      0.0000    491.9516      5.7990     59.3189
  1691.7500      0.0000    491.1813      5.6521     57.5576
  1692.0000      0.0000    495.6119      5.4572     55.1729
  1692.2500      0.0000    509.4918      5.2922     52.4450
  1692.5000      0.0000    535.6285      5.2318     49.3823
  1692.7500      0.0000    572.6630      5.2601     46.1002
  1693.0000      0.0000    614.2147      5.2941     42.9582
  1693.2500      0.0000    651.8002      5.2907     40.4243
  1693.5000      0.0000    679.7326      5.2816     39.0379
  1693.7500      0.0000    697.5317      5.3108     39.3200
  1694.0000      0.0000    708.2410      5.3745     41.3384
  1694.2500      0.0000    715.2956      5.4279     44.2907
  1694.5000      0.0000    720.7759      5.4383     46.9101
  1694.7500      0.0000    725.4769      5.4269     48.5402
  1695.0000      0.0000    729.7153      5.4448     49.6069
  1695.2500      0.0000    734.1179      5.5088     50.8414
  1695.5000      0.0000    739.9740      5.5869     52.1700
  1695.7500      0.0000    748.4496      5.6407     52.6111
  1696.0000      0.0000    758.8271      5.6479     51.3810
  1696.2500      0.0000    767.7946      5.6001     48.9537
  1696.5000      0.0000    771.4148      5.5155     46.8210
  1696.7500      0.0000    768.1973      5.4364     46.2379
  1697.0000      0.0000    759.8520      5.3806     47.2913
  1697.2500      0.0000    748.9720      5.3118     48.9673
  1697.5000      0.0000    736.3677      5.1894     49.8504
  1697.7500      0.0000    721.0281      5.0321     48.9714
  1698.0000      0.0000    702.5375      4.8996     46.3956
  1698.2500      0.0000    683.5392      4.8223     43.1309
  1698.5000      0.0000    669.7803      4.7892     40.4464
  1698.7500      0.0000    667.0894      4.7926     39.2187
  1699.0000      0.0000    677.3198      4.8396     39.6293
  1699.2500      0.0000    696.5370      4.9141     41.2126
  1699.5000      0.0000    717.2033      4.9571     43.2740
  1699.7500      0.0000    732.6713      4.9060     45.3130
  1700.0000      0.0000    739.8235      4.7437     46.9699
  1700.2500      0.0000    737.6688      4.5015     47.9512
  1700.5000      0.0000    724.5343      4.2293     48.4474
  1700.7500      0.0000    698.2520      3.9784     49.3528
