~Version Information
VERS.                      2.0: CWLS Log ASCII Standard - VERSION 2.0
WRAP.                       NO: One line per depth step
~Well Information Block
STRT.FT               360.0000: 
STOP.FT              1622.7000: 
STEP.FT                 0.1000: 
NULL.                -999.2500: 
COMP.          Pioneer Natural Resources: COMPANY
WELL.                Eric 42-9: WELL
FLD.           Purgatoire River: FIELD
LOC.           2050' FNL & 850' FEL: LOCATION
PROV.                 Colorado: PROVINCE
CNTY.               Las Animas: COUNTRY
SRVC.                Patterson: SERVICE COMPANY
DATE.          Mon Nov 01 08:19:51 2004: LOG DATE
UWI.           05 071 07999 00: UNIQUE WELL ID
~Curve Information Block
DEPT.FT            0 000 00 00: Depth
DCAL.in                       : CDL Caliper
RHOB.g/cc                     : CDL Bulk Density
RHOC.g/cc                     : CDL Density Correction
DPOR.pu                       : CDL Density Porosity
NPOR.pu                       : Neutron Porosity
GR.GAPI                       : Gamma Ray
~Parameter Information Block
~A  Depth       DCAL        RHOB        RHOC        DPOR        NPOR         GR     
# ...
  1176.0000      8.1945      2.5010      0.0521      9.0299     23.7038    134.0964
  1176.1000      8.1945      2.5145      0.0352      8.2149     24.3773    135.3040
  1176.2000      8.1945      2.5252      0.0711      7.5632     24.3034    134.8294
  1176.3000      8.1974      2.5236      0.0489      7.6627     23.6974    130.8010
  1176.4000      8.1974      2.5173      0.0248      8.0394     22.8731    127.2737
  1176.5000      8.1988      2.5198      0.0471      7.8929     21.9873    129.3588
  1176.6000      8.1988      2.5197      0.0522      7.8973     21.2205    137.3651
  1176.7000      8.1988      2.5067      0.0193      8.6845     20.8087    145.0803
  1176.8000      8.1982      2.4973      0.0336      9.2565     20.7176    142.9003
  1176.9000      8.1982      2.5090      0.0170      8.5460     20.2898    134.2617
  1177.0000      8.1962      2.5415      0.0172      6.5739     18.8156    128.8896
  1177.1000      8.1962      2.5771      0.0477      4.4194     17.0279    122.9425
  1177.2000      8.1962      2.5869      0.0955      3.8270     16.1958    113.5040
  1177.3000      8.1955      2.5669      0.0317      5.0387     16.0581    108.0090
  1177.4000      8.1955      2.5436      0.0443      6.4485     15.7309    107.7014
  1177.5000      8.1964      2.5300      0.0508      7.2719     14.9909    105.2056
  1177.6000      8.1964      2.5248      0.0101      7.5896     14.2813     97.9314
  1177.7000      8.1964      2.5276      0.0287      7.4191     14.0131     90.2809
  1177.8000      8.1969      2.5330      0.0139      7.0889     13.9720     85.1584
  1177.9000      8.1969      2.5378      0.0617      6.8005     13.8504     79.1528
  1178.0000      8.1962      2.5416      0.0235      6.5669     13.7095     72.4587
  1178.1000      8.1962      2.5428      0.0275      6.4979     13.6924     70.6199
  1178.2000      8.1962      2.5402      0.0204      6.6537     13.6136     72.8150
  1178.3000      8.1961      2.5398      0.0399      6.6804     13.3799     71.2678
  1178.4000      8.1961      2.5459      0.0473      6.3076     13.3615     64.7175
  1178.5000      8.1970      2.5466      0.0733      6.2680     13.8455     59.2812
  1178.6000      8.1970      2.5312      0.0451      7.1984     14.5041     56.7226
  1178.7000      8.1970      2.5125      0.0186      8.3310     14.8387     55.9230
  1178.8000      8.1982      2.5050      0.0444      8.7908     14.7818     57.1055
  1178.9000      8.1982      2.5090      0.0193      8.5434     14.4219     56.8583
  1179.0000      8.1989      2.5140      0.0638      8.2442     14.1178     50.2245
  1179.1000      8.1989      2.5019      0.0553      8.9788     14.3021     42.0119
  1179.2000      8.1989      2.4728      0.0391     10.7374     14.8195     39.5040
  1179.3000      8.1993      2.4461      0.0036     12.3605     15.0956     42.9122
  1179.4000      8.1993      2.4322      0.0215     13.1999     14.7718     49.6024
  1179.5000      8.1988      2.4290      0.0052     13.3913     14.1900     56.3376
  1179.6000      8.1988      2.4340      0.0056     13.0938     13.9425     58.2379
  1179.7000      8.1988      2.4415      0.0217     12.6342     14.0911     54.2692
  1179.8000      8.1978      2.4449      0.0448     12.4294     14.5089     50.8410
  1179.9000      8.1978      2.4420      0.0608     12.6071     15.0569     51.5247
  1180.0000      8.1973      2.4320      0.0570     13.2113     15.4768     51.1795
  1180.1000      8.1973      2.4197      0.0140     13.9581     15.6568     46.7497
  1180.2000      8.1973      2.4152      0.0204     14.2299     15.3969     43.1051
  1180.3000      8.1964      2.4153      0.0505     14.2230     14.7473     43.4311
  1180.4000      8.1964      2.4071      0.0213     14.7202     14.2282     46.5806
  1180.5000      8.1955      2.3936     -0.0258     15.5415     13.9471     52.1352
  1180.6000      8.1955      2.3851      0.0209     16.0552     13.9310     58.0361
  1180.7000      8.1955      2.3809      0.0415     16.3113     14.5263     58.9246
  1180.8000      8.1961      2.3767      0.0288     16.5609     15.3659     54.5288
  1180.9000      8.1961      2.3685      0.0228     17.0628     15.4367     49.5513
  1181.0000      8.1952      2.3586     -0.0092     17.6601     14.7784     45.8120
  1181.1000      8.1952      2.3554      0.0225     17.8527     14.3993     44.7955
  1181.2000      8.1952      2.3541      0.0352     17.9341     14.5425     47.5430
  1181.3000      8.1939      2.3503      0.0079     18.1659     14.4854     51.1420
  1181.4000      8.1939      2.3520      0.0280     18.0606     13.9951     53.8036
  1181.5000      8.1970      2.3584      0.0277     17.6754     13.5391     55.1402
  1181.6000      8.1970      2.3604      0.0393     17.5532     13.3629     54.1623
  1181.7000      8.1970      2.3545      0.0034     17.9111     13.6149     50.3383
  1181.8000      8.2004      2.3402      0.0219     18.7751     14.2184     44.2042
  1181.9000      8.2004      2.3254     -0.0032     19.6743     14.8248     38.6935
  1182.0000      8.2005      2.3231     -0.0068     19.8135     15.3198     37.2760
  1182.1000      8.2005      2.3304      0.0096     19.3692     15.4548     39.6360
  1182.2000      8.2005      2.3346      0.0200     19.1179     15.0766     41.7932
  1182.3000      8.1997      2.3361      0.0160     19.0249     14.6725     41.3971
  1182.4000      8.1997      2.3431      0.0088     18.5981     14.7309     39.9922
  1182.5000      8.1987      2.3483      0.0717     18.2821     15.3010     40.5587
  1182.6000      8.1987      2.3413      0.0092     18.7114     15.9662     43.1538
  1182.7000      8.1987      2.3316      0.0446     19.2995     16.1780     44.4666
  1182.8000      8.1964      2.3326      0.0171     19.2367     15.7306     42.9061
  1182.9000      8.1964      2.3490      0.0327     18.2411     14.8951     40.9657
  1183.0000      8.1874      2.3698      0.0734     16.9836     14.2808     41.7440
  1183.1000      8.1874      2.3775      0.0801     16.5160     14.3884     45.2129
  1183.2000      8.1874      2.3769      0.0392     16.5521     15.1039     48.8879
  1183.3000      8.1795      2.3834      0.0350     16.1587     15.6620     51.0678
  1183.4000      8.1795      2.3937      0.0829     15.5362     15.4350     50.1256
  1183.5000      8.1862      2.3961      0.0648     15.3882     14.9806     45.4054
  1183.6000      8.1862      2.3878      0.0723     15.8926     14.8954     40.0138
  1183.7000      8.1862      2.3724      0.0445     16.8219     14.8386     36.0638
  1183.8000      8.1941      2.3612      0.0477     17.5023     14.4990     33.2433
  1183.9000      8.1941      2.3610      0.0332     17.5165     14.2559     31.8168
  1184.0000      8.1962      2.3628      0.0647     17.4049     14.5281     31.9108
  1184.1000      8.1962      2.3586      0.0375     17.6632     15.2823     33.5333
  1184.2000      8.1962      2.3552      0.0445     17.8673     16.0279     35.4059
  1184.3000      8.1975      2.3552      0.0523     17.8645     15.9850     37.0686
  1184.4000      8.1975      2.3469      0.0620     18.3712     15.0279     40.4325
  1184.5000      8.1984      2.3271      0.0002     19.5677     14.0010     43.0722
  1184.6000      8.1984      2.3122     -0.0060     20.4725     13.5101     40.2616
  1184.7000      8.1984      2.3122      0.0231     20.4730     13.6321     32.2174
  1184.8000      8.1983      2.3217      0.0343     19.8966     14.1545     24.8679
  1184.9000      8.1983      2.3382      0.0127     18.8955     14.6283     23.5489
  1185.0000      8.1975      2.3615      0.0575     17.4830     14.7461     26.9285
  1185.1000      8.1975      2.3761      0.0954     16.6008     14.4890     29.8877
  1185.2000      8.1975      2.3675      0.0678     17.1188     14.1739     31.1168
  1185.3000      8.1966      2.3494      0.0104     18.2205     14.1713     33.5512
  1185.4000      8.1966      2.3430      0.0208     18.6077     14.4809     36.7085
  1185.5000      8.1962      2.3468      0.0704     18.3774     14.7114     38.9392
