~Version Information
 VERS.                      2.0: CWLS Log ASCII Standard - VERSION 2.0
 WRAP.                       NO: One line per depth step
 ~Well Information Block
 STRT.FT               462.4000: 
 STOP.FT              2260.5000: 
 STEP.FT                 0.1000: 
 NULL.                -999.2500: 
 COMP.          Petrogulf Corporation: COMPANY
 WELL.             McLeod 9-42V: WELL
 FLD.           Purgatorie River: FIELD
 LOC.           1658' FNL & 415' FEL: LOCATION
 CNTY.               Las Animas: COUNTY
 SRVC.                         : SERVICE COMPANY
 DATE.          Fri Nov 12 10:12:24 2004: LOG DATE
 UWI.           05 071 08071 00: UNIQUE WELL ID
 STAT.                 Colorado: STATE
 PROV.                         :Province
 ~Curve Information Block
 DEPT.FT            0 000 00 00: Depth
 DCAL.in                       : CDL Caliper
 RHOB.g/cc                     : CDL Bulk Density
 RHOC.g/cc                     : CDL Density Correction
 DPOR.pu                       : CDL Density Porosity
 GR.GAPI                       : Gamma Ray
 NPOR.pu                       : Neutron Porosity
 ~Parameter Information Block
 ~A  Depth       DCAL        RHOB        RHOC        DPOR         GR         NPOR    
# ...
  2248.0000      7.9758      2.5189      0.0571      7.9445     85.6525   -999.2500
  2248.1000      7.9758      2.5222      0.0258      7.7451     89.5538   -999.2500
  2248.2000      7.9758      2.5289      0.0489      7.3380     89.7279   -999.2500
  2248.3000      7.9772      2.5380      0.0549      6.7872     85.5949   -999.2500
  2248.4000      7.9772      2.5394      0.0402      6.7037     80.7657   -999.2500
  2248.5000      7.9810      2.5330      0.0209      7.0939     77.1323   -999.2500
  2248.6000      7.9810      2.5272      0.0603      7.4448     74.6005   -999.2500
  2248.7000      7.9810      2.5227      0.0424      7.7146     74.7678   -999.2500
  2248.8000      7.9857      2.5191      0.0170      7.9312     76.6237   -999.2500
  2248.9000      7.9857      2.5145      0.0229      8.2123     72.8697   -999.2500
  2249.0000      7.9793      2.5032      0.0095      8.8985     55.0036   -999.2500
  2249.1000      7.9793      2.4966     -0.0471      9.2976     28.3539   -999.2500
  2249.2000      7.9793      2.5070      0.0030      8.6646      8.9758   -999.2500
  2249.3000      7.9801      2.5198      0.0054      7.8913      1.6335   -999.2500
  2249.4000      7.9801      2.5230      0.0078      7.6949      0.1643   -999.2500
  2249.5000      7.9787      2.5222     -0.0019      7.7444      0.0087   -999.2500
  2249.6000      7.9787      2.5183      0.0522      7.9802      0.0000   -999.2500
  2249.7000      7.9787      2.5138     -0.0070      8.2535   -999.2500   -999.2500
  2249.8000      7.9832      2.5154      0.0307      8.1568   -999.2500   -999.2500
  2249.9000      7.9832      2.5162      0.0122      8.1081   -999.2500   -999.2500
  2250.0000      7.9947      2.5028      0.0011      8.9226   -999.2500   -999.2500
  2250.1000      7.9947      2.4646      0.0470     11.2361   -999.2500   -999.2500
  2250.2000      7.9947      2.4072     -0.0132     14.7172   -999.2500   -999.2500
  2250.3000      7.9918      2.3601     -0.0712     17.5674   -999.2500   -999.2500
  2250.4000      7.9918      2.3417     -0.0253     18.6855   -999.2500   -999.2500
  2250.5000      7.9895      2.3367     -0.0252     18.9872   -999.2500   -999.2500
  2250.6000      7.9895      2.3315     -0.0401     19.3054   -999.2500   -999.2500
  2250.7000      7.9895      2.3412     -0.0501     18.7179   -999.2500   -999.2500
  2250.8000      7.9952      2.3866      0.0372     15.9660   -999.2500   -999.2500
  2250.9000      7.9952      2.4585      0.1633     11.6062   -999.2500   -999.2500
  2251.0000      8.0225      2.5253      0.1714      7.5577   -999.2500   -999.2500
  2251.1000      8.0225      2.5685      0.1588      4.9409   -999.2500   -999.2500
  2251.2000      8.0225      2.5900      0.0849      3.6378   -999.2500   -999.2500
  2251.3000      8.0623      2.5992      0.0675      3.0809   -999.2500   -999.2500
  2251.4000      8.0623      2.6001      0.1063      3.0246   -999.2500   -999.2500
  2251.5000      7.9729      2.5949      0.0818      3.3399   -999.2500   -999.2500
  2251.6000      7.9729      2.5926      0.0807      3.4787   -999.2500   -999.2500
  2251.7000      7.9729      2.5972      0.1158      3.1979   -999.2500   -999.2500
  2251.8000      7.9515      2.6002      0.0885      3.0182   -999.2500   -999.2500
  2251.9000      7.9515      2.5967      0.0640      3.2325   -999.2500   -999.2500
  2252.0000      7.9116      2.6012      0.0190      2.9557   -999.2500   -999.2500
  2252.1000      7.9116      2.6230      0.0864      1.6361   -999.2500   -999.2500
  2252.2000      7.9116      2.6400      0.0781      0.6073   -999.2500   -999.2500
  2252.3000      7.9048      2.6263      0.0983      1.4349   -999.2500   -999.2500
  2252.4000      7.9048      2.5872      0.0158      3.8036   -999.2500   -999.2500
  2252.5000      7.9016      2.5496      0.0568      6.0879   -999.2500   -999.2500
  2252.6000      7.9016      2.5237      0.0084      7.6541   -999.2500   -999.2500
  2252.7000      7.9016      2.5119      0.0012      8.3671   -999.2500   -999.2500
  2252.8000      7.9019      2.5222     -0.0103      7.7471   -999.2500   -999.2500
  2252.9000      7.9019      2.5445      0.0594      6.3957   -999.2500   -999.2500
  2253.0000      7.8982      2.5529      0.0465      5.8860   -999.2500   -999.2500
  2253.1000      7.8982      2.5368      0.0798      6.8635   -999.2500   -999.2500
  2253.2000      7.8982      2.5038      0.0070      8.8589   -999.2500   -999.2500
  2253.3000      7.8808      2.4693      0.0485     10.9514   -999.2500   -999.2500
  2253.4000      7.8808      2.4461     -0.0066     12.3555   -999.2500   -999.2500
  2253.5000      7.8442      2.4384      0.0507     12.8224   -999.2500   -999.2500
  2253.6000      7.8442      2.4420      0.0167     12.6037   -999.2500   -999.2500
  2253.7000      7.8442      2.4564      0.0533     11.7334   -999.2500   -999.2500
  2253.8000      7.8178      2.4879      0.0735      9.8261   -999.2500   -999.2500
  2253.9000      7.8178      2.5327      0.1891      7.1072   -999.2500   -999.2500
  2254.0000      7.8217      2.5681      0.2586      4.9622   -999.2500   -999.2500
  2254.1000      7.8217      2.5841      0.2287      3.9954   -999.2500   -999.2500
  2254.2000      7.8217      2.5983      0.1857      3.1332   -999.2500   -999.2500
  2254.3000      7.8511      2.6126      0.2247      2.2654   -999.2500   -999.2500
  2254.4000      7.8511      2.6054      0.1747      2.7019   -999.2500   -999.2500
  2254.5000      7.7966      2.5751      0.1593      4.5370   -999.2500   -999.2500
  2254.6000      7.7966      2.5413      0.1191      6.5859   -999.2500   -999.2500
  2254.7000      7.7966      2.5193      0.1063      7.9192   -999.2500   -999.2500
  2254.8000      7.6669      2.5165      0.0882      8.0915   -999.2500   -999.2500
  2254.9000      7.6669      2.5330      0.1176      7.0924   -999.2500   -999.2500
  2255.0000      7.5925      2.5606      0.1370      5.4162   -999.2500   -999.2500
  2255.1000      7.5925      2.5881      0.1550      3.7510   -999.2500   -999.2500
  2255.2000      7.5925      2.6033      0.1834      2.8274   -999.2500   -999.2500
  2255.3000      7.5878      2.5971      0.1958      3.2087   -999.2500   -999.2500
  2255.4000      7.5878      2.5733      0.1446      4.6473   -999.2500   -999.2500
  2255.5000      7.6380      2.5492      0.1123      6.1069   -999.2500   -999.2500
  2255.6000      7.6380      2.5348      0.1056      6.9824   -999.2500   -999.2500
  2255.7000      7.6380      2.5282      0.0676      7.3820   -999.2500   -999.2500
  2255.8000      7.7288      2.5275      0.0671      7.4262   -999.2500   -999.2500
  2255.9000      7.7288      2.5249      0.1018      7.5838   -999.2500   -999.2500
  2256.0000      7.7597      2.5129      0.0656      8.3095   -999.2500   -999.2500
  2256.1000      7.7597      2.5008      0.0681      9.0403   -999.2500   -999.2500
  2256.2000      7.7597      2.4991      0.0827      9.1457   -999.2500   -999.2500
  2256.3000      7.7307      2.5053      0.0850      8.7707   -999.2500   -999.2500
  2256.4000      7.7307      2.5159      0.0850      8.1252   -999.2500   -999.2500
  2256.5000      7.4687      2.5274      0.0894      7.4332   -999.2500   -999.2500
  2256.6000      7.4687      2.5352      0.0993      6.9596   -999.2500   -999.2500
  2256.7000      7.4687      2.5619      0.1140      5.3394   -999.2500   -999.2500
  2256.8000      7.4579      2.6515      0.1316     -0.0910   -999.2500   -999.2500
  2256.9000      7.4579      2.6874      0.1335     -2.2641   -999.2500   -999.2500
  2257.0000      7.5391      2.2504      0.5906     24.2172   -999.2500   -999.2500
  2257.1000      7.5391      1.2783      0.0000     83.1338   -999.2500   -999.2500
  2257.2000      7.5391      0.4335      0.0000    134.3321   -999.2500   -999.2500
  2257.3000      7.0565      0.0823   -999.2500    155.6165   -999.2500   -999.2500
  2257.4000      7.0565      0.0085   -999.2500    160.0917   -999.2500   -999.2500
  2257.5000      3.0849      0.0005   -999.2500    160.5781   -999.2500   -999.2500
