~Version Information
VERS.                      2.0: CWLS Log ASCII Standard - VERSION 2.0
WRAP.                       NO: One line per depth step
~Well Information Block
STRT.FT               -19.2500: 
STOP.FT              2421.5000: 
STEP.FT                 0.2500: 
NULL.                -999.2500: 
COMP.          Petrogulf Corporation: COMPANY
WELL.           Montoya 13-41V: WELL
FLD.           Purgatorie River: FIELD
LOC.           449' FNL & 891' FEL: LOCATION
CNTY.               Las Animas: COUNTY
SRVC.                         : SERVICE COMPANY
DATE.          Mon Sep 13 13:48:36 2004: LOG DATE
UWI.                       N/A: UNIQUE WELL ID
STAT.                 Colorado: STATE
~Curve Information Block
DEPT.FT            0 000 00 00: Depth
TT3.usec                      : CBL 3' Travel Time
AMP3.mV                       : CBL 3' Amplitude
GR.GAPI                       : Gamma Ray
CCL.                          : Casing Collar Locator
~Parameter Information Block
~A  Depth       TT3         AMP3         GR         CCL     
# ...
   315.7500    310.9270     77.7265    105.3110      0.0000
   316.0000    310.8830     77.5783    102.0470      0.0000
   316.2500    310.7860     77.4104     95.3172      0.0000
   316.5000    310.7339     77.1881     87.0965      0.0000
   316.7500    310.7870     76.9594     79.4326      0.0000
   317.0000    310.8907     76.8292     73.8337      0.0000
   317.2500    310.9640     76.8375     70.8843      0.0000
   317.5000    310.9924     76.9081     70.1784      0.0000
   317.7500    310.9990     76.9671     70.8494      0.0000
   318.0000    310.9999     77.0478     72.1602      0.0000
   318.2500    311.0000     77.2047     73.5117      0.0000
   318.5000    311.0000     77.3898     74.3232      0.0000
   318.7500    311.0000     77.5038     74.3687      0.0000
   319.0000    311.0000     77.5135     74.1419      0.0000
   319.2500    311.0000     77.4306     74.6494      0.0000
   319.5000    311.0000     77.2378     76.7333      0.0000
   319.7500    311.0000     76.9527     80.3949      0.0000
   320.0000    311.0000     76.6888     84.6050      0.0000
   320.2500    311.0001     76.5331     88.0268      0.0000
   320.5000    311.0010     76.4705     90.1805      0.0000
   320.7500    311.0077     76.5002     91.7287      0.0000
   321.0000    311.0370     76.6758     93.5193      0.0000
   321.2500    311.1169     76.9772     95.7296      0.0000
   321.5000    311.2478     77.2795     98.1403      0.0000
   321.7500    311.3667     77.4893    100.8028      0.0000
   322.0000    311.3824     77.5808    104.0428      0.0000
   322.2500    311.2300     77.5004    108.0021      0.0000
   322.5000    310.9267     77.1998    112.3764      0.0000
   322.7500    310.6381     76.7891    116.3153      0.0000
   323.0000    310.5591     76.4988    118.4870      0.0000
   323.2500    310.6931     76.4584    117.7715      0.0000
   323.5000    310.8928     76.6160    114.3579      0.0000
   323.7500    311.0745     76.8471    110.0169      0.0000
   324.0000    311.2478     77.0679    106.9333      0.0000
   324.2500    311.4091     77.2659    106.1666      0.0000
   324.5000    311.5276     77.4507    107.1516      0.0000
   324.7500    311.5523     77.5763    108.5001      0.0000
   325.0000    311.4056     77.5540    109.1900      0.0000
   325.2500    311.1169     77.3682    109.0903      0.0000
   325.5000    310.8804     77.1145    108.5909      0.0000
   325.7500    310.8307     76.9107    108.1290      0.0000
   326.0000    310.8993     76.8138    108.2098      0.0000
   326.2500    310.9651     76.7971    109.4012      0.0000
   326.5000    310.9925     76.7720    111.8700      0.0000
   326.7500    310.9990     76.6647    115.0842      0.0000
   327.0000    310.9999     76.5070    118.0860      0.0000
   327.2500    311.0000     76.4173    119.6668      0.0000
   327.5000    311.0000     76.4598    118.3124      0.0000
   327.7500    311.0000     76.5611    113.0202      0.0000
   328.0000    311.0000     76.6019    104.8133      0.0000
   328.2500    311.0000     76.5545     96.8053      0.0000
   328.5000    311.0000     76.4727     92.1166      0.0000
   328.7500    311.0000     76.3781     91.8864      0.0000
   329.0000    311.0000     76.2404     95.1503      0.0000
   329.2500    311.0000     76.0617     99.9659      0.0000
   329.5000    311.0000     75.9110    104.5798      0.0000
   329.7500    311.0000     75.8575    108.2482      0.0000
   330.0000    311.0000     75.8998    111.4186      0.0000
   330.2500    311.0000     75.9940    114.9446      0.0000
   330.5000    311.0000     76.1114    118.9634      0.0000
   330.7500    311.0000     76.2245    122.6733      0.0000
   331.0000    311.0000     76.2791    125.1645      0.0000
   331.2500    311.0000     76.2326    126.1609      0.0000
   331.5000    311.0000     76.1162    125.9580      0.0000
   331.7500    311.0000     76.0170    124.9661      0.0000
   332.0000    311.0000     75.9870    123.4440      0.0000
   332.2500    311.0000     76.0324    121.5908      0.0000
   332.5000    311.0000     76.1839    119.5795      0.0000
   332.7500    311.0000     76.4644    117.1110      0.0000
   333.0000    311.0000     76.7996    113.0632      0.0000
   333.2500    311.0000     77.0742    106.3973      0.0000
   333.5000    311.0000     77.2527     97.7118      0.0000
   333.7500    311.0000     77.3512     89.4227      0.0000
   334.0000    311.0000     77.3523     84.3722      0.0000
   334.2500    311.0000     77.2459     84.4095      0.0000
   334.5000    311.0000     77.1054     89.5288      0.0000
   334.7500    310.9999     77.0322     97.5103      0.0000
   335.0000    310.9990     77.0530    104.8044      0.0000
   335.2500    310.9924     77.1392    108.5713      0.0000
   335.5000    310.9639     77.2818    108.1660      0.0000
   335.7500    310.8896     77.4919    104.8771      0.0000
   336.0000    310.7794     77.7529    100.5536      0.0000
   336.2500    310.6970     78.0057     96.4102      0.0000
   336.5000    310.6700     78.1840     92.7269      0.0000
   336.7500    310.6407     78.2590     89.4823      0.0000
   337.0000    310.5811     78.2572     87.1694      0.0000
   337.2500    310.5304     78.2575     86.5891      0.0000
   337.5000    310.5133     78.3449     87.6258      0.0000
   337.7500    310.5303     78.5285     88.7735      0.0000
   338.0000    310.5801     78.7250     88.4001      0.0000
   338.2500    310.6330     78.8340     86.2075      0.0000
   338.5000    310.6330     78.8175     83.1157      0.0000
   338.7500    310.5801     78.7315     80.0175      0.0000
   339.0000    310.5304     78.6847     77.0828      0.0000
   339.2500    310.5143     78.7407     74.1840      0.0000
   339.5000    310.5380     78.8753     71.6506      0.0000
   339.7500    310.6171     79.0241     70.4723      0.0000
   340.0000    310.7500     79.1427     71.7542      0.0000
   340.2500    310.8830     79.2462     75.8695      0.0000
   340.5000    310.9630     79.3983     81.9652      0.0000
   340.7500    310.9923     79.6250     88.3198      0.0000
   341.0000    310.9990     79.8478     93.5181      0.0000
   341.2500    310.9999     79.9378     97.5005      0.0000
   341.5000    311.0000     79.8456    101.3078      0.0000
   341.7500    311.0000     79.6732    105.6154      0.0000
   342.0000    311.0000     79.5839    109.6757      0.0000
   342.2500    311.0000     79.6408    111.8748      0.0000
   342.5000    311.0000     79.7818    111.2080      0.0000
   342.7500    311.0000     79.9252    108.1387      0.0000
   343.0000    311.0000     80.0405    104.1981      0.0000
   343.2500    311.0000     80.1398    100.7994      0.0000
   343.5000    311.0000     80.2453     98.3718      0.0000
   343.7500    311.0000     80.3651     96.6009      0.0000
   344.0000    311.0000     80.4757     95.2355      0.0000
   344.2500    311.0000     80.5411     94.2771      0.0000
   344.5000    311.0000     80.5587     93.5195      0.0000
   344.7500    311.0000     80.5663     92.4764      0.0000
   345.0000    311.0000     80.6017     90.9462      0.0000
   345.2500    311.0000     80.6710     89.3020      0.0000
   345.5000    311.0000     80.7524     88.0787      0.0000
   345.7500    311.0000     80.8198     87.4395      0.0000
   346.0000    311.0000     80.8659     87.1598      0.0000
   346.2500    311.0000     80.8993     87.1477      0.0000
   346.5000    311.0000     80.9314     87.9280      0.0000
   346.7500    311.0000     80.9731     90.3066      0.0000
   347.0000    311.0000     81.0311     94.2558      0.0000
   347.2500    311.0000     81.1048     98.2853      0.0000
   347.5000    311.0000     81.1926    100.4363      0.0000
   347.7500    311.0000     81.2966    100.0722      0.0000
   348.0000    311.0000     81.4064     98.5102      0.0000
   348.2500    311.0000     81.4876     97.9407      0.0000
   348.5000    311.0000     81.5169     99.8659      0.0000
   348.7500    311.0000     81.5095    104.2299      0.0000
   349.0000    311.0000     81.4898    109.5159      0.0000
