~Version Information
VERS.                      2.0: CWLS Log ASCII Standard - VERSION 2.0
WRAP.                       NO: One line per depth step
~Well Information Block
STRT.FT               902.0000: 
STOP.FT              2428.2000: 
STEP.FT                 0.1000: 
NULL.                -999.2500: 
COMP.          Pioneer Natural Resources: COMPANY
WELL.            Victory 12-14: WELL
FLD.           Purgatoire River: FIELD
LOC.           2434' FNL & 188' FWL: LOCATION
PROV.                 Colorado: PROVINCE
CNTY.               Las Animas: COUNTRY
SRVC.                Patterson: SERVICE COMPANY
DATE.          Mon Apr 18 07:24:17 2005: LOG DATE
UWI.           05 071 08332 00: UNIQUE WELL ID
~Curve Information Block
DEPT.FT            0 000 00 00: Depth
DCAL.in                       : CDL Caliper
RHOB.g/cc                     : CDL Bulk Density
RHOC.g/cc                     : CDL Density Correction
DPOR.pu                       : CDL Density Porosity
GR.GAPI                       : Gamma Ray
NPOR.pu                       : Neutron Porosity
~Parameter Information Block
~A  Depth       DCAL        RHOB        RHOC        DPOR         GR         NPOR    
# ...
  1804.4000      8.1397      2.5020      0.1157      8.9686    155.9703     24.1482
  1804.5000      8.1372      2.5002      0.1294      9.0793    147.8755     23.2815
  1804.6000      8.1372      2.4650      0.1731     11.2099    142.0704     21.5977
  1804.7000      8.1372      2.3607      0.1736     17.5337    135.5975     19.6947
  1804.8000      8.1821      2.2037      0.0599     27.0457    126.5248     18.3597
  1804.9000      8.1821      2.0514      0.0547     36.2810    118.7126     17.5555
  1805.0000      8.1950      1.9275      0.0215     43.7873    112.6952     16.5686
  1805.1000      8.1950      1.8007     -0.0555     51.4705    102.8007     15.1950
  1805.2000      8.1950      1.6404     -0.0886     61.1850     89.5830     13.8677
  1805.3000      8.1846      1.4695     -0.1022     71.5450     79.3445     12.8913
  1805.4000      8.1846      1.3507     -0.0594     78.7463     73.6612     12.2762
  1805.5000      8.1851      1.3120      0.0903     81.0883     70.2244     11.8346
  1805.6000      8.1851      1.3227      0.1274     80.4413     68.3195     11.2870
  1805.7000      8.1851      1.3536      0.0929     78.5703     66.7193     10.5324
  1805.8000      8.1783      1.3925      0.2362     76.2140     64.1556      9.9883
  1805.9000      8.1783      1.4126      0.2646     74.9942     62.1314     10.1223
  1806.0000      8.3291      1.4011      0.1858     75.6915     63.3489     10.9546
  1806.1000      8.3291      1.3939      0.0917     76.1282     69.8256     12.1799
  1806.2000      8.3291      1.4429      0.1190     73.1563     78.1625     13.4070
  1806.3000      8.6415      1.5609      0.1811     66.0065     80.4773     14.5630
  1806.4000      8.6415      1.7061      0.2264     57.2080     77.1737     16.1536
  1806.5000      8.6669      1.8229      0.2062     50.1281     77.2088     18.5747
  1806.6000      8.6669      1.9016      0.1854     45.3555     83.5350     21.3835
  1806.7000      8.6669      1.9815      0.2309     40.5149     92.4257     23.5508
  1806.8000      8.4504      2.1075      0.2288     32.8808    100.1841     24.4131
  1806.9000      8.4504      2.2726      0.2870     22.8731    107.2501     24.6084
  1807.0000      8.3661      2.4044      0.1930     14.8873    115.0318     25.1419
  1807.1000      8.3661      2.4552      0.0492     11.8036    121.6143     25.8986
  1807.2000      8.3661      2.4583     -0.0048     11.6175    126.9748     26.3132
  1807.3000      8.4560      2.4614     -0.0100     11.4299    131.4295     26.4327
  1807.4000      8.4560      2.4758     -0.0113     10.5576    131.8019     26.4522
  1807.5000      8.0045      2.4945      0.0280      9.4241    125.9293     26.3262
  1807.6000      8.0045      2.5173     -0.0208      8.0430    117.7155     25.8682
  1807.7000      8.0045      2.5470      0.0154      6.2441    113.3859     24.9043
  1807.8000      7.9418      2.5681      0.0678      4.9636    113.0439     23.5682
  1807.9000      7.9418      2.5546      0.1269      5.7793    111.5070     22.4094
  1808.0000      7.9402      2.5130      0.0149      8.3020    108.3766     21.9118
  1808.1000      7.9402      2.4965     -0.0100      9.3009    110.4690     21.8549
  1808.2000      7.9402      2.5348      0.0733      6.9842    117.6705     21.6240
  1808.3000      7.9304      2.5908      0.0689      3.5888    120.6802     21.2869
  1808.4000      7.9304      2.6202      0.0771      1.8030    117.1194     21.1451
  1808.5000      7.9202      2.6142      0.0923      2.1725    113.2416     21.2616
  1808.6000      7.9202      2.5873      0.0414      3.8008    110.4334     21.7058
  1808.7000      7.9202      2.5643      0.0350      5.1962    106.6386     22.2554
  1808.8000      7.9222      2.5624      0.0151      5.3103    102.5995     22.4920
  1808.9000      7.9222      2.5793      0.0699      4.2862    100.0850     22.4121
  1809.0000      7.9286      2.5939      0.0812      3.3988     98.4702     22.4184
  1809.1000      7.9286      2.5940      0.0709      3.3954     93.4571     22.3285
  1809.2000      7.9286      2.5948     -0.0032      3.3455     85.9763     21.7408
  1809.3000      7.9237      2.6026      0.1230      2.8709     83.5381     21.0413
  1809.4000      7.9237      2.6002      0.0672      3.0154     85.9575     20.6998
  1809.5000      7.9334      2.5853      0.0183      3.9227     85.7760     20.7138
  1809.6000      7.9334      2.5678      0.0190      4.9793     82.4715     20.8476
  1809.7000      7.9334      2.5589      0.0051      5.5234     83.1848     20.7362
  1809.8000      7.9529      2.5677     -0.0049      4.9881     89.8826     20.5482
  1809.9000      7.9529      2.5774      0.0841      4.4017     97.4385     20.5646
  1810.0000      7.9695      2.5633      0.0110      5.2567    103.2246     20.6752
  1810.1000      7.9695      2.5382      0.0102      6.7771    108.3928     20.8168
  1810.2000      7.9695      2.5294     -0.0467      7.3103    114.2037     20.8263
  1810.3000      7.9741      2.5445     -0.0118      6.3953    121.7070     20.6839
  1810.4000      7.9741      2.5760     -0.0026      4.4823    127.4260     20.6167
  1810.5000      7.9802      2.6024      0.1205      2.8838    128.8013     20.6554
  1810.6000      7.9802      2.5954      0.0340      3.3098    129.6486     20.9521
  1810.7000      7.9802      2.5607      0.0062      5.4141    129.5865     21.5700
  1810.8000      7.9805      2.5291      0.0164      7.3302    124.6423     22.1661
  1810.9000      7.9805      2.5145      0.0221      8.2104    117.3040     22.5949
  1811.0000      7.9952      2.5145     -0.0124      8.2150    113.5245     23.0212
  1811.1000      7.9952      2.5262     -0.0574      7.5056    114.3521     23.4557
  1811.2000      7.9952      2.5443      0.0033      6.4077    116.6498     23.7970
  1811.3000      8.0344      2.5557      0.0603      5.7153    117.8777     23.9314
  1811.4000      8.0344      2.5614      0.0361      5.3725    118.7468     23.7404
  1811.5000      8.0389      2.5744      0.0189      4.5823    118.4937     23.3523
  1811.6000      8.0389      2.5935      0.0069      3.4245    116.1055     23.1856
  1811.7000      8.0389      2.6063      0.0359      2.6455    113.7695     23.4887
  1811.8000      8.0326      2.6041      0.0873      2.7827    110.8107     23.9072
  1811.9000      8.0326      2.5795      0.0799      4.2717    105.9061     24.0481
  1812.0000      7.9643      2.5369      0.0762      6.8569    103.1803     24.0264
  1812.1000      7.9643      2.5042      0.0240      8.8347    106.3948     23.9466
  1812.2000      7.9643      2.5119      0.0699      8.3672    112.0387     23.7450
  1812.3000      7.9133      2.5516      0.1396      5.9613    114.4487     23.2759
  1812.4000      7.9133      2.5944      0.1082      3.3716    113.8672     22.5883
  1812.5000      7.8875      2.6273      0.0968      1.3739    114.4699     22.0596
  1812.6000      7.8875      2.6434      0.1415      0.4009    117.0800     21.8706
  1812.7000      7.8875      2.6435      0.1244      0.3935    120.3665     21.9029
  1812.8000      7.9188      2.6426      0.1364      0.4462    122.6588     22.1785
  1812.9000      7.9188      2.6491      0.1371      0.0558    120.2033     22.6275
  1813.0000      7.9182      2.6526      0.1663     -0.1593    114.3125     22.8393
  1813.1000      7.9182      2.6373      0.1527      0.7696    115.1626     22.7739
  1813.2000      7.9182      2.6070      0.0581      2.6033    126.1348     22.7175
  1813.3000      7.9336      2.5842      0.0743      3.9901    136.3952     22.7907
  1813.4000      7.9336      2.5759      0.0718      4.4884    139.0194     22.9639
  1813.5000      7.9734      2.5712      0.0773      4.7774    137.5171     23.1408
  1813.6000      7.9734      2.5634      0.0369      5.2458    135.7466     23.1269
  1813.7000      7.9734      2.5552      0.0634      5.7429    138.6984     22.8463
  1813.8000      8.0140      2.5551      0.0084      5.7516    147.2018     22.6093
  1813.9000      8.0140      2.5671      0.0202      5.0218    153.5393     22.5420
