~Version Information
VERS.                      2.0: CWLS Log ASCII Standard - VERSION 2.0
WRAP.                       NO: One line per depth step
~Well Information Block
STRT.FT               550.0000: 
STOP.FT              2359.0000: 
STEP.FT                 0.1000: 
NULL.                -999.2500: 
COMP.          Pioneer Natural Resources: COMPANY
WELL.              Whinny 42-2: WELL
FLD.           Purgatoire River: FIELD
LOC.           1836' FNL & 466' FEL: LOCATION
PROV.                 Colorado: PROVINCE
CNTY.               Las Animas: COUNTRY
SRVC.                Patterson: SERVICE COMPANY
DATE.          Mon Aug 22 07:28:42 2005: LOG DATE
UWI.           05 071 08406 00: UNIQUE WELL ID
~Curve Information Block
DEPT.FT            0 000 00 00: Depth
DCAL.in                       : CDL Caliper
RHOB.g/cc                     : CDL Bulk Density
RHOC.g/cc                     : CDL Density Correction
DPOR.pu                       : CDL Density Porosity
GR.GAPI                       : Gamma Ray
NPOR.pu                       : Neutron Porosity
~Parameter Information Block
~A  Depth       DCAL        RHOB        RHOC        DPOR         GR         NPOR    
# ...
   905.2000      8.0336      1.6358      0.2990     61.4640     79.8153     13.8227
   905.3000      8.1730      1.7627      0.2919     53.7761     81.4346     13.0976
   905.4000      8.1730      1.8838      0.3081     46.4355     85.9711     14.4649
   905.5000      8.5537      2.0023      0.3050     39.2545     88.2958     16.8237
   905.6000      8.5537      2.1154      0.2878     32.4026     89.5731     18.9443
   905.7000      8.5537      2.2123      0.2921     26.5301     95.2873     20.6268
   905.8000      8.7397      2.2916      0.1628     21.7230    101.9321     22.3550
   905.9000      8.7397      2.3621      0.1737     17.4470    102.6520     24.6103
   906.0000      8.4964      2.4126      0.1540     14.3884    101.9635     27.3950
   906.1000      8.4964      2.4277      0.1013     13.4723    103.5045     29.6872
   906.2000      8.4964      2.4179      0.0024     14.0681    102.5404     30.3082
   906.3000      8.2727      2.3986      0.0457     15.2375     98.8321     29.9410
   906.4000      8.2727      2.3736      0.0447     16.7522    100.1625     29.7665
   906.5000      8.1722      2.3534      0.0172     17.9787    107.7468     29.3987
   906.6000      8.1722      2.3536     -0.0311     17.9620    113.6828     28.3539
   906.7000      8.1722      2.3781     -0.0067     16.4759    116.7683     27.4004
   906.8000      8.0804      2.4157      0.0793     14.2022    121.5351     27.0483
   906.9000      8.0804      2.4592      0.0806     11.5630    127.1790     26.3090
   907.0000      8.0118      2.5096      0.1534      8.5113    129.6770     24.5302
   907.1000      8.0118      2.5499      0.1796      6.0666    127.8476     22.7840
   907.2000      8.0118      2.5658      0.2087      5.1047    123.5366     22.5085
   907.3000      8.0228      2.5647      0.2111      5.1696    121.5396     23.8661
   907.4000      8.0228      2.5537      0.1494      5.8370    122.3842     25.5130
   907.5000      8.0312      2.5348      0.0828      6.9803    120.2984     26.0189
   907.6000      8.0312      2.5158      0.0618      8.1334    118.1851     25.7283
   907.7000      8.0312      2.5035      0.1056      8.8767    124.7756     25.5450
   907.8000      8.0454      2.4968      0.0663      9.2828    135.8359     24.9473
   907.9000      8.0454      2.4923      0.0799      9.5547    139.8827     23.6569
   908.0000      8.0580      2.4929      0.0897      9.5231    137.9151     23.1073
   908.1000      8.0580      2.5062      0.0344      8.7162    137.6939     24.3293
   908.2000      8.0580      2.5211      0.0857      7.8149    138.5240     26.3239
   908.3000      8.0639      2.5131      0.0624      8.2982    136.3973     27.3141
   908.4000      8.0639      2.4855      0.0406      9.9691    132.7702     26.9638
   908.5000      8.0636      2.4588      0.0411     11.5908    129.0013     26.6206
   908.6000      8.0636      2.4406      0.0410     12.6931    126.3477     27.2782
   908.7000      8.0636      2.4333      0.0121     13.1352    130.0274     28.4028
   908.8000      8.0662      2.4399      0.0396     12.7326    138.1632     28.8899
   908.9000      8.0662      2.4587      0.0257     11.5950    139.1690     27.8758
   909.0000      8.0348      2.4887      0.0051      9.7770    130.0348     25.4584
   909.1000      8.0348      2.5228      0.0867      7.7109    119.4494     23.3160
   909.2000      8.0348      2.5537      0.0776      5.8362    115.4996     23.0752
   909.3000      8.0227      2.5892      0.1099      3.6863    115.8457     24.8924
   909.4000      8.0227      2.6165      0.1786      2.0294    115.2567     27.7591
   909.5000      8.0658      2.6002      0.1599      3.0195    117.1482     29.8163
   909.6000      8.0658      2.5446      0.0498      6.3855    123.6352     30.0206
   909.7000      8.0658      2.4940     -0.0195      9.4544    128.5674     29.3742
   909.8000      8.0633      2.4750     -0.0366     10.6055    131.6546     28.9267
   909.9000      8.0633      2.4871     -0.0624      9.8709    138.2967     28.4780
   910.0000      8.0323      2.5165      0.0084      8.0919    144.1565     27.6576
   910.1000      8.0323      2.5377      0.0707      6.8089    140.3248     26.6597
   910.2000      8.0323      2.5284      0.0840      7.3721    126.7732     26.0906
   910.3000      8.0508      2.4963      0.0071      9.3174    113.0760     25.9628
   910.4000      8.0508      2.4666      0.0847     11.1170    109.7439     25.5284
   910.5000      8.0879      2.4441      0.0597     12.4783    119.0048     24.3643
   910.6000      8.0879      2.4237      0.0346     13.7166    132.0120     22.7864
   910.7000      8.0879      2.4086      0.0100     14.6283    140.0929     21.6353
   910.8000      8.1006      2.3978      0.0330     15.2868    145.0099     21.3123
   910.9000      8.1006      2.3834      0.0313     16.1582    152.0320     21.4007
   911.0000      8.1141      2.3712     -0.0453     16.8956    161.2538     21.5888
   911.1000      8.1141      2.3687      0.0019     17.0464    163.9967     21.8124
   911.2000      8.1141      2.3710      0.0123     16.9119    152.6176     21.8649
   911.3000      8.1149      2.3816      0.0059     16.2678    135.0284     21.7781
   911.4000      8.1149      2.4045      0.0247     14.8802    123.8393     21.4660
   911.5000      8.0680      2.4335      0.0519     13.1228    120.3552     20.9558
   911.6000      8.0680      2.4577      0.1304     11.6521    118.8843     20.9579
   911.7000      8.0680      2.4590      0.1487     11.5776    119.0768     22.1679
   911.8000      8.0874      2.4360      0.0941     12.9712    123.4012     24.7938
   911.9000      8.0874      2.4074      0.0956     14.7035    128.3719     27.8731
   912.0000      8.1353      2.3842      0.0887     16.1071    129.8187     29.5359
   912.1000      8.1353      2.3767      0.0477     16.5640    129.1770     29.3887
   912.2000      8.1353      2.4002      0.0179     15.1372    130.3565     28.3473
   912.3000      8.1931      2.4476      0.0612     12.2675    132.8938     26.5395
   912.4000      8.1931      2.4857      0.0664      9.9581    132.0143     23.9678
   912.5000      8.2055      2.4960      0.0503      9.3323    125.3636     22.1194
   912.6000      8.2055      2.4962      0.0554      9.3231    118.9619     22.6384
   912.7000      8.2055      2.5102      0.1483      8.4712    119.5168     25.3250
   912.8000      8.2131      2.5384      0.1693      6.7651    122.9550     28.2532
   912.9000      8.2131      2.5659      0.2021      5.0965    123.2132     29.5623
   913.0000      8.2304      2.5831      0.1069      4.0562    122.9252     29.0818
   913.1000      8.2304      2.5809      0.1405      4.1892    125.7492     28.0927
   913.2000      8.2304      2.5466      0.1251      6.2670    131.1311     27.9950
   913.3000      8.2265      2.4906      0.0373      9.6599    136.8104     28.8147
   913.4000      8.2265      2.4421      0.0211     12.5985    140.0478     29.5869
   913.5000      8.1692      2.4176     -0.0453     14.0822    140.1908     29.9154
   913.6000      8.1692      2.4100      0.0388     14.5441    137.3655     30.0495
   913.7000      8.1692      2.3960      0.0374     15.3923    133.2195     29.8754
   913.8000      8.1722      2.3718      0.0108     16.8578    129.7750     29.0418
   913.9000      8.1722      2.3649     -0.0712     17.2801    125.3578     27.8220
   914.0000      8.1731      2.3857      0.0124     16.0154    123.1333     26.6364
   914.1000      8.1731      2.4097      0.0352     14.5615    130.0312     25.3138
   914.2000      8.1731      2.4256      0.0414     13.6002    141.3274     23.6921
   914.3000      8.1820      2.4452      0.0346     12.4115    147.1713     22.2526
   914.4000      8.1820      2.4697      0.0585     10.9267    145.0453     21.3266
   914.5000      8.1793      2.4856      0.0743      9.9652    138.4522     20.6231
   914.6000      8.1793      2.4894      0.0623      9.7351    132.8439     20.1732
   914.7000      8.1793      2.4896      0.0956      9.7213    131.1606     20.7738
