~Version Information
VERS.                      2.0: CWLS Log ASCII Standard - VERSION 2.0
WRAP.                       NO: One line per depth step
~Well Information Block
STRT.FT                -4.7500: 
STOP.FT              1784.7500: 
STEP.FT                 0.2500: 
NULL.                -999.2500: 
COMP.          Pioneer Natural Resources: COMPANY
WELL.          Buckeye 11-13 Tr: WELL
FLD.           Purgatorie River: FIELD
LOC.           211' FNL & 1054' FWL--: LOCATION
STAT.                       CO: State
CNTY.               Las Animas: COUNTY
CTRY. USA : Country
SECT. 13 : Section
TOWN. 33S : Township
RANG. 67W : range
SRVC.          Patterson Wireline: SERVICE COMPANY
DATE.          Wed Mar 16 09:19:21 2005: LOG DATE
API.           05 071 08317 00: UNIQUE WELL ID
~Curve Information Block
DEPT.FT            0 000 00 00: Depth
CCL.                          : Casing Collar Locator
TT3.usec                      : CBL 3' Travel Time
AMP3.mV                       : CBL 3' Amplitude
GR.GAPI                       : Gamma Ray
~Parameter Information Block
~A  Depth       CCL         TT3         AMP3         GR     
# ...
   799.2500      0.0000    792.7012      5.7179    124.6762
   799.5000      0.0000    788.9384      5.7392    122.2701
   799.7500      0.0000    786.1165      5.7596    119.3122
   800.0000      0.0000    784.1328      5.7535    116.4100
   800.2500      0.0000    783.0991      5.7305    115.1430
   800.5000      0.0000    783.3686      5.7190    116.8606
   800.7500      0.0000    785.3065      5.7289    122.0008
   801.0000      0.0000    789.0282      5.7365    130.0064
   801.2500      0.0000    794.1970      5.7107    139.2891
   801.5000      0.0000    800.0682      5.6510    147.5132
   801.7500      0.0000    805.7397      5.5964    152.8315
   802.0000      0.0000    810.2939      5.5931    155.1872
   802.2500      0.0000    812.9750      5.6535    156.0280
   802.5000      0.0000    813.5765      5.7448    156.6057
   802.7500      0.0000    812.4262      5.8179    156.9308
   803.0000      0.0000    809.7158      5.8484    156.4134
   803.2500      0.0000    805.2780      5.8507    154.9424
   803.5000      0.0000    799.2519      5.8555    152.7827
   803.7500      0.0000    792.3170      5.8769    149.5999
   804.0000      0.0000    784.8784      5.8998    144.5463
   804.2500      0.0000    776.7801      5.8951    137.9816
   804.5000      0.0000    768.6080      5.8459    132.3261
   804.7500      0.0000    762.7894      5.7646    130.1610
   805.0000      0.0000    762.1716      5.6899    131.7681
   805.2500      0.0000    767.1187      5.6656    135.0827
   805.5000      0.0000    774.7810      5.7108    137.5222
   805.7500      0.0000    781.5431      5.8016    137.4096
   806.0000      0.0000    785.6143      5.8843    134.3802
   806.2500      0.0000    787.2583      5.9171    129.3392
   806.5000      0.0000    787.4739      5.9041    123.8238
   806.7500      0.0000    786.9594      5.8885    118.8909
   807.0000      0.0000    785.8760      5.9111    114.7672
   807.2500      0.0000    784.0667      5.9758    111.5383
   807.5000      0.0000    781.4908      6.0503    109.4726
   807.7500      0.0000    778.5582      6.0953    108.4641
   808.0000      0.0000    775.8977      6.0910    107.7875
   808.2500      0.0000    773.7214      6.0412    106.6944
   808.5000      0.0000    771.6954      5.9655    105.0553
   808.7500      0.0000    769.5375      5.8908    103.3768
   809.0000      0.0000    767.3968      5.8426    102.2514
   809.2500      0.0000    765.6546      5.8280    101.8283
   809.5000      0.0000    764.8350      5.8235    101.8283
   809.7500      0.0000    765.7208      5.7903    101.9978
   810.0000      0.0000    768.9335      5.7122    102.4289
   810.2500      0.0000    774.1143      5.6171    103.4793
   810.5000      0.0000    779.9603      5.5564    105.6145
   810.7500      0.0000    785.2982      5.5604    109.3391
   811.0000      0.0000    789.7252      5.6098    114.8003
   811.2500      0.0000    793.1294      5.6564    121.0785
   811.5000      0.0000    795.2443      5.6698    126.4829
   811.7500      0.0000    796.1107      5.6652    130.2859
   812.0000      0.0000    796.5065      5.6817    133.6720
   812.2500      0.0000    797.2498      5.7417    138.1631
   812.5000      0.0000    798.1717      5.8351    143.5225
   812.7500      0.0000    798.2613      5.9345    147.9013
   813.0000      0.0000    796.9037      6.0168    149.7462
   813.2500      0.0000    794.6432      6.0707    149.0369
   813.5000      0.0000    792.6432      6.0927    146.9632
   813.7500      0.0000    791.7520      6.0816    145.0016
   814.0000      0.0000    792.1686      6.0368    144.3404
   814.2500      0.0000    793.5027      5.9604    145.6578
   814.5000      0.0000    794.8170      5.8584    148.8023
   814.7500      0.0000    794.9847      5.7422    152.5755
   815.0000      0.0000    793.5382      5.6341    155.3021
   815.2500      0.0000    791.1392      5.5677    155.9759
   815.5000      0.0000    788.9955      5.5702    155.0369
   815.7500      0.0000    787.9567      5.6381    153.9863
   816.0000      0.0000    788.2758      5.7348    153.9571
   816.2500      0.0000    789.8644      5.8152    154.4430
   816.5000      0.0000    792.3117      5.8539    153.5804
   816.7500      0.0000    794.6855      5.8496    149.9950
   817.0000      0.0000    795.8288      5.8128    144.4707
   817.2500      0.0000    795.2277      5.7585    139.6126
   817.5000      0.0000    793.4327      5.7069    137.5158
   817.7500      0.0000    791.4500      5.6783    137.5963
   818.0000      0.0000    789.8872      5.6760    136.9061
   818.2500      0.0000    788.7608      5.6836    132.7940
   818.5000      0.0000    787.8441      5.6886    125.4791
   818.7500      0.0000    787.0040      5.7042    118.2705
   819.0000      0.0000    786.2819      5.7534    115.0722
   819.2500      0.0000    785.7533      5.8347    117.0451
   819.5000      0.0000    785.3278      5.9235    121.3971
   819.7500      0.0000    784.6574      6.0021    123.5227
   820.0000      0.0000    783.3170      6.0698    120.4259
   820.2500      0.0000    781.2504      6.1205    112.4083
   820.5000      0.0000    779.1302      6.1355    102.1042
   820.7500      0.0000    778.0449      6.1095     92.2025
   821.0000      0.0000    778.5939      6.0643     83.7750
   821.2500      0.0000    780.4700      6.0215     76.3836
   821.5000      0.0000    783.2141      5.9752     69.4613
   821.7500      0.0000    787.1308      5.9116     63.3656
   822.0000      0.0000    793.0148      5.8431     59.1932
   822.2500      0.0000    800.7313      5.7943     57.8518
   822.5000      0.0000    808.1887      5.7501     59.3170
   822.7500      0.0000    812.2729      5.6536     62.5652
   823.0000      0.0000    811.2508      5.4769     66.0370
   823.2500      0.0000    806.0622      5.2646     68.2726
   823.5000      0.0000    799.1126      5.0800     68.5082
   823.7500      0.0000    792.7806      4.9345     67.1254
   824.0000      2.0000    789.4688      4.7966     65.8038
   824.2500      0.0000    791.4127      4.6506     67.1533
   824.5000     -2.0000    798.6295      4.5189     73.4580
   824.7500      0.0000    807.1561      4.4361     84.7034
   825.0000      0.0000    810.4998      4.4204     97.6099
   825.2500      0.0000    804.0834      4.4667    107.6197
   825.5000      0.0000    789.2228      4.5550    112.6043
   825.7500      0.0000    772.5509      4.6639    114.2643
   826.0000      0.0000    761.2125      4.7760    115.4661
   826.2500      0.0000    759.0081      4.8719    116.7807
   826.5000      0.0000    766.2689      4.9272    116.2951
   826.7500      0.0000    780.8184      4.9273    112.3771
   827.0000      0.0000    798.1646      4.8827    105.6797
   827.2500      0.0000    812.4582      4.8228     98.4269
   827.5000      0.0000    818.8073      4.7712     92.4476
   827.7500      0.0000    815.8156      4.7291     88.1780
   828.0000      0.0000    806.9648      4.6859     84.9535
   828.2500      0.0000    798.7449      4.6375     81.7116
   828.5000      0.0000    795.1058      4.5867     77.7140
   828.7500      0.0000    793.5956      4.5346     73.1478
   829.0000      0.0000    788.7289      4.4825     69.0076
   829.2500      0.0000    778.9772      4.4378     66.1575
   829.5000      0.0000    768.5772      4.4075     64.5465
   829.7500      0.0000    762.6238      4.3931     63.3385
   830.0000      0.0000    762.4375      4.3963     61.7153
   830.2500      0.0000    765.9813      4.4166     59.6886
   830.5000      0.0000    770.8170      4.4404     58.2665
   830.7500      0.0000    775.2302      4.4446     58.7982
   831.0000      0.0000    777.1110      4.4197     61.9115
   831.2500      0.0000    773.6912      4.3803     66.6603
   831.5000      0.0000    764.0122      4.3466     70.7403
   831.7500      0.0000    751.7362      4.3275     72.3088
   832.0000      0.0000    744.3702      4.3235     71.9215
   832.2500      0.0000    748.6997      4.3347     72.2124
   832.5000      0.0000    766.0331      4.3600     75.4059
