~Version Information
VERS.                      2.0: CWLS Log ASCII Standard - VERSION 2.0
WRAP.                       NO: One line per depth step
~Well Information Block
STRT.FT               -11.7500: 
STOP.FT              2025.5000: 
STEP.FT                 0.2500: 
NULL.                -999.2500: 
COMP.          Evergreen Operating Corp.: COMPANY
WELL.            Sumatra 34-22: WELL
FLD.           Purgatorie River: FIELD
LOC.           542 FSL & 2438 FEL--: LOCATION
PROV.                       CO: PROVINCE
CNTY.               Las Animas: COUNTRY
SRVC.          Patterson Wireline, Inc.: SERVICE COMPANY
DATE.          Wed Apr 02 10:17:21 2003: LOG DATE
UWI.           05 071 07804 00: UNIQUE WELL ID
~Curve Information Block
DEPT.FT            0 000 00 00: Depth
CCL.                          : Casing Collar Locator
TT3.usec                      : CBL 3' Travel Time
AMP3.mV                       : CBL 3' Amplitude
GR.GAPI                       : Gamma Ray
~Parameter Information Block
~A  Depth       CCL         TT3         AMP3         GR     
# ...
   256.2500      0.0000    858.6116      3.9137     73.8418
   256.5000      0.0000    843.4371      3.9767     73.6860
   256.7500      0.0000    817.3488      4.0920     73.4089
   257.0000      0.0000    786.0504      4.1951     73.6461
   257.2500      0.0000    761.0032      4.2386     75.0554
   257.5000      0.0000    746.8221      4.2249     77.3432
   257.7500      0.0000    741.0795      4.1653     79.5878
   258.0000      0.0000    739.7288      4.0821     81.1607
   258.2500      0.0000    739.9888      4.0117     82.0933
   258.5000      0.0000    740.5984      3.9653     82.7107
   258.7500      0.0000    741.1429      3.9327     83.1535
   259.0000      0.0000    741.5401      3.9181     83.4127
   259.2500      0.0000    742.0845      3.9330     83.6585
   259.5000      0.0000    744.3333      3.9675     84.2712
   259.7500      0.0000    751.5341      4.0087     85.5796
   260.0000      0.0000    765.5037      4.0550     87.6962
   260.2500      0.0000    782.3562      4.0955     90.3698
   260.5000      0.0000    794.8092      4.1085     92.8577
   260.7500      0.0000    797.5320      4.0777     94.2914
   261.0000      0.0000    789.9781      4.0158     94.4415
   261.2500      0.0000    780.2523      3.9639     94.0445
   261.5000      0.0000    780.5202      3.9453     94.2651
   261.7500      0.0000    792.3932      3.9563     95.7759
   262.0000      0.0000    806.2745      3.9890     98.1796
   262.2500      0.0000    815.5438      4.0311    100.1724
   262.5000      0.0000    821.5343      4.0839    100.4329
   262.7500      0.0000    826.4751      4.1570     98.6291
   263.0000      0.0000    828.7333      4.2191     95.6326
   263.2500      0.0000    826.5683      4.2186     92.7064
   263.5000      0.0000    822.5278      4.1582     90.5034
   263.7500      0.0000    820.7743      4.0940     88.8142
   264.0000      0.0000    823.2439      4.0678     87.1291
   264.2500      0.0000    829.1432      4.0745     85.4483
   264.5000      0.0000    835.9968      4.0864     84.6511
   264.7500      0.0000    842.4327      4.0927     85.9531
   265.0000      0.0000    848.6887      4.1120     89.7138
   265.2500      0.0000    853.8591      4.1680     94.8193
   265.5000      0.0000    856.6506      4.2590     99.4327
   265.7500      0.0000    857.5370      4.3474    102.3195
   266.0000      0.0000    857.7994      4.3854    103.2962
   266.2500      0.0000    858.2518      4.3642    102.6046
   266.5000      0.0000    859.0491      4.3289    100.3291
   266.7500      0.0000    859.5168      4.3353     96.6477
   267.0000      0.0000    856.7545      4.3923     92.3624
   267.2500      0.0000    841.0090      4.4611     88.8068
   267.5000      0.0000    792.6920      4.5075     87.0747
   267.7500      0.0000    698.7526      4.5190     87.3606
   268.0000      0.0000    581.7480      4.4833     89.1392
   268.2500      0.0000    489.0966      4.4036     91.9664
   268.5000      0.0000    444.6404      4.3190     95.8529
   268.7500      0.0000    437.1395      4.2723    100.8427
   269.0000      0.0000    452.0845      4.2692    106.4438
   269.2500      0.0000    493.6929      4.2847    111.5144
   269.5000      0.0000    571.5691      4.3126    114.7358
   269.7500      0.0000    664.9622      4.3801    115.5646
   270.0000      0.0000    715.9834      4.4882    114.7623
   270.2500      0.0000    681.5133      4.5885    113.5787
   270.5000      0.0000    587.6800      4.6341    112.3215
   270.7500      0.0000    509.0948      4.6349    110.2436
   271.0000      0.0000    496.8841      4.6397    106.8683
   271.2500      0.0000    540.5247      4.6337    102.7575
   271.5000      0.0000    582.1481      4.5248     98.7047
   271.7500      0.0000    576.8759      4.2708     94.6271
   272.0000      0.0000    552.9187      3.9229     89.5536
   272.2500      0.0000    579.2379      3.5942     82.6273
   272.5000      0.0000    676.0048      3.4046     73.9957
   272.7500      0.0000    792.3237      3.3239     64.6897
   273.0000      0.0000    868.1797      3.2292     55.8096
   273.2500      0.0000    889.7871      3.1381     48.0685
   273.5000      0.0000    883.3044      3.1180     41.9343
   273.7500      2.0569    877.5156      3.1512     37.7031
   274.0000     -5.0000    880.5811      3.2011     35.3363
   274.2500     -4.4824    886.5574      3.2181     34.5374
   274.5000      0.0000    891.0938      3.1576     35.0335
   274.7500      0.0000    889.5220      3.0859     36.7836
   275.0000      0.0000    874.0228      3.1519     40.2760
   275.2500      0.0000    846.4755      3.3916     46.5376
   275.5000      0.0000    820.1648      3.6289     56.0032
   275.7500      0.0000    803.4742      3.6931     67.1211
   276.0000      0.0000    794.6772      3.6473     76.8726
   276.2500      0.0000    791.0564      3.6507     83.0255
   276.5000      0.0000    791.2545      3.7586     85.4771
   276.7500      0.0000    792.3339      3.9202     85.5919
   277.0000      0.0000    793.4142      4.0590     84.9453
   277.2500      0.0000    797.4714      4.1543     84.6075
   277.5000      0.0000    802.5455      4.2465     85.0023
   277.7500      0.0000    793.6426      4.3597     86.1242
   278.0000      0.0000    745.9005      4.4654     87.7082
   278.2500      0.0000    645.6729      4.5450     89.1342
   278.5000      0.0000    518.9914      4.6335     89.7231
   278.7500      0.0000    417.2474      4.7469     89.6584
   279.0000      0.0000    364.8629      4.8247     90.2078
   279.2500      0.0000    347.7022      4.8021     92.2516
   279.5000      0.0000    344.7202      4.6793     94.8447
   279.7500      0.0000    346.3042      4.5187     96.1085
   280.0000      0.0000    351.3675      4.4173     95.5301
   280.2500      0.0000    360.5853      4.4189     94.5525
   280.5000      0.0000    372.1106      4.4420     94.7530
   280.7500      0.0000    384.0434      4.3708     96.1954
   281.0000      0.0000    403.8830      4.2105     97.9272
   281.2500      0.0000    452.4908      4.0896     99.5426
   281.5000      0.0000    544.8740      4.0903    101.6006
   281.7500      0.0000    659.9458      4.1664    104.4873
   282.0000      0.0000    752.0269      4.2486    107.2722
   282.2500      0.0000    799.5259      4.2987    107.9496
   282.5000      0.0000    816.4134      4.2730    105.0192
   282.7500      0.0000    823.1492      4.1674     99.0368
   283.0000      0.0000    828.3479      4.0521     92.4327
   283.2500      0.0000    830.6361      3.9780     87.5038
   283.5000      0.0000    827.3096      3.9049     84.7841
   283.7500      0.0000    819.8386      3.7701     83.5289
   284.0000      0.0000    812.4407      3.5873     83.2416
   284.2500      0.0000    809.2133      3.4455     84.2593
   284.5000      0.0000    811.1348      3.4034     87.0903
   284.7500      0.0000    815.7429      3.4381     91.4502
   285.0000      0.0000    823.6500      3.5121     95.8993
   285.2500      0.0000    838.6468      3.6039     98.5772
   285.5000      0.0000    855.6862      3.6744     98.4651
   285.7500      0.0000    861.6616      3.6764     95.9949
   286.0000      0.0000    854.5638      3.5983     92.6285
   286.2500      0.0000    845.3493      3.4822     89.9174
   286.5000      0.0000    839.7485      3.3951     88.7493
   286.7500      0.0000    835.1514      3.3738     89.4027
   287.0000      0.0000    830.7519      3.3953     92.1671
   287.2500      0.0000    828.1343      3.4098     97.3624
   287.5000      0.0000    826.8992      3.3956    104.4638
   287.7500      0.0000    824.8621      3.3642    111.6067
   288.0000      0.0000    819.8309      3.3363    116.4710
   288.2500      0.0000    811.6447      3.3331    117.8597
   288.5000      0.0000    804.3270      3.3732    116.4675
   288.7500      0.0000    802.5979      3.4607    114.0976
   289.0000      0.0000    804.2890      3.5638    112.1884
   289.2500      0.0000    802.1232      3.6161    111.0452
   289.5000      0.0000    793.5250      3.5769    110.1265
