~Version Information
VERS.                      2.0: CWLS Log ASCII Standard - VERSION 2.0
WRAP.                       NO: One line per depth step
~Well Information Block
STRT.FT                15.0000: 
STOP.FT              1891.7500: 
STEP.FT                 0.2500: 
NULL.                -999.2500: 
COMP.          Pioneer Natural Resources: COMPANY
WELL.          Oink Oink 14-36 Tr: WELL
FLD.           Purgatoire River: FIELD
LOC.           236' FSL & 164' FWL: LOCATION
PROV.                 Colorado: PROVINCE
CNTY.               Las Animas: COUNTRY
SRVC.                Patterson: SERVICE COMPANY
DATE.          Wed Jun 22 11:40:13 2005: LOG DATE
UWI.           05 071 08393 00: UNIQUE WELL ID
~Curve Information Block
DEPT.FT            0 000 00 00: Depth
GR.GAPI                       : Gamma Ray
CCL.                          : Casing Collar Locator
TT3.usec                      : CBL 3' Travel Time
AMP3.mV                       : CBL 3' Amplitude
~Parameter Information Block
~A  Depth        GR         CCL         TT3         AMP3    
# ...
  1857.5000    100.0461      0.0000    539.8568      6.0898
  1857.7500     93.3286      0.0000    559.8720      6.1147
  1858.0000     85.1412      0.0000    589.5782      6.0821
  1858.2500     77.8443      0.0000    617.3273      5.9885
  1858.5000     74.4150      0.0000    633.3712      5.8623
  1858.7500     77.0040      0.0000    636.5615      5.7440
  1859.0000     85.6619      0.0000    633.1532      5.6574
  1859.2500     97.9925      0.0000    629.9471      5.6031
  1859.5000    110.2530      0.0000    629.0012      5.5731
  1859.7500    119.3951      0.0000    627.7114      5.5664
  1860.0000    124.2907      0.0000    622.4684      5.5895
  1860.2500    125.1712      0.0000    612.4323      5.6457
  1860.5000    122.6341      0.0000    600.9625      5.7270
  1860.7500    117.7624      0.0000    593.2350      5.8166
  1861.0000    112.5574      0.0000    591.1639      5.8996
  1861.2500    109.1047      0.0000    590.5785      5.9685
  1861.5000    108.0070      0.0000    584.2902      6.0188
  1861.7500    108.0586      0.0000    568.0410      6.0441
  1862.0000    107.6429      0.0000    543.2072      6.0400
  1862.2500    106.2002      0.0000    515.1216      6.0128
  1862.5000    104.2867      0.0000    490.6538      5.9781
  1862.7500    102.6245      0.0000    476.2515      5.9509
  1863.0000    101.4301      0.0000    474.9237      5.9389
  1863.2500    100.4072      0.0000    484.0948      5.9443
  1863.5000     98.9760      0.0000    497.9481      5.9675
  1863.7500     96.5947      0.0000    511.9706      6.0064
  1864.0000     93.2990      0.0000    523.7985      6.0567
  1864.2500     90.0604      0.0000    530.4230      6.1121
  1864.5000     88.2298      0.0000    528.1287      6.1641
  1864.7500     88.3100      0.0000    517.4991      6.2023
  1865.0000     89.5598      0.0000    506.5828      6.2219
  1865.2500     91.2031      0.0000    506.0319      6.2325
  1865.5000     93.6920      0.0000    520.2300      6.2514
  1865.7500     98.2364      0.0000    543.2900      6.2856
  1866.0000    105.3159      0.0000    563.3474      6.3214
  1866.2500    114.1645      0.0000    571.1935      6.3364
  1866.5000    123.4143      0.0000    565.9220      6.3193
  1866.7500    131.6144      0.0000    552.9414      6.2796
  1867.0000    137.4026      0.0000    537.4964      6.2435
  1867.2500    139.9832      0.0000    521.5229      6.2379
  1867.5000    139.6613      0.0000    505.9491      6.2737
  1867.7500    137.7010      0.0000    492.4917      6.3379
  1868.0000    135.6237      0.0000    482.0393      6.4032
  1868.2500    134.5404      0.0000    473.7968      6.4448
  1868.5000    134.8045      0.0000    466.9572      6.4494
  1868.7500    135.9187      0.0000    461.7113      6.4142
  1869.0000    136.5901      0.0000    458.3206      6.3443
  1869.2500    135.2251      0.0000    456.3238      6.2527
  1869.5000    131.0353      0.0000    454.8655      6.1642
  1869.7500    124.9928      0.0000    453.2464      6.1109
  1870.0000    119.3197      0.0000    451.1357      6.1138
  1870.2500    115.6088      0.0000    448.5265      6.1688
  1870.5000    113.5054      0.0000    445.5746      6.2505
  1870.7500    111.4204      0.0000    442.4267      6.3303
  1871.0000    108.3998      0.0000    439.1635      6.3883
  1871.2500    105.0042      0.0000    435.8536      6.4145
  1871.5000    102.3408      0.0000    432.6398      6.4058
  1871.7500    100.6982      0.0000    429.7563      6.3654
  1872.0000     99.5654      0.0000    427.4651      6.3032
  1872.2500     98.6889      0.0000    425.9571      6.2339
  1872.5000     98.5038      0.0000    425.2899      6.1721
  1872.7500     99.4704      0.0000    425.4000      6.1296
  1873.0000    101.4034      0.0000    426.2900      6.1129
  1873.2500    103.6911      0.0000    428.3508      6.1174
  1873.5000    106.0737      0.0000    432.6303      6.1274
  1873.7500    108.9905      0.0000    440.4799      6.1269
  1874.0000    112.9406      0.0000    452.1861      6.1090
  1874.2500    117.4834      0.0000    465.8125      6.0747
  1874.5000    121.1723      0.0000    478.7457      6.0306
  1874.7500    122.7658      0.0000    491.4013      5.9918
  1875.0000    122.5500      0.0000    508.0076      5.9818
  1875.2500    122.2926      0.0000    532.1754      6.0185
  1875.5000    123.6323      0.0000    562.6636      6.0989
  1875.7500    126.5438      0.0000    594.5463      6.1996
  1876.0000    129.6939      0.0000    623.2050      6.2923
  1876.2500    132.2093      0.0000    646.1928      6.3574
  1876.5000    134.5988      0.0000    662.8372      6.3844
  1876.7500    137.7210      0.0000    673.3757      6.3622
  1877.0000    141.1805      0.0000    677.0986      6.2735
  1877.2500    143.2162      0.0000    668.3117      6.0862
  1877.5000    142.3161      0.0000    633.5243      5.7390
  1877.7500    138.6242      0.0000    557.2032      5.1574
  1878.0000    133.6163      0.0000    437.1652      4.3322
  1878.2500    128.7592      0.0000    295.1989      3.3909
  1878.5000    124.7300      0.0000    166.7890      2.5480
  1878.7500    121.4750      0.0000     77.2467      1.9606
  1879.0000    118.6159      0.0000     28.9040      1.6426
  1879.2500    115.9264      0.0000      8.6479      1.5089
  1879.5000    113.6126      0.0000      2.0515      1.4652
  1879.7500    112.1108      0.0000      0.3806      1.4541
  1880.0000    111.6075      0.0000      0.0506      1.4519
  1880.2500    111.7074      0.0000   -999.2500   -999.2500
  1880.5000    111.4658      0.0000   -999.2500   -999.2500
  1880.7500    109.8973      0.0000   -999.2500   -999.2500
  1881.0000    106.7290      0.0000   -999.2500   -999.2500
  1881.2500    102.8415      0.0000   -999.2500   -999.2500
  1881.5000     99.9927      0.0000   -999.2500   -999.2500
  1881.7500     99.9070      0.0000   -999.2500   -999.2500
  1882.0000    103.3273      0.0000   -999.2500   -999.2500
  1882.2500    109.6300      0.0000   -999.2500   -999.2500
  1882.5000    117.0170      0.0000   -999.2500   -999.2500
  1882.7500    123.2184      0.0000   -999.2500   -999.2500
  1883.0000    126.7207      0.0000   -999.2500   -999.2500
  1883.2500    127.7263      0.0000   -999.2500   -999.2500
  1883.5000    127.7427      0.0000   -999.2500   -999.2500
  1883.7500    128.1875      0.0000   -999.2500   -999.2500
  1884.0000    129.4788      0.0000   -999.2500   -999.2500
  1884.2500    131.1560      0.0000   -999.2500   -999.2500
  1884.5000    132.5553      0.0000   -999.2500   -999.2500
  1884.7500    133.4890      0.0000   -999.2500   -999.2500
  1885.0000    134.3392      0.0000   -999.2500   -999.2500
  1885.2500    135.6149      0.0000   -999.2500   -999.2500
  1885.5000    137.7086      0.0000   -999.2500   -999.2500
  1885.7500    140.8008      0.0000   -999.2500   -999.2500
  1886.0000    144.3568   -999.2500   -999.2500   -999.2500
  1886.2500    146.8075   -999.2500   -999.2500   -999.2500
  1886.5000    146.2724   -999.2500   -999.2500   -999.2500
  1886.7500    141.6515   -999.2500   -999.2500   -999.2500
  1887.0000    132.8412   -999.2500   -999.2500   -999.2500
  1887.2500    120.0812   -999.2500   -999.2500   -999.2500
  1887.5000    103.4352   -999.2500   -999.2500   -999.2500
  1887.7500     83.1341   -999.2500   -999.2500   -999.2500
  1888.0000     60.5631   -999.2500   -999.2500   -999.2500
  1888.2500     38.7275   -999.2500   -999.2500   -999.2500
  1888.5000     21.0960   -999.2500   -999.2500   -999.2500
  1888.7500      9.5504   -999.2500   -999.2500   -999.2500
  1889.0000      3.5263   -999.2500   -999.2500   -999.2500
  1889.2500      1.0472   -999.2500   -999.2500   -999.2500
  1889.5000      0.2473   -999.2500   -999.2500   -999.2500
  1889.7500      0.0456   -999.2500   -999.2500   -999.2500
  1890.0000      0.0061   -999.2500   -999.2500   -999.2500
  1890.2500      0.0000   -999.2500   -999.2500   -999.2500
  1890.5000   -999.2500   -999.2500   -999.2500   -999.2500
  1890.7500   -999.2500   -999.2500   -999.2500   -999.2500
