~Version Information
VERS.                      2.0: CWLS Log ASCII Standard - VERSION 2.0
WRAP.                       NO: One line per depth step
~Well Information Block
STRT.FT               860.0000: 
STOP.FT              2733.7500: 
STEP.FT                 0.2500: 
NULL.                -999.2500: 
COMP.          Pioneer Natural Resources: COMPANY
WELL.          Beacon 11-18 Tr: WELL
FLD.           Purgatoire River: FIELD
LOC.           409' FNL & 203' FWL: LOCATION
PROV.                 Colorado: PROVINCE
CNTY.               Las Animas: COUNTRY
SRVC.                Patterson: SERVICE COMPANY
DATE.          Sun Jan 16 19:36:19 2005: LOG DATE
UWI.           05 071 08251 00: UNIQUE WELL ID
~Curve Information Block
DEPT.FT            0 000 00 00: Depth
SN.Ohm-m                      : IEL Short Normal
SP.mV                         : IEL Spontaneous Potential
DIR.Ohm-m                     : IEL Induction Resistivity
GR.GAPI                       : Gamma Ray
~Parameter Information Block
~A  Depth        SN          SP         DIR          GR     
# ...
  1731.0000   2000.0000   2000.0000     11.5262    109.9446
  1731.2500   2000.0000   2000.0000     11.5924    113.9278
  1731.5000   2000.0000   2000.0000     11.6643    120.3121
  1731.7500   2000.0000   2000.0000     11.7253    123.6086
  1732.0000   2000.0000   2000.0000     11.7573    126.8247
  1732.2500   2000.0000   2000.0000     11.7496    128.5574
  1732.5000   2000.0000   2000.0000     11.7032    131.6416
  1732.7500   2000.0000   2000.0000     11.6286    133.8709
  1733.0000   2000.0000   2000.0000     11.5396    136.2270
  1733.2500   2000.0000   2000.0000     11.4509    136.4699
  1733.5000   2000.0000   2000.0000     11.3793    134.4412
  1733.7500   2000.0000   2000.0000     11.3457    131.6543
  1734.0000   2000.0000   2000.0000     11.3716    126.1227
  1734.2500   2000.0000   2000.0000     11.4708    122.2579
  1734.5000   2000.0000   2000.0000     11.6433    117.4827
  1734.7500   2000.0000   2000.0000     11.8760    115.3766
  1735.0000   2000.0000   2000.0000     12.1512    113.5125
  1735.2500   2000.0000   2000.0000     12.4563    112.6039
  1735.5000   2000.0000   2000.0000     12.7880    111.1341
  1735.7500   2000.0000   2000.0000     13.1485    110.1240
  1736.0000   2000.0000   2000.0000     13.5385    108.8187
  1736.2500   2000.0000   2000.0000     13.9528    107.9868
  1736.5000   2000.0000   2000.0000     14.3784    106.3673
  1736.7500   2000.0000   2000.0000     14.7963    105.0666
  1737.0000   2000.0000   2000.0000     15.1865    103.4548
  1737.2500   2000.0000   2000.0000     15.5359    102.9496
  1737.5000   2000.0000   2000.0000     15.8440    102.8135
  1737.7500   2000.0000   2000.0000     16.1216    102.5945
  1738.0000   2000.0000   2000.0000     16.3864    101.1857
  1738.2500   2000.0000   2000.0000     16.6597     99.3564
  1738.5000   2000.0000   2000.0000     16.9655     95.6736
  1738.7500   2000.0000   2000.0000     17.3284     93.0874
  1739.0000   2000.0000   2000.0000     17.7676     89.8268
  1739.2500   2000.0000   2000.0000     18.2889     88.2674
  1739.5000   2000.0000   2000.0000     18.8740     86.7318
  1739.7500   2000.0000   2000.0000     19.4716     86.0954
  1740.0000   2000.0000   2000.0000     20.0029     85.4351
  1740.2500   2000.0000   2000.0000     20.3837     84.9182
  1740.5000   2000.0000   2000.0000     20.5553     83.5032
  1740.7500   2000.0000   2000.0000     20.5001     82.0093
  1741.0000   2000.0000   2000.0000     20.2344     79.2612
  1741.2500   2000.0000   2000.0000     19.7907     77.5353
  1741.5000   2000.0000   2000.0000     19.2034     75.9861
  1741.7500   2000.0000   2000.0000     18.5031     75.9821
  1742.0000   2000.0000   2000.0000     17.7178     77.6065
  1742.2500   2000.0000   2000.0000     16.8771     79.7695
  1742.5000   2000.0000   2000.0000     16.0128     85.0598
  1742.7500   2000.0000   2000.0000     15.1564     90.2859
  1743.0000   2000.0000   2000.0000     14.3368    100.4626
  1743.2500   2000.0000   2000.0000     13.5795    107.9999
  1743.5000   2000.0000   2000.0000     12.9053    118.6373
  1743.7500   2000.0000   2000.0000     12.3279    124.5856
  1744.0000   2000.0000   2000.0000     11.8532    131.5304
  1744.2500   2000.0000   2000.0000     11.4810    134.9726
  1744.5000   2000.0000   2000.0000     11.2078    138.4420
  1744.7500   2000.0000   2000.0000     11.0290    139.4589
  1745.0000   2000.0000   2000.0000     10.9385    138.6993
  1745.2500   2000.0000   2000.0000     10.9262    136.7584
  1745.5000   2000.0000   2000.0000     10.9763    132.4976
  1745.7500   2000.0000   2000.0000     11.0669    129.3376
  1746.0000   2000.0000   2000.0000     11.1749    124.8777
  1746.2500   2000.0000   2000.0000     11.2820    122.4161
  1746.5000   2000.0000   2000.0000     11.3788    119.9189
  1746.7500   2000.0000   2000.0000     11.4639    119.1180
  1747.0000   2000.0000   2000.0000     11.5392    118.7632
  1747.2500   2000.0000   2000.0000     11.6053    118.6655
  1747.5000   2000.0000   2000.0000     11.6589    118.6324
  1747.7500   2000.0000   2000.0000     11.6933    119.2503
  1748.0000   2000.0000   2000.0000     11.6988    122.1436
  1748.2500   2000.0000   2000.0000     11.6664    125.1669
  1748.5000   2000.0000   2000.0000     11.5911    129.5273
  1748.7500   2000.0000   2000.0000     11.4758    131.2490
  1749.0000   2000.0000   2000.0000     11.3314    131.7240
  1749.2500   2000.0000   2000.0000     11.1738    131.4293
  1749.5000   2000.0000   2000.0000     11.0205    132.0178
  1749.7500   2000.0000   2000.0000     10.8870    133.7120
  1750.0000   2000.0000   2000.0000     10.7863    137.6083
  1750.2500   2000.0000   2000.0000     10.7275    140.2351
  1750.5000   2000.0000   2000.0000     10.7163    143.2264
  1750.7500   2000.0000   2000.0000     10.7524    144.4949
  1751.0000   2000.0000   2000.0000     10.8287    145.1760
  1751.2500   2000.0000   2000.0000     10.9316    144.4883
  1751.5000   2000.0000   2000.0000     11.0462    141.2968
  1751.7500   2000.0000   2000.0000     11.1626    137.8871
  1752.0000   2000.0000   2000.0000     11.2789    131.7679
  1752.2500   2000.0000   2000.0000     11.3961    127.6963
  1752.5000   2000.0000   2000.0000     11.5092    122.7285
  1752.7500   2000.0000   2000.0000     11.6037    120.6682
  1753.0000   2000.0000   2000.0000     11.6619    119.6440
  1753.2500   2000.0000   2000.0000     11.6725    120.0560
  1753.5000   2000.0000   2000.0000     11.6341    121.6107
  1753.7500   2000.0000   2000.0000     11.5520    122.9360
  1754.0000   2000.0000   2000.0000     11.4352    124.8405
  1754.2500   2000.0000   2000.0000     11.2978    125.6757
  1754.5000   2000.0000   2000.0000     11.1605    125.6445
  1754.7500   2000.0000   2000.0000     11.0473    124.6260
  1755.0000   2000.0000   2000.0000     10.9807    122.0713
  1755.2500   2000.0000   2000.0000     10.9767    120.3442
  1755.5000   2000.0000   2000.0000     11.0434    119.0476
  1755.7500   2000.0000   2000.0000     11.1825    119.5377
  1756.0000   2000.0000   2000.0000     11.3912    122.0562
  1756.2500   2000.0000   2000.0000     11.6642    124.1218
  1756.5000   2000.0000   2000.0000     11.9943    126.0726
  1756.7500   2000.0000   2000.0000     12.3729    125.9635
  1757.0000   2000.0000   2000.0000     12.7886    123.5803
  1757.2500   2000.0000   2000.0000     13.2259    120.8281
  1757.5000   2000.0000   2000.0000     13.6666    115.7740
  1757.7500   2000.0000   2000.0000     14.0950    112.3413
  1758.0000   2000.0000   2000.0000     14.5045    107.8771
  1758.2500   2000.0000   2000.0000     14.9006    105.5459
  1758.5000   2000.0000   2000.0000     15.2980    102.9066
  1758.7500   2000.0000   2000.0000     15.7165    101.5439
  1759.0000   2000.0000   2000.0000     16.1779     99.8595
  1759.2500   2000.0000   2000.0000     16.7020     98.9669
  1759.5000   2000.0000   2000.0000     17.3001     98.0922
  1759.7500   2000.0000   2000.0000     17.9677     97.7871
  1760.0000   2000.0000   2000.0000     18.6836     97.2767
  1760.2500   2000.0000   2000.0000     19.4141     96.4507
  1760.5000   2000.0000   2000.0000     20.1178     93.8188
  1760.7500   2000.0000   2000.0000     20.7528     91.0872
  1761.0000   2000.0000   2000.0000     21.2909     86.2928
  1761.2500   2000.0000   2000.0000     21.7350     83.4137
  1761.5000   2000.0000   2000.0000     22.1227     80.6245
  1761.7500   2000.0000   2000.0000     22.5089    119.8052
  1762.0000   2000.0000   2000.0000     22.9360    119.4765
  1762.2500   2000.0000   2000.0000     23.4132    119.1412
  1762.5000   2000.0000   2000.0000     23.9194    116.9225
  1762.7500   2000.0000   2000.0000     24.4236    113.8608
  1763.0000   2000.0000   2000.0000     24.9112    106.9674
  1763.2500   2000.0000   2000.0000     25.3998    101.0979
  1763.5000   2000.0000   2000.0000     25.9369     90.9707
  1763.7500   2000.0000   2000.0000     26.5837     83.9301
  1764.0000   2000.0000   2000.0000     27.3946     74.4064
  1764.2500   2000.0000   2000.0000     28.4067     69.4976
