~Version Information
VERS.                      2.0: CWLS Log ASCII Standard - VERSION 2.0
WRAP.                       NO: One line per depth step
~Well Information Block
STRT.FT               846.5000: 
STOP.FT              2610.0000: 
STEP.FT                 0.2500: 
NULL.                -999.2500: 
COMP.          Petrogulf Corporation: COMPANY
WELL.            Lavedure 7-44: WELL
FLD.           Purgatoire River: FIELD
LOC.           969' FSL & 501' FEL: LOCATION
PROV.                 Colorado: PROVINCE
CNTY.               Las Animas: COUNTRY
SRVC.                Patterson: SERVICE COMPANY
DATE.          Sun Dec 07 15:26:03 2003: LOG DATE
UWI.                          : UNIQUE WELL ID
~Curve Information Block
DEPT.FT            0 000 00 00: Depth
SP.mV                         : DIL Spontaneous Potential
RILD.Ohm-m                    : DIL Deep Resistivity
RILM.Ohm-m                    : DIL Medium Resistivity
RLL3.Ohm-m                    : DIL Shallow Resistivity
GR.GAPI                       : Gamma Ray
~Parameter Information Block
~A  Depth        SP         RILD        RILM        RLL3         GR     
# ...
  1434.5000   -678.8669      6.4675      7.5946      9.7385    126.4690
  1434.7500   -684.6848      6.4787      7.6199      9.8557    124.7180
  1435.0000   -695.8953      6.5135      7.6616      9.9987    123.2567
  1435.2500   -710.0253      6.5784      7.7233     10.1856    123.4929
  1435.5000   -724.4208      6.6767      7.8095     10.4112    124.8262
  1435.7500   -736.8416      6.8074      7.9246     10.6387    125.2217
  1436.0000   -745.3726      6.9647      8.0739     10.8183    123.6512
  1436.2500   -748.9453      7.1387      8.2634     10.9192    121.3408
  1436.5000   -748.5206      7.3167      8.4995     10.9624    117.5617
  1436.7500   -747.3528      7.4857      8.7862     11.0514    115.6295
  1437.0000   -749.3302      7.6343      9.1205     11.3796    113.7297
  1437.2500   -756.4636      7.7533      9.4869     12.1733    112.6375
  1437.5000   -767.5495      7.8362      9.8532     13.5551    110.4800
  1437.7500   -779.0875      7.8800     10.1714     15.3922    108.6975
  1438.0000   -787.7280      7.8882     10.3871     17.2573    106.2589
  1438.2500   -792.2108      7.8719     10.4581     18.5705    105.2618
  1438.5000   -793.1221      7.8483     10.3735     18.8599    104.8807
  1438.7500   -791.0364      7.8362     10.1604     17.9952    105.1608
  1439.0000   -785.4171      7.8520      9.8730     16.2580    106.3270
  1439.2500   -775.4141      7.9068      9.5723     14.1949    108.0655
  1439.5000   -761.0361      8.0049      9.3104     12.3404    113.2205
  1439.7500   -743.0756      8.1411      9.1242     11.0013    118.4635
  1440.0000   -722.5214      8.3000      9.0367     10.2303    127.3849
  1440.2500   -700.8441      8.4590      9.0601      9.9597    132.2472
  1440.5000   -680.4999      8.5957      9.1976     10.1729    135.1411
  1440.7500   -664.2129      8.6973      9.4421     10.9973    133.6402
  1441.0000   -653.5104      8.7644      9.7728     12.6459    127.5795
  1441.2500   -648.3174      8.8087     10.1534     15.1865    122.2960
  1441.5000   -648.1365      8.8497     10.5347     18.2578    114.1459
  1441.7500   -653.5577      8.9110     10.8688     21.0101    109.1409
  1442.0000   -666.3870      9.0193     11.1265     22.4830    103.4828
  1442.2500   -687.7468      9.2010     11.3087     22.2128    101.8139
  1442.5000   -715.5258      9.4785     11.4428     20.5342    103.0110
  1442.7500   -743.9666      9.8647     11.5709     18.3031    105.5509
  1443.0000   -766.6417     10.3557     11.7378     16.3391    109.8009
  1443.2500   -780.3812     10.9237     11.9844     15.0652    111.9880
  1443.5000   -786.5013     11.5162     12.3436     14.5046    113.8423
  1443.7500   -788.7086     12.0701     12.8349     14.4821    114.2642
  1444.0000   -790.2508     12.5402     13.4588     14.8355    114.0131
  1444.2500   -792.5574     12.9181     14.1924     15.5487    113.3311
  1444.5000   -795.4428     13.2217     14.9943     16.8004    111.3092
  1444.7500   -798.0252     13.4648     15.8187     18.9285    109.0658
  1445.0000   -799.7070     13.6400     16.6279     22.2724    104.3442
  1445.2500   -800.4772     13.7276     17.3871     26.8407    100.7050
  1445.5000   -800.1929     13.7206     18.0435     31.9338     95.6011
  1445.7500   -797.5815     13.6378     18.5125     36.1432     92.8893
  1446.0000   -790.2864     13.5163     18.6961     38.0310     89.9359
  1446.2500   -776.4018     13.3924     18.5307     37.0594     88.5163
  1446.5000   -756.4075     13.2861     18.0319     33.8595     86.9655
  1446.7500   -733.4989     13.1966     17.2976     29.6035     86.3235
  1447.0000   -711.6346     13.1053     16.4666     25.2363     85.9812
  1447.2500   -693.4009     12.9840     15.6656     21.2689     85.9958
  1447.5000   -679.8535     12.8043     14.9778     18.0039     85.7693
  1447.7500   -671.5534     12.5463     14.4361     15.7020     85.2814
  1448.0000   -668.7912     12.2028     14.0317     14.5153     84.7149
  1448.2500   -670.9913     11.7788     13.7272     14.3643     85.1389
  1448.5000   -676.7149     11.2908     13.4694     14.9330     87.3333
  1448.7500   -684.6521     10.7653     13.2014     15.7923     89.2514
  1449.0000   -694.5029     10.2369     12.8746     16.5545     91.4738
  1449.2500   -706.6009      9.7417     12.4613     16.9688     92.3032
  1449.5000   -720.6611      9.3093     11.9623     16.9195     93.2801
  1449.7500   -735.1583      8.9568     11.4060     16.3640     94.3022
  1450.0000   -748.1757      8.6867     10.8376     15.3055     97.1718
  1450.2500   -758.7772      8.4895     10.3031     13.8602    100.5014
  1450.5000   -767.4260      8.3486      9.8360     12.3259    108.2443
  1450.7500   -775.1045      8.2471      9.4532     11.0951    114.7370
  1451.0000   -782.2665      8.1726      9.1568     10.4183    123.8429
  1451.2500   -788.6457      8.1198      8.9402     10.2482    127.8676
  1451.5000   -793.6916      8.0881      8.7949     10.3327    129.8490
  1451.7500   -797.0562      8.0783      8.7156     10.4420    128.9815
  1452.0000   -798.8837      8.0906      8.7034     10.5076    125.8908
  1452.2500   -799.7411      8.1248      8.7648     10.6126    123.4242
  1452.5000   -800.1368      8.1812      8.9079     10.9215    120.0686
  1452.7500   -800.1285      8.2619      9.1356     11.6111    118.1461
  1453.0000   -799.5263      8.3713      9.4402     12.7730    114.9800
  1453.2500   -798.3873      8.5154      9.8016     14.2704    112.2591
  1453.5000   -797.0450      8.6990     10.1919     15.6775    107.7848
  1453.7500   -795.4951      8.9220     10.5866     16.4856    105.4857
  1454.0000   -792.8887      9.1766     10.9746     16.5055    104.2595
  1454.2500   -787.7974      9.4469     11.3615     16.0670    104.7981
  1454.5000   -778.8179      9.7162     11.7603     15.7530    106.6462
  1454.7500   -764.8601      9.9753     12.1777     15.9252    108.2287
  1455.0000   -745.7087     10.2282     12.6039     16.5021    111.0064
  1455.2500   -723.4927     10.4864     13.0125     17.1209    112.8183
  1455.5000   -703.4263     10.7576     13.3713     17.4459    114.3625
  1455.7500   -691.4946     11.0355     13.6586     17.3593    114.2061
  1456.0000   -690.2852     11.3006     13.8733     16.9610    112.8238
  1456.2500   -697.2487     11.5287     14.0317     16.4519    111.9540
  1456.5000   -707.2709     11.7023     14.1516     16.0123    111.5332
  1456.7500   -716.7152     11.8171     14.2399     15.7415    111.7329
  1457.0000   -725.0378     11.8829     14.2932     15.6549    112.2777
  1457.2500   -733.2784     11.9165     14.3112     15.7125    112.6195
  1457.5000   -741.9219     11.9360     14.3077     15.8530    112.6946
  1457.7500   -750.4576     11.9574     14.3080     16.0278    112.1365
  1458.0000   -758.3454     11.9965     14.3362     16.2230    110.2644
  1458.2500   -765.5843     12.0694     14.4035     16.4611    108.6410
  1458.5000   -772.1872     12.1895     14.5051     16.7774    106.5222
  1458.7500   -777.5439     12.3597     14.6249     17.1842    105.8183
  1459.0000   -780.6364     12.5667     14.7449     17.6415    106.3307
  1459.2500   -780.9180     12.7842     14.8521     18.0590    107.5932
  1459.5000   -778.9846     12.9850     14.9421     18.3413    109.9692
  1459.7500   -776.3116     13.1563     15.0200     18.4473    111.3953
  1460.0000   -774.0494     13.3063     15.0976     18.4144    113.2086
  1460.2500   -771.9490     13.4572     15.1909     18.3282    114.3441
  1460.5000   -768.7592     13.6318     15.3153     18.2706    115.7516
  1460.7500   -763.9324     13.8448     15.4841     18.2824    116.2671
  1461.0000   -758.6819     14.1034     15.7100     18.3442    116.7695
  1461.2500   -755.0748     14.4124     16.0079     18.3827    117.5958
  1461.5000   -754.2122     14.7779     16.3927     18.3340    120.3169
  1461.7500   -755.4443     15.2049     16.8747     18.2558    122.7613
  1462.0000   -757.1772     15.6884     17.4564     18.4061    125.5500
  1462.2500   -758.2463     16.2066     18.1317     19.1976    125.5877
