~Version Information
VERS.                      2.0: CWLS Log ASCII Standard - VERSION 2.0
WRAP.                       NO: One line per depth step
~Well Information Block
STRT.FT               630.0000: 
STOP.FT              1156.0000: 
STEP.FT                 0.2500: 
NULL.                -999.2500: 
COMP.          Pioneer Natural Resources: COMPANY
WELL.          Drewmeister 34-34: WELL
FLD.           Purgatoire River: FIELD
LOC.           958' FSL & 1857' FEL: LOCATION
STAT.                 Colorado: State
CNTY.               Las Animas: COUNTY
CTRY. USA : Country
SECT. 34 : Section
TOWN. 32S : Township
RANG. 65W : Range
SRVC.                Patterson: SERVICE COMPANY
DATE.          Mon Oct 03 23:24:37 2005: LOG DATE
API.           05 071 08131 00: UNIQUE WELL ID
~Curve Information Block
DEPT.FT            0 000 00 00: Depth
SN.Ohm-m                      : IEL Short Normal
SP.mV                         : IEL Spontaneous Potential
DIR.Ohm-m                     : IEL Induction Resistivity
GR.GAPI                       : Gamma Ray
~Parameter Information Block
~A  Depth        SN          SP         DIR          GR     
# ...
  1099.0000    651.3967    617.4327     28.4775    122.5407
  1099.2500    730.1475    640.8298     28.0515    119.1556
  1099.5000    800.2962    675.0111     27.5791    112.3627
  1099.7500    836.2757    713.1802     27.1589    108.2280
  1100.0000    844.6007    747.6574     26.8640    105.5786
  1100.2500    830.0897    773.1080     26.7160    106.9901
  1100.5000    777.9696    788.4140     26.6857    112.9661
  1100.7500    673.5822    795.8647     26.7094    118.2732
  1101.0000    537.3586    798.7821     26.7069    126.1474
  1101.2500    410.0625    799.6962     26.5967    130.2917
  1101.5000    300.3859    799.9243     26.3181    133.4487
  1101.7500    197.5972    799.9693     25.8635    133.4806
  1102.0000    116.0001    799.9759     25.2951    132.3147
  1102.2500     73.7998    799.9761     24.7231    132.1539
  1102.5000     63.1878    799.9761     24.2561    133.4430
  1102.7500     67.5112    799.9761     23.9542    134.3412
  1103.0000     79.1393    799.9761     23.8063    133.8106
  1103.2500     96.9142    799.9730     23.7343    132.0898
  1103.5000    125.3402    799.9468     23.6263    128.7834
  1103.7500    176.5126    799.7996     23.3957    126.6254
  1104.0000    260.2370    799.1544     23.0385    122.8523
  1104.2500    372.2111    796.9039     22.6367    119.5469
  1104.5000    496.4708    790.5934     22.3016    114.5097
  1104.7500    602.6590    776.2649     22.1088    112.6145
  1105.0000    647.2458    749.6870     22.0716    113.8513
  1105.2500    615.6121    708.9922     22.1521    117.3003
  1105.5000    561.1185    656.8960     22.2865    124.3427
  1105.7500    567.3925    600.2240     22.4099    128.4503
  1106.0000    653.5578    546.7277     22.4746    130.9112
  1106.2500    756.7307    501.8177     22.4616    129.5515
  1106.5000    820.7194    467.7262     22.3773    124.6531
  1106.7500    844.7357    444.9542     22.2404    121.3526
  1107.0000    850.4777    433.8388     22.0701    119.2668
  1107.2500    851.3770    434.6987     21.8885    120.5054
  1107.5000    851.4711    447.0731     21.7233    125.3780
  1107.7500    851.4747    469.3845     21.6006    129.2667
  1108.0000    851.4747    499.2952     21.5299    133.6881
  1108.2500    851.4747    534.1593     21.4946    134.6760
  1108.5000    851.4747    571.4315     21.4615    132.0084
  1108.7500    851.4747    609.2975     21.4024    127.2808
  1109.0000    851.4747    647.0576     21.3132    117.2939
  1109.2500    851.4747    684.3790     21.2139    110.5783
  1109.5000    851.4747    719.8203     21.1337    103.3639
  1109.7500    851.4099    750.4512     21.0938    100.9916
  1110.0000    850.6551    773.4091     21.0952    100.0099
  1110.2500    845.0423    787.8602     21.1097    100.1036
  1110.5000    818.1913    795.3552     21.0796    100.3780
  1110.7500    735.3983    798.5212     20.9377    100.6458
  1111.0000    570.4352    799.6022     20.6468    101.8424
  1111.2500    357.3143    799.8990     20.2275    103.6253
  1111.5000    178.1006    799.9641     19.7459    108.0672
  1111.7500     79.9058    799.9751     19.2741    111.9900
  1112.0000     45.8828    799.9761     18.8598    118.4426
  1112.2500     41.8825    799.9761     18.5192    122.4659
  1112.5000     50.4273    799.9761     18.2455    127.1049
  1112.7500     68.9412    799.9761     18.0201    129.0635
  1113.0000    100.8957    799.9761     17.8215    130.8266
  1113.2500    143.6536    799.9761     17.6355    131.9017
  1113.5000    176.2360    799.9761     17.4627    134.3660
  1113.7500    173.3109    799.9761     17.3170    136.5951
  1114.0000    135.8064    799.9761     17.2150    139.8873
  1114.2500     90.1110    799.9761     17.1605    141.5184
  1114.5000     57.2680    799.9761     17.1388    143.2942
  1114.7500     39.3044    799.9761     17.1271    144.7021
  1115.0000     30.5318    799.9761     17.1142    148.0299
  1115.2500     27.1988    799.9761     17.1100    150.6983
  1115.5000     28.5453    799.9761     17.1369    153.2688
  1115.7500     37.8993    799.9711     17.2089    152.8212
  1116.0000     61.5652    799.9317     17.3136    148.7972
  1116.2500     97.0889    799.7171     17.4082    145.0708
  1116.5000    124.8300    798.8044     17.4340    140.5089
  1116.7500    128.7185    795.7211     17.3470    139.0362
  1117.0000    120.9953    787.3801     17.1431    139.0992
  1117.2500    126.6087    769.1463     16.8570    140.0248
  1117.5000    156.9679    736.5705     16.5341    141.6101
  1117.7500    218.5253    688.3195     16.2057    142.3980
  1118.0000    328.3467    628.0090     15.8869    142.8861
  1118.2500    488.8267    563.0449     15.5887    142.6511
  1118.5000    656.4316    501.3474     15.3246    141.2914
  1118.7500    774.8235    448.6433     15.1042    139.7184
  1119.0000    830.3646    407.8188     14.9263    136.8546
  1119.2500    847.5177    379.5514     14.7813    135.1773
  1119.5000    850.9819    362.8333     14.6604    133.8100
  1119.7500    851.4373    355.1712     14.5635    133.6809
  1120.0000    851.4747    353.1672     14.4971    134.1151
  1120.2500    851.4747    353.7377     14.4708    134.5587
  1120.5000    851.4747    355.2831     14.4934    135.2827
  1120.7500    851.4747    357.8691     14.5696    135.6200
  1121.0000    851.4747    362.1848     14.6941    135.0929
  1121.2500    851.4747    368.0318     14.8437    133.4204
  1121.5000    851.4747    373.5633     14.9776    128.4547
  1121.7500    851.4747    376.0740     15.0521    124.0698
  1122.0000    851.4747    373.9667     15.0457    118.0908
  1122.2500    851.4747    368.3248     14.9759    115.7682
  1122.5000    851.4747    362.6379     14.8909    115.6825
  1122.7500    851.4747    360.9002     14.8458    117.6477
  1123.0000    851.4747    365.7332     14.8801    122.6389
  1123.2500    851.4747    377.8084     15.0063    126.8037
  1123.5000    851.4747    396.4672     15.2090    133.8331
  1123.7500    851.4747    420.6661     15.4484    138.8982
  1124.0000    851.4747    449.5401     15.6712    146.2240
  1124.2500    851.4747    482.4465     15.8265    149.7225
  1124.5000    851.4747    518.8459     15.8873    150.4615
  1124.7500    851.4747    558.3221     15.8658    147.5506
  1125.0000    851.4747    600.5098     15.8117    140.4264
  1125.2500    851.4747    644.5108     15.7917    136.2202
  1125.5000    851.4728    688.0509     15.8647    133.7816
  1125.7500    851.4535    727.3813     16.0633    135.0449
  1126.0000    851.3184    758.6157     16.3904    139.6550
  1126.2500    850.7343    779.7563     16.8236    143.0408
  1126.5000    849.2255    791.6658     17.3248    146.0948
  1126.7500    847.0939    797.1532     17.8492    145.7035
  1127.0000    846.0037    799.1950     18.3524    140.7993
  1127.2500    847.0412    799.8027     18.7966    135.0605
  1127.5000    848.5489    799.9462     19.1564    124.4269
  1127.7500    845.3806    799.9727     19.4267    117.1366
  1128.0000    823.3057    799.9761     19.6225    107.6304
  1128.2500    752.3044    799.9761     19.7674    102.9971
  1128.5000    607.0184    799.9761     19.8755     99.3703
  1128.7500    412.9285    799.9761     19.9417     99.3007
  1129.0000    242.0252    799.9761     19.9440    102.3548
  1129.2500    141.1811    799.9761     19.8566    105.9356
  1129.5000    101.4026    799.9761     19.6673    112.2226
  1129.7500     96.4465    799.9761     19.3884    116.2567
  1130.0000    105.6406    799.9761     19.0536    121.6810
  1130.2500    106.8798    799.9761     18.7007    125.2634
  1130.5000     88.0753    799.9761     18.3530    131.0510
  1130.7500     60.6437    799.9761     18.0122    134.6441
  1131.0000     40.8535    799.9761     17.6665    137.8734
  1131.2500     31.2274    799.9761     17.3063    138.0158
  1131.5000     26.5979    799.9761     16.9355    135.6416
  1131.7500     23.5082    799.9761     16.5710    132.9408
  1132.0000     21.1907    799.9761     16.2345    128.3501
  1132.2500     19.7991    799.9761     15.9422    125.8835
