~Version Information
 VERS.                                  2.0 : CWLS LAS VERSION
 WRAP.                                   NO : WRAPING MODE
 SWARE .                 MController 2.5.0J : SOFTWARE VERSION
~Well Information
 WELL.                         State 16-43R : WELL
 COMP.                Petrogulf Corporation : COMPANY
 FLD.                      Purgatoire River : FIELD
 LOC.                NE/SE Sec 16 T33S R67W : LOCATION
 DATE.                             08/09/05 : DATE(S) LOGGED
 SRVC.       BLANCO Geological Services LLC : SERVICE COMPANY
 STAT.                                   CO : STATE
 CNTY.                           Las Animas : COUNTY
 CTRY.                                  USA : COUNTRY
 API.                       05-071-08338-00 : API NUMBER
 STRT.FT                               0.00 : START DEPTH
 STOP.FT                            1565.00 : STOP DEPTH
 STEP.FT                               1.00 : DEPTH INCREMENT
 NULL.                                -9999 : NULL VALUE
~Curve information
 DEPTH.FT                                   :
 ROP.MIN/FT                                 :
 GAS.UNITS                                  :
~ASCII Log data
# ...
      1000.0         0.30         31.5 
      1001.0         0.27         31.5 
      1002.0         0.20         31.6 
      1003.0         0.23         31.4 
      1004.0         0.20         32.7 
      1005.0         0.22         34.6 
      1006.0         0.20         35.1 
      1007.0         0.27         34.7 
      1008.0         0.30         34.3 
      1009.0         0.23         33.4 
      1010.0         0.13         33.0 
      1011.0         0.17         33.2 
      1012.0         0.13         32.2 
      1013.0         0.27         30.3 
      1014.0         0.27         30.1 
      1015.0         0.30         43.9 
      1016.0         0.30         68.5 
      1017.0         0.32        100.3 
      1018.0         2.73        269.6 
      1019.0         0.43         39.3 
      1020.0         0.28         33.9 
      1021.0         0.23         32.7 
      1022.0         0.20         32.0 
      1023.0         0.20         31.6 
      1024.0         0.23         31.2 
      1025.0         0.40         30.8 
      1026.0         0.23         30.3 
      1027.0         0.33         30.5 
      1028.0         0.23         30.3 
      1029.0         0.30         30.4 
      1030.0         0.28         29.7 
      1031.0         0.30         29.8 
      1032.0         0.17         29.8 
      1033.0         0.20         29.7 
      1034.0         0.20         29.9 
      1035.0         0.20         30.1 
      1036.0         0.23         30.0 
      1037.0         0.20         29.6 
      1038.0         0.20         29.1 
      1039.0         0.20         28.7 
      1040.0         0.20         27.6 
      1041.0         0.20         26.1 
      1042.0         0.23         26.5 
      1043.0         0.20         31.6 
      1044.0         0.22         45.2 
      1045.0         0.27         64.9 
      1046.0         0.20         83.8 
      1047.0         0.27        110.5 
      1048.0         2.15        209.3 
      1049.0         0.37         35.6 
      1050.0         0.37         33.4 
      1051.0         0.27         31.8 
      1052.0         0.27         30.8 
      1053.0         0.23         30.3 
      1054.0         0.20         30.1 
      1055.0         0.37         29.6 
      1056.0         0.33         29.1 
      1057.0         0.27         28.7 
      1058.0         0.27         28.5 
      1059.0         0.28         28.5 
      1060.0         0.20         28.5 
      1061.0         0.23         28.8 
      1062.0         0.20         28.7 
      1063.0         0.27         28.8 
      1064.0         0.27         28.9 
      1065.0         0.27         28.9 
      1066.0         0.23         28.9 
      1067.0         0.27         28.9 
      1068.0         0.27         29.7 
      1069.0         0.20         29.4 
      1070.0         0.30         29.1 
      1071.0         0.28         28.4 
      1072.0         0.27         25.6 
      1073.0         0.27         26.0 
      1074.0         0.23         33.3 
      1075.0         0.27         49.5 
      1076.0         0.23         70.7 
      1077.0         0.27         97.0 
      1078.0         1.78        197.2 
      1079.0         0.50         47.4 
      1080.0         0.30         34.8 
      1081.0         0.30         32.0 
      1082.0         0.23         30.5 
      1083.0         0.27         29.7 
      1084.0         0.23         29.4 
      1085.0         0.23         29.2 
      1086.0         0.28         29.1 
      1087.0         0.23         28.6 
      1088.0         0.23         28.1 
      1089.0         0.23         27.9 
      1090.0         0.27         27.4 
      1091.0         0.23         27.5 
      1092.0         0.23         27.5 
      1093.0         0.23         27.1 
      1094.0         0.27         27.0 
      1095.0         0.23         27.3 
      1096.0         0.23         27.3 
      1097.0         0.23         27.2 
      1098.0         0.20         27.1 
      1099.0         0.25         27.1 
      1100.0         0.27         26.8 
      1101.0         0.23         26.4 
      1102.0         0.23         25.3 
      1103.0         0.27         21.4 
      1104.0         0.23         19.3 
      1105.0         0.27         20.3 
      1106.0         0.23         21.0 
      1107.0         0.27         22.7 
      1108.0        10.77       1567.4 
      1109.0         0.37         56.6 
      1110.0         0.33         37.3 
      1111.0         0.30         28.4 
      1112.0         0.27         28.6 
      1113.0         0.23         30.4 
      1114.0         0.33         30.4 
      1115.0         0.25         29.2 
      1116.0         0.33         27.9 
      1117.0         0.30         26.5 
      1118.0         0.23         26.0 
      1119.0         0.27         25.9 
      1120.0         0.23         26.7 
      1121.0         0.30         27.1 
      1122.0         0.30         26.6 
      1123.0         0.27         26.1 
      1124.0         0.30         25.6 
      1125.0         0.38         27.0 
      1126.0         0.27         28.3 
      1127.0         0.23         27.6 
      1128.0         0.23         26.0 
      1129.0         0.23         25.5 
      1130.0         0.27         25.2 
      1131.0         0.17         24.8 
      1132.0         0.33         25.2 
      1133.0         0.30         25.1 
      1134.0         0.27         22.6 
      1135.0         0.23         20.2 
      1136.0         0.30         28.2 
      1137.0         0.28         49.2 
      1138.0         2.23        116.6 
      1139.0         0.40         32.7 
      1140.0         0.37         28.5 
      1141.0         0.32         26.7 
      1142.0         0.33         25.5 
      1143.0         0.30         24.4 
      1144.0         0.27         24.5 
      1145.0         0.23         24.5 
      1146.0         0.27         24.5 
      1147.0         0.20         24.7 
      1148.0         0.30         25.3 
      1149.0         0.30         25.8 
      1150.0         0.40         25.7 
      1151.0         0.17         25.4 
      1152.0         0.20         25.0 
      1153.0         0.28         25.2 
      1154.0         0.23         24.8 
      1155.0         0.27         25.0 
      1156.0         0.23         24.9 
      1157.0         0.27         24.9 
      1158.0         0.27         25.1 
      1159.0         0.23         25.2 
      1160.0         0.27         24.5 
      1161.0         0.27         25.3 
      1162.0         0.27         22.5 
      1163.0         0.27         20.6 
      1164.0         0.27         29.5 
      1165.0         0.28         49.2 
      1166.0         0.30         87.6 
      1167.0         0.47        116.7 
      1168.0         1.17        111.3 
      1169.0         0.43         34.4 
      1170.0         0.63         26.1 
      1171.0         0.82         31.3 
      1172.0         1.07         33.4 
      1173.0         0.87         32.4 
      1174.0         0.82         35.1 
      1175.0         1.07         40.8 
      1176.0         1.00         43.1 
      1177.0         0.43         42.0 
      1178.0         0.27         43.3 
      1179.0         0.27         42.0 
      1180.0         0.28         39.6 
      1181.0         0.23         37.8 
      1182.0         0.23         37.3 
      1183.0         0.27         37.1 
      1184.0         0.13         37.1 
      1185.0         0.20         38.0 
      1186.0         0.17         38.4 
      1187.0         0.20         38.1 
      1188.0         0.23         37.2 
      1189.0         0.50         36.4 
      1190.0         0.43         34.3 
      1191.0         0.13         28.8 
      1192.0         0.23         26.7 
      1193.0         0.18         27.8 
      1194.0         0.13         32.1 
      1195.0         0.17         40.6 
      1196.0         0.20         59.4 
      1197.0         0.20         77.9 
      1198.0         0.23        113.7 
      1199.0         0.20        161.7 
