~Version Information
 VERS.                                  2.0 : CWLS LAS VERSION
 WRAP.                                   NO : WRAPING MODE
 SWARE .                 MController 2.5.0J : SOFTWARE VERSION
~Well Information
 WELL.                      Bucksnort 41-35 : WELL
 COMP.   Pioneer Natural Resources USA Inc. : COMPANY
 FLD.                      Purgatoire River : FIELD
 LOC.                NE/NE Sec 35 T32S R66W : LOCATION
 DATE.                              7/22/05 : DATE(S) LOGGED
 SRVC.       BLANCO Geological Services LLC : SERVICE COMPANY
 STAT.                             Colorado : STATE
 CNTY.                           Las Animas : COUNTY
 CTRY.                               U.S.A. : COUNTRY
 API.                                   N/A : API NUMBER
 STRT.FT                             581.00 : START DEPTH
 STOP.FT                            2010.00 : STOP DEPTH
 STEP.FT                               1.00 : DEPTH INCREMENT
 NULL.                                -9999 : NULL VALUE
~Curve information
 DEPTH.FT                                   :
 ROP.MIN/FT                                 :
 GAS.UNITS                                  :
~ASCII Log data
# ...
      1181.0         0.48         33.0 
      1182.0         0.43         37.5 
      1183.0         0.47         41.7 
      1184.0         0.27         43.5 
      1185.0         0.33         46.3 
      1186.0         0.30         47.5 
      1187.0         0.23         48.5 
      1188.0         0.30         49.7 
      1189.0         0.23         49.6 
      1190.0         0.13         48.9 
      1191.0         0.13         49.7 
      1192.0         0.17         49.6 
      1193.0         0.58         50.4 
      1194.0         0.50         67.1 
      1195.0         0.30         72.4 
      1196.0         0.57         72.3 
      1197.0         0.37         77.4 
      1198.0         0.43         82.1 
      1199.0         0.68         82.3 
      1200.0         0.53         81.1 
      1201.0         6.97       1473.3 
      1202.0         0.47       1482.8 
      1203.0         0.70        825.9 
      1204.0         0.47        106.5 
      1205.0         0.37         28.2 
      1206.0         0.43         10.0 
      1207.0         0.32          5.4 
      1208.0         0.20          8.2 
      1209.0         0.17          9.7 
      1210.0         0.50         18.3 
      1211.0         0.60         26.8 
      1212.0         0.33         31.9 
      1213.0         0.23         34.6 
      1214.0         0.37         39.0 
      1215.0         0.37         46.1 
      1216.0         0.27         51.4 
      1217.0         0.25         54.6 
      1218.0         0.33         54.6 
      1219.0         0.33         54.6 
      1220.0         0.30         56.4 
      1221.0         0.27         59.0 
      1222.0         0.23         62.8 
      1223.0         0.27         68.9 
      1224.0         0.33         77.0 
      1225.0         0.30         78.8 
      1226.0         0.33         78.2 
      1227.0         0.40         73.5 
      1228.0         0.35         68.4 
      1229.0         0.47         65.4 
      1230.0         0.33         64.5 
      1231.0         4.88        396.3 
      1232.0         0.47        482.3 
      1233.0         0.75       1407.2 
      1234.0         0.50       1417.7 
      1235.0         0.40        662.6 
      1236.0         0.37        440.0 
      1237.0         0.30         55.2 
      1238.0         0.37         25.1 
      1239.0         0.40          9.7 
      1240.0         0.20          5.3 
      1241.0         0.38         10.2 
      1242.0         0.67         23.8 
      1243.0         0.43         30.3 
      1244.0         0.23         31.6 
      1245.0         0.23         34.1 
      1246.0         0.23         35.8 
      1247.0         0.23         40.5 
      1248.0         0.17         43.1 
      1249.0         0.80         52.4 
      1250.0         0.52         52.4 
      1251.0         0.70         51.6 
      1252.0         0.57         56.1 
      1253.0         0.47         58.3 
      1254.0         0.70         63.4 
      1255.0         0.60         68.9 
      1256.0         0.62         69.3 
      1257.0         0.67         72.2 
      1258.0         0.43         73.2 
      1259.0         0.23         73.0 
      1260.0         0.20         72.3 
      1261.0         6.70        367.9 
      1262.0         0.63        862.2 
      1263.0         1.15       1388.2 
      1264.0         0.63        440.0 
      1265.0         0.27         49.2 
      1266.0         0.23         21.0 
      1267.0         0.23         10.5 
      1268.0         0.27          5.3 
      1269.0         0.33          1.5 
      1270.0         0.30          0.2 
      1271.0         0.33          0.4 
      1272.0         0.17          0.6 
      1273.0         0.18          1.6 
      1274.0         0.80          5.6 
      1275.0         0.67          7.2 
      1276.0         0.37          8.4 
      1277.0         0.13          8.5 
      1278.0         0.17          9.5 
      1279.0         0.20         10.3 
      1280.0         0.17         10.7 
      1281.0         0.20         13.1 
      1282.0         0.20         18.1 
      1283.0         0.23         24.4 
      1284.0         0.25         32.5 
      1285.0         0.20         36.2 
      1286.0         0.23         36.7 
      1287.0         0.20         35.9 
      1288.0         0.23         35.1 
      1289.0         0.23         33.8 
      1290.0         0.23         31.5 
      1291.0        11.58        437.7 
      1292.0         0.52        462.2 
      1293.0         0.47        441.2 
      1294.0         0.27        188.9 
      1295.0         0.63         89.1 
      1296.0         0.93         11.7 
      1297.0         0.27         -0.8 
      1298.0         0.23          0.6 
      1299.0         0.20          2.8 
      1300.0         0.32          6.2 
      1301.0         0.93         17.8 
      1302.0         0.60         20.9 
      1303.0         0.33         20.0 
      1304.0         0.17         21.4 
      1305.0         0.20         22.3 
      1306.0         0.23         24.6 
      1307.0         0.27         27.0 
      1308.0         0.52         33.5 
      1309.0         0.30         35.4 
      1310.0         0.17         36.4 
      1311.0         0.33         37.0 
      1312.0         0.23         36.3 
      1313.0         0.27         35.8 
      1314.0         0.23         35.2 
      1315.0         0.20         35.3 
      1316.0         0.20         35.2 
      1317.0         0.20         35.7 
      1318.0         0.20         35.4 
      1319.0         0.50         35.0 
      1320.0         0.33         32.9 
      1321.0         4.47        216.8 
      1322.0         0.53        275.2 
      1323.0         0.97        379.8 
      1324.0         0.60        377.7 
      1325.0         0.38        330.7 
      1326.0         0.27        169.2 
      1327.0         0.23         82.0 
      1328.0         0.20         39.8 
      1329.0         0.23         20.3 
      1330.0         0.20          8.6 
      1331.0         0.17          3.9 
      1332.0         0.27          1.0 
      1333.0         0.47         -1.5 
      1334.0         0.47         -2.1 
      1335.0         0.30         -0.1 
      1336.0         0.42          2.7 
      1337.0         0.53          6.8 
      1338.0         0.63         12.8 
      1339.0         0.57         17.9 
      1340.0         0.37         19.7 
      1341.0         0.30         22.0 
      1342.0         0.23         24.8 
      1343.0         0.47         30.3 
      1344.0         0.72         36.5 
      1345.0         0.57         36.9 
      1346.0         0.47         35.4 
      1347.0         0.43         34.9 
      1348.0         0.47         39.2 
      1349.0         0.20         40.5 
      1350.0         0.33         43.4 
      1351.0         6.23        322.9 
      1352.0         0.63        324.7 
      1353.0         0.45        313.0 
      1354.0         0.53        264.7 
      1355.0         0.43         84.9 
      1356.0         0.37         21.5 
      1357.0         0.37          5.0 
      1358.0         0.37         -0.9 
      1359.0         0.50         -2.2 
      1360.0         0.42         -0.6 
      1361.0         0.37          2.5 
      1362.0         0.37          5.9 
      1363.0         0.40          7.1 
      1364.0         0.57         12.5 
      1365.0         0.63         19.5 
      1366.0         0.40         24.1 
      1367.0         0.17         25.7 
      1368.0         0.17         26.6 
      1369.0         0.17         28.8 
      1370.0         0.15         31.1 
      1371.0         0.40         38.4 
      1372.0         0.33         43.3 
      1373.0         0.30         44.9 
      1374.0         0.27         44.9 
      1375.0         0.20         42.7 
      1376.0         0.23         39.9 
      1377.0         0.13         36.1 
      1378.0         0.10         36.1 
      1379.0         0.23         34.2 
      1380.0         0.17         30.0 
