~Version Information
 VERS.                      2.0: CWLS Log ASCII Standard - VERSION 2.0
 WRAP.                       NO: One line per depth step
 ~Well Information Block
 STRT.FT               762.3000: 
 STOP.FT              2573.7000: 
 STEP.FT                 0.1000: 
 NULL.                -999.2500: 
 COMP.          Petrogulf Corporation: COMPANY
 WELL.               J&P 12-33V: WELL
 FLD.           Purgatorie River: FIELD
 LOC.           2005' FSL & 1928' FEL: LOCATION
 CNTY.               Las Animas: COUNTY
 SRVC.                         : SERVICE COMPANY
 DATE.          Sat Aug 28 11:34:36 2004: LOG DATE
 UWI.           05 071 08092 00: UNIQUE WELL ID
 STAT.                 Colorado: STATE
 PROV.                         :Province
 ~Curve Information Block
 DEPT.FT            0 000 00 00: Depth
 GR.GAPI                       : Gamma Ray
 DCAL.in                       : CDL Caliper
 DPOR.pu                       : CDL Density Porosity
 NPOR.pu                       : Neutron Porosity
 RHOB.g/cc                     : CDL Bulk Density
 RHOC.g/cc                     : CDL Density Correction
 ~Parameter Information Block
 ~A  Depth        GR         DCAL        DPOR        NPOR        RHOB        RHOC    
# ...
  1376.7000    136.4230      8.1904      4.5978     23.1777      2.5741      0.1159
  1376.8000    131.1229      8.1844      6.6872     23.1940      2.5397      0.1119
  1376.9000    132.5305      8.1844      9.2316     23.2217      2.4977      0.0402
  1377.0000    139.8364      8.1729     11.0895     23.5072      2.4670      0.0383
  1377.1000    148.9602      8.1729     11.3747     23.9297      2.4623     -0.0153
  1377.2000    153.1540      8.1729     10.1214     24.0803      2.4830      0.0405
  1377.3000    148.5375      8.1718      8.3082     23.9710      2.5129      0.0508
  1377.4000    142.7252      8.1718      6.7979     24.0096      2.5378      0.0674
  1377.5000    142.2605      8.1725      5.6890     24.1793      2.5561      0.0914
  1377.6000    143.8235      8.1725      4.7640     24.2952      2.5714      0.0915
  1377.7000    146.9010      8.1725      4.2915     24.5297      2.5792      0.1512
  1377.8000    150.5411      8.1961      4.8229     24.7443      2.5704      0.1062
  1377.9000    148.8696      8.1961      5.9623     24.5641      2.5516      0.0668
  1378.0000    142.7513      8.2022      6.6456     24.2720      2.5403      0.0563
  1378.1000    139.4974      8.2022      6.4524     24.2564      2.5435      0.0815
  1378.2000    145.5094      8.2022      5.9883     24.2960      2.5512      0.1139
  1378.3000    156.1356      8.2022      5.9175     24.2888      2.5524      0.0920
  1378.4000    161.5541      8.2022      5.8678     24.3905      2.5532      0.0661
  1378.5000    158.9138      8.2013      5.5799     24.4181      2.5579      0.1074
  1378.6000    152.0425      8.2013      5.6498     24.1645      2.5568      0.0877
  1378.7000    146.4536      8.2013      6.2040     23.6544      2.5476      0.0567
  1378.8000    141.6408      8.1978      6.8342     23.2416      2.5372      0.0487
  1378.9000    134.4099      8.1978      7.2757     23.2770      2.5300      0.0963
  1379.0000    126.3211      8.1992      7.4549     23.5639      2.5270      0.1345
  1379.1000    122.6380      8.1992      7.6549     23.7068      2.5237      0.1395
  1379.2000    125.8918      8.1992      8.1526     23.7240      2.5155      0.1513
  1379.3000    130.2460      8.1989      8.8096     23.9100      2.5046      0.1589
  1379.4000    125.0484      8.1989      9.3041     24.3567      2.4965      0.1226
  1379.5000    108.9193      8.1921      9.3474     24.9515      2.4958      0.1174
  1379.6000     94.4613      8.1921      8.7446     25.5846      2.5057      0.1052
  1379.7000     91.3107      8.1921      7.6439     26.1147      2.5239      0.1112
  1379.8000     92.3308      8.1846      6.3657     26.3584      2.5450      0.1462
  1379.9000     86.9639      8.1846      5.0152     26.1950      2.5672      0.1833
  1380.0000     78.2134      8.1460      3.7558     25.9039      2.5880      0.1993
  1380.1000     74.9614      8.1460      2.7639     25.8717      2.6044      0.1789
  1380.2000     77.9702      8.1460      2.0565     25.9497      2.6161      0.1534
  1380.3000     81.8743      8.1342      1.4425     25.7987      2.6262      0.1342
  1380.4000     83.8111      8.1342      0.4161     25.3850      2.6431      0.1632
  1380.5000     84.0164      8.1049     -1.2809     24.7944      2.6711      0.1401
  1380.6000     81.0654      8.1049     -2.7285     24.1030      2.6950      0.2153
  1380.7000     77.1493      8.1049     -2.4920     23.4729      2.6911      0.1201
  1380.8000     81.1400      8.0932     -0.8508     23.0206      2.6640      0.0384
  1380.9000     96.7609      8.0932      0.7574     22.6234      2.6375      0.0193
  1381.0000    113.2721      8.1448      1.8057     22.1451      2.6202      0.0235
  1381.1000    117.5199      8.1448      2.5705     21.5458      2.6076     -0.0092
  1381.2000    111.5108      8.1448      3.1692     20.9646      2.5977     -0.0397
  1381.3000    107.5514      8.1838      3.6481     20.4413      2.5898      0.0057
  1381.4000    112.7824      8.1838      4.1264     19.7713      2.5819     -0.0374
  1381.5000    124.2042      8.1976      4.7782     19.0169      2.5712      0.0047
  1381.6000    135.5281      8.1976      5.8726     18.3085      2.5531     -0.0415
  1381.7000    142.6821      8.1976      7.3599     17.7382      2.5286     -0.0119
  1381.8000    146.5578      8.1986      9.0165     17.5187      2.5012     -0.0287
  1381.9000    151.4023      8.1986     10.7370     17.7070      2.4728     -0.0226
  1382.0000    157.1777      8.1993     12.1171     17.9975      2.4501     -0.0342
  1382.1000    159.9173      8.1993     12.3889     18.1107      2.4456     -0.0509
  1382.2000    159.7035      8.1993     11.4912     18.3200      2.4604     -0.0002
  1382.3000    157.1902      8.1987     10.3417     18.7511      2.4794      0.0349
  1382.4000    151.5235      8.1987      9.3151     19.0379      2.4963      0.0309
  1382.5000    146.9487      8.1759      7.9961     19.1511      2.5181      0.0847
  1382.6000    148.0444      8.1759      6.7363     19.4251      2.5389      0.1649
  1382.7000    148.5437      8.1759      6.4683     19.8818      2.5433      0.1998
  1382.8000    139.9452      8.2004      7.7813     20.1842      2.5216      0.2104
  1382.9000    128.6835      8.2004     10.6074     19.8633      2.4750      0.1970
  1383.0000    125.4643      8.2486     13.7831     19.0186      2.4226      0.0784
  1383.1000    128.1764      8.2486     16.0838     18.5316      2.3846      0.0874
  1383.2000    131.2917      8.2486     17.6304     18.6663      2.3591      0.0874
  1383.3000    133.4846      8.2479     18.9454     18.7333      2.3374      0.0779
  1383.4000    131.5808      8.2479     20.4871     18.4966      2.3120      0.0840
  1383.5000    126.6758      8.2666     23.2962     18.5204      2.2656      0.1116
  1383.6000    122.3308      8.2666     28.2190     19.2476      2.1844      0.1090
  1383.7000    118.7956      8.2666     34.5776     20.3670      2.0795      0.0739
  1383.8000    120.4159      8.2945     40.3898     21.2245      1.9836      0.0572
  1383.9000    128.0173      8.2945     43.5111     21.9873      1.9321      0.0103
  1384.0000    134.3605      8.2621     42.8420     23.1281      1.9431      0.0271
  1384.1000    139.5538      8.2621     39.0773     24.2524      2.0052      0.0888
  1384.2000    144.7820      8.2621     34.1297     24.8782      2.0869      0.2103
  1384.3000    145.4583      8.2574     29.9493     25.2016      2.1558      0.3265
  1384.4000    140.1818      8.2574     27.5227     25.3794      2.1959      0.3118
  1384.5000    133.5992      8.2617     27.0420     25.4947      2.2038      0.3080
  1384.6000    130.6964      8.2617     27.5739     25.8244      2.1950      0.1481
  1384.7000    130.8426      8.2617     26.1811     26.3618      2.2180     -0.0065
  1384.8000    130.0864      8.2986     21.8514     26.9108      2.2895      0.0271
  1384.9000    128.8263      8.2986     17.6822     27.2946      2.3582      0.0409
  1385.0000    128.1437      8.2780     16.1481     27.1518      2.3836      0.0544
  1385.1000    123.8197      8.2780     16.7326     26.4484      2.3739      0.0542
  1385.2000    116.0755      8.2780     17.5355     25.7868      2.3607      0.0275
  1385.3000    112.7014      8.2395     17.0411     25.6398      2.3688      0.0655
  1385.4000    116.2301      8.2395     15.2186     25.8557      2.3989      0.1148
  1385.5000    119.0558      8.2397     12.7254     26.0927      2.4400      0.1382
  1385.6000    117.4467      8.2397      9.7600     26.3794      2.4890      0.1962
  1385.7000    116.0684      8.2397      6.3894     26.6740      2.5446      0.2421
  1385.8000    118.2683      8.2317      3.1065     26.6786      2.5987      0.2975
  1385.9000    125.1893      8.2317      0.8462     26.4587      2.6360      0.3148
  1386.0000    136.3856      8.2268      0.3369     26.1981      2.6444      0.2947
  1386.1000    148.1497      8.2268      0.8691     25.7479      2.6357      0.1651
  1386.2000    156.9790      8.2268      1.0300     25.0838      2.6330      0.1325
