~Version Information
VERS.                      2.0: CWLS Log ASCII Standard - VERSION 2.0
WRAP.                       NO: One line per depth step
~Well Information Block
STRT.FT                17.7500: 
STOP.FT              1139.0000: 
STEP.FT                 0.2500: 
NULL.                -999.2500: 
COMP.          El Paso E&P Company L.P.: COMPANY
WELL.              VPR "ST" 38: WELL
FLD.           Purgatorie River: FIELD
LOC.           687' FNL & 2121' FEL: LOCATION
CNTY.               Las Animas: COUNTY
SRVC.          Superior Well Services: SERVICE COMPANY
DATE.          Sat Oct 13 22-40-21 2007: LOG DATE
UWI.           05-071-08357-00: UNIQUE WELL ID
STAT.                       CO: STATE
~Curve Information Block
DEPT.FT            0 000 00 00: Depth
CCL.                          : Casing Collar Locator
TT3.usec                      : CBL 3' Travel Time
AMP3.mV                       : CBL 3' Amplitude
GR.GAPI                       : Gamma Ray
~Parameter Information Block
~A  Depth       CCL         TT3         AMP3         GR     
# ...
   955.7500      0.0000    484.7607      6.1273     74.0884
   956.0000      0.0000    425.0061      6.7143     70.3828
   956.2500      0.0000    390.9899      7.2149     64.5958
   956.5000      0.0000    388.7751      7.6309     60.3201
   956.7500      0.0000    415.4838      7.9345     53.8966
   957.0000      0.0000    460.2138      8.0442     50.7831
   957.2500      0.0000    507.5719      7.9161     49.8330
   957.5000      0.0000    545.2144      7.6351     51.8432
   957.7500      0.0000    569.9142      7.3536     57.1964
   958.0000      0.0000    586.9917      7.1408     61.0323
   958.2500      0.0000    604.9254      6.9341     65.8484
   958.5000      0.0000    628.8531      6.6341     68.2388
   958.7500      0.0000    656.6028      6.2072     70.5559
   959.0000     -2.0000    681.0239      5.7006     71.1807
   959.2500     -2.0000    696.4187      5.1951     70.6857
   959.5000      2.0000    702.2617      4.7542     69.5741
   959.7500      0.0000    701.9952      4.4060     67.4155
   960.0000      0.0000    700.1807      4.1576     66.1833
   960.2500      0.0000    700.4755      4.0063     65.6082
   960.5000      0.0000    703.9833      3.9288     66.4537
   960.7500      0.0000    708.8265      3.8807     69.2984
   961.0000      0.0000    712.2296      3.8272     71.4754
   961.2500      0.0000    713.1144      3.7693     73.6727
   961.5000      0.0000    712.3951      3.7253     74.2286
   961.7500      0.0000    711.4149      3.6997     75.0938
   962.0000      0.0000    710.8563      3.6830     76.9441
   962.2500      0.0000    710.7866      3.6718     82.4474
   962.5000      0.0000    711.0463      3.6751     86.9781
   962.7500      0.0000    711.4648      3.7035     92.1033
   963.0000      0.0000    711.9268      3.7582     93.2390
   963.2500      0.0000    712.3589      3.8300     91.6556
   963.5000      0.0000    712.7070      3.9064     89.2657
   963.7500      0.0000    712.9346      3.9793     85.3280
   964.0000      0.0000    713.0339      4.0446     83.2563
   964.2500      0.0000    713.0750      4.0979     81.2710
   964.5000      0.0000    713.1924      4.1346     79.8773
   964.7500      0.0000    713.4485      4.1538     75.7492
   965.0000      0.0000    713.4272      4.1611     71.5216
   965.2500      0.0000    711.8771      4.1638     65.1353
   965.5000      0.0000    707.3793      4.1676     62.3869
   965.7500      0.0000    700.2880      4.1771     61.3945
   966.0000      0.0000    693.7369      4.2018     62.2242
   966.2500      0.0000    691.4387      4.2616     64.5805
   966.5000      0.0000    694.3334      4.3876     67.0106
   966.7500      0.0000    700.1168      4.6060     73.0405
   967.0000      0.0000    705.6511      4.9039     78.8327
   967.2500      0.0000    709.0944      5.2036     88.5696
   967.5000      0.0000    710.3309      5.3888     93.9188
   967.7500      0.0000    710.5186      5.3825     97.0109
   968.0000      0.0000    711.4538      5.2049     94.8179
   968.2500      0.0000    715.0950      4.9524     86.0045
   968.5000      0.0000    723.1505      4.7215     78.1989
   968.7500      0.0000    735.8901      4.5572     67.5229
   969.0000      0.0000    750.3654      4.4576     63.1952
   969.2500      0.0000    760.8152      4.4033     62.9918
   969.5000      0.0000    762.5748      4.3730     66.9196
   969.7500      0.0000    755.7288      4.3441     76.2442
   970.0000      0.0000    744.4742      4.2939     82.5009
   970.2500      0.0000    733.6993      4.2114     89.3178
   970.5000      0.0000    726.4611      4.1119     92.0903
   970.7500      0.0000    723.2721      4.0334     94.9095
   971.0000      0.0000    722.8636      4.0069     96.4592
   971.2500      0.0000    724.0392      4.0262     98.3196
   971.5000      0.0000    726.8677      4.0539     98.8875
   971.7500      0.0000    731.7690      4.0570     97.7713
   972.0000      0.0000    737.8997      4.0307     95.3984
   972.2500      0.0000    743.1977      3.9880     90.1184
   972.5000      0.0000    745.9931      3.9399     86.3238
   972.7500      0.0000    746.2827      3.8912     81.2455
   973.0000      0.0000    745.4698      3.8488     78.5658
   973.2500      0.0000    744.6478      3.8242     76.3170
   973.5000      0.0000    742.7769      3.8256     76.4534
   973.7500      0.0000    737.0002      3.8509     79.0691
   974.0000      0.0000    725.6358      3.8872     81.7037
   974.2500      0.0000    710.7011      3.9147     85.1450
   974.5000      0.0000    696.8662      3.9112     86.3420
   974.7500      0.0000    688.2775      3.8598     86.9439
   975.0000      0.0000    686.9366      3.7570     87.7342
   975.2500      0.0000    693.1322      3.6163     91.4262
   975.5000      0.0000    705.6960      3.4643     95.7403
   975.7500      0.0000    721.5289      3.3300    103.3771
   976.0000      0.0000    736.1833      3.2298    107.6028
   976.2500      0.0000    745.9886      3.1592    110.1762
   976.5000      0.0000    749.7368      3.1015    109.1139
   976.7500      0.0000    748.4042      3.0440    105.2398
   977.0000      0.0000    743.6834      2.9879    102.6817
   977.2500      0.0000    737.0009      2.9445    100.6284
   977.5000      0.0000    729.7940      2.9283    101.0019
   977.7500      0.0000    724.3735      2.9539    105.0502
   978.0000      0.0000    723.7147      3.0317    110.3349
   978.2500      0.0000    729.4579      3.1611    120.9208
   978.5000      0.0000    739.8101      3.3246    127.8027
   978.7500      0.0000    750.1645      3.4878    133.6456
   979.0000      0.0000    756.6940      3.6119    132.9260
   979.2500      0.0000    759.4113      3.6725    125.5437
   979.5000      0.0000    761.5081      3.6709    118.5961
   979.7500      0.0000    766.1610      3.6312    109.4038
   980.0000      0.0000    774.3022      3.5835    105.4584
   980.2500      0.0000    784.8059      3.5486    102.5845
   980.5000      0.0000    795.8015      3.5342    101.7110
   980.7500      0.0000    805.3333      3.5393    100.3550
   981.0000      0.0000    811.3101      3.5593     99.0632
   981.2500      0.0000    811.8702      3.5875     96.8775
   981.5000      0.0000    806.1735      3.6168     95.4554
   981.7500      0.0000    794.6680      3.6438     93.1458
   982.0000      0.0000    779.0957      3.6702     91.5094
   982.2500      0.0000    763.0072      3.6989     90.2657
   982.5000      0.0000    751.3343      3.7284     91.3766
   982.7500      0.0000    747.2326      3.7534     96.3933
   983.0000      0.0000    748.9428      3.7692    100.8728
   983.2500      0.0000    751.2338      3.7741    106.4541
   983.5000      0.0000    750.1198      3.7698    108.3855
   983.7500      0.0000    745.4738      3.7590    108.7359
   984.0000      0.0000    740.2161      3.7436    107.8249
   984.2500      0.0000    738.2794      3.7241    104.7887
   984.5000      0.0000    741.9207      3.7013    101.1515
   984.7500      0.0000    748.9409      3.6799     93.5137
   985.0000      0.0000    753.2531      3.6682     88.6024
   985.2500      0.0000    750.2310      3.6697     85.4987
   985.5000      0.0000    741.6021      3.6785     87.4056
   985.7500      0.0000    734.2823      3.6831     94.2144
   986.0000      0.0000    734.7879      3.6764     98.7991
   986.2500      0.0000    744.4953      3.6596    102.4871
   986.5000      0.0000    757.9187      3.6374    102.7626
   986.7500      0.0000    764.0339      3.6117    101.8362
   987.0000      0.0000    751.3311      3.5820    101.0661
   987.2500      0.0000    715.3123      3.5517     98.9501
   987.5000      0.0000    662.9302      3.5315     96.0400
   987.7500      0.0000    608.8703      3.5336     88.9942
   988.0000      0.0000    566.1044      3.5644     82.9405
   988.2500      0.0000    539.1332      3.6219     72.9588
   988.5000      0.0000    524.8297      3.6971     66.4411
   988.7500      0.0000    517.6495      3.7771     58.3081
   989.0000      0.0000    513.5437      3.8492     54.7062
