~Version Information
VERS.                      2.0: CWLS Log ASCII Standard - VERSION 2.0
WRAP.                       NO: One line per depth step
~Well Information Block
STRT.FT               500.0000: 
STOP.FT              2760.5000: 
STEP.FT                 0.1000: 
NULL.                -999.2500: 
COMP.          Petrogulf Corporation: COMPANY
WELL.              Silva 1-43V: WELL
FLD.           Purgatorie River: FIELD
LOC.           2010' FSL & 614' FEL: LOCATION
PROV.                 Colorado: PROVINCE
CNTY.               Las Animas: COUNTRY
SRVC.                Patterson: SERVICE COMPANY
DATE.          Mon Aug 29 08:02:37 2005: LOG DATE
UWI.                          : UNIQUE WELL ID
~Curve Information Block
DEPT.FT            0 000 00 00: Depth
DCAL.in                       : CDL Caliper
RHOB.g/cc                     : CDL Bulk Density
RHOC.g/cc                     : CDL Density Correction
DPOR.pu                       : CDL Density Porosity
GR.GAPI                       : Gamma Ray
NPOR.pu                       : Neutron Porosity
~Parameter Information Block
~A  Depth       DCAL        RHOB        RHOC        DPOR         GR         NPOR    
# ...
  2746.4000      7.8498      2.5324      0.0691      7.1268    114.9669   -999.2500
  2746.5000      7.8755      2.5652      0.1272      5.1392    116.4778   -999.2500
  2746.6000      7.8755      2.5813      0.1123      4.1664    115.0096   -999.2500
  2746.7000      7.8755      2.5790      0.1063      4.3037    113.4953   -999.2500
  2746.8000      7.9252      2.5717      0.1396      4.7469    112.8990   -999.2500
  2746.9000      7.9252      2.5603      0.1327      5.4389    109.2883   -999.2500
  2747.0000      7.8890      2.5435      0.0545      6.4570    103.8960   -999.2500
  2747.1000      7.8890      2.5311      0.0631      7.2056    100.1769   -999.2500
  2747.2000      7.8890      2.5253      0.0430      7.5584     97.2068   -999.2500
  2747.3000      7.8926      2.5187      0.0616      7.9580     94.1910   -999.2500
  2747.4000      7.8926      2.5092      0.0202      8.5361     92.6719   -999.2500
  2747.5000      7.9039      2.5017      0.0536      8.9893     91.9352   -999.2500
  2747.6000      7.9039      2.5072     -0.0074      8.6554     84.2644   -999.2500
  2747.7000      7.9039      2.5290      0.1019      7.3343     61.5816   -999.2500
  2747.8000      7.8826      2.5455      0.0821      6.3339     31.0754   -999.2500
  2747.9000      7.8826      2.5417      0.0684      6.5638      9.7230   -999.2500
  2748.0000      7.8649      2.5268      0.1001      7.4659      1.7591   -999.2500
  2748.1000      7.8649      2.5144      0.0605      8.2205      0.1763   -999.2500
  2748.2000      7.8649      2.5085      0.1160      8.5735      0.0093   -999.2500
  2748.3000      7.8679      2.5053      0.1185      8.7698      0.0000   -999.2500
  2748.4000      7.8679      2.5085      0.0732      8.5760   -999.2500   -999.2500
  2748.5000      7.8615      2.5235      0.1210      7.6685   -999.2500   -999.2500
  2748.6000      7.8615      2.5400      0.1184      6.6683   -999.2500   -999.2500
  2748.7000      7.8615      2.5457      0.1240      6.3233   -999.2500   -999.2500
  2748.8000      7.8844      2.5440      0.1110      6.4250   -999.2500   -999.2500
  2748.9000      7.8844      2.5481      0.1108      6.1733   -999.2500   -999.2500
  2749.0000      7.8873      2.5549      0.1726      5.7614   -999.2500   -999.2500
  2749.1000      7.8873      2.5518      0.1407      5.9520   -999.2500   -999.2500
  2749.2000      7.8873      2.5457      0.1041      6.3218   -999.2500   -999.2500
  2749.3000      7.8505      2.5452      0.1188      6.3490   -999.2500   -999.2500
  2749.4000      7.8505      2.5437      0.0970      6.4400   -999.2500   -999.2500
  2749.5000      7.8539      2.5389      0.0968      6.7308   -999.2500   -999.2500
  2749.6000      7.8539      2.5331      0.1078      7.0854   -999.2500   -999.2500
  2749.7000      7.8539      2.5258      0.0778      7.5247   -999.2500   -999.2500
  2749.8000      7.7591      2.5251      0.0583      7.5720   -999.2500   -999.2500
  2749.9000      7.7591      2.5365      0.0734      6.8784   -999.2500   -999.2500
  2750.0000      7.8265      2.5458      0.1613      6.3175   -999.2500   -999.2500
  2750.1000      7.8265      2.5396      0.1036      6.6911   -999.2500   -999.2500
  2750.2000      7.8265      2.5268      0.1195      7.4677   -999.2500   -999.2500
  2750.3000      7.8467      2.5176      0.0913      8.0233   -999.2500   -999.2500
  2750.4000      7.8467      2.5135      0.0709      8.2746   -999.2500   -999.2500
  2750.5000      7.8073      2.5112      0.1002      8.4122   -999.2500   -999.2500
  2750.6000      7.8073      2.5095      0.0701      8.5131   -999.2500   -999.2500
  2750.7000      7.8073      2.5160      0.0679      8.1183   -999.2500   -999.2500
  2750.8000      7.8475      2.5277      0.1398      7.4151   -999.2500   -999.2500
  2750.9000      7.8475      2.5307      0.1212      7.2324   -999.2500   -999.2500
  2751.0000      7.8812      2.5247      0.1380      7.5915   -999.2500   -999.2500
  2751.1000      7.8812      2.5176      0.1377      8.0246   -999.2500   -999.2500
  2751.2000      7.8812      2.5121      0.1283      8.3602   -999.2500   -999.2500
  2751.3000      7.8439      2.5097      0.1051      8.5054   -999.2500   -999.2500
  2751.4000      7.8439      2.5139      0.0941      8.2507   -999.2500   -999.2500
  2751.5000      7.8533      2.5245      0.1014      7.6060   -999.2500   -999.2500
  2751.6000      7.8533      2.5352      0.0975      6.9591   -999.2500   -999.2500
  2751.7000      7.8533      2.5403      0.1096      6.6483   -999.2500   -999.2500
  2751.8000      7.8268      2.5434      0.0918      6.4586   -999.2500   -999.2500
  2751.9000      7.8268      2.5467      0.1838      6.2614   -999.2500   -999.2500
  2752.0000      7.8408      2.5427      0.1244      6.5044   -999.2500   -999.2500
  2752.1000      7.8408      2.5352      0.0936      6.9578   -999.2500   -999.2500
  2752.2000      7.8408      2.5382      0.0956      6.7728   -999.2500   -999.2500
  2752.3000      7.8464      2.5512      0.1105      5.9900   -999.2500   -999.2500
  2752.4000      7.8464      2.5552      0.1388      5.7443   -999.2500   -999.2500
  2752.5000      7.8014      2.5394      0.1152      6.7012   -999.2500   -999.2500
  2752.6000      7.8014      2.5123      0.1107      8.3447   -999.2500   -999.2500
  2752.7000      7.8014      2.4922      0.0692      9.5612   -999.2500   -999.2500
  2752.8000      7.7839      2.4962      0.0778      9.3218   -999.2500   -999.2500
  2752.9000      7.7839      2.5214      0.1074      7.7914   -999.2500   -999.2500
  2753.0000      7.8572      2.5438      0.1282      6.4352   -999.2500   -999.2500
  2753.1000      7.8572      2.5481      0.1285      6.1728   -999.2500   -999.2500
  2753.2000      7.8572      2.5437      0.1295      6.4436   -999.2500   -999.2500
  2753.3000      7.8547      2.5397      0.1546      6.6871   -999.2500   -999.2500
  2753.4000      7.8547      2.5335      0.1526      7.0588   -999.2500   -999.2500
  2753.5000      7.8818      2.5204      0.1271      7.8540   -999.2500   -999.2500
  2753.6000      7.8818      2.4970      0.1291      9.2752   -999.2500   -999.2500
  2753.7000      7.8818      2.4704      0.0620     10.8873   -999.2500   -999.2500
  2753.8000      7.8909      2.4571      0.0587     11.6898   -999.2500   -999.2500
  2753.9000      7.8909      2.4620      0.0693     11.3913   -999.2500   -999.2500
  2754.0000      7.9035      2.4789      0.0690     10.3726   -999.2500   -999.2500
  2754.1000      7.9035      2.5019      0.1137      8.9766   -999.2500   -999.2500
  2754.2000      7.9035      2.5276      0.1179      7.4158   -999.2500   -999.2500
  2754.3000      7.9275      2.5474      0.1745      6.2163   -999.2500   -999.2500
  2754.4000      7.9275      2.5471      0.1741      6.2353   -999.2500   -999.2500
  2754.5000      7.9290      2.5267      0.1329      7.4740   -999.2500   -999.2500
  2754.6000      7.9290      2.5047      0.1249      8.8048   -999.2500   -999.2500
  2754.7000      7.9290      2.5001      0.1082      9.0859   -999.2500   -999.2500
  2754.8000      7.8191      2.5124      0.0918      8.3415   -999.2500   -999.2500
  2754.9000      7.8191      2.5250      0.1131      7.5762   -999.2500   -999.2500
  2755.0000      7.7776      2.5279      0.1287      7.4028   -999.2500   -999.2500
  2755.1000      7.7776      2.5282      0.1327      7.3790   -999.2500   -999.2500
  2755.2000      7.7776      2.5397      0.1509      6.6845   -999.2500   -999.2500
  2755.3000      7.8665      2.5635      0.1562      5.2446   -999.2500   -999.2500
  2755.4000      7.8665      2.5846      0.1640      3.9649   -999.2500   -999.2500
  2755.5000      7.8297      2.5878      0.1618      3.7670   -999.2500   -999.2500
  2755.6000      7.8297      2.5658      0.1569      5.1039   -999.2500   -999.2500
  2755.7000      7.8297      2.5163      0.1027      8.1008   -999.2500   -999.2500
  2755.8000      7.7299      2.4499      0.1025     12.1256   -999.2500   -999.2500
  2755.9000      7.7299      2.4191      0.0803     13.9934   -999.2500   -999.2500
