~Version Information
VERS.                      2.0: CWLS Log ASCII Standard - VERSION 2.0
WRAP.                       NO: One line per depth step
~Well Information Block
STRT.FT               456.0000: 
STOP.FT              1703.0000: 
STEP.FT                 0.2500: 
NULL.                -999.2500: 
COMP.          Pioneer Natural Resources: COMPANY
WELL.                Mead 11-9: WELL
FLD.           Purgatoire River: FIELD
LOC.           1127' FNL & 668' FWL: LOCATION
PROV.                 Colorado: PROVINCE
CNTY.               Las Animas: COUNTRY
SRVC.                Patterson: SERVICE COMPANY
DATE.          Fri Feb 18 16:14:34 2005: LOG DATE
UWI.           05 071 08160 00: UNIQUE WELL ID
~Curve Information Block
DEPT.FT            0 000 00 00: Depth
SN.Ohm-m                      : IEL Short Normal
SP.mV                         : IEL Spontaneous Potential
DIR.Ohm-m                     : IEL Induction Resistivity
GR.GAPI                       : Gamma Ray
~Parameter Information Block
~A  Depth        SN          SP         DIR          GR     
# ...
  1327.0000      0.0243   -300.0002      0.2174     43.8516
  1327.2500      0.0419   -300.0002      0.1600     44.6748
  1327.5000      0.0649   -299.9969      0.1214     46.4428
  1327.7500      0.0701   -299.9734      0.0945     47.9968
  1328.0000      0.0574   -299.8495      0.0757     50.8743
  1328.2500      0.0466   -299.3393      0.0627     53.2547
  1328.5000      0.0467   -297.6809      0.0539     58.0843
  1328.7500      0.0525   -293.3937      0.0480     62.5616
  1329.0000      0.0591   -284.4994      0.0437     71.1715
  1329.2500      0.0645   -269.5145      0.0402     77.4485
  1329.5000      0.0822   -248.7005      0.0378     85.7885
  1329.7500      0.1947   -224.4432      0.0373     89.8928
  1330.0000      0.5620   -200.2739      0.0410     93.8555
  1330.2500      1.2730   -179.2870      0.0528     95.4909
  1330.5000      2.1905   -163.0601      0.0820     97.1417
  1330.7500      3.0577   -151.5554      0.1496     97.8194
  1331.0000      3.7287   -143.7466      0.2980     97.8919
  1331.2500      4.2170   -138.3936      0.6210     97.0807
  1331.5000      4.5948   -134.5223      1.5105     94.7367
  1331.7500      4.9210   -131.5310      7.2771     92.9105
  1332.0000      5.2324   -129.0935 100000.0000     90.5942
  1332.2500      5.5459   -127.0528 100000.0000     89.4672
  1332.5000      5.8572   -125.3552 100000.0000     88.2986
  1332.7500      6.1548   -123.9932 100000.0000     87.9042
  1333.0000      6.4396   -122.9483 100000.0000     88.0770
  1333.2500      6.7223   -122.1705 100000.0000     88.6771
  1333.5000      7.0107   -121.5985 100000.0000     89.9664
  1333.7500      7.3001   -121.1745 100000.0000     90.8394
  1334.0000      7.5697   -120.8382 100000.0000     91.8214
  1334.2500      7.7918   -120.5252 100000.0000     92.1414
  1334.5000      7.9492   -120.1880 100000.0000     92.1779
  1334.7500      8.0482   -119.8175 100000.0000     92.0777
  1335.0000      8.1167   -119.4424 100000.0000     91.8887
  1335.2500      8.1956   -119.1067 100000.0000     91.5578
  1335.5000      8.3336   -118.8446 100000.0000     90.1294
  1335.7500      8.5692   -118.6658 100000.0000     88.2613
  1336.0000      8.8893   -118.5552 100000.0000     84.1395
  1336.2500      9.2015   -118.4825 100000.0000     80.9379
  1336.5000      9.3842   -118.4162 100000.0000     76.4395
  1336.7500      9.3740   -118.3325 100000.0000     74.0117
  1337.0000      9.2069   -118.2135 100000.0000     71.3244
  1337.2500      9.0107   -118.0385 100000.0000     70.0829
  1337.5000      8.9661   -117.7881     55.5709     68.8144
  1337.7500      9.2403   -117.4634     17.7756     68.1271
  1338.0000      9.9024   -117.1015     11.3016     66.8390
  1338.2500     10.8330   -116.7604      8.9341     65.6311
  1338.5000     11.7109   -116.4779      7.8882     63.3381
  1338.7500     12.1709   -116.2397      7.4078     61.7068
  1339.0000     12.0405   -115.9886      7.1954     59.8815
  1339.2500     11.4636   -115.6673      7.1153     59.7759
  1339.5000     10.8231   -115.2580      7.1106     62.5449
  1339.7500     10.5005   -114.7893      7.1678     66.7500
  1340.0000     10.6580   -114.3164      7.2927     76.2889
  1340.2500     11.1866   -113.8923      7.4920     84.1053
  1340.5000     11.8081   -113.5461      7.7599     96.4153
  1340.7500     12.2742   -113.2791      8.0716    104.0571
  1341.0000     12.5175   -113.0759      8.3885    113.2955
  1341.2500     12.6022   -112.9222      8.6737    117.5454
  1341.5000     12.6085   -112.8173      8.9091    121.3182
  1341.7500     12.6356   -112.7703      9.1023    122.6288
  1342.0000     12.8108   -112.7868      9.2795    123.3404
  1342.2500     13.1180   -112.8574      9.4722    122.7217
  1342.5000     13.2912   -112.9589      9.7066    119.0972
  1342.7500     13.1031   -113.0635      9.9968    114.4360
  1343.0000     12.6193   -113.1477     10.3424    104.3118
  1343.2500     12.0535   -113.2005     10.7304     96.2411
  1343.5000     11.6043   -113.2269     11.1400     83.9566
  1343.7500     11.4105   -113.2424     11.5510     76.4978
  1344.0000     11.5116   -113.2604     11.9519     67.0997
  1344.2500     11.8328   -113.2772     12.3435     62.2000
  1344.5000     12.2682   -113.2695     12.7352     57.2631
  1344.7500     12.8658   -113.2077     13.1346     55.7413
  1345.0000     13.8121   -113.0779     13.5373     55.8862
  1345.2500     15.1294   -112.8922     13.9224     57.2441
  1345.5000     16.5376   -112.6776     14.2563     60.7457
  1345.7500     17.6409   -112.4592     14.5022     64.0306
  1346.0000     18.1625   -112.2551     14.6317     70.2262
  1346.2500     18.1540   -112.0837     14.6300     74.7062
  1346.5000     17.9687   -111.9631     14.4979     80.3871
  1346.7500     17.8368   -111.8978     14.2516     82.5704
  1347.0000     17.6801   -111.8698     13.9212     82.9629
  1347.2500     17.3833   -111.8476     13.5460     81.9899
  1347.5000     16.9655   -111.8083     13.1649     80.9600
  1347.7500     16.4964   -111.7502     12.8101     81.6233
  1348.0000     15.9981   -111.6850     12.5037     84.4722
  1348.2500     15.4047   -111.6175     12.2601     86.4170
  1348.5000     14.5579   -111.5367     12.0863     87.2302
  1348.7500     13.3252   -111.4280     11.9813     85.9262
  1349.0000     11.8107   -111.2930     11.9344     82.1172
  1349.2500     10.3986   -111.1551     11.9260     79.3573
  1349.5000      9.5463   -111.0477     11.9329     76.3133
  1349.7500      9.5817   -110.9999     11.9336     75.3297
  1350.0000     10.5938   -111.0270     11.9141     75.1535
  1350.2500     12.2926   -111.1235     11.8675     75.4864
  1350.5000     14.0136   -111.2602     11.7906     75.8860
  1350.7500     15.0953   -111.3962     11.6801     75.8065
  1351.0000     15.3080   -111.5015     11.5336     75.2707
  1351.2500     14.8891   -111.5692     11.3562     74.9924
  1351.5000     14.2637   -111.6066     11.1647     75.4530
  1351.7500     13.7390   -111.6220     10.9845     76.6246
  1352.0000     13.3750   -111.6235     10.8400     79.5124
  1352.2500     13.1234   -111.6231     10.7458     81.7564
  1352.5000     12.9929   -111.6321     10.7057     84.8409
  1352.7500     12.9852   -111.6512     10.7169     86.4946
  1353.0000     13.0185   -111.6662     10.7734     88.2478
  1353.2500     12.9995   -111.6526     10.8654     88.8568
  1353.5000     12.8896   -111.5884     10.9771     88.9290
  1353.7500     12.6968   -111.4713     11.0877     88.6392
  1354.0000     12.4589   -111.3324     11.1779     88.2830
  1354.2500     12.2360   -111.2306     11.2361     88.1997
  1354.5000     12.1019   -111.2247     11.2601     87.7059
  1354.7500     12.1255   -111.3418     11.2572     86.6182
  1355.0000     12.3419   -111.5644     11.2469     83.6508
  1355.2500     12.7305   -111.8359     11.2605     81.3185
  1355.5000     13.2126   -112.0841     11.3325     78.8658
  1355.7500     13.6688   -112.2561     11.4869     78.6827
  1356.0000     14.0030   -112.3449     11.7271     80.8314
  1356.2500     14.2098   -112.3852     12.0346     83.4195
  1356.5000     14.3548   -112.4238     12.3744     87.7403
  1356.7500     14.4985   -112.4919     12.7020     90.1212
  1357.0000     14.6394   -112.5973     12.9712     91.8236
  1357.2500     14.7081   -112.7297     13.1417     91.3551
  1357.5000     14.6072   -112.8717     13.1896     88.3303
  1357.7500     14.2509   -113.0085     13.1133     85.1912
  1358.0000     13.5996   -113.1359     12.9321     79.9670
  1358.2500     12.7316   -113.2625     12.6767     76.9591
  1358.5000     11.8863   -113.4045     12.3785     74.5216
  1358.7500     11.3522   -113.5745     12.0650     74.7144
  1359.0000     11.2874   -113.7715     11.7599     77.1146
  1359.2500     11.6454   -113.9784     11.4832     79.0578
  1359.5000     12.2159   -114.1717     11.2489     80.9692
  1359.7500     12.7284   -114.3395     11.0593     81.6207
  1360.0000     13.0072   -114.4894     10.9005     82.8179
  1360.2500     13.0742   -114.6413     10.7467     84.1475
