~Version Information
VERS.                      2.0: CWLS Log ASCII Standard - VERSION 2.0
WRAP.                       NO: One line per depth step
~Well Information Block
STRT.FT               500.0000: 
STOP.FT              2760.5000: 
STEP.FT                 0.1000: 
NULL.                -999.2500: 
COMP.          Petrogulf Corporation: COMPANY
WELL.              Silva 1-43V: WELL
FLD.           Purgatorie River: FIELD
LOC.           2010' FSL & 614' FEL: LOCATION
PROV.                 Colorado: PROVINCE
CNTY.               Las Animas: COUNTRY
SRVC.                Patterson: SERVICE COMPANY
DATE.          Mon Aug 29 08:02:37 2005: LOG DATE
UWI.                          : UNIQUE WELL ID
~Curve Information Block
DEPT.FT            0 000 00 00: Depth
DCAL.in                       : CDL Caliper
RHOB.g/cc                     : CDL Bulk Density
RHOC.g/cc                     : CDL Density Correction
DPOR.pu                       : CDL Density Porosity
GR.GAPI                       : Gamma Ray
NPOR.pu                       : Neutron Porosity
~Parameter Information Block
~A  Depth       DCAL        RHOB        RHOC        DPOR         GR         NPOR    
# ...
  2295.2000      8.0187      2.5249      0.1348      7.5809    131.0341     29.5912
  2295.3000      8.0811      2.5268      0.2213      7.4646    137.3978     29.7159
  2295.4000      8.0811      2.5240      0.1524      7.6388    136.9220     30.1110
  2295.5000      8.0738      2.5264      0.2009      7.4909    131.1347     30.5449
  2295.6000      8.0738      2.5225      0.1837      7.7295    126.3272     30.8496
  2295.7000      8.0738      2.4979      0.1712      9.2171    123.4416     31.0014
  2295.8000      8.0575      2.4619      0.1449     11.3999    121.8367     31.0177
  2295.9000      8.0575      2.4296      0.1337     13.3581    120.7441     30.9573
  2296.0000      8.0424      2.4061      0.0957     14.7840    117.3499     30.8502
  2296.1000      8.0424      2.3942      0.0934     15.5026    111.9967     30.6576
  2296.2000      8.0424      2.3981      0.0882     15.2655    108.3416     30.4039
  2296.3000      8.0105      2.4127      0.0934     14.3846    106.6775     30.2415
  2296.4000      8.0105      2.4242      0.1008     13.6854    105.3614     30.3959
  2296.5000      8.0099      2.4260      0.1226     13.5787    104.2793     30.8305
  2296.6000      8.0099      2.4242      0.0846     13.6875    104.8879     31.1725
  2296.7000      8.0099      2.4282      0.0835     13.4412    107.6066     31.3293
  2296.8000      8.0661      2.4388      0.0826     12.8003    110.7339     31.4001
  2296.9000      8.0661      2.4488      0.1374     12.1911    111.8975     31.1718
  2297.0000      8.0889      2.4513      0.1220     12.0441    108.0020     30.6011
  2297.1000      8.0889      2.4491      0.0724     12.1731    100.9612     30.0808
  2297.2000      8.0889      2.4514      0.1027     12.0381     97.1852     29.7377
  2297.3000      8.1247      2.4563      0.0876     11.7424     98.6083     29.3246
  2297.4000      8.1247      2.4576      0.1088     11.6595    102.3843     28.8168
  2297.5000      8.1818      2.4562      0.1179     11.7443    103.2546     28.6696
  2297.6000      8.1818      2.4571      0.0917     11.6880     99.3337     29.0060
  2297.7000      8.1818      2.4608      0.1102     11.4675     96.2204     29.2220
  2297.8000      8.1418      2.4591      0.1088     11.5686     97.1190     28.9257
  2297.9000      8.1418      2.4496      0.0870     12.1442     97.6245     28.7212
  2298.0000      8.0847      2.4460      0.0544     12.3666     95.7323     29.0395
  2298.1000      8.0847      2.4595      0.1111     11.5454     94.0883     29.3075
  2298.2000      8.0847      2.4792      0.1100     10.3531     93.0653     29.1978
  2298.3000      8.0896      2.4848      0.0964     10.0101     91.9019     29.0557
  2298.4000      8.0896      2.4742      0.0874     10.6546     91.5581     29.0954
  2298.5000      8.0649      2.4643      0.0631     11.2573     91.5725     29.2369
  2298.6000      8.0649      2.4660      0.0773     11.1510     89.2631     29.2258
  2298.7000      8.0649      2.4770      0.1179     10.4867     83.7909     28.8004
  2298.8000      8.0532      2.4940      0.0962      9.4537     79.1098     28.1026
  2298.9000      8.0532      2.5188      0.1296      7.9544     77.6040     27.6046
  2299.0000      8.0151      2.5461      0.1384      6.2980     77.5749     27.6558
  2299.1000      8.0151      2.5665      0.1655      5.0610     77.3429     28.2243
  2299.2000      8.0151      2.5791      0.1665      4.2963     76.2876     28.6988
  2299.3000      7.9642      2.5908      0.1760      3.5875     75.2585     28.6734
  2299.4000      7.9642      2.6072      0.1417      2.5960     74.5298     28.4283
  2299.5000      7.9424      2.6222      0.1616      1.6875     72.5771     28.2008
  2299.6000      7.9424      2.6213      0.1557      1.7412     69.5752     28.0142
  2299.7000      7.9424      2.6009      0.1097      2.9783     67.6704     27.8896
  2299.8000      7.9413      2.5696      0.1347      4.8742     66.8473     27.7708
  2299.9000      7.9413      2.5333      0.0839      7.0715     66.9849     27.6232
  2300.0000      7.9428      2.4991      0.0566      9.1456     70.0106     27.5439
  2300.1000      7.9428      2.4780      0.0310     10.4262     76.0099     27.3898
  2300.2000      7.9428      2.4724      0.0293     10.7623     82.2124     26.9784
  2300.3000      7.9028      2.4743      0.0456     10.6475     85.8023     26.5046
  2300.4000      7.9028      2.4802      0.0508     10.2932     86.5943     26.2666
  2300.5000      7.9413      2.4876      0.1075      9.8394     86.6145     26.3709
  2300.6000      7.9413      2.4878      0.0884      9.8315     87.6992     26.7010
  2300.7000      7.9413      2.4809      0.0958     10.2459     91.1244     26.9146
  2300.8000      7.9469      2.4778      0.0857     10.4355     95.8239     26.8278
  2300.9000      7.9469      2.4854      0.0943      9.9739     98.7525     26.7532
  2301.0000      7.9968      2.5004      0.1091      9.0640    100.6863     27.0932
  2301.1000      7.9968      2.5129      0.1156      8.3073    103.1278     28.0416
  2301.2000      7.9968      2.5209      0.0995      7.8229    102.9346     29.2401
  2301.3000      7.9783      2.5288      0.1079      7.3434     99.7404     29.8608
  2301.4000      7.9783      2.5302      0.1399      7.2633     97.2245     29.7218
  2301.5000      7.9440      2.5172      0.0989      8.0492     96.4973     29.5997
  2301.6000      7.9440      2.5023      0.0476      8.9520     97.0274     29.9473
  2301.7000      7.9440      2.4984      0.0897      9.1849     97.4825     30.2383
  2301.8000      7.9707      2.5001      0.0685      9.0833     96.2861     29.8295
  2301.9000      7.9707      2.5056      0.0671      8.7526     95.1378     28.9262
  2302.0000      7.9889      2.5201      0.0918      7.8701     94.5334     28.3387
  2302.1000      7.9889      2.5410      0.0760      6.6075     91.8212     28.3340
  2302.2000      7.9889      2.5604      0.0993      5.4330     87.4991     28.4123
  2302.3000      7.9554      2.5711      0.1053      4.7808     84.5286     28.1589
  2302.4000      7.9554      2.5747      0.0447      4.5665     84.0142     27.8470
  2302.5000      7.9684      2.5813      0.0565      4.1665     83.3619     27.7311
  2302.6000      7.9684      2.5901      0.0355      3.6330     79.6841     27.5041
  2302.7000      7.9684      2.5870      0.0741      3.8181     75.9275     26.7395
  2302.8000      7.9406      2.5668      0.0326      5.0420     75.5416     25.4606
  2302.9000      7.9406      2.5394      0.0215      6.7031     75.7964     24.3872
  2303.0000      7.9907      2.5195     -0.0104      7.9077     75.1016     23.9683
  2303.1000      7.9907      2.5174      0.0050      8.0335     75.9868     23.8474
  2303.2000      7.9907      2.5261      0.0524      7.5114     79.5588     23.9076
  2303.3000      7.9581      2.5315      0.0449      7.1825     83.9773     24.3581
  2303.4000      7.9581      2.5315      0.0505      7.1817     87.3809     25.0156
  2303.5000      7.9859      2.5258      0.0940      7.5248     88.1967     25.6584
  2303.6000      7.9859      2.5151      0.0871      8.1747     86.1006     26.3831
  2303.7000      7.9859      2.5075      0.0656      8.6358     84.8945     27.0810
  2303.8000      7.9714      2.5034      0.1139      8.8846     86.7741     27.7366
  2303.9000      7.9714      2.4951      0.0771      9.3870     89.1370     28.5672
  2304.0000      7.9711      2.4853      0.0727      9.9833     90.0921     29.1493
  2304.1000      7.9711      2.4852      0.0527      9.9856     89.5173     29.2215
  2304.2000      7.9711      2.4987      0.0553      9.1673     87.1205     29.2550
  2304.3000      7.9827      2.5154      0.1142      8.1589     83.8207     29.2851
  2304.4000      7.9827      2.5369      0.0569      6.8541     81.6617     28.9876
  2304.5000      8.0082      2.5814      0.1167      4.1588     81.5536     28.6473
  2304.6000      8.0082      2.6410      0.1731      0.5468     82.2923     28.7113
  2304.7000      8.0082      2.6875      0.2002     -2.2708     81.3048     28.7770
