~Version Information
VERS.                      2.0: CWLS Log ASCII Standard - VERSION 2.0
WRAP.                       NO: One line per depth step
~Well Information Block
STRT.FT               380.0000: 
STOP.FT               899.2000: 
STEP.FT                 0.1000: 
NULL.                -999.2500: 
COMP.          Pioneer Natural Resources: COMPANY
WELL.          Prospector 12-19: WELL
FLD.           Purgatoire River: FIELD
LOC.           2262' FNL & 634' FWL: LOCATION
PROV.                 Colorado: PROVINCE
CNTY.               Las Animas: COUNTRY
SRVC.                Patterson: SERVICE COMPANY
DATE.          Mon Apr 25 09:33:09 2005: LOG DATE
UWI.           05 071 08191 00: UNIQUE WELL ID
~Curve Information Block
DEPT.FT            0 000 00 00: Depth
DCAL.in                       : CDL Caliper
RHOB.g/cc                     : CDL Bulk Density
RHOC.g/cc                     : CDL Density Correction
DPOR.pu                       : CDL Density Porosity
GR.GAPI                       : Gamma Ray
NPOR.pu                       : Neutron Porosity
~Parameter Information Block
~A  Depth       DCAL        RHOB        RHOC        DPOR         GR         NPOR    
# ...
   514.4000      8.0113      2.5186      0.1234      7.9656    106.0112     24.4377
   514.5000      7.9805      2.5134      0.0701      8.2800     96.4023     23.5534
   514.6000      7.9805      2.5248      0.0664      7.5889     91.7703     23.1738
   514.7000      7.9805      2.5520      0.1116      5.9391     92.1575     23.7560
   514.8000      7.8855      2.5641      0.1307      5.2037     94.0466     24.6575
   514.9000      7.8855      2.5512      0.1251      5.9888     95.9873     25.3508
   515.0000      7.8862      2.5333      0.1033      7.0744     97.6292     25.6387
   515.1000      7.8862      2.5253      0.0926      7.5551     97.7022     25.5657
   515.2000      7.8862      2.5287      0.0388      7.3519     96.3240     25.4653
   515.3000      7.8954      2.5339      0.0795      7.0375     95.9111     25.6286
   515.4000      7.8954      2.5249      0.0803      7.5804     97.0083     26.0062
   515.5000      7.9322      2.4986      0.1142      9.1751     98.6699     26.6301
   515.6000      7.9322      2.4726      0.0352     10.7508    100.2481     27.5437
   515.7000      7.9322      2.4644      0.0694     11.2492    102.3186     28.3327
   515.8000      7.9492      2.4660      0.1069     11.1523    106.8074     28.5734
   515.9000      7.9492      2.4584      0.0961     11.6122    112.7183     28.6222
   516.0000      7.9429      2.4374      0.1061     12.8877    116.7266     28.9356
   516.1000      7.9429      2.4183      0.0475     14.0443    118.8836     29.1667
   516.2000      7.9429      2.4170      0.0559     14.1203    125.5877     28.8407
   516.3000      8.0658      2.4348      0.0716     13.0446    139.9703     28.1427
   516.4000      8.0658      2.4696      0.0752     10.9313    150.5838     27.2904
   516.5000      7.9961      2.5142      0.0789      8.2324    145.8524     26.4916
   516.6000      7.9961      2.5482      0.1605      6.1719    133.0603     26.0345
   516.7000      7.9961      2.5603      0.0903      5.4342    124.3036     25.5577
   516.8000      7.9948      2.5574      0.1191      5.6115    121.4695     24.8493
   516.9000      7.9948      2.5549      0.1232      5.7655    123.9624     24.4788
   517.0000      7.9381      2.5691      0.0820      4.9040    129.5713     24.6749
   517.1000      7.9381      2.5878      0.1156      3.7679    133.9374     25.2050
   517.2000      7.9381      2.5793      0.1125      4.2822    137.1705     25.4883
   517.3000      7.9309      2.5426      0.0514      6.5092    139.8022     24.9938
   517.4000      7.9309      2.5061      0.0132      8.7190    141.1146     24.3913
   517.5000      8.0142      2.4894      0.0253      9.7349    141.4926     24.7162
   517.6000      8.0142      2.4836      0.0331     10.0820    143.1569     25.7012
   517.7000      8.0142      2.4741      0.0352     10.6620    148.6126     26.3965
   517.8000      8.0340      2.4635      0.0372     11.3044    154.0864     26.5162
   517.9000      8.0340      2.4591      0.0420     11.5708    153.1408     26.9286
   518.0000      8.0585      2.4610      0.0043     11.4575    147.0533     28.0793
   518.1000      8.0585      2.4642      0.0094     11.2594    142.3634     28.8934
   518.2000      8.0585      2.4625     -0.0104     11.3657    141.1517     28.9288
   518.3000      8.0878      2.4561      0.0010     11.7520    139.5039     28.8615
   518.4000      8.0878      2.4434      0.0453     12.5229    137.2733     28.7399
   518.5000      8.1495      2.4208      0.0190     13.8889    136.9407     28.5570
   518.6000      8.1495      2.4019      0.0109     15.0387    136.2092     28.6505
   518.7000      8.1495      2.3960      0.0628     15.3945    133.8350     28.9476
   518.8000      8.1849      2.3980     -0.0045     15.2712    134.0584     29.2347
   518.9000      8.1849      2.4052      0.0438     14.8371    137.7147     29.3372
   519.0000      8.2368      2.4042      0.0702     14.8995    140.5944     29.3357
   519.1000      8.2368      2.3885      0.0227     15.8455    139.9872     29.7134
   519.2000      8.2368      2.3790      0.0114     16.4231    136.0427     30.4746
   519.3000      8.2670      2.3876      0.0445     15.9013    130.5810     30.7150
   519.4000      8.2670      2.3955      0.0958     15.4247    127.4458     30.1953
   519.5000      8.2195      2.3813      0.0962     16.2830    128.4565     30.1974
   519.6000      8.2195      2.3537      0.0312     17.9575    133.0324     31.2761
   519.7000      8.2195      2.3381      0.0051     18.9060    141.6193     31.9595
   519.8000      8.1294      2.3511      0.0085     18.1145    148.7113     31.1852
   519.9000      8.1294      2.3926      0.0900     15.6025    145.2290     29.9888
   520.0000      8.0969      2.4421      0.1181     12.6020    136.8878     29.9464
   520.1000      8.0969      2.4774      0.1122     10.4584    136.0653     30.9536
   520.2000      8.0969      2.4950      0.0956      9.3912    137.6962     31.5527
   520.3000      8.0552      2.4986      0.1778      9.1787    133.3382     31.2115
   520.4000      8.0552      2.4805      0.1481     10.2706    129.9413     30.6677
   520.5000      8.1083      2.4324      0.1148     13.1861    133.3290     30.5957
   520.6000      8.1083      2.3546      0.0894     17.9020    136.5385     30.6586
   520.7000      8.1083      2.2523      0.0195     24.1028    134.9576     30.2808
   520.8000      8.1966      2.1358      0.0156     31.1609    131.4595     29.5726
   520.9000      8.1966      2.0220     -0.0450     38.0598    125.8374     29.4074
   521.0000      8.2922      1.9339     -0.1036     43.4011    117.9521     30.3821
   521.1000      8.2922      1.8875     -0.0943     46.2111    112.5820     31.9678
   521.2000      8.2922      1.8746      0.0174     46.9968    114.2336     33.3108
   521.3000      8.1822      1.8752      0.0101     46.9574    117.7839     33.6476
   521.4000      8.1822      1.8949     -0.0151     45.7611    115.6183     33.1174
   521.5000      8.1711      1.9583      0.0617     41.9222    110.6724     32.7602
   521.6000      8.1711      2.0650      0.1673     35.4544    109.5679     32.9599
   521.7000      8.1711      2.1807      0.2445     28.4401    112.6893     32.8215
   521.8000      8.1898      2.2782      0.1984     22.5309    118.8657     31.8761
   521.9000      8.1898      2.3582      0.2166     17.6846    126.8048     31.1726
   522.0000      8.1698      2.4143      0.1792     14.2827    134.2027     31.4118
   522.1000      8.1698      2.4330      0.0996     13.1485    141.4999     31.9145
   522.2000      8.1698      2.4236      0.0553     13.7205    146.7616     31.7462
   522.3000      8.1689      2.4076      0.0546     14.6933    147.0260     30.9331
   522.4000      8.1689      2.3921      0.0200     15.6311    144.5844     30.4757
   522.5000      8.1312      2.3696     -0.0033     16.9970    144.0308     30.5524
   522.6000      8.1312      2.3412     -0.0661     18.7177    146.4968     30.2649
   522.7000      8.1312      2.3327     -0.0740     19.2281    150.9072     29.8234
   522.8000      8.1189      2.3637     -0.0152     17.3527    154.4118     29.7234
   522.9000      8.1189      2.4082      0.0664     14.6558    154.9024     29.5092
   523.0000      8.1025      2.4267      0.0510     13.5318    153.7105     29.0130
   523.1000      8.1025      2.4290     -0.0291     13.3919    154.7769     28.4314
   523.2000      8.1025      2.4440      0.1346     12.4869    160.6629     27.9800
   523.3000      8.1027      2.4610      0.1090     11.4535    169.0460     28.0385
   523.4000      8.1027      2.4614      0.1442     11.4299    174.9383     28.2462
   523.5000      8.1255      2.4415      0.1102     12.6369    173.0997     28.0652
   523.6000      8.1255      2.4105      0.0419     14.5180    165.4082     28.1093
   523.7000      8.1255      2.3863      0.0241     15.9845    159.5222     28.7352
   523.8000      8.1156      2.3778      0.0340     16.4983    156.5956     29.2685
   523.9000      8.1156      2.3845      0.0459     16.0923    155.6578     29.3103
