~Version Information
VERS.                      2.0: CWLS Log ASCII Standard - VERSION 2.0
WRAP.                       NO: One line per depth step
~Well Information Block
STRT.FT               400.0000: 
STOP.FT              2201.0000: 
STEP.FT                 0.2500: 
NULL.                -999.2500: 
COMP.          Evergreen Operating Corporation: COMPANY
WELL.            Triumph 13-10: WELL
FLD.           Purgatorie River: FIELD
LOC.           1551' FSL & 522' FWL: LOCATION
PROV.                 Colorado: PROVINCE
CNTY.               Las Animas: COUNTRY
SRVC.                Patterson: SERVICE COMPANY
DATE.          Fri Jul 23 20:28:37 2004: LOG DATE
UWI.           05 071 08108 00: UNIQUE WELL ID
~Curve Information Block
DEPT.FT            0 000 00 00: Depth
SN.Ohm-m                      : IEL Short Normal
SP.mV                         : IEL Spontaneous Potential
DIR.Ohm-m                     : IEL Induction Resistivity
GR.GAPI                       : Gamma Ray
~Parameter Information Block
~A  Depth        SN          SP         DIR          GR     
# ...
  1237.5000     27.1410     28.9646     16.3603     95.5835
  1237.7500     25.0463     28.9467     15.4987    101.6944
  1238.0000     22.8718     28.9806     14.6536    113.0712
  1238.2500     20.7144     29.0500     13.7948    120.9415
  1238.5000     18.6097     29.1306     12.9162    131.0686
  1238.7500     16.6257     29.2054     12.0514    135.6361
  1239.0000     14.8914     29.2674     11.2581    138.4343
  1239.2500     13.5341     29.3127     10.5840    137.9618
  1239.5000     12.6145     29.3353     10.0473    135.2724
  1239.7500     12.1149     29.3295      9.6404    133.0582
  1240.0000     11.9555     29.2953      9.3462    129.8748
  1240.2500     11.9935     29.2382      9.1504    127.7003
  1240.5000     12.0230     29.1652      9.0434    123.6215
  1240.7500     11.8563     29.0811      9.0150    120.2670
  1241.0000     11.4505     28.9898      9.0508    115.3568
  1241.2500     10.9260     28.8990      9.1352    113.1146
  1241.5000     10.4616     28.8252      9.2564    112.1905
  1241.7500     10.1912     28.7939      9.4088    113.0750
  1242.0000     10.1634     28.8318      9.5921    116.0093
  1242.2500     10.3540     28.9516      9.8077    118.7055
  1242.5000     10.7452     29.1380     10.0568    123.0910
  1242.7500     11.3768     29.3493     10.3401    125.5705
  1243.0000     12.2920     29.5394     10.6561    127.6684
  1243.2500     13.5054     29.6818     10.9989    127.8363
  1243.5000     14.9632     29.7760     11.3553    126.4419
  1243.7500     16.4467     29.8406     11.7028    124.5549
  1244.0000     17.6436     29.9023     12.0098    120.6250
  1244.2500     18.3633     29.9859     12.2409    117.6274
  1244.5000     18.6160     30.1094     12.3696    113.2267
  1244.7500     18.5048     30.2894     12.3915    110.6199
  1245.0000     18.0892     30.5389     12.3272    107.8551
  1245.2500     17.3666     30.8437     12.2103    107.5604
  1245.5000     16.3806     31.1414     12.0688    110.8669
  1245.7500     15.3013     31.3463     11.9145    115.6330
  1246.0000     14.3394     31.4115     11.7453    124.6314
  1246.2500     13.6170     31.3623     11.5570    129.9645
  1246.5000     13.1813     31.2686     11.3549    134.4586
  1246.7500     13.0445     31.1939     11.1553    134.9349
  1247.0000     13.1223     31.1656     10.9793    133.4109
  1247.2500     13.2123     31.1775     10.8431    131.9043
  1247.5000     13.1102     31.2085     10.7552    129.5864
  1247.7500     12.7381     31.2426     10.7184    128.0037
  1248.0000     12.1728     31.2781     10.7344    125.7717
  1248.2500     11.5969     31.3194     10.8062    124.7225
  1248.5000     11.2036     31.3622     10.9373    124.3613
  1248.7500     11.1204     31.3912     11.1297    125.0200
  1249.0000     11.4199     31.3941     11.3813    127.0022
  1249.2500     12.1417     31.3758     11.6827    128.4863
  1249.5000     13.2349     31.3566     12.0158    129.7543
  1249.7500     14.5276     31.3573     12.3540    129.3216
  1250.0000     15.8133     31.3889     12.6670    126.3401
  1250.2500     16.9329     31.4510     12.9290    123.0072
  1250.5000     17.7993     31.5324     13.1274    116.7152
  1250.7500     18.4049     31.6136     13.2657    112.1206
  1251.0000     18.7750     31.6747     13.3566    105.5558
  1251.2500     18.9102     31.7032     13.4068    102.0716
  1251.5000     18.7984     31.6957     13.4043     99.3091
  1251.7500     18.4498     31.6583     13.3133     99.4296
  1252.0000     17.8925     31.6041     13.0827    102.2156
  1252.2500     17.1451     31.5501     12.6701    105.3509
  1252.5000     16.2515     31.5110     12.0744    111.4454
  1252.7500     15.3703     31.4976     11.3525    116.2301
  1253.0000     14.7334     31.5162     10.5993    123.5531
  1253.2500     14.4355     31.5661      9.9050    127.5655
  1253.5000     14.3437     31.6385      9.3250    130.8122
  1253.7500     14.2985     31.7182      8.8823    130.9431
  1254.0000     14.2962     31.7869      8.5927    129.0924
  1254.2500     14.3780     31.8264      8.4978    127.4797
  1254.5000     14.4916     31.8278      8.6996    125.7942
  1254.7500     14.5238     31.8016      9.4114    125.3224
  1255.0000     14.3671     31.7737     11.1003    125.1692
  1255.2500     13.9535     31.7652     15.0222    125.2160
  1255.5000     13.2833     31.7775     26.1274    125.4168
  1255.7500     12.4427     31.7984    100.5323    125.5885
  1256.0000     11.5692     31.8194 100000.0000    125.6764
  1256.2500     10.7871     31.8435 100000.0000    125.4265
  1256.5000     10.1794     31.8736 100000.0000    124.2085
  1256.7500      9.7839     31.8954 100000.0000    122.7504
  1257.0000      9.5823     31.8807 100000.0000    120.1180
  1257.2500      9.5089     31.8169 100000.0000    118.6796
  1257.5000      9.5025     31.7283 100000.0000    117.7282
  1257.7500      9.5654     31.6564 100000.0000    117.8358
  1258.0000      9.7423     31.6175 100000.0000    118.5094
  1258.2500     10.0113     31.5892 100000.0000    119.0226
  1258.5000     10.2417     31.5414 100000.0000    119.7337
  1258.7500     10.2997     31.4678 100000.0000    120.2143
  1259.0000     10.1679     31.3869 100000.0000    121.2371
  1259.2500      9.9595     31.3197 100000.0000    122.3224
  1259.5000      9.8361     31.2700 100000.0000    124.5380
  1259.7500      9.8994     31.2177 100000.0000    126.0800
  1260.0000     10.1185     31.1222 100000.0000    127.7029
  1260.2500     10.3326     30.9350 100000.0000    128.0345
  1260.5000     10.3527     30.6151 100000.0000    127.5461
  1260.7500     10.0991     30.1392 100000.0000    127.0059
  1261.0000      9.6497     29.4991 100000.0000    126.8030
  1261.2500      9.1871     28.6889 100000.0000    127.3749
  1261.5000      8.8948     27.6825      5.5878    129.0966
  1261.7500      8.8492     26.4027      1.4023    130.3979
  1262.0000      8.9526     24.6749      0.6640    131.7215
  1262.2500      8.9567     22.1731      0.3910    131.7839
  1262.5000      8.5835     18.3820      0.2705    130.3741
  1262.7500      7.6488     12.5946      0.2242    128.5400
  1263.0000      6.1498      3.9579      0.2239    124.7305
  1263.2500      4.3570     -8.3957      0.2584    121.3859
  1263.5000      2.7438    -25.0579      0.3187    114.2790
  1263.7500      1.6591    -45.9053      0.3905    107.4894
  1264.0000      1.1073    -69.7479      0.4584     93.9465
  1264.2500      0.8909    -94.4164      0.5209     83.4451
  1264.5000      0.8370   -117.3941      0.5923     67.9731
  1264.7500      0.8525   -136.6500      0.6829     59.2190
  1265.0000      0.8803   -151.1674      0.7678     49.6403
  1265.2500      0.8927   -160.9368      0.7788     45.7618
  1265.5000      0.8997   -166.5544      0.6863     43.5010
  1265.7500      0.9172   -168.7425      0.5603     43.9522
  1266.0000      0.9396   -168.0808      0.4765     46.1370
  1266.2500      0.9478   -165.0435      0.4687     47.6022
  1266.5000      0.9321   -160.1399      0.5665     48.7226
  1266.7500      0.9067   -153.8746      0.8626     48.6521
  1267.0000      0.8905   -146.5577      1.7702     47.6255
  1267.2500      0.8881   -138.2777      7.7635     46.5308
  1267.5000      0.9067   -129.1279 100000.0000     44.7222
  1267.7500      0.9695   -119.3953 100000.0000     43.8033
  1268.0000      1.0985   -109.4979 100000.0000     43.5567
  1268.2500      1.3051    -99.8175 100000.0000     44.3660
  1268.5000      1.5819    -90.6481      3.9925     46.9646
  1268.7500      1.9016    -82.2529      1.7673     49.3866
  1269.0000      2.2374    -74.8751      1.1928     53.5357
  1269.2500      2.5200    -68.6486      1.0355     56.3653
  1269.5000      2.5917    -63.4891      1.0944     60.4481
  1269.7500      2.3650    -59.0676      1.3490     63.1714
  1270.0000      2.0102    -54.8969      1.8369     67.8315
  1270.2500      1.8235    -50.4937      2.5468     71.5435
  1270.5000      2.0495    -45.5650      3.1903     77.5387
  1270.7500      3.1366    -40.1403      3.2210     81.0619
