~Version Information
 VERS.                                  2.0 : CWLS LAS VERSION
 WRAP.                                   NO : WRAPING MODE
 SWARE .                 MController 2.5.0J : SOFTWARE VERSION
~Well Information
 WELL.                      McDaniel 09-34V : WELL
 COMP.                Petrogulf Corporation : COMPANY
 FLD.                      Purgatoire River : FIELD
 LOC.                SW/SE Sec 09 T33S R67W : LOCATION
 DATE.                             09/27/05 : DATE(S) LOGGED
 SRVC.       BLANCO Geological Services LLC : SERVICE COMPANY
 STAT.                                   CO : STATE
 CNTY.                           Las Animas : COUNTY
 CTRY.                                  USA : COUNTRY
 API.                       05-071-08333-00 : API NUMBER
 STRT.FT                               0.00 : START DEPTH
 STOP.FT                             2433.0 : STOP DEPTH 775.00
 STEP.FT                               1.00 : DEPTH INCREMENT
 NULL.                                -9999 : NULL VALUE
~Curve information
 DEPTH.FT                                   :
 ROP.MIN/FT                                 :
 GAS.UNITS                                  :
~ASCII Log data
# ...
       600.0         0.20         15.2 
       601.0         0.13         14.5 
       602.0         0.13         15.0 
       603.0         0.13         14.5 
       604.0         0.10         14.4 
       605.0         0.13         14.2 
       606.0         0.10         13.8 
       607.0         0.10         14.3 
       608.0         0.10         14.8 
       609.0         0.20         14.4 
       610.0         0.23         14.0 
       611.0         0.17         14.3 
       612.0         0.17         14.5 
       613.0         0.13         14.5 
       614.0         0.13         14.8 
       615.0         0.13         14.8 
       616.0         0.10         15.1 
       617.0         0.23         16.1 
       618.0         0.30         16.6 
       619.0         0.28         17.6 
       620.0         0.23         17.7 
       621.0         0.30         17.6 
       622.0         0.23         16.7 
       623.0         0.23         17.1 
       624.0         0.40         16.7 
       625.0         0.33         17.5 
       626.0         1.22         18.0 
       627.0         0.33         16.9 
       628.0         0.33         16.7 
       629.0         0.30         16.9 
       630.0         0.33         17.2 
       631.0         0.30         17.8 
       632.0         0.33         17.6 
       633.0         0.33         16.4 
       634.0         0.37         17.3 
       635.0         0.38         16.8 
       636.0         0.37         16.5 
       637.0         0.37         16.5 
       638.0         0.47         16.6 
       639.0         0.40         16.7 
       640.0         0.40         16.8 
       641.0         0.37         16.1 
       642.0         0.32         16.1 
       643.0         0.37         15.7 
       644.0         0.30         15.5 
       645.0         0.33         15.9 
       646.0         0.30         16.6 
       647.0         0.30         15.8 
       648.0         0.23         15.5 
       649.0         0.23         16.0 
       650.0         0.23         16.3 
       651.0         0.27         15.5 
       652.0         0.22         15.4 
       653.0         0.17         15.8 
       654.0         0.13         16.4 
       655.0         0.13         16.6 
       656.0         1.23         17.3 
       657.0         0.23         16.4 
       658.0         0.20         16.6 
       659.0         0.10         17.3 
       660.0         0.13         16.2 
       661.0         0.13         16.4 
       662.0         0.23         16.6 
       663.0         0.23         17.5 
       664.0         0.25         16.9 
       665.0         0.17         16.7 
       666.0         0.13         16.6 
       667.0         0.30         16.6 
       668.0         0.27         17.0 
       669.0         0.20         17.3 
       670.0         0.23         16.4 
       671.0         0.23         15.9 
       672.0         0.23         16.1 
       673.0         0.27         16.0 
       674.0         0.23         16.8 
       675.0         0.23         17.8 
       676.0         0.33         17.2 
       677.0         0.37         18.2 
       678.0         0.42         18.6 
       679.0         0.50         18.0 
       680.0         0.47         18.0 
       681.0         0.37         18.1 
       682.0         0.40         17.0 
       683.0         0.30         16.9 
       684.0         0.35         17.1 
       685.0         0.23         16.6 
       686.0         1.40         16.1 
       687.0         0.23         16.8 
       688.0         0.20         16.2 
       689.0         0.40         17.3 
       690.0         0.43         16.1 
       691.0         0.45         17.2 
       692.0         0.43         16.0 
       693.0         0.43         16.1 
       694.0         0.40         16.7 
       695.0         0.43         17.5 
       696.0         0.37         16.4 
       697.0         0.40         17.0 
       698.0         0.33         16.2 
       699.0         0.18         15.7 
       700.0         0.27         15.4 
       701.0         0.27         16.3 
       702.0         0.30         15.8 
       703.0         0.47         15.6 
       704.0         0.50         16.0 
       705.0         0.13         16.1 
       706.0         0.13         15.6 
       707.0         0.10         15.6 
       708.0         0.13         15.6 
       709.0         0.10         15.5 
       710.0         0.13         16.0 
       711.0         0.13         16.3 
       712.0         0.30         15.7 
       713.0         0.42         15.5 
       714.0         0.40         15.5 
       715.0         0.43         17.8 
       716.0         1.93         24.8 
       717.0         0.32         24.5 
       718.0         0.50         23.3 
       719.0         0.53         23.4 
       720.0         0.47         22.6 
       721.0         0.27         22.8 
       722.0         0.33         23.9 
       723.0         0.27         23.4 
       724.0         0.43         22.3 
       725.0         0.37         22.9 
       726.0         0.28         20.9 
       727.0         0.27         21.0 
       728.0         0.37         20.6 
       729.0         0.47         18.5 
       730.0         0.33         18.5 
       731.0         0.27         18.2 
       732.0         0.23         17.9 
       733.0         0.13         18.7 
       734.0         0.13         17.4 
       735.0         0.13         16.8 
       736.0         0.23         16.2 
       737.0         0.30         16.2 
       738.0         0.18         15.9 
       739.0         0.13         15.4 
       740.0         0.10         16.5 
       741.0         0.13         15.8 
       742.0         0.10         15.6 
       743.0         0.17         15.3 
       744.0         0.17         16.0 
       745.0         0.50         23.1 
       746.0         2.12         32.9 
       747.0         0.20         31.9 
       748.0         0.27         32.0 
       749.0         0.23         30.5 
       750.0         0.17         30.1 
       751.0         0.17         29.0 
       752.0         0.13         28.6 
       753.0         0.13         28.2 
       754.0         0.13         27.3 
       755.0         0.13         29.2 
       756.0         0.17         29.6 
       757.0         0.13         31.5 
       758.0         0.10         33.2 
       759.0         0.07         33.8 
       760.0         0.13         37.0 
       761.0         0.20         39.0 
       762.0         0.13         39.2 
       763.0         0.10         38.3 
       764.0         0.10         37.5 
       765.0         0.13         37.8 
       766.0         0.10         36.2 
       767.0         0.10         36.5 
       768.0         0.22         34.4 
       769.0         0.27         33.4 
       770.0         0.23         32.1 
       771.0         0.27         31.4 
       772.0         0.37         31.0 
       773.0         0.30         32.5 
       774.0         0.40         34.0 
       775.0         0.23         33.5 
       776.0         0.13          4.1 
       777.0         0.13          4.1 
       778.0         0.07          4.0 
       779.0         0.13          4.1 
       780.0         0.10          4.1 
       781.0         0.10          4.0 
       782.0         0.17          4.3 
       783.0         0.10          4.4 
       784.0         0.10          4.2 
       785.0         0.10          4.2 
       786.0         0.13          3.9 
       787.0         0.13          4.0 
       788.0         0.13          4.0 
       789.0         0.10          4.0 
       790.0         0.10          4.2 
       791.0         0.10          4.1 
       792.0         0.17          4.3 
       793.0         0.10          3.9 
       794.0         0.10          4.3 
       795.0         0.10          3.7 
       796.0         0.07          3.8 
       797.0         0.13          4.1 
       798.0         0.10          4.0 
       799.0         0.13          3.9 
