~Version Information
VERS.                      2.0: CWLS Log ASCII Standard - VERSION 2.0
WRAP.                       NO: One line per depth step
~Well Information Block
STRT.FT               340.0000: 
STOP.FT              1731.0000: 
STEP.FT                 0.1000: 
NULL.                -999.2500: 
COMP.          Pioneer Natural Resources: COMPANY
WELL.          Rancher 12-35 Tr: WELL
FLD.           Purgatoire River: FIELD
LOC.           2242' FNL & 308' FWL SWNW 35 32S 67W: LOCATION
PROV.                 Colorado: PROVINCE
CNTY.               Las Animas: COUNTRY
SRVC.                Patterson: SERVICE COMPANY
DATE.          Tue Jul 05 07:18:22 2005: LOG DATE
UWI.              05 071 08430 00: UNIQUE WELL ID
~Curve Information Block
DEPT.FT            0 000 00 00: Depth
DCAL.in                       : CDL Caliper
RHOB.g/cc                     : CDL Bulk Density
RHOC.g/cc                     : CDL Density Correction
DPOR.pu                       : CDL Density Porosity
GR.GAPI                       : Gamma Ray
NPOR.pu                       : Neutron Porosity
~Parameter Information Block
~A  Depth       DCAL        RHOB        RHOC        DPOR         GR         NPOR    
# ...
   983.2000      7.9964      2.6202     -0.0331      1.8081    128.6150     26.7657
   983.3000      7.9793      2.6004     -0.0148      3.0064    119.2302     26.6329
   983.4000      7.9793      2.6096      0.0292      2.4485    112.5565     26.0079
   983.5000      7.9837      2.6295      0.0727      1.2398    108.9454     24.4880
   983.6000      7.9837      2.6383      0.0528      0.7105    104.0243     22.6977
   983.7000      7.9837      2.6382      0.0457      0.7159     95.7556     21.5752
   983.8000      7.9957      2.6427      0.0573      0.4424     84.4871     21.4653
   983.9000      7.9957      2.6505      0.0711     -0.0306     74.3244     21.7115
   984.0000      7.9750      2.6512      0.0473     -0.0729     70.3457     21.7831
   984.1000      7.9750      2.6424      0.0258      0.4619     72.1819     22.0840
   984.2000      7.9750      2.6262      0.0536      1.4407     76.8695     22.5393
   984.3000      7.9495      2.6145      0.0102      2.1542     79.8330     22.6267
   984.4000      7.9495      2.6153      0.0813      2.1011     74.9970     22.7149
   984.5000      7.9382      2.6177      0.1078      1.9592     64.8759     23.1490
   984.6000      7.9382      2.6151      0.0539      2.1150     60.1883     23.6137
   984.7000      7.9382      2.6086      0.0900      2.5104     65.5757     23.6300
   984.8000      7.9448      2.5927      0.0677      3.4747     74.8667     22.7802
   984.9000      7.9448      2.5654      0.0261      5.1297     79.0556     21.6106
   985.0000      7.9522      2.5258      0.0320      7.5296     76.4629     21.3648
   985.1000      7.9522      2.4794     -0.0009     10.3416     73.7340     22.1826
   985.2000      7.9522      2.4508      0.0092     12.0697     74.8476     22.9451
   985.3000      7.9823      2.4584      0.0344     11.6093     76.5022     23.1438
   985.4000      7.9823      2.4917      0.0565      9.5933     78.0357     23.0726
   985.5000      7.9792      2.5318      0.0731      7.1657     81.3011     22.7832
   985.6000      7.9792      2.5672      0.0971      5.0198     85.9758     22.2611
   985.7000      7.9792      2.5875      0.1476      3.7877     92.2800     21.5177
   985.8000      7.9312      2.5820      0.1790      4.1184     97.4839     20.8003
   985.9000      7.9312      2.5517      0.1517      5.9558     94.9188     20.8717
   986.0000      7.8888      2.5129      0.1489      8.3079     85.3787     21.7397
   986.1000      7.8888      2.4868      0.0822      9.8900     74.9792     22.2971
   986.2000      7.8888      2.4898      0.0626      9.7093     66.2464     22.1881
   986.3000      7.8991      2.5134      0.0874      8.2794     62.8289     22.1206
   986.4000      7.8991      2.5373      0.0280      6.8303     65.6703     22.4963
   986.5000      7.9440      2.5588      0.0831      5.5280     69.4758     23.2105
   986.6000      7.9440      2.5724      0.1025      4.7011     71.3879     23.4921
   986.7000      7.9440      2.5672      0.0769      5.0200     72.0621     23.0416
   986.8000      7.9939      2.5503      0.0490      6.0400     71.0613     22.8776
   986.9000      7.9939      2.5368      0.0279      6.8577     66.6387     23.2473
   987.0000      8.0090      2.5305      0.0605      7.2425     59.4593     23.2631
   987.1000      8.0090      2.5265      0.0608      7.4831     55.4421     22.6657
   987.2000      8.0090      2.5141      0.0501      8.2345     59.9324     21.6200
   987.3000      8.0406      2.4844     -0.0127     10.0386     68.2928     20.8352
   987.4000      8.0406      2.4469     -0.0313     12.3083     70.9725     21.3665
   987.5000      8.0804      2.4232     -0.0582     13.7442     66.6806     22.5588
   987.6000      8.0804      2.4230     -0.0427     13.7549     62.6233     23.1074
   987.7000      8.0804      2.4333     -0.0272     13.1333     63.5885     23.0401
   987.8000      8.0566      2.4437     -0.0372     12.5040     65.6136     22.3625
   987.9000      8.0566      2.4698     -0.0259     10.9220     65.3892     20.9683
   988.0000      8.0746      2.5087      0.0651      8.5630     65.7826     19.8977
   988.1000      8.0746      2.5253      0.0810      7.5601     68.2918     20.1493
   988.2000      8.0746      2.5071      0.0224      8.6602     70.4614     21.3058
   988.3000      8.0498      2.4745      0.0127     10.6352     69.1434     22.1678
   988.4000      8.0498      2.4510      0.0096     12.0580     64.8745     22.4406
   988.5000      8.0239      2.4490      0.0082     12.1824     61.6105     22.3065
   988.6000      8.0239      2.4664     -0.0009     11.1258     63.2342     21.6371
   988.7000      8.0239      2.4990     -0.0103      9.1509     67.1412     20.7744
   988.8000      8.0416      2.5419      0.0638      6.5534     68.9140     20.3580
   988.9000      8.0416      2.5787      0.0981      4.3206     70.8340     20.3034
   989.0000      8.0737      2.5992      0.1002      3.0784     76.5814     20.1390
   989.1000      8.0737      2.6094      0.1419      2.4605     83.8512     20.0797
   989.2000      8.0737      2.6172      0.1740      1.9871     87.0319     21.1561
   989.3000      8.0555      2.6241      0.1501      1.5707     87.9343     23.4810
   989.4000      8.0555      2.6215      0.1763      1.7249     93.1542     25.6501
   989.5000      7.9159      2.6004      0.1242      3.0076     98.9611     26.6772
   989.6000      7.9159      2.5740      0.0763      4.6082     98.1167     26.8035
   989.7000      7.9159      2.5644      0.0902      5.1874     92.9807     26.0687
   989.8000      7.8636      2.5815      0.0396      4.1544     88.9736     24.4240
   989.9000      7.8636      2.6254      0.0956      1.4882     89.7745     23.3557
   990.0000      7.8784      2.6740      0.1004     -1.4571     96.1588     23.8847
   990.1000      7.8784      2.6922      0.1329     -2.5591    104.3251     24.9664
   990.2000      7.8784      2.6750      0.1319     -1.5170    111.0126     26.2584
   990.3000      7.9746      2.6483      0.1091      0.1023    116.9369     27.9598
   990.4000      7.9746      2.6227      0.1172      1.6542    120.5475     29.2831
   990.5000      8.0045      2.5884      0.0712      3.7347    119.3688     29.8235
   990.6000      8.0045      2.5435      0.0133      6.4572    119.7164     29.7120
   990.7000      8.0045      2.4999     -0.0662      9.0956    129.5954     29.2484
   990.8000      8.0045      2.4777     -0.0702     10.4449    141.3450     28.7765
   990.9000      8.0045      2.4843     -0.0521     10.0407    140.5542     28.3026
   991.0000      8.0176      2.5044      0.0297      8.8258    129.7927     27.8180
   991.1000      8.0176      2.5174      0.0565      8.0346    122.9370     27.6499
   991.2000      8.0176      2.5204      0.0705      7.8547    124.8405     27.6596
   991.3000      8.0240      2.5250      0.0042      7.5737    131.0382     27.3389
   991.4000      8.0240      2.5377      0.0241      6.8033    136.4954     26.9786
   991.5000      8.0326      2.5442      0.0436      6.4137    138.8540     26.8019
   991.6000      8.0326      2.5361      0.0265      6.9055    137.2748     26.1697
   991.7000      8.0326      2.5278      0.0681      7.4069    130.2745     24.9562
   991.8000      8.0411      2.5320      0.0486      7.1498    118.5887     24.0348
   991.9000      8.0411      2.5509      0.0847      6.0055    108.9468     24.2591
   992.0000      8.0089      2.5786      0.0901      4.3284    108.9598     25.4939
   992.1000      8.0089      2.6023      0.0702      2.8933    116.1951     26.6469
   992.2000      8.0089      2.6027      0.1260      2.8678    119.4714     27.1257
   992.3000      7.9775      2.5710      0.0871      4.7869    115.8357     27.1543
   992.4000      7.9775      2.5273      0.0348      7.4357    112.2629     26.8509
   992.5000      7.9609      2.4977      0.0227      9.2324    112.4213     26.2989
   992.6000      7.9609      2.4912      0.0112      9.6228    114.0345     26.2676
   992.7000      7.9609      2.5097      0.0174      8.5049    111.7968     27.3260
