~Version Information
VERS.                      2.0: CWLS Log ASCII Standard - VERSION 2.0
WRAP.                       NO: One line per depth step
~Well Information Block
STRT.FT               460.0000: 
STOP.FT               961.2500: 
STEP.FT                 0.2500: 
NULL.                -999.2500: 
COMP.          Pioneer Natural Resources: COMPANY
WELL.                Pug 33-19: WELL
FLD.           Purgatoire River: FIELD
LOC.           1381' FSL & 2140' FEL: LOCATION
PROV.                 Colorado: PROVINCE
CNTY.               Las Animas: COUNTRY
SRVC.                Patterson: SERVICE COMPANY
DATE.          Tue Dec 14 08:25:14 2004: LOG DATE
UWI.           05 071 08193 00: UNIQUE WELL ID
~Curve Information Block
DEPT.FT            0 000 00 00: Depth
SN.Ohm-m                      : IEL Short Normal
SP.mV                         : IEL Spontaneous Potential
DIR.Ohm-m                     : IEL Induction Resistivity
GR.GAPI                       : Gamma Ray
~Parameter Information Block
~A  Depth        SN          SP         DIR          GR     
# ...
   627.5000     12.5557     80.4975      9.9271    165.1276
   627.7500     12.0527     80.7163      9.6109    166.1078
   628.0000     11.6459     80.8860      9.3450    165.9105
   628.2500     11.3347     81.0045      9.1249    165.3960
   628.5000     11.1123     81.0778      8.9542    165.5965
   628.7500     10.9678     81.1200      8.8385    166.7686
   629.0000     10.8870     81.1486      8.7806    169.4034
   629.2500     10.8550     81.1778      8.7786    170.9337
   629.5000     10.8617     81.2122      8.8261    171.8854
   629.7500     10.9072     81.2439      8.9161    171.6791
   630.0000     11.0014     81.2540      9.0446    171.1953
   630.2500     11.1608     81.2180      9.2137    171.3260
   630.5000     11.4050     81.1128      9.4325    171.6705
   630.7500     11.7536     80.9226      9.7141    170.8432
   631.0000     12.2207     80.6417     10.0703    166.2993
   631.2500     12.8077     80.2720     10.5047    161.0014
   631.5000     13.4983     79.8183     11.0096    150.8584
   631.7500     14.2623     79.2838     11.5680    143.4780
   632.0000     15.0721     78.6692     12.1626    132.6443
   632.2500     15.9195     77.9756     12.7855    126.1901
   632.5000     16.8170     77.2111     13.4437    118.5716
   632.7500     17.7742     76.3965     14.1558    115.1093
   633.0000     18.7644     75.5691     14.9398    112.0646
   633.2500     19.7050     74.7814     15.7970    111.0753
   633.5000     20.4679     74.0950     16.6957    110.6537
   633.7500     20.9168     73.5691     17.5617    111.1577
   634.0000     20.9534     73.2477     18.2825    114.0262
   634.2500     20.5525     73.1475     18.7284    118.0858
   634.5000     19.7762     73.2542     18.7928    127.7759
   634.7500     18.7627     73.5257     18.4400    135.7936
   635.0000     17.6856     73.9038     17.7303    147.2471
   635.2500     16.6924     74.3270     16.7969    152.7169
   635.5000     15.8569     74.7409     15.7865    155.5944
   635.7500     15.1757     75.1036     14.8088    153.6312
   636.0000     14.6060     75.3869     13.9193    146.2683
   636.2500     14.1082     75.5748     13.1306    140.1949
   636.5000     13.6660     75.6621     12.4346    132.2813
   636.7500     13.2818     75.6527     11.8216    128.5249
   637.0000     12.9629     75.5570     11.2899    124.8190
   637.2500     12.7131     75.3892     10.8461    123.3042
   637.5000     12.5312     75.1649     10.5001    122.5268
   637.7500     12.4120     74.8995     10.2594    123.1278
   638.0000     12.3479     74.6065     10.1259    125.3177
   638.2500     12.3328     74.2969     10.0957    127.0957
   638.5000     12.3684     73.9781     10.1597    129.3105
   638.7500     12.4639     73.6540     10.3039    130.0636
   639.0000     12.6273     73.3260     10.5105    129.6974
   639.2500     12.8529     72.9948     10.7592    128.6433
   639.5000     13.1160     72.6621     11.0294    126.9272
   639.7500     13.3820     72.3308     11.3036    126.2570
   640.0000     13.6248     72.0034     11.5680    125.8977
   640.2500     13.8407     71.6809     11.8132    125.6104
   640.5000     14.0466     71.3617     12.0364    124.4852
   640.7500     14.2676     71.0430     12.2415    123.2576
   641.0000     14.5225     70.7227     12.4383    120.9850
   641.2500     14.8180     70.4004     12.6385    119.4438
   641.5000     15.1471     70.0775     12.8513    118.0184
   641.7500     15.4908     69.7551     13.0795    118.4139
   642.0000     15.8205     69.4318     13.3186    121.3955
   642.2500     16.1078     69.1020     13.5581    124.0457
   642.5000     16.3370     68.7582     13.7856    126.4962
   642.7500     16.5106     68.3955     13.9929    126.4716
   643.0000     16.6428     68.0167     14.1791    125.2359
   643.2500     16.7482     67.6347     14.3511    124.7993
   643.5000     16.8360     67.2710     14.5201    125.2319
   643.7500     16.9077     66.9491     14.6952    125.5050
   644.0000     16.9563     66.6881     14.8758    124.5151
   644.2500     16.9669     66.4983     15.0483    122.8731
   644.5000     16.9209     66.3828     15.1898    120.0753
   644.7500     16.8020     66.3422     15.2770    118.7913
   645.0000     16.6012     66.3801     15.2921    118.4251
   645.2500     16.3171     66.5028     15.2229    118.9661
   645.5000     15.9535     66.7142     15.0602    119.5575
   645.7500     15.5206     67.0062     14.8023    118.9832
   646.0000     15.0398     67.3530     14.4622    116.3727
   646.2500     14.5466     67.7114     14.0711    114.0214
   646.5000     14.0891     68.0291     13.6741    111.0098
   646.7500     13.7265     68.2569     13.3202    110.0091
   647.0000     13.5276     68.3589     13.0532    110.3749
   647.2500     13.5599     68.3182     12.9052    111.5623
   647.5000     13.8637     68.1362     12.8923    113.5477
   647.7500     14.4242     67.8302     13.0132    114.1187
   648.0000     15.1710     67.4284     13.2504    112.7105
   648.2500     16.0122     66.9671     13.5772    110.1721
   648.5000     16.8757     66.4853     13.9694    104.7063
   648.7500     17.7287     66.0181     14.4167    100.4811
   649.0000     18.5679     65.5908     14.9244     93.8066
   649.2500     19.3978     65.2145     15.5003     89.3584
   649.5000     20.2146     64.8883     16.1358     83.5070
   649.7500     21.0036     64.6054     16.7972     81.0333
   650.0000     21.7431     64.3608     17.4336     81.2033
   650.2500     22.4078     64.1545     17.9961     84.3646
   650.5000     22.9649     63.9897     18.4519     92.3274
   650.7500     23.3724     63.8685     18.7849     97.8807
   651.0000     23.5906     63.7873     18.9887    103.3134
   651.2500     23.6069     63.7365     19.0659    104.1768
   651.5000     23.4554     63.7032     19.0329    102.1491
   651.7500     23.2132     63.6757     18.9241     99.7663
   652.0000     22.9707     63.6465     18.7866     96.6178
   652.2500     22.7930     63.6133     18.6662     95.4728
   652.5000     22.6957     63.5771     18.5940     95.1229
   652.7500     22.6505     63.5399     18.5815     95.2220
   653.0000     22.6149     63.5017     18.6229     95.0751
   653.2500     22.5615     63.4613     18.7027     94.9774
   653.5000     22.4907     63.4171     18.8012     95.9734
   653.7500     22.4201     63.3706     18.8983     97.7997
   654.0000     22.3635     63.3270     18.9771    101.5777
   654.2500     22.3165     63.2931     19.0262    103.6721
   654.5000     22.2562     63.2742     19.0405    104.0560
   654.7500     22.1554     63.2691     19.0213    101.8230
   655.0000     22.0013     63.2696     18.9727     95.6322
   655.2500     21.8063     63.2622     18.8988     91.2129
   655.5000     21.5999     63.2336     18.8018     87.1159
   655.7500     21.4068     63.1746     18.6837     86.9411
   656.0000     21.2259     63.0853     18.5511     90.0645
   656.2500     21.0270     62.9770     18.4166     93.4439
   656.5000     20.7669     62.8741     18.2952     98.4930
   656.7500     20.4100     62.8114     18.1936    100.8799
   657.0000     19.9401     62.8283     18.0980    102.5777
   657.2500     19.3601     62.9576     17.9679    103.1672
   657.5000     18.6858     63.2148     17.7439    104.9566
   657.7500     17.9422     63.5906     17.3716    107.0853
   658.0000     17.1626     64.0523     16.8349    110.7210
   658.2500     16.3882     64.5534     16.1716    112.6682
   658.5000     15.6629     65.0457     15.4565    114.4522
   658.7500     15.0243     65.4919     14.7649    115.2479
   659.0000     14.4940     65.8709     14.1440    116.7494
   659.2500     14.0725     66.1782     13.6064    118.1326
   659.5000     13.7402     66.4217     13.1396    120.1731
   659.7500     13.4660     66.6155     12.7214    120.8958
   660.0000     13.2184     66.7747     12.3345    120.3981
   660.2500     12.9752     66.9124     11.9751    119.2644
   660.5000     12.7276     67.0390     11.6522    117.7954
   660.7500     12.4783     67.1633     11.3799    117.8494
