~Version Information
VERS.                      2.0: CWLS Log ASCII Standard - VERSION 2.0
WRAP.                       NO: One line per depth step
~Well Information Block
STRT.FT                -7.0000: 
STOP.FT              2736.0000: 
STEP.FT                 0.2500: 
NULL.                -999.2500: 
COMP.          Pioneer Natural Resources: COMPANY
WELL.              Getem 21-23: WELL
FLD.           Purgatorie River: FIELD
LOC.           2623' FWL & 790' FNL----: LOCATION
PROV.                       CO: PROVINCE
CNTY.               Las Animas: COUNTRY
SRVC.          Patterson Wireline: SERVICE COMPANY
DATE.          Mon Jun 27 09:57:55 2005: LOG DATE
UWI.           05 071 08411 00: UNIQUE WELL ID
~Curve Information Block
DEPT.FT            0 000 00 00: Depth
CCL.                          : Casing Collar Locator
TT3.usec                      : CBL 3' Travel Time
AMP3.mV                       : CBL 3' Amplitude
GR.GAPI                       : Gamma Ray
~Parameter Information Block
~A  Depth       CCL         TT3         AMP3         GR     
# ...
   160.5000      0.0000    976.8546      7.4306     35.0530
   160.7500      0.0000    989.1157      7.3437     33.7213
   161.0000      0.0000    995.8727      7.3188     33.6245
   161.2500      0.0000    998.3814      7.3590     34.8320
   161.5000     -2.0000   1001.6379      7.4115     37.2862
   161.7500      0.0000   1008.5056      7.4257     41.0334
   162.0000      0.0000   1016.4932      7.4246     46.3047
   162.2500      0.0000   1018.8482      7.5167     53.1509
   162.5000      0.0000   1009.7218      7.8192     61.0273
   162.7500      0.0000    988.8297      8.3353     68.9145
   163.0000      0.0000    961.3240      8.9040     75.9251
   163.2500      0.0000    934.2943      9.3093     81.7138
   163.5000      0.0000    913.2592      9.4467     86.3130
   163.7500      0.0000    899.9809      9.3707     89.6702
   164.0000      0.0000    892.5317      9.2033     91.4572
   164.2500      0.0000    887.8193      9.0329     91.4373
   164.5000      0.0000    884.1573      8.8921     90.0556
   164.7500      0.0000    881.5434      8.7888     88.4227
   165.0000      0.0000    880.4426      8.7312     87.4438
   165.2500      0.0000    881.1552      8.7244     87.1649
   165.5000      0.0000    883.9764      8.7581     87.2895
   165.7500      0.0000    889.0716      8.8081     87.9639
   166.0000      0.0000    895.7053      8.8525     89.4783
   166.2500      0.0000    901.8235      8.8831     91.4598
   166.5000      0.0000    905.1826      8.9004     92.9924
   166.7500      0.0000    905.4059      8.9029     93.5393
   167.0000      0.0000    904.6589      8.8886     93.4607
   167.2500      0.0000    905.7423      8.8661     93.5542
   167.5000      0.0000    909.5378      8.8577     94.2365
   167.7500      0.0000    914.5959      8.8875     95.2291
   168.0000      0.0000    918.9103      8.9618     95.9257
   168.2500      0.0000    921.5439      9.0589     95.9688
   168.5000      0.0000    922.7228      9.1391     95.5756
   168.7500      0.0000    923.0766      9.1697     95.4606
   169.0000      0.0000    923.0770      9.1456     96.3771
   169.2500      0.0000    922.8804      9.0907     98.5174
   169.5000      0.0000    922.2727      9.0378    101.2576
   169.7500      0.0000    920.5110      9.0040    103.6028
   170.0000      0.0000    916.2740      8.9844    104.9716
   170.2500      0.0000    908.2465      8.9674    105.3504
   170.5000      0.0000    896.3929      8.9486    104.6882
   170.7500      0.0000    882.7493      8.9287    102.6745
   171.0000      0.0000    870.4614      8.9021     99.4749
   171.2500      0.0000    861.7340      8.8557     96.3849
   171.5000      0.0000    856.7673      8.7803     95.3729
   171.7500      0.0000    854.4427      8.6806     97.7486
   172.0000      0.0000    853.5421      8.5739    102.8925
   172.2500      0.0000    853.3071      8.4760    108.1141
   172.5000      0.0000    853.3577      8.3914    110.2874
   172.7500      0.0000    853.5071      8.3151    108.4100
   173.0000      0.0000    853.7047      8.2422    104.5511
   173.2500      0.0000    854.0530      8.1730    101.7665
   173.5000      0.0000    854.8885      8.1096    101.0012
   173.7500      0.0000    856.9214      8.0510    100.4877
   174.0000      0.0000    861.1781      7.9926     98.1029
   174.2500      0.0000    868.1630      7.9280     93.6947
   174.5000      0.0000    876.4948      7.8534     89.0594
   174.7500      0.0000    882.8710      7.7727     86.2668
   175.0000      0.0000    884.7585      7.7010     86.1498
   175.2500      0.0000    883.4572      7.6574     87.7453
   175.5000      0.0000    883.3239      7.6483     88.6674
   175.7500      0.0000    887.1263      7.6562     86.3859
   176.0000      0.0000    892.6833      7.6502     79.9660
   176.2500      0.0000    894.7297      7.6113     70.9490
   176.5000      0.0000    889.9233      7.5497     62.4408
   176.7500      0.0000    879.6785      7.4961     57.1911
   177.0000      0.0000    868.3380      7.4768     56.2455
   177.2500      0.0000    859.2551      7.4999     58.9294
   177.5000      0.0000    852.7129      7.5600     63.7825
   177.7500      0.0000    846.9427      7.6474     69.5851
   178.0000      0.0000    840.7055      7.7493     75.7872
   178.2500      0.0000    835.0884      7.8457     82.1221
   178.5000      0.0000    832.7383      7.9138     87.9874
   178.7500      0.0000    835.0356      7.9380     92.5976
   179.0000      0.0000    840.4395      7.9222     95.8121
   179.2500      0.0000    845.9973      7.8909     98.2922
   179.5000      0.0000    849.8713      7.8749    100.5251
   179.7500      0.0000    852.0044      7.8916    102.1103
   180.0000      0.0000    853.1159      7.9387    102.3386
   180.2500      0.0000    853.7647      8.0047    101.1773
   180.5000      0.0000    854.1393      8.0800     99.3793
   180.7500      0.0000    854.2240      8.1550     97.7599
   181.0000      0.0000    853.9902      8.2128     96.5993
   181.2500      0.0000    853.5277      8.2340     95.7832
   181.5000      0.0000    853.0441      8.2098     95.3809
   181.7500      0.0000    852.7543      8.1494     95.7680
   182.0000      0.0000    852.7315      8.0744     96.9335
   182.2500      0.0000    852.8668      8.0100     97.9166
   182.5000      0.0000    852.9730      7.9769     97.5565
   182.7500      0.0000    852.9183      7.9822     95.9655
   183.0000      0.0000    852.6785      8.0121     94.6720
   183.2500      0.0000    852.3099      8.0366     94.9475
   183.5000      0.0000    851.8926      8.0280     96.4128
   183.7500      0.0000    851.4848      7.9806     97.6184
   184.0000      0.0000    851.1134      7.9142     97.5936
   184.2500      0.0000    850.7958      7.8597     96.4408
   184.5000      0.0000    850.5622      7.8409     94.6423
   184.7500      0.0000    850.4471      7.8662     92.2932
   185.0000      0.0000    850.4670      7.9274     89.2122
   185.2500      0.0000    850.5997      8.0083     85.6482
   185.5000      0.0000    850.7706      8.0982     82.5390
   185.7500      0.0000    850.8696      8.1996     80.8550
   186.0000      0.0000    850.8097      8.3155     80.8011
   186.2500      0.0000    850.5883      8.4311     81.7201
   186.5000      0.0000    850.3007      8.5193     82.7022
   186.7500      0.0000    850.1378      8.5648     83.2803
   187.0000      0.0000    850.4277      8.5758     83.5111
   187.2500      0.0000    851.7504      8.5705     83.4304
   187.5000      0.0000    855.0183      8.5598     82.7715
   187.7500      0.0000    861.2657      8.5454     81.4952
   188.0000      0.0000    871.0450      8.5332     80.3617
   188.2500      0.0000    883.8197      8.5435     80.4858
   188.5000      0.0000    897.9345      8.6027     82.0318
   188.7500      0.0000    911.1718      8.7212     83.3854
   189.0000      0.0000    921.2042      8.8776     82.1085
   189.2500      0.0000    925.6656      9.0308     77.0953
   189.5000      0.0000    922.4567      9.1523     69.5487
   189.7500      0.0000    911.0544      9.2459     61.7136
   190.0000      0.0000    894.2196      9.3308     55.1807
   190.2500      0.0000    878.0381      9.4126     50.5324
   190.5000      0.0000    868.7936      9.4782     47.8978
   190.7500      0.0000    868.4445      9.5157     47.2682
   191.0000      0.0000    873.1258      9.5344     48.3580
   191.2500      0.0000    876.7286      9.5570     50.3456
   191.5000      0.0000    876.1184      9.5970     52.0132
   191.7500      0.0000    873.1885      9.6478     52.4904
   192.0000      0.0000    872.4913      9.6913     51.8762
   192.2500      0.0000    877.1509      9.7134     51.0233
   192.5000      0.0000    886.9807      9.7138     50.7840
   192.7500      0.0000    899.7133      9.7001     51.3282
   193.0000      0.0000    912.6081      9.6698     51.9172
   193.2500      0.0000    922.8743      9.6058     51.5795
   193.5000      0.0000    928.3201      9.4952     50.2673
   193.7500      0.0000    928.7536      9.3531     48.9029
