~Version Information
VERS.                      2.0: CWLS Log ASCII Standard - VERSION 2.0
WRAP.                       NO: One line per depth step
~Well Information Block
STRT.FT                 0.0000: 
STOP.FT              2025.0000: 
STEP.FT                 0.2500: 
NULL.                -999.2500: 
COMP.          Petrogulf Corporation: COMPANY
WELL.          Robinson 15-12V: WELL
FLD.           Purgatorie River: FIELD
LOC.           1788' FNL & 466' FWL: LOCATION
PROV.                 Colorado: PROVINCE
CNTY.               Las Animas: COUNTRY
SRVC.                Patterson: SERVICE COMPANY
DATE.          Tue Oct 04 11:57:31 2005: LOG DATE
UWI.                          : UNIQUE WELL ID
~Curve Information Block
DEPT.FT            0 000 00 00: Depth
GR.GAPI                       : Gamma Ray
CCL.                          : Casing Collar Locator
TT3.usec                      : CBL 3' Travel Time
AMP3.mV                       : CBL 3' Amplitude
~Parameter Information Block
~A  Depth        GR         CCL         TT3         AMP3    
# ...
  1574.5000     86.9519      0.0000    813.7884      7.3883
  1574.7500     90.1936     -2.0000    810.4437      7.4319
  1575.0000     95.0685     -2.0000    813.7000      7.4676
  1575.2500     99.2088      0.0000    816.8790      7.4568
  1575.5000    100.6312      0.0000    819.8223      7.4053
  1575.7500     98.9757      0.0000    825.7855      7.3634
  1576.0000     95.5905      0.0000    831.5056      7.4861
  1576.2500     92.6984      0.0000    828.2231      7.8358
  1576.5000     92.0665      0.0000    813.9622      8.1042
  1576.7500     93.8806      0.0000    799.0635      7.9848
  1577.0000     96.7662      0.0000    794.7336      7.6436
  1577.2500     99.0224      0.0000    798.9154      7.3801
  1577.5000     99.9222      0.0000    799.2558      7.2532
  1577.7500     99.8759      0.0000    790.0696      7.2096
  1578.0000     99.5433      0.0000    778.2040      7.2171
  1578.2500     99.0980      0.0000    771.9587      7.2559
  1578.5000     98.4227      0.0000    774.0046      7.3170
  1578.7500     97.8110      0.0000    783.4671      7.4082
  1579.0000     98.1615      0.0000    796.4160      7.5359
  1579.2500    100.2215      0.0000    806.0576      7.6987
  1579.5000    103.6154      0.0000    807.0155      7.8903
  1579.7500    106.8447      0.0000    799.8708      8.0845
  1580.0000    108.5148      0.0000    789.3508      8.2326
  1580.2500    108.6838      0.0000    779.0570      8.3014
  1580.5000    108.8453      0.0000    770.3281      8.2950
  1580.7500    110.4301      0.0000    762.7909      8.2335
  1581.0000    113.4900      0.0000    755.5380      8.1477
  1581.2500    116.9210      0.0000    749.6100      8.0691
  1581.5000    119.5995      0.0000    746.5295      7.9936
  1581.7500    121.1018      0.0000    745.9758      7.9033
  1582.0000    121.6831      0.0000    747.2621      7.8162
  1582.2500    121.7985      0.0000    750.5664      7.7744
  1582.5000    121.5706      0.0000    754.8804      7.7934
  1582.7500    120.7851      0.0000    756.0759      7.8524
  1583.0000    119.4414      0.0000    750.5772      7.9327
  1583.2500    117.9533      0.0000    740.4245      8.0324
  1583.5000    116.6900      0.0000    730.7922      8.1461
  1583.7500    115.7154      0.0000    724.3221      8.2745
  1584.0000    114.9643      0.0000    721.9788      8.4384
  1584.2500    114.1818      0.0000    726.2330      8.6034
  1584.5000    112.7397      0.0000    737.5994      8.6173
  1584.7500    110.0934      0.0000    751.5032      8.3355
  1585.0000    106.5962      0.0000    762.7208      7.7747
  1585.2500    103.5686      0.0000    770.4812      7.0483
  1585.5000    102.3013      0.0000    776.7072      6.2449
  1585.7500    102.9415      0.0000    781.1097      5.4327
  1586.0000    104.4369      0.0000    781.2682      4.6722
  1586.2500    105.6155      0.0000    775.0334      3.9856
  1586.5000    105.9983      0.0000    763.8530      3.3795
  1586.7500    105.2698      0.0000    761.9713      2.8786
  1587.0000    102.4977      0.0000    799.2100      2.4917
  1587.2500     96.5457      0.0000    892.2580      2.1987
  1587.5000     87.1126      0.0000   1003.9312      1.9912
  1587.7500     75.0941      0.0000   1060.7672      1.8646
  1588.0000     62.2225      0.0000   1031.8755      1.7941
  1588.2500     50.5697      0.0000    968.3715      1.7615
  1588.5000     41.9484      0.0000    936.8001      1.7682
  1588.7500     37.1950      0.0000    928.8868      1.8056
  1589.0000     35.9331      0.0000    890.0674      1.8516
  1589.2500     37.2141      0.0000    816.5573      1.9043
  1589.5000     40.4123      0.0000    758.5298      1.9995
  1589.7500     45.3645      0.0000    752.1826      2.1851
  1590.0000     51.7760      0.0000    786.2447      2.4838
  1590.2500     58.9029      0.0000    816.9780      2.8854
  1590.5000     65.9454      0.0000    814.0490      3.3535
  1590.7500     72.6525      0.0000    789.4781      3.8280
  1591.0000     79.5563      0.0000    769.0036      4.2461
  1591.2500     87.4720      0.0000    761.2790      4.5989
  1591.5000     96.4078      0.0000    764.1539      4.9470
  1591.7500    105.0737      0.0000    773.2825      5.3499
  1592.0000    111.8377      0.0000    782.0476      5.8130
  1592.2500    115.9000      0.0000    784.5953      6.3061
  1592.5000    117.1925      0.0000    778.4459      6.7886
  1592.7500    115.7317      0.0000    767.0378      7.2052
  1593.0000    111.8620      0.0000    760.9310      7.4925
  1593.2500    106.9778      0.0000    766.5040      7.6396
  1593.5000    103.1973      0.0000    775.3348      7.7031
  1593.7500    101.8848      0.0000    775.0333      7.7238
  1594.0000    102.5773      0.0000    765.0917      7.7082
  1594.2500    103.4360      0.0000    755.6316      7.6889
  1594.5000    102.7068      0.0000    750.9708      7.7069
  1594.7500     99.9461      0.0000    743.3392      7.7397
  1595.0000     96.1381      0.0000    728.2601      7.7082
  1595.2500     92.7452      0.0000    710.4362      7.5825
  1595.5000     90.5824      0.0000    694.8349      7.4495
  1595.7500     89.4673      0.0000    686.6008      7.4160
  1596.0000     88.6743      0.0000    692.7672      7.4759
  1596.2500     87.5451      0.0000    715.7500      7.5461
  1596.5000     85.8743      0.0000    747.0195      7.5833
  1596.7500     84.0586      0.0000    772.4759      7.6058
  1597.0000     82.8238      0.0000    785.6939      7.6483
  1597.2500     82.5152      0.0000    790.1967      7.7172
  1597.5000     82.7119      0.0000    791.0480      7.7763
  1597.7500     82.8336      0.0000    790.0744      7.7919
  1598.0000     82.9234      0.0000    786.9487      7.7788
  1598.2500     83.4792      0.0000    782.4531      7.7849
  1598.5000     84.6811      0.0000    780.0908      7.8437
  1598.7500     86.1830      0.0000    781.6515      7.9513
  1599.0000     87.6151      0.0000    782.1023      8.0840
  1599.2500     88.9123      0.0000    772.4579      8.2158
  1599.5000     89.9800      0.0000    748.3162      8.3157
  1599.7500     90.3409      0.0000    716.6216      8.3617
  1600.0000     89.6209      0.0000    690.8774      8.3616
  1600.2500     88.4427      0.0000    678.2518      8.3462
  1600.5000     88.3529      0.0000    678.0900      8.3448
  1600.7500     90.5509      0.0000    690.5002      8.3669
  1601.0000     94.8348      0.0000    715.7819      8.3934
  1601.2500     99.8381      0.0000    744.8832      8.3967
  1601.5000    103.9363      0.0000    761.9720      8.3824
  1601.7500    105.9251      0.0000    762.7634      8.3970
  1602.0000    105.4409      0.0000    760.7313      8.4665
  1602.2500    103.1825      0.0000    767.8846      8.5449
  1602.5000    100.5168      0.0000    780.1270      8.5545
  1602.7500     98.5173      0.0000    788.5984      8.4685
  1603.0000     97.3547      0.0000    791.8985      8.3320
  1603.2500     96.6802      0.0000    792.7147      8.2089
  1603.5000     96.2767      0.0000    792.1411      8.1300
  1603.7500     95.9929      0.0000    788.0345      8.0935
  1604.0000     95.3772      0.0000    774.9982      8.0899
  1604.2500     93.9691      0.0000    749.2936      8.1144
  1604.5000     91.9851      0.0000    717.0771      8.1581
  1604.7500     90.2608      0.0000    691.3792      8.2047
  1605.0000     89.3830      0.0000    679.0682      8.2488
  1605.2500     89.1443      0.0000    679.1725      8.2908
  1605.5000     88.9728      0.0000    691.7142      8.3119
  1605.7500     88.7255      0.0000    717.5116      8.2839
  1606.0000     88.8842      0.0000    748.9382      8.1933
  1606.2500     89.9691      0.0000    770.5401      8.0414
  1606.5000     91.8429      0.0000    771.3907      7.8310
  1606.7500     93.5510      0.0000    753.5806      7.5605
  1607.0000     93.7135      0.0000    732.6702      7.2257
  1607.2500     91.2361      0.0000    725.2610      6.8291
  1607.5000     85.9382      0.0000    730.1509      6.3985
  1607.7500     78.5799      0.0000    734.3372      5.9925
