~Version Information
VERS.                      2.0: CWLS Log ASCII Standard - VERSION 2.0
WRAP.                       NO: One line per depth step
~Well Information Block
STRT.FT               375.0000: 
STOP.FT              2637.2500: 
STEP.FT                 0.2500: 
NULL.                -999.2500: 
COMP.          Pioneer Natural Resources: COMPANY
WELL.            Cortina 23-25: WELL
FLD.           Purgatoire River: FIELD
LOC.           2344' FWL & 2526' FSL----: LOCATION
PROV.                 Colorado: PROVINCE
CNTY.               Las Animas: COUNTRY
SRVC.                Patterson: SERVICE COMPANY
DATE.          Wed Mar 23 19:09:49 2005: LOG DATE
UWI.           05 071 08340 00: UNIQUE WELL ID
~Curve Information Block
DEPT.FT            0 000 00 00: Depth
DIR.Ohm-m                     : IEL Induction Resistivity
SN.Ohm-m                      : IEL Short Normal
SP.mV                         : IEL Spontaneous Potential
GR.GAPI                       : Gamma Ray
~Parameter Information Block
~A  Depth       DIR          SN          SP          GR     
# ...
  1112.0000     36.4805   2000.0000   2000.0000     59.5837
  1112.2500     37.2938   2000.0000   2000.0000     58.4679
  1112.5000     37.8988   2000.0000   2000.0000     58.3242
  1112.7500     38.2903   2000.0000   2000.0000     59.1872
  1113.0000     38.4892   2000.0000   2000.0000     61.7179
  1113.2500     38.5276   2000.0000   2000.0000     63.8366
  1113.5000     38.4365   2000.0000   2000.0000     66.5787
  1113.7500     38.2453   2000.0000   2000.0000     67.5278
  1114.0000     37.9834   2000.0000   2000.0000     67.1270
  1114.2500     37.6757   2000.0000   2000.0000     65.7594
  1114.5000     37.3285   2000.0000   2000.0000     62.9684
  1114.7500     36.9094   2000.0000   2000.0000     61.3071
  1115.0000     36.3377   2000.0000   2000.0000     59.8085
  1115.2500     35.5050   2000.0000   2000.0000     59.4542
  1115.5000     34.3300   2000.0000   2000.0000     59.7651
  1115.7500     32.8220   2000.0000   2000.0000     60.8223
  1116.0000     31.1051   2000.0000   2000.0000     64.7769
  1116.2500     29.3756   2000.0000   2000.0000     69.5228
  1116.5000     27.8256   2000.0000   2000.0000     79.6597
  1116.7500     26.5821   2000.0000   2000.0000     87.5830
  1117.0000     25.6853   2000.0000   2000.0000     98.9236
  1117.2500     25.0997   2000.0000   2000.0000    104.7065
  1117.5000     24.7406   2000.0000   2000.0000    108.8135
  1117.7500     24.5050   2000.0000   2000.0000    107.9623
  1118.0000     24.2995   2000.0000   2000.0000    101.7325
  1118.2500     24.0609   2000.0000   2000.0000     95.3782
  1118.5000     23.7672   2000.0000   2000.0000     85.3447
  1118.7500     23.4356   2000.0000   2000.0000     79.9363
  1119.0000     23.1051   2000.0000   2000.0000     75.5901
  1119.2500     22.8125   2000.0000   2000.0000     75.5909
  1119.5000     22.5755   2000.0000   2000.0000     79.7206
  1119.7500     22.3928   2000.0000   2000.0000     84.7484
  1120.0000     22.2527   2000.0000   2000.0000     94.2664
  1120.2500     22.1367   2000.0000   2000.0000    100.7435
  1120.5000     22.0186   2000.0000   2000.0000    108.5466
  1120.7500     21.8698   2000.0000   2000.0000    111.6439
  1121.0000     21.6782   2000.0000   2000.0000    112.9535
  1121.2500     21.4669   2000.0000   2000.0000    112.1766
  1121.5000     21.2914   2000.0000   2000.0000    109.9649
  1121.7500     21.2153   2000.0000   2000.0000    108.4536
  1122.0000     21.2804   2000.0000   2000.0000    106.8258
  1122.2500     21.4923   2000.0000   2000.0000    106.5224
  1122.5000     21.8240   2000.0000   2000.0000    107.8172
  1122.7500     22.2286   2000.0000   2000.0000    109.8602
  1123.0000     22.6531   2000.0000   2000.0000    113.7185
  1123.2500     23.0502   2000.0000   2000.0000    115.8770
  1123.5000     23.3912   2000.0000   2000.0000    117.3019
  1123.7500     23.6766   2000.0000   2000.0000    117.0232
  1124.0000     23.9353   2000.0000   2000.0000    115.5761
  1124.2500     24.2098   2000.0000   2000.0000    114.3901
  1124.5000     24.5365   2000.0000   2000.0000    112.6490
  1124.7500     24.9349   2000.0000   2000.0000    111.5907
  1125.0000     25.4112   2000.0000   2000.0000    110.1906
  1125.2500     25.9693   2000.0000   2000.0000    109.3120
  1125.5000     26.6144   2000.0000   2000.0000    107.7285
  1125.7500     27.3451   2000.0000   2000.0000    106.1596
  1126.0000     28.1379   2000.0000   2000.0000    102.5459
  1126.2500     28.9423   2000.0000   2000.0000     99.3117
  1126.5000     29.6953   2000.0000   2000.0000     93.8249
  1126.7500     30.3492   2000.0000   2000.0000     90.2605
  1127.0000     30.8900   2000.0000   2000.0000     85.9863
  1127.2500     31.3349   2000.0000   2000.0000     84.2604
  1127.5000     31.7141   2000.0000   2000.0000     83.4510
  1127.7500     32.0539   2000.0000   2000.0000     83.8274
  1128.0000     32.3710   2000.0000   2000.0000     85.0601
  1128.2500     32.6688   2000.0000   2000.0000     85.8145
  1128.5000     32.9353   2000.0000   2000.0000     85.8497
  1128.7500     33.1461   2000.0000   2000.0000     84.7024
  1129.0000     33.2782   2000.0000   2000.0000     81.1026
  1129.2500     33.3250   2000.0000   2000.0000     77.7678
  1129.5000     33.3019   2000.0000   2000.0000     72.3356
  1129.7500     33.2395   2000.0000   2000.0000     69.0326
  1130.0000     33.1733   2000.0000   2000.0000     65.2398
  1130.2500     33.1319   2000.0000   2000.0000     63.5440
  1130.5000     33.1198   2000.0000   2000.0000     61.8516
  1130.7500     33.1034   2000.0000   2000.0000     61.0053
  1131.0000     33.0130   2000.0000   2000.0000     60.0591
  1131.2500     32.7699   2000.0000   2000.0000     59.8739
  1131.5000     32.3236   2000.0000   2000.0000     60.8661
  1131.7500     31.6754   2000.0000   2000.0000     62.6641
  1132.0000     30.8759   2000.0000   2000.0000     67.3452
  1132.2500     30.0063   2000.0000   2000.0000     71.8602
  1132.5000     29.1579   2000.0000   2000.0000     80.6368
  1132.7500     28.4115   2000.0000   2000.0000     87.4347
  1133.0000     27.8167   2000.0000   2000.0000     97.4189
  1133.2500     27.3732   2000.0000   2000.0000    102.6197
  1133.5000     27.0275   2000.0000   2000.0000    106.6350
  1133.7500     26.6931   2000.0000   2000.0000    106.8944
  1134.0000     26.2948   2000.0000   2000.0000    105.7057
  1134.2500     25.8135   2000.0000   2000.0000    105.3979
  1134.5000     25.2985   2000.0000   2000.0000    106.9868
  1134.7500     24.8352   2000.0000   2000.0000    109.0070
  1135.0000     24.4942   2000.0000   2000.0000    111.9181
  1135.2500     24.2964   2000.0000   2000.0000    113.2827
  1135.5000     24.2114   2000.0000   2000.0000    114.6167
  1135.7500     24.1832   2000.0000   2000.0000    115.1617
  1136.0000     24.1658   2000.0000   2000.0000    115.1875
  1136.2500     24.1453   2000.0000   2000.0000    114.4977
  1136.5000     24.1377   2000.0000   2000.0000    112.7474
  1136.7500     24.1700   2000.0000   2000.0000    111.6655
  1137.0000     24.2651   2000.0000   2000.0000    111.0901
  1137.2500     24.4373   2000.0000   2000.0000    111.5207
  1137.5000     24.6964   2000.0000   2000.0000    112.5222
  1137.7500     25.0502   2000.0000   2000.0000    112.5232
  1138.0000     25.4977   2000.0000   2000.0000    110.4209
  1138.2500     26.0188   2000.0000   2000.0000    107.7413
  1138.5000     26.5677   2000.0000   2000.0000    103.0889
  1138.7500     27.0793   2000.0000   2000.0000    100.3711
  1139.0000     27.4892   2000.0000   2000.0000     97.6466
  1139.2500     27.7553   2000.0000   2000.0000     96.8566
  1139.5000     27.8691   2000.0000   2000.0000     97.1281
  1139.7500     27.8519   2000.0000   2000.0000     98.1200
  1140.0000     27.7411   2000.0000   2000.0000    100.3445
  1140.2500     27.5779   2000.0000   2000.0000    101.9179
  1140.5000     27.3952   2000.0000   2000.0000    103.5484
  1140.7500     27.2107   2000.0000   2000.0000    103.6526
  1141.0000     27.0261   2000.0000   2000.0000    102.0266
  1141.2500     26.8347   2000.0000   2000.0000    100.1269
  1141.5000     26.6363   2000.0000   2000.0000     97.2531
  1141.7500     26.4436   2000.0000   2000.0000     95.8407
  1142.0000     26.2741   2000.0000   2000.0000     94.7532
  1142.2500     26.1375   2000.0000   2000.0000     94.7942
  1142.5000     26.0328   2000.0000   2000.0000     96.1500
  1142.7500     25.9623   2000.0000   2000.0000     97.6507
  1143.0000     25.9422   2000.0000   2000.0000     99.5145
  1143.2500     25.9922   2000.0000   2000.0000     99.7757
  1143.5000     26.1088   2000.0000   2000.0000     98.5743
  1143.7500     26.2500   2000.0000   2000.0000     97.2411
  1144.0000     26.3506   2000.0000   2000.0000     95.3571
  1144.2500     26.3617   2000.0000   2000.0000     94.2546
  1144.5000     26.2789   2000.0000   2000.0000     92.1362
  1144.7500     26.1354   2000.0000   2000.0000     89.9080
  1145.0000     25.9694   2000.0000   2000.0000     85.2119
  1145.2500     25.7989   2000.0000   2000.0000     81.6316
