~Version Information
VERS.                      2.0: CWLS Log ASCII Standard - VERSION 2.0
WRAP.                       NO: One line per depth step
~Well Information Block
STRT.FT               550.0000: 
STOP.FT              2042.5000: 
STEP.FT                 0.2500: 
NULL.                -999.2500: 
COMP.          Petrogulf Corporation: COMPANY
WELL.          Robinson 15-12V: WELL
FLD.           Purgatorie River: FIELD
LOC.           1788' FNL & 466' FWL: LOCATION
PROV.                 Colorado: PROVINCE
CNTY.               Las Animas: COUNTRY
SRVC.                Patterson: SERVICE COMPANY
DATE.          Mon Sep 12 10:04:59 2005: LOG DATE
UWI.                          : UNIQUE WELL ID
~Curve Information Block
DEPT.FT            0 000 00 00: Depth
SP.mV                         : DIL Spontaneous Potential
RILD.Ohm-m                    : DIL Deep Resistivity
RILM.Ohm-m                    : DIL Medium Resistivity
RLL3.Ohm-m                    : DIL Shallow Resistivity
GR.GAPI                       : Gamma Ray
~Parameter Information Block
~A  Depth        SP         RILD        RILM        RLL3         GR     
# ...
  1614.0000    253.0833     11.5151     12.0736     17.0761    133.2609
  1614.2500    252.2063     11.6167     12.1558     17.2219    129.5125
  1614.5000    250.8898     11.6370     12.5140     17.2299    135.8232
  1614.7500    249.5804     11.6616     12.7399     17.2235    126.4404
  1615.0000    248.3599     11.9212     12.7424     16.9214    123.9278
  1615.2500    246.8322     11.7429     12.9148     16.5444    126.4618
  1615.5000    245.1237     12.0189     12.9080     16.4673    125.3240
  1615.7500    243.5266     12.2101     12.9112     15.8091    134.6089
  1616.0000    241.9465     12.3132     13.1052     14.0823    120.4726
  1616.2500    240.5457     12.4504     12.9760     14.0988    118.7534
  1616.5000    239.0606     12.4035     12.8688     14.4745    123.5906
  1616.7500    237.7483     12.4024     12.9664     16.1274    122.4035
  1617.0000    236.4764     12.7533     13.0533     15.9630    124.0330
  1617.2500    235.1428     12.6345     12.8761     16.4259    116.6722
  1617.5000    234.0363     12.8032     13.0338     16.7239    130.1257
  1617.7500    232.8435     12.4547     13.0517     16.5262    127.9644
  1618.0000    231.7282     12.4394     13.0359     16.2495    128.5486
  1618.2500    230.5360     12.4435     13.2791     16.2147    130.4656
  1618.5000    229.6875     12.5164     13.3109     17.2870    119.1086
  1618.7500    228.7704     12.4772     13.3299     17.9865    116.7633
  1619.0000    227.9476     12.3368     13.5518     19.2015    121.5928
  1619.2500    227.0840     12.4180     13.3498     19.4268    110.9400
  1619.5000    226.3372     12.4556     13.2084     19.4939    111.7491
  1619.7500    225.7369     12.4229     13.0241     19.1985    112.9566
  1620.0000    225.1203     12.2272     12.5893     18.2991    118.8701
  1620.2500    224.5568     12.7015     12.7993     17.1823    107.6865
  1620.5000    224.3912     12.9363     12.8025     14.5284    102.7036
  1620.7500    224.4674     13.0338     13.0724     13.0427    101.4782
  1621.0000    224.8324     12.7952     13.5586     16.3127     88.1732
  1621.2500    225.8063     12.9412     14.0996     25.9455     82.2685
  1621.5000    226.9888     12.6650     14.5150     26.6510     85.1066
  1621.7500    229.0533     12.1292     15.3359     17.5689     95.4342
  1622.0000    230.7637     11.1210     15.5055     16.2226     95.1550
  1622.2500    232.9395     10.9822     14.7697     37.0754     80.3271
  1622.5000    235.0089     10.1448     14.0392    100.9449     78.0786
  1622.7500    237.5600      9.8362     12.5129     88.2642     74.7402
  1623.0000    239.9743      9.4051     11.4337     27.8542     80.0512
  1623.2500    242.8384      9.3152      9.8529     14.3450     92.3913
  1623.5000    245.4388      9.1959      9.0396      8.7467    101.2805
  1623.7500    246.8065      9.0717      8.4490      9.0632    113.5526
  1624.0000    247.7314      8.8759      7.9604      9.1482    121.1899
  1624.2500    248.0638      8.9309      7.6243      9.2217    126.6739
  1624.5000    248.1888      8.7479      7.6550      9.4104    123.5353
  1624.7500    248.2150      8.6387      7.6587      9.5812    120.3819
  1625.0000    248.1991      8.4885      7.6114     10.3101    114.0950
  1625.2500    248.1462      8.4242      7.7291     10.8554    108.0895
  1625.5000    248.3400      8.3495      7.8250     11.1339    116.9040
  1625.7500    248.3918      8.4461      8.0871     11.5851    117.7510
  1626.0000    248.4125      8.6002      8.0778     12.3234    103.4932
  1626.2500    248.3905      8.8844      8.5348     13.3433     96.5344
  1626.5000    248.3968      9.4017      8.9853     15.7107     95.5888
  1626.7500    248.2258      9.6867      9.8094     16.0909     88.1202
  1627.0000    247.8912     10.2181     10.1421     14.7617     73.8137
  1627.2500    247.5431     10.4877     11.2059     14.6797     72.8937
  1627.5000    247.0846     11.5518     11.8963     16.2093     72.3066
  1627.7500    246.6318     11.9701     13.5672     18.8398     67.0796
  1628.0000    246.2371     12.7025     14.2261     28.8720     73.2383
  1628.2500    245.8671     13.2521     15.7910     31.9952     66.0572
  1628.5000    245.3322     13.4073     16.3380     26.8908     58.2179
  1628.7500    244.8612     13.9291     17.1215     23.9738     62.3886
  1629.0000    244.1218     14.3483     17.2571     21.7436     67.5101
  1629.2500    243.0084     15.1087     17.7371     21.0793     63.5734
  1629.5000    241.5817     15.3482     18.0388     21.4233     69.0522
  1629.7500    240.5703     15.4952     18.3587     21.4126     73.5386
  1630.0000    239.4977     16.1109     18.1456     20.5889     70.1573
  1630.2500    238.6279     15.8755     18.2575     19.5110     75.9668
  1630.5000    237.6894     16.0371     18.4799     19.7038     70.2660
  1630.7500    236.7480     16.3385     18.5584     21.1870     60.3110
  1631.0000    235.8829     16.4216     19.0259     23.6147     70.1114
  1631.2500    235.0079     16.5495     18.5541     23.8865     67.8803
  1631.5000    234.1391     16.1816     18.6706     23.8378     64.0749
  1631.7500    233.2955     16.2184     18.6061     24.0608     63.0075
  1632.0000    232.5151     16.1541     18.0045     25.2005     61.7097
  1632.2500    231.6847     16.4036     18.8449     25.7433     58.5024
  1632.5000    230.9750     16.3520     18.3427     25.3448     58.9683
  1632.7500    230.1892     16.6193     18.1667     25.1454     61.5150
  1633.0000    229.3607     16.8837     17.7727     23.8637     62.9692
  1633.2500    228.4082     16.8331     18.2445     21.5074     60.4575
  1633.5000    227.4064     16.9081     18.4766     19.4014     66.7095
  1633.7500    226.5549     17.1462     18.5062     16.8581     66.7448
  1634.0000    225.8342     16.9762     18.8799     17.9092     68.4672
  1634.2500    224.1730     16.7241     19.2184     21.0572     60.2021
  1634.5000    223.0576     17.4531     18.8559     23.0451     64.6134
  1634.7500    221.8437     17.3367     19.0958     23.3448     66.8315
  1635.0000    220.7307     17.0493     19.2511     24.1516     60.2318
  1635.2500    219.5049     17.4825     19.6720     24.1842     60.1411
  1635.5000    218.4344     17.5579     19.3474     23.3910     59.4112
  1635.7500    217.3448     17.4589     19.7913     23.0598     57.6347
  1636.0000    216.4514     17.9448     19.6793     22.4198     57.9856
  1636.2500    215.2460     18.0489     19.6281     22.3241     59.8485
  1636.5000    214.3036     17.9554     19.9341     23.0924     60.1361
  1636.7500    213.4394     17.8287     20.0750     23.5038     59.2183
  1637.0000    212.5658     18.1781     20.3998     23.9811     56.4220
  1637.2500    211.9145     18.0804     20.5026     25.0088     56.0118
  1637.5000    211.0994     17.9662     20.2683     28.6276     61.7665
  1637.7500    210.4440     18.0563     20.0181     28.2039     58.9298
  1638.0000    209.9200     17.5781     20.0559     23.8836     53.1879
  1638.2500    209.6270     17.2242     18.8935     22.3992     53.4184
  1638.5000    209.1078     18.0297     18.7999     20.7686     60.3183
  1638.7500    208.7045     18.0602     19.1143     20.0035     62.1063
  1639.0000    208.3935     18.6510     19.0200     19.2066     54.7449
  1639.2500    208.0887     18.2345     19.3154     19.7502     57.1067
  1639.5000    207.7049     19.3646     20.0409     22.5352     49.8979
  1639.7500    207.3167     19.8728     20.8119     25.6905     44.2965
  1640.0000    207.0402     20.3131     21.6994     31.1577     50.8536
  1640.2500    206.8744     20.9369     22.4467     34.0186     52.7313
  1640.5000    206.8083     20.4826     22.7929     35.5116     51.3232
  1640.7500    206.8110     21.9321     23.0424     36.9468     49.9024
  1641.0000    206.7975     21.8035     24.7730     41.6742     48.8203
  1641.2500    207.0005     22.0942     25.3190     42.2701     43.0402
  1641.5000    207.4719     23.0069     26.3550     38.8945     42.9985
  1641.7500    207.8174     21.7395     29.2203     38.3192     42.1576
