~Version Information
VERS.                      2.0: CWLS Log ASCII Standard - VERSION 2.0
WRAP.                       NO: One line per depth step
~Well Information Block
STRT.FT               250.0000: 
STOP.FT              1573.7500: 
STEP.FT                 0.2500: 
NULL.                -999.2500: 
COMP.          Pioneer Natural Resources: COMPANY
WELL.          Big Cat Federal 44-1: WELL
FLD.           Purgatoire River: FIELD
LOC.           197' FSL & 973' FEL--: LOCATION
CNTY.               Las Animas: COUNTY
SRVC.                Patterson: SERVICE COMPANY
DATE.          Sun Apr 23 14:54:11 2006: LOG DATE
UWI.           05 071 08042 00: UNIQUE WELL ID
STAT.                 Colorado: STATE
~Curve Information Block
DEPT.FT            0 000 00 00: Depth
DIR.Ohm-m                     : IEL Induction Resistivity
GR.GAPI                       : Gamma Ray
~Parameter Information Block
~A  Depth       DIR          GR     
# ...
  1197.7500     13.4674    133.2746
  1198.0000     13.5223    135.9192
  1198.2500     13.5208    137.6816
  1198.5000     13.4837    140.8755
  1198.7500     13.4400    143.1505
  1199.0000     13.4193    145.8593
  1199.2500     13.4444    146.5145
  1199.5000     13.5271    144.9616
  1199.7500     13.6656    142.4451
  1200.0000     13.8480    137.9955
  1200.2500     14.0581    135.5983
  1200.5000     14.2850    133.8561
  1200.7500     14.5267    133.9687
  1201.0000     14.7889    135.4327
  1201.2500     15.0788    136.7543
  1201.5000     15.3986    138.7293
  1201.7500     15.7436    140.1236
  1202.0000     16.1017    142.5666
  1202.2500     16.4551    144.0529
  1202.5000     16.7830    144.5616
  1202.7500     17.0686    143.2044
  1203.0000     17.3062    139.6647
  1203.2500     17.5048    137.7718
  1203.5000     17.6840    137.6861
  1203.7500     17.8684    139.5696
  1204.0000     18.0830    143.6568
  1204.2500     18.3508    145.9539
  1204.5000     18.6887    147.5222
  1204.7500     19.1017    147.3187
  1205.0000     19.5794    145.6077
  1205.2500     20.0969    143.7188
  1205.5000     20.6246    139.9813
  1205.7500     21.1458    137.1024
  1206.0000     21.6716    132.5622
  1206.2500     22.2422    129.2659
  1206.5000     22.9094    123.0282
  1206.7500     23.7107    117.6835
  1207.0000     24.6491    108.9360
  1207.2500     25.6903    104.0130
  1207.5000     26.7732     99.8832
  1207.7500     27.8275     99.3241
  1208.0000     28.7837    100.2397
  1208.2500     29.5786    100.9262
  1208.5000     30.1674    100.8606
  1208.7500     30.5514     99.8848
  1209.0000     30.7940     97.3464
  1209.2500     30.9989     95.3212
  1209.5000     31.2566     92.4157
  1209.7500     31.6031     90.7812
  1210.0000     32.0182     88.6838
  1210.2500     32.4577     87.1378
  1210.5000     32.8881     83.6798
  1210.7500     33.2924     80.3568
  1211.0000     33.6501     74.4449
  1211.2500     33.9146     70.7122
  1211.5000     34.0126     66.8472
  1211.7500     33.8703     65.9193
  1212.0000     33.4456     67.3368
  1212.2500     32.7449     70.2621
  1212.5000     31.8133     77.6724
  1212.7500     30.7113     84.2456
  1213.0000     29.4969     94.7668
  1213.2500     28.2210    100.9030
  1213.5000     26.9307    107.5688
  1213.7500     25.6739    110.6288
  1214.0000     24.4986    114.6486
  1214.2500     23.4470    117.6453
  1214.5000     22.5465    122.7943
  1214.7500     21.8037    126.2530
  1215.0000     21.2050    130.4187
  1215.2500     20.7265    132.0224
  1215.5000     20.3489    132.5001
  1215.7500     20.0661    131.7457
  1216.0000     19.8813    129.2888
  1216.2500     19.7922    126.8304
  1216.5000     19.7762    122.5886
  1216.7500     19.7910    120.3587
  1217.0000     19.7890    119.6588
  1217.2500     19.7369    121.2450
  1217.5000     19.6206    125.4912
  1217.7500     19.4359    128.4015
  1218.0000     19.1760    131.6560
  1218.2500     18.8301    133.2745
  1218.5000     18.3943    136.1131
  1218.7500     17.8833    138.7635
  1219.0000     17.3336    143.5042
  1219.2500     16.7945    146.4562
  1219.5000     16.3146    149.4584
  1219.7500     15.9314    150.3003
  1220.0000     15.6667    149.9916
  1220.2500     15.5275    148.6593
  1220.5000     15.5093    144.2901
  1220.7500     15.6027    139.6374
  1221.0000     15.8006    131.2243
  1221.2500     16.1020    125.9765
  1221.5000     16.5116    120.3526
  1221.7500     17.0325    118.0908
  1222.0000     17.6606    115.5261
  1222.2500     18.3833    113.6395
  1222.5000     19.1849    110.6879
  1222.7500     20.0535    109.2656
  1223.0000     20.9845    108.4096
  1223.2500     21.9763    108.1265
  1223.5000     23.0207    106.4324
  1223.7500     24.0975    103.8399
  1224.0000     25.1768     98.0470
  1224.2500     26.2280     93.5885
  1224.5000     27.2204     87.1982
  1224.7500     28.1123     83.6335
  1225.0000     28.8407     79.7463
  1225.2500     29.3244     78.1842
  1225.5000     29.4835     77.5758
  1225.7500     29.2628     78.6206
  1226.0000     28.6505     82.8274
  1226.2500     27.6919     87.3039
  1226.5000     26.4882     95.6354
  1226.7500     25.1697    101.6091
  1227.0000     23.8534    110.3351
  1227.2500     22.6120    115.5651
  1227.5000     21.4733    121.6125
  1227.7500     20.4398    124.0501
  1228.0000     19.5108    125.6476
  1228.2500     18.6899    126.0516
  1228.5000     17.9812    126.7078
  1228.7500     17.3826    127.2851
  1229.0000     16.8836    127.8637
  1229.2500     16.4681    127.7488
  1229.5000     16.1194    126.9296
  1229.7500     15.8227    126.4612
  1230.0000     15.5659    126.9497
  1230.2500     15.3396    128.3492
  1230.5000     15.1348    131.4656
  1230.7500     14.9427    133.3677
  1231.0000     14.7542    134.4985
  1231.2500     14.5620    133.8329
  1231.5000     14.3588    131.6061
  1231.7500     14.1354    130.2141
  1232.0000     13.8794    129.3201
  1232.2500     13.5780    129.6001
  1232.5000     13.2254    130.9898
  1232.7500     12.8297    132.3514
  1233.0000     12.4135    134.8043
  1233.2500     12.0066    136.6630
  1233.5000     11.6338    139.7085
  1233.7500     11.3068    141.6416
  1234.0000     11.0245    143.5990
  1234.2500     10.7789    144.0999
  1234.5000     10.5620    144.2805
  1234.7500     10.3707    144.4339
  1235.0000     10.2087    144.5552
  1235.2500     10.0867    144.2097
  1235.5000     10.0197    142.8811
  1235.7500     10.0233    141.5146
  1236.0000     10.1085    138.5310
  1236.2500     10.2785    135.7126
  1236.5000     10.5286    130.5024
  1236.7500     10.8483    126.9970
  1237.0000     11.2242    122.8075
  1237.2500     11.6428    120.8579
  1237.5000     12.0910    118.3910
  1237.7500     12.5575    116.5045
  1238.0000     13.0346    113.3046
  1238.2500     13.5210    111.4351
  1238.5000     14.0226    109.7344
  1238.7500     14.5473    109.2066
  1239.0000     15.0970    108.6312
  1239.2500     15.6627    108.3256
  1239.5000     16.2245    108.7571
  1239.7500     16.7567    110.0757
  1240.0000     17.2354    113.1760
  1240.2500     17.6447    115.0199
  1240.5000     17.9802    115.9005
  1240.7500     18.2471    115.3113
  1241.0000     18.4557    114.5895
  1241.2500     18.6189    115.2951
  1241.5000     18.7535    118.0523
  1241.7500     18.8795    120.0579
  1242.0000     19.0153    121.7850
  1242.2500     19.1713    121.7425
  1242.5000     19.3468    119.8782
  1242.7500     19.5347    117.4756
  1243.0000     19.7288    112.1951
  1243.2500     19.9278    107.6987
  1243.5000     20.1349    100.0963
  1243.7500     20.3514     94.9850
  1244.0000     20.5737     88.1928
  1244.2500     20.7942     84.7108
  1244.5000     21.0075     81.5445
  1244.7500     21.2129     80.7651
  1245.0000     21.4103     80.9307
  1245.2500     21.5899     81.4890
  1245.5000     21.7241     82.7380
  1245.7500     21.7729     83.9065
  1246.0000     21.7027     86.0397
  1246.2500     21.5094     87.4574
  1246.5000     21.2268     89.3346
  1246.7500     20.9122     90.5156
  1247.0000     20.6202     92.3130
  1247.2500     20.3827     93.3286
  1247.5000     20.2036     93.8655
  1247.7500     20.0671     93.2968
  1248.0000     19.9526     91.5708
  1248.2500     19.8478     90.7309
  1248.5000     19.7531     91.3198
  1248.7500     19.6769     92.9115
  1249.0000     19.6267     95.5700
  1249.2500     19.6050     96.4781
  1249.5000     19.6141     95.7084
  1249.7500     19.6632     94.0201
  1250.0000     19.7688     90.9221
  1250.2500     19.9446     89.1156
  1250.5000     20.1889     87.1354
  1250.7500     20.4798     86.1982
  1251.0000     20.7796     85.2755
  1251.2500     21.0473     85.0790
  1251.5000     21.2511     85.6232
  1251.7500     21.3760     86.5740
  1252.0000     21.4246     88.5832
  1252.2500     21.4147     89.9281
  1252.5000     21.3764     91.5028
  1252.7500     21.3451     92.4670
  1253.0000     21.3523     94.5286
  1253.2500     21.4146     96.2668
