~Version Information
VERS.                      2.0: CWLS Log ASCII Standard - VERSION 2.0
WRAP.                       NO: One line per depth step
~Well Information Block
STRT.FT               752.0000: 
STOP.FT              2474.2000: 
STEP.FT                 0.1000: 
NULL.                -999.2500: 
COMP.          Petrogulf Corporation: COMPANY
WELL.            Montoya 7-14V: WELL
FLD.           Purgatorie River: FIELD
LOC.           535' FSL & 491' FWL: LOCATION
CNTY.               Las Animas: COUNTY
SRVC.                         : SERVICE COMPANY
DATE.          Mon Aug 23 10:41:01 2004: LOG DATE
UWI.           05 071 08019 00: UNIQUE WELL ID
STAT.                 Colorado: STATE
~Curve Information Block
DEPT.FT            0 000 00 00: Depth
DCAL.in                       : CDL Caliper
RHOB.g/cc                     : CDL Bulk Density
RHOC.g/cc                     : CDL Density Correction
DPOR.pu                       : CDL Density Porosity
GR.GAPI                       : Gamma Ray
NPOR.pu                       : Neutron Porosity
~Parameter Information Block
~A  Depth       DCAL        RHOB        RHOC        DPOR         GR         NPOR    
# ...
  1779.2000      7.8133      2.5041      0.0225      8.8397    130.2598     26.1608
  1779.3000      7.7928      2.4957     -0.0282      9.3488    124.5485     26.4407
  1779.4000      7.7928      2.5084     -0.0078      8.5808    122.3206     26.0327
  1779.5000      7.7776      2.5428      0.0213      6.4943    124.5793     25.6048
  1779.6000      7.7776      2.5714      0.0973      4.7654    130.0211     25.4450
  1779.7000      7.7776      2.5780      0.0470      4.3657    133.3469     25.6213
  1779.8000      7.7633      2.5750      0.0793      4.5425    131.6193     26.2590
  1779.9000      7.7633      2.5747      0.0816      4.5629    129.6786     27.2139
  1780.0000      7.7669      2.5765      0.0631      4.4530    129.3964     27.8657
  1780.1000      7.7669      2.5735      0.0730      4.6334    129.8772     27.5058
  1780.2000      7.7669      2.5582      0.0528      5.5642    129.7182     26.6514
  1780.3000      7.7855      2.5348      0.0197      6.9820    130.3570     26.2947
  1780.4000      7.7855      2.5144      0.0571      8.2183    134.4277     26.4830
  1780.5000      7.7889      2.5026      0.0467      8.9357    136.6493     26.8893
  1780.6000      7.7889      2.5049      0.0281      8.7919    135.0242     27.2709
  1780.7000      7.7889      2.5234      0.0563      7.6734    134.2553     27.0332
  1780.8000      7.7915      2.5450      0.0846      6.3644    134.9870     26.0713
  1780.9000      7.7915      2.5581      0.0600      5.5712    135.9632     25.2133
  1781.0000      7.7982      2.5622      0.1256      5.3193    135.9647     25.4895
  1781.1000      7.7982      2.5633      0.0635      5.2565    135.5560     27.0072
  1781.2000      7.7982      2.5662      0.1071      5.0818    134.9009     28.3981
  1781.3000      7.7899      2.5582      0.1616      5.5610    130.0262     28.5062
  1781.4000      7.7899      2.5371      0.0387      6.8414    123.7870     27.5845
  1781.5000      7.7672      2.5269      0.0417      7.4608    121.9874     26.3292
  1781.6000      7.7672      2.5359      0.0624      6.9123    122.1727     25.0939
  1781.7000      7.7672      2.5522      0.0956      5.9295    120.2953     23.9472
  1781.8000      7.7659      2.5658      0.0582      5.1012    114.8439     23.1552
  1781.9000      7.7659      2.5752      0.0923      4.5363    106.9810     23.0050
  1782.0000      7.7421      2.5853      0.0486      3.9221    102.2330     23.3298
  1782.1000      7.7421      2.5993      0.0913      3.0713    104.2293     23.5977
  1782.2000      7.7421      2.6128      0.0548      2.2541    108.8775     23.4938
  1782.3000      7.7201      2.6241      0.0710      1.5679    110.5990     22.9470
  1782.4000      7.7201      2.6355      0.0537      0.8787    109.9361     22.2574
  1782.5000      7.7031      2.6434      0.0656      0.3984    107.6400     21.9753
  1782.6000      7.7031      2.6364      0.0948      0.8229    100.9129     22.2456
  1782.7000      7.7031      2.6167      0.0035      2.0204     93.5807     22.6696
  1782.8000      7.7043      2.5998      0.0083      3.0454     90.6776     22.4486
  1782.9000      7.7043      2.5893      0.0248      3.6816     89.3226     21.3964
  1783.0000      7.7306      2.5798      0.0339      4.2552     89.7937     20.2185
  1783.1000      7.7306      2.5685      0.0003      4.9386     95.3391     19.4590
  1783.2000      7.7306      2.5587      0.0128      5.5325    101.8702     19.2314
  1783.3000      7.7710      2.5517      0.0128      5.9551    105.4242     19.2517
  1783.4000      7.7710      2.5476     -0.0075      6.2053    106.7765     19.3145
  1783.5000      7.7695      2.5476      0.0496      6.2047    104.7526     19.6231
  1783.6000      7.7695      2.5493      0.0267      6.1012    100.1036     20.3696
  1783.7000      7.7695      2.5520      0.0078      5.9394     97.2494     21.2894
  1783.8000      7.7664      2.5516      0.0265      5.9621     95.8093     21.7234
  1783.9000      7.7664      2.5399      0.0168      6.6756     92.4979     21.1499
  1784.0000      7.7657      2.5240     -0.0060      7.6372     89.8075     19.8527
  1784.1000      7.7657      2.5238     -0.0069      7.6463     91.8824     18.9323
  1784.2000      7.7657      2.5419      0.0242      6.5505     96.4496     18.8957
  1784.3000      7.7283      2.5580      0.0283      5.5761     97.3451     19.1236
  1784.4000      7.7283      2.5575      0.0060      5.6074     92.6472     19.4457
  1784.5000      7.7392      2.5488     -0.0324      6.1362     86.0332     20.0714
  1784.6000      7.7392      2.5422      0.0168      6.5334     81.5745     20.5666
  1784.7000      7.7392      2.5341     -0.0075      7.0228     80.0129     20.8907
  1784.8000      7.7236      2.5251      0.0052      7.5676     80.5811     21.1727
  1784.9000      7.7236      2.5177     -0.0039      8.0152     83.5766     21.0908
  1785.0000      7.7251      2.5068      0.0072      8.6814     87.4290     21.0112
  1785.1000      7.7251      2.4972     -0.0007      9.2629     88.7632     21.0570
  1785.2000      7.7251      2.5010     -0.0150      9.0291     88.0844     20.8376
  1785.3000      7.7454      2.5126      0.0361      8.3292     88.3760     20.9953
  1785.4000      7.7454      2.5121      0.0369      8.3595     90.1402     22.0598
  1785.5000      7.7884      2.4953      0.0374      9.3772     91.6625     22.9321
  1785.6000      7.7884      2.4732      0.0495     10.7152     90.7045     22.8315
  1785.7000      7.7884      2.4525      0.0291     11.9701     87.9162     22.4871
  1785.8000      7.7480      2.4402      0.0076     12.7134     87.0305     22.4904
  1785.9000      7.7480      2.4393      0.0200     12.7678     90.3079     22.7114
  1786.0000      7.7074      2.4408      0.0373     12.6801     96.6967     22.9661
  1786.1000      7.7074      2.4421      0.0297     12.5987    104.5058     23.6228
  1786.2000      7.7074      2.4488      0.0425     12.1934    109.6891     24.8776
  1786.3000      7.7027      2.4600      0.0590     11.5137    110.9824     25.7125
  1786.4000      7.7027      2.4680      0.1275     11.0277    116.2899     25.6311
  1786.5000      7.7168      2.4736      0.0759     10.6904    125.0763     25.3109
  1786.6000      7.7168      2.4885      0.0687      9.7906    125.0245     24.7116
  1786.7000      7.7168      2.5085      0.1035      8.5774    116.4131     23.7683
  1786.8000      7.7208      2.5236      0.0485      7.6579    111.6351     23.2063
  1786.9000      7.7208      2.5418      0.0545      6.5569    114.7672     23.1789
  1787.0000      7.7231      2.5606      0.0752      5.4174    117.8919     23.5355
  1787.1000      7.7231      2.5615      0.0794      5.3660    118.0526     24.2972
  1787.2000      7.7231      2.5409      0.0633      6.6092    120.7722     24.8608
  1787.3000      7.7429      2.5201      0.0191      7.8751    122.5980     24.8691
  1787.4000      7.7429      2.5279     -0.0296      7.3970    118.7959     24.6510
  1787.5000      7.7427      2.5653      0.0736      5.1317    114.2016     24.2941
  1787.6000      7.7427      2.6012      0.0867      2.9557    111.0747     23.5030
  1787.7000      7.7427      2.6167      0.1009      2.0190    108.7968     22.3307
  1787.8000      7.7210      2.6100      0.1122      2.4241    108.0552     21.2710
  1787.9000      7.7210      2.5808      0.1111      4.1950    107.8043     20.7443
  1788.0000      7.7190      2.5357      0.1117      6.9285    104.2691     20.8872
  1788.1000      7.7190      2.4952      0.0460      9.3807     94.0521     21.6582
  1788.2000      7.7190      2.4805      0.0434     10.2743     78.8399     22.4784
  1788.3000      7.7209      2.4883      0.0536      9.7982     66.0741     22.6030
  1788.4000      7.7209      2.5007      0.0271      9.0467     60.0291     22.2684
  1788.5000      7.7203      2.5094      0.0692      8.5198     58.7058     21.7286
  1788.6000      7.7203      2.5119      0.0874      8.3707     58.4926     20.7585
  1788.7000      7.7203      2.5081      0.0527      8.6013     57.9730     19.6765
