~Version Information
VERS.                      2.0: CWLS Log ASCII Standard - VERSION 2.0
WRAP.                       NO: One line per depth step
~Well Information Block
STRT.FT               806.0000: 
STOP.FT              1812.2000: 
STEP.FT                 0.1000: 
NULL.                -999.2500: 
COMP.          Pioneer Natural Resources: COMPANY
WELL.            Hill 33-22 Tr: WELL
FLD.           Purgatoire River: FIELD
LOC.           1573' FSL & 1585' FEL: LOCATION
PROV.                 Colorado: PROVINCE
CNTY.               Las Animas: COUNTRY
SRVC.                Patterson: SERVICE COMPANY
DATE.          Thu Apr 14 12:25:33 2005: LOG DATE
UWI.           05 071 08316 00: UNIQUE WELL ID
~Curve Information Block
DEPT.FT            0 000 00 00: Depth
DCAL.in                       : CDL Caliper
RHOB.g/cc                     : CDL Bulk Density
RHOC.g/cc                     : CDL Density Correction
DPOR.pu                       : CDL Density Porosity
GR.GAPI                       : Gamma Ray
NPOR.pu                       : Neutron Porosity
~Parameter Information Block
~A  Depth       DCAL        RHOB        RHOC        DPOR         GR         NPOR    
# ...
  1334.0000      8.1739      2.4131      0.0492     14.3567    150.9070     33.2478
  1334.1000      8.1739      2.3970      0.0596     15.3316    150.4077     33.3224
  1334.2000      8.1739      2.3594      0.0264     17.6142    155.1485     32.8369
  1334.3000      8.2527      2.3149      0.0043     20.3111    156.5056     32.2944
  1334.4000      8.2527      2.2910     -0.0492     21.7571    152.1094     32.0601
  1334.5000      8.2894      2.2830      0.0495     22.2422    145.6290     31.7601
  1334.6000      8.2894      2.2516      0.0207     24.1454    137.6741     31.4045
  1334.7000      8.2894      2.1794     -0.0237     28.5213    128.8304     31.1942
  1334.8000      8.3210      2.0887     -0.0195     34.0209    121.1368     30.8413
  1334.9000      8.3210      2.0121     -0.0647     38.6593    115.7982     30.8509
  1335.0000      8.2011      1.9707     -0.0883     41.1712    113.2819     31.8059
  1335.1000      8.2011      1.9680     -0.0696     41.3307    111.6496     32.8802
  1335.2000      8.2011      1.9959     -0.0509     39.6444    108.6098     33.3570
  1335.3000      8.1613      2.0390      0.0149     37.0301    104.1024     33.2536
  1335.4000      8.1613      2.0869      0.0646     34.1264    101.8228     32.5059
  1335.5000      8.1332      2.1449      0.0752     30.6149    104.9288     31.3466
  1335.6000      8.1332      2.2131      0.1635     26.4791    109.6217     30.5386
  1335.7000      8.1332      2.2701      0.1957     23.0255    110.1701     30.3225
  1335.8000      8.1272      2.2959      0.1257     21.4591    103.9688     30.3941
  1335.9000      8.1272      2.2846      0.1226     22.1446     91.8030     30.4966
  1336.0000      8.1078      2.2285      0.1137     25.5483     79.2208     30.5579
  1336.1000      8.1078      2.1331      0.0587     31.3268     73.7562     30.6121
  1336.2000      8.1078      2.0310      0.0486     37.5156     77.1723     30.5918
  1336.3000      8.1040      1.9464      0.0043     42.6412     82.8759     30.2744
  1336.4000      8.1040      1.8673     -0.0233     47.4362     83.9273     29.9040
  1336.5000      8.1330      1.7638     -0.0037     53.7113     79.4725     30.1283
  1336.6000      8.1330      1.6389     -0.0725     61.2781     72.1928     30.7571
  1336.7000      8.1330      1.5316     -0.0430     67.7794     66.1486     31.1271
  1336.8000      8.1660      1.4541     -0.0299     72.4812     63.1626     30.9986
  1336.9000      8.1660      1.3870      0.0073     76.5454     60.5982     30.4013
  1337.0000      8.1748      1.3342     -0.0925     79.7475     55.3006     30.0910
  1337.1000      8.1748      1.3140     -0.0134     80.9671     47.6174     30.6204
  1337.2000      8.1748      1.3162     -0.0298     80.8337     38.9050     31.4127
  1337.3000      8.3210      1.3218     -0.0157     80.4975     31.3949     31.9548
  1337.4000      8.3210      1.3261     -0.0116     80.2343     28.2805     32.0711
  1337.5000      8.4109      1.3257      0.0104     80.2599     27.5294     31.8783
  1337.6000      8.4109      1.3116     -0.0078     81.1124     25.5204     31.7455
  1337.7000      8.4109      1.2824     -0.0168     82.8876     23.2212     31.9420
  1337.8000      8.3685      1.2539     -0.0834     84.6122     21.1995     32.5321
  1337.9000      8.3685      1.2424     -0.0262     85.3084     18.3253     33.3055
  1338.0000      8.3401      1.2423     -0.0165     85.3158     16.0603     33.8197
  1338.1000      8.3401      1.2435     -0.0143     85.2436     15.9745     33.4729
  1338.2000      8.3401      1.2546     -0.0650     84.5678     17.3479     32.7372
  1338.3000      8.2294      1.2897     -0.0171     82.4409     18.5605     32.4457
  1338.4000      8.2294      1.3422      0.0284     79.2622     18.4764     32.3615
  1338.5000      8.2270      1.3903      0.0916     76.3462     18.0539     32.4384
  1338.6000      8.2270      1.4238      0.0511     74.3156     18.6833     32.8227
  1338.7000      8.2270      1.4514      0.0530     72.6440     20.2798     32.9055
  1338.8000      8.3192      1.4948      0.0542     70.0096     21.8929     32.4048
  1338.9000      8.3192      1.5976      0.0044     63.7806     22.3041     32.4354
  1339.0000      8.1379      1.7929      0.0722     51.9470     22.2962     33.2128
  1339.1000      8.1379      2.0334      0.2038     37.3717     23.8736     33.5940
  1339.2000      8.1379      2.2266      0.2864     25.6635     26.7584     33.5573
  1339.3000      8.0770      2.3634      0.1903     17.3706     30.3698     33.4234
  1339.4000      8.0770      2.5121      0.2602      8.3568     35.8398     32.5399
  1339.5000      7.9580      2.6761      0.3573     -1.5813     42.0420     30.6697
  1339.6000      7.9580      2.7799      0.3234     -7.8743     45.5241     28.6829
  1339.7000      7.9580      2.7827      0.1897     -8.0415     47.6851     27.2089
  1339.8000      7.8932      2.7131      0.0628     -3.8223     53.8127     26.0750
  1339.9000      7.8932      2.6185     -0.0247      1.9081     63.2027     25.1362
  1340.0000      7.8831      2.5332     -0.0559      7.0787     71.1183     24.9235
  1340.1000      7.8831      2.4714     -0.1260     10.8226     80.2553     25.9572
  1340.2000      7.8831      2.4272     -0.0973     13.5013     95.6270     27.5312
  1340.3000      7.9511      2.4005     -0.1548     15.1234    110.9601     28.2144
  1340.4000      7.9511      2.3995     -0.0282     15.1827    118.2349     27.9417
  1340.5000      8.0069      2.4086     -0.0173     14.6326    119.5425     27.5512
  1340.6000      8.0069      2.4143     -0.0108     14.2845    120.1978     27.3925
  1340.7000      8.0069      2.4243      0.1041     13.6812    124.2418     28.1848
  1340.8000      8.0675      2.4349      0.1213     13.0334    130.8388     29.6949
  1340.9000      8.0675      2.4329      0.0799     13.1577    134.9469     30.1357
  1341.0000      8.0840      2.4220      0.0295     13.8183    134.4366     29.1684
  1341.1000      8.0840      2.4068      0.0579     14.7422    131.1837     27.9475
  1341.2000      8.0840      2.3607      0.0979     17.5337    125.0158     27.1294
  1341.3000      8.0617      2.2774     -0.0192     22.5830    114.4750     27.1867
  1341.4000      8.0617      2.1834      0.0499     28.2798    104.1241     28.2350
  1341.5000      8.0409      2.0638      0.0459     35.5292     98.9573     29.3871
  1341.6000      8.0409      1.8992     -0.0762     45.5040     98.0477     29.9048
  1341.7000      8.0409      1.7252     -0.1253     56.0475     98.0437     30.6037
  1341.8000      8.0357      1.5809     -0.1183     64.7948     97.1313     32.3562
  1341.9000      8.0357      1.4753     -0.1169     71.1926     94.0729     34.3909
  1342.0000      8.0219      1.4308     -0.1793     73.8923     90.5633     35.3029
  1342.1000      8.0219      1.4849     -0.1238     70.6125     91.8046     34.9789
  1342.2000      8.0219      1.6131      0.1162     62.8428     98.2499     34.2494
  1342.3000      8.1605      1.7379      0.1792     55.2763    106.5923     33.6297
  1342.4000      8.1605      1.8328      0.1661     49.5282    114.7408     33.7011
  1342.5000      8.8672      1.9249      0.1819     43.9431    120.9150     34.7132
  1342.6000      8.8672      2.0203      0.2166     38.1638    125.8882     35.8944
  1342.7000      8.8672      2.0969      0.1663     33.5212    132.2177     36.4029
  1342.8000      8.9841      2.1565      0.0744     29.9082    139.6622     35.7745
  1342.9000      8.9841      2.2227      0.0396     25.8941    146.3651     34.7011
  1343.0000      8.4598      2.2857      0.0678     22.0764    152.0237     34.5542
  1343.1000      8.4598      2.3086      0.0476     20.6930    154.4091     35.2250
  1343.2000      8.4598      2.2917      0.0322     21.7139    154.8352     35.0994
  1343.3000      8.1383      2.2761     -0.0221     22.6589    157.1558     33.7980
  1343.4000      8.1383      2.2858      0.0201     22.0702    158.7624     32.9868
  1343.5000      8.0892      2.3057      0.0578     20.8687    154.2550     33.4486
