~Version Information
VERS.                      2.0: CWLS Log ASCII Standard - VERSION 2.0
WRAP.                       NO: One line per depth step
~Well Information Block
STRT.FT               554.1000: 
STOP.FT              2173.5000: 
STEP.FT                 0.1000: 
NULL.                -999.2500: 
COMP.          Petrogulf Corporation: COMPANY
WELL.            Montoya 6-14R: WELL
FLD.           Purgatorie River: FIELD
LOC.           867' FSL & 751' FWL: LOCATION
CNTY.               Las Animas: COUNTY
SRVC.                         : SERVICE COMPANY
DATE.          Mon Nov 15 06:14:10 2004: LOG DATE
UWI.           05 071 08242 00: UNIQUE WELL ID
STAT.                 Colorado: STATE
~Curve Information Block
DEPT.FT            0 000 00 00: Depth
DCAL.in                       : CDL Caliper
RHOB.g/cc                     : CDL Bulk Density
RHOC.g/cc                     : CDL Density Correction
DPOR.pu                       : CDL Density Porosity
GR.GAPI                       : Gamma Ray
NPOR.pu                       : Neutron Porosity
~Parameter Information Block
~A  Depth       DCAL        RHOB        RHOC        DPOR         GR         NPOR    
# ...
  1418.1000      8.5689      2.3874      0.0360     15.9138    117.0120     33.5349
  1418.2000      8.5689      2.3800      0.0188     16.3650    120.7546     33.0228
  1418.3000      8.2514      2.3932      0.0064     15.5614    121.0154     32.6300
  1418.4000      8.2514      2.4143      0.0574     14.2848    118.0943     32.5154
  1418.5000      8.1413      2.4218      0.0774     13.8276    117.3106     32.6449
  1418.6000      8.1413      2.4001      0.0506     15.1444    118.5763     32.5399
  1418.7000      8.1413      2.3504      0.0463     18.1569    117.2608     32.1399
  1418.8000      8.1126      2.2953      0.0347     21.4963    115.1927     31.5449
  1418.9000      8.1126      2.2491      0.0537     24.2999    113.1783     30.9810
  1419.0000      8.1047      2.1832      0.1182     28.2902    108.6342     30.9463
  1419.1000      8.1047      2.0718      0.0457     35.0403    102.6822     31.4997
  1419.2000      8.1047      1.9551     -0.1053     42.1164     96.7436     32.3229
  1419.3000      8.1147      1.8910     -0.0600     45.9976     91.2956     32.9349
  1419.4000      8.1147      1.8758     -0.0286     46.9224     87.7781     33.1298
  1419.5000      8.1523      1.8680      0.0316     47.3928     85.3847     33.1065
  1419.6000      8.1523      1.8558     -0.0291     48.1306     84.2032     32.9390
  1419.7000      8.1523      1.8544      0.0779     48.2160     85.6479     32.6774
  1419.8000      8.1811      1.8546      0.0964     48.2061     86.5153     32.7945
  1419.9000      8.1811      1.8267      0.0698     49.8944     85.1325     33.6109
  1420.0000      8.1661      1.7476      0.0543     54.6893     84.8050     34.6072
  1420.1000      8.1661      1.6165     -0.0007     62.6347     84.2798     35.2186
  1420.2000      8.1661      1.4699     -0.1166     71.5197     80.0542     35.7467
  1420.3000      8.1759      1.3442     -0.1273     79.1422     73.8127     36.3767
  1420.4000      8.1759      1.2304     -0.1338     86.0388     67.7038     36.7961
  1420.5000      8.3541      1.1187     -0.1914     92.8075     60.8803     36.8413
  1420.6000      8.3541      1.0394     -0.1543     97.6094     56.6439     36.4081
  1420.7000      8.3541      1.0135     -0.0696     99.1836     58.4255     36.1350
  1420.8000      8.8875      1.0265     -0.0680     98.3968     62.2661     36.6609
  1420.9000      8.8875      1.0627     -0.0361     96.2008     64.0357     36.9679
  1421.0000      9.9117      1.1136     -0.0371     93.1159     63.2983     36.5544
  1421.1000      9.9117      1.1679      0.0157     89.8266     60.8219     36.3387
  1421.2000      9.9117      1.2193      0.0105     86.7071     58.6811     36.5006
  1421.3000     11.2725      1.2751      0.0224     83.3244     58.0157     36.5842
  1421.4000     11.2725      1.3404      0.0237     79.3698     59.5375     36.5271
  1421.5000     12.6136      1.4017      0.0749     75.6553     62.5863     36.5099
  1421.6000     12.6136      1.4392      0.0702     73.3826     63.6559     36.6033
  1421.7000     12.6136      1.4498      0.0575     72.7419     63.9759     36.4395
  1421.8000     13.7081      1.4433      0.0595     73.1360     67.7416     35.5781
  1421.9000     13.7081      1.4368      0.0350     73.5275     74.5825     34.3502
  1422.0000     14.2171      1.4620     -0.0120     71.9978     80.4350     33.7532
  1422.1000     14.2171      1.5443      0.0191     67.0147     82.3896     33.9550
  1422.2000     14.2171      1.6715      0.0206     59.3055     83.8166     33.9511
  1422.3000     14.0171      1.7989      0.0869     51.5804     88.4411     33.3187
  1422.4000     14.0171      1.8909      0.0838     46.0064     93.1751     32.6004
  1422.5000     13.1764      1.9652      0.0780     41.5012     94.3598     31.8015
  1422.6000     13.1764      2.0766      0.1152     34.7516     94.5530     30.9584
  1422.7000     13.1764      2.2408      0.2748     24.7973     96.8774     30.6205
  1422.8000     11.5412      2.4019      0.3420     15.0341     98.9774     30.7691
  1422.9000     11.5412      2.5017      0.2828      8.9878     97.5960     30.7009
  1423.0000      9.4633      2.5424      0.2503      6.5195     93.8407     30.1692
  1423.1000      9.4633      2.5555      0.2109      5.7293     92.5489     29.8877
  1423.2000      9.4633      2.5507      0.2038      6.0211     97.4527     29.9603
  1423.3000      8.2496      2.5290      0.0853      7.3317    103.9938     29.6269
  1423.4000      8.2496      2.5145      0.0687      8.2146    106.3258     28.9613
  1423.5000      7.9304      2.5306      0.0622      7.2383    106.6770     28.5433
  1423.6000      7.9304      2.5702      0.0962      4.8385    107.1015     28.1679
  1423.7000      7.9304      2.6046      0.1245      2.7500    106.4795     27.7033
  1423.8000      7.8924      2.6223      0.0902      1.6793    104.5380     27.7473
  1423.9000      7.8924      2.6368      0.0953      0.7992    102.0514     28.3809
  1424.0000      7.9059      2.6577      0.1038     -0.4661    100.6932     28.6384
  1424.1000      7.9059      2.6872      0.0947     -2.2555    100.5029     28.1183
  1424.2000      7.9059      2.7249      0.1009     -4.5375     98.9419     27.4332
  1424.3000      7.9131      2.7610      0.1109     -6.7291     96.4419     26.9808
  1424.4000      7.9131      2.7878      0.1233     -8.3535     94.7034     26.8989
  1424.5000      7.9127      2.8035      0.1317     -9.3007     91.8757     27.3740
  1424.6000      7.9127      2.8042      0.1676     -9.3470     86.5844     28.0453
  1424.7000      7.9127      2.8024      0.0706     -9.2374     81.5913     28.1132
  1424.8000      7.9085      2.8296      0.0757    -10.8854     79.7389     27.6667
  1424.9000      7.9085      2.8979      0.0864    -15.0253     79.0263     27.2238
  1425.0000      7.8934      2.9915      0.1605    -20.6987     75.8809     26.6368
  1425.1000      7.8934      3.0798      0.2063    -26.0468     71.5001     25.7447
  1425.2000      7.8934      3.1331      0.2448    -29.2768     69.7753     25.3901
  1425.3000      7.8675      3.1447      0.2458    -29.9848     71.4935     25.9160
  1425.4000      7.8675      3.1264      0.2231    -28.8735     72.0614     26.2876
  1425.5000      7.8483      3.0825      0.1593    -26.2130     67.4843     26.0129
  1425.6000      7.8483      3.0143      0.0664    -22.0805     63.3868     25.5647
  1425.7000      7.8483      2.9321     -0.0143    -17.0955     64.4309     25.2430
  1425.8000      7.8404      2.8469     -0.0611    -11.9310     68.6843     24.8342
  1425.9000      7.8404      2.7781     -0.1129     -7.7660     75.2985     24.0651
  1426.0000      7.8373      2.7451     -0.0402     -5.7644     82.2568     23.2472
  1426.1000      7.8373      2.7298      0.0867     -4.8374     87.0200     23.3860
  1426.2000      7.8373      2.7019      0.0806     -3.1455     91.1992     24.8442
  1426.3000      7.8386      2.6623      0.1145     -0.7466     94.2115     26.6463
  1426.4000      7.8386      2.6245      0.0867      1.5476     93.7922     27.6503
  1426.5000      7.8410      2.5981      0.0720      3.1430     92.4093     27.6547
  1426.6000      7.8410      2.5898      0.0753      3.6486     93.4101     26.9243
  1426.7000      7.8410      2.5982      0.0752      3.1419     97.5559     25.9847
  1426.8000      7.8404      2.6126      0.0718      2.2687    100.6065     25.7322
  1426.9000      7.8404      2.6197      0.0784      1.8390    100.4705     26.4280
  1427.0000      7.8491      2.6152      0.1066      2.1069    101.3329     27.1068
  1427.1000      7.8491      2.6036      0.1013      2.8127    104.7583     26.8186
  1427.2000      7.8491      2.5894      0.0704      3.6738    109.8374     25.9895
  1427.3000      7.8766      2.5779      0.0960      4.3681    113.9517     25.5380
  1427.4000      7.8766      2.5762      0.0381      4.4716    113.8523     25.4382
  1427.5000      7.9118      2.5844      0.0455      3.9756    111.7640     25.0733
  1427.6000      7.9118      2.5915      0.0188      3.5474    109.4532     24.4081
