~Version Information
VERS.                      2.0: CWLS Log ASCII Standard - VERSION 2.0
WRAP.                       NO: One line per depth step
~Well Information Block
STRT.FT               732.2500: 
STOP.FT              2476.0000: 
STEP.FT                 0.2500: 
NULL.                -999.2500: 
COMP.          Petrogulf Corporation: COMPANY
WELL.            Montoya 7-14V: WELL
FLD.           Purgatorie River: FIELD
LOC.           535' FSL & 491' FWL: LOCATION
CNTY.               Las Animas: COUNTY
SRVC.                         : SERVICE COMPANY
DATE.          Mon Aug 23 05:51:43 2004: LOG DATE
UWI.           05 071 08019 00: UNIQUE WELL ID
STAT.                 Colorado: STATE
~Curve Information Block
DEPT.FT            0 000 00 00: Depth
SP.mV                         : DIL Spontaneous Potential
RILD.Ohm-m                    : DIL Deep Resistivity
RILM.Ohm-m                    : DIL Medium Resistivity
RLL3.Ohm-m                    : DIL Shallow Resistivity
GR.GAPI                       : Gamma Ray
~Parameter Information Block
~A  Depth        SP         RILD        RILM        RLL3         GR     
# ...
  1544.2500    -34.3357     39.0313     39.3360     43.6525     71.2650
  1544.5000    -34.2036     40.5564     39.3680     43.2429     74.9789
  1544.7500    -34.2360     42.3043     39.5249     42.8169     78.0349
  1545.0000    -34.4327     44.1503     39.7639     42.4165     81.3862
  1545.2500    -34.7074     45.9146     40.0526     42.0705     81.9555
  1545.5000    -34.9150     47.3732     40.3790     41.8061     80.5476
  1545.7500    -34.8951     48.3090     40.7525     41.6628     78.7814
  1546.0000    -34.5216     48.5841     41.1965     41.6955     75.7447
  1546.2500    -33.7415     48.2008     41.7332     41.9628     73.7473
  1546.5000    -32.5939     47.2940     42.3653     42.5044     71.3891
  1546.7500    -31.2092     46.0629     43.0622     43.3189     70.4990
  1547.0000    -29.7805     44.6974     43.7526     44.3555     69.9568
  1547.2500    -28.5182     43.3551     44.3339     45.5131     69.7211
  1547.5000    -27.5977     42.1740     44.6944     46.6437     69.1011
  1547.7500    -27.1210     41.3020     44.7474     47.5639     68.5518
  1548.0000    -27.0998     40.8932     44.4624     48.0920     67.8942
  1548.2500    -27.4635     41.0770     43.8704     48.1141     67.8413
  1548.5000    -28.0851     41.9093     43.0528     47.6387     68.7343
  1548.7500    -28.8223     43.3177     42.1099     46.7964     69.9405
  1549.0000    -29.5497     45.0543     41.1350     45.7703     71.8391
  1549.2500    -30.1885     46.6999     40.2016     44.7085     72.5133
  1549.5000    -30.7112     47.7742     39.3611     43.6793     72.1816
  1549.7500    -31.1316     47.9526     38.6474     42.6983     71.3249
  1550.0000    -31.4738     47.2310     38.0805     41.7905     69.8974
  1550.2500    -31.7416     45.8913     37.6665     41.0250     69.2659
  1550.5000    -31.8979     44.3174     37.3926     40.4930     69.2263
  1550.7500    -31.8658     42.8332     37.2290     40.2538     69.7981
  1551.0000    -31.5536     41.6447     37.1276     40.3001     71.1059
  1551.2500    -30.8918     40.8424     37.0340     40.5690     72.0162
  1551.5000    -29.8648     40.4206     36.9023     40.9774     73.3629
  1551.7500    -28.5236     40.2984     36.7113     41.4478     74.3273
  1552.0000    -26.9719     40.3516     36.4711     41.9129     75.9334
  1552.2500    -25.3398     40.4646     36.2188     42.3147     77.0933
  1552.5000    -23.7535     40.5698     36.0027     42.6159     78.8012
  1552.7500    -22.3154     40.6595     35.8628     42.8175     79.7066
  1553.0000    -21.1043     40.7551     35.8140     42.9628     80.3407
  1553.2500    -20.1836     40.8743     35.8390     43.1166     80.2034
  1553.5000    -19.6086     41.0209     35.8916     43.3283     79.2702
  1553.7500    -19.4277     41.2008     35.9136     43.6059     78.3566
  1554.0000    -19.6676     41.4398     35.8572     43.9121     77.0654
  1554.2500    -20.3131     41.7836     35.7089     44.1878     76.4536
  1554.5000    -21.2945     42.2718     35.4994     44.3858     75.5814
  1554.7500    -22.4891     42.9035     35.2958     44.5008     74.6498
  1555.0000    -23.7437     43.6068     35.1776     44.5715     72.8149
  1555.2500    -24.9088     44.2197     35.2130     44.6605     71.9444
  1555.5000    -25.8726     44.5202     35.4350     44.8213     72.1713
  1555.7500    -26.5887     44.3139     35.8332     45.0744     73.1925
  1556.0000    -27.0741     43.5556     36.3514     45.3982     74.6693
  1556.2500    -27.3956     42.4076     36.8998     45.7337     74.9377
  1556.5000    -27.6343     41.1719     37.3763     46.0051     74.3179
  1556.7500    -27.8525     40.1390     37.6941     46.1483     73.7465
  1557.0000    -28.0699     39.4701     37.8067     46.1392     73.3231
  1557.2500    -28.2662     39.1636     37.7183     46.0090     73.3803
  1557.5000    -28.3987     39.1000     37.4742     45.8439     73.9729
  1557.7500    -28.4377     39.1343     37.1443     45.7612     74.8782
  1558.0000    -28.3931     39.1900     36.7996     45.8623     77.2706
  1558.2500    -28.3263     39.2954     36.5001     46.1744     79.3303
  1558.5000    -28.3358     39.5448     36.2889     46.6232     81.9385
  1558.7500    -28.5261     40.0160     36.1923     47.0706     82.6324
  1559.0000    -28.9698     40.7040     36.2193     47.4072     81.8240
  1559.2500    -29.6779     41.4962     36.3664     47.6281     80.5599
  1559.5000    -30.5903     42.2066     36.6162     47.8340     78.7259
  1559.7500    -31.5868     42.6597     36.9417     48.1595     77.7810
  1560.0000    -32.5153     42.7794     37.3112     48.6844     76.2811
  1560.2500    -33.2259     42.6189     37.6965     49.3833     74.8427
  1560.5000    -33.6022     42.3126     38.0799     50.1272     71.9447
  1560.7500    -33.5802     41.9988     38.4613     50.7264     69.8104
  1561.0000    -33.1495     41.7813     38.8592     50.9986     67.0487
  1561.2500    -32.3493     41.7427     39.3043     50.8346     65.9557
  1561.5000    -31.2578     41.9721     39.8295     50.2301     66.0657
  1561.7500    -29.9860     42.5603     40.4583     49.2707     67.4685
  1562.0000    -28.6677     43.5604     41.1927     48.0910     71.5378
  1562.2500    -27.4445     44.9347     42.0098     46.8354     75.4718
  1562.5000    -26.4472     46.5237     42.8596     45.6282     82.8125
  1562.7500    -25.7697     48.0700     43.6751     44.5529     88.0555
  1563.0000    -25.4448     49.2961     44.3852     43.6522     94.6992
  1563.2500    -25.4384     50.0159     44.9323     42.9625     97.3428
  1563.5000    -25.6595     50.1942     45.2822     42.5585     98.1845
  1563.7500    -25.9958     49.9307     45.4349     42.5491     97.2798
  1564.0000    -26.3580     49.3771     45.4133     43.0030     95.4322
  1564.2500    -26.7139     48.6577     45.2564     43.8560     94.6553
  1564.5000    -27.0986     47.8565     45.0041     44.8895     94.8861
  1564.7500    -27.5934     47.0574     44.6940     45.8103     96.2792
  1565.0000    -28.2736     46.3995     44.3562     46.3810    100.6078
  1565.2500    -29.1594     46.0829     44.0140     46.5206    104.7160
  1565.5000    -30.1814     46.3074     43.6845     46.3282    110.9451
  1565.7500    -31.1930     47.1647     43.3771     46.0250    113.6866
  1566.0000    -32.0150     48.5341     43.0899     45.8512    113.6320
  1566.2500    -32.4931     50.0246     42.8153     45.9658    110.4877
  1566.5000    -32.5437     51.0352     42.5346     46.4031    102.6197
  1566.7500    -32.1658     51.0165     42.2208     47.1044     97.0211
  1567.0000    -31.4216     49.7757     41.8348     48.0025     90.6696
  1567.2500    -30.4034     47.5462     41.3234     49.1046     88.1354
  1567.5000    -29.2030     44.7579     40.6173     50.5088     85.4336
  1567.7500    -27.8973     41.7705     39.6384     52.3336     83.1591
  1568.0000    -26.5536     38.7888     38.3205     54.5914     78.0284
  1568.2500    -25.2371     35.9232     36.6395     57.0773     73.7849
  1568.5000    -24.0191     33.2710     34.6357     59.3332     67.5811
  1568.7500    -22.9797     30.9395     32.4163     60.7060     64.4007
  1569.0000    -22.1961     29.0202     30.1278     60.4915     62.4318
  1569.2500    -21.7341     27.5578     27.9177     58.1441     63.7758
  1569.5000    -21.6306     26.5361     25.9030     53.5090     70.7040
  1569.7500    -21.8820     25.8847     24.1567     46.9817     78.5420
  1570.0000    -22.4393     25.4860     22.7101     39.4859     93.6016
  1570.2500    -23.2168     25.1920     21.5630     32.2254    104.1096
  1570.5000    -24.1075     24.8516     20.6945     26.3006    116.9436
  1570.7500    -25.0033     24.3522     20.0717     22.3751    121.9193
  1571.0000    -25.8130     23.6590     19.6560     20.5459    123.5332
  1571.2500    -26.4713     22.8244     19.4072     20.4403    121.8209
  1571.5000    -26.9374     21.9550     19.2869     21.4424    117.8769
  1571.7500    -27.1936     21.1583     19.2612     22.9228    115.4877
  1572.0000    -27.2397     20.5060     19.3020     24.3963    112.7917
