~Version Information
VERS.                      2.0: CWLS Log ASCII Standard - VERSION 2.0
WRAP.                       NO: One line per depth step
~Well Information Block
STRT.FT               964.2000: 
STOP.FT              2596.7000: 
STEP.FT                 0.1000: 
NULL.                -999.2500: 
COMP.          Petrogulf Corporation: COMPANY
WELL.             Valejo 8-12V: WELL
FLD.           Purgatorie River: FIELD
LOC.           1510' FNL & 1460' FWL: LOCATION
CNTY.               Las Animas: COUNTY
SRVC.                         : SERVICE COMPANY
DATE.          Sat Nov 15 12:30:37 2003: LOG DATE
UWI.                          : UNIQUE WELL ID
STAT.                 Colorado: STATE
~Curve Information Block
DEPT.FT            0 000 00 00: Depth
DCAL.in                       : CDL Caliper
RHOB.g/cc                     : CDL Bulk Density
RHOC.g/cc                     : CDL Density Correction
DPOR.pu                       : CDL Density Porosity
GR.GAPI                       : Gamma Ray
NPOR.pu                       : Neutron Porosity
~Parameter Information Block
~A  Depth       DCAL        RHOB        RHOC        DPOR         GR         NPOR    
# ...
  1943.4000      9.3005      2.3244      0.0892     19.7338    134.3995     32.7378
  1943.5000      9.5378      2.2616      0.0493     23.5409    130.3058     32.8034
  1943.6000      9.5378      2.2033     -0.0235     27.0742    124.8176     32.8111
  1943.7000      9.5378      2.1640      0.0154     29.4565    116.6125     32.8187
  1943.8000      9.7446      2.1251      0.0530     31.8119    102.7137     33.5787
  1943.9000      9.7446      2.0715      0.0482     35.0625     89.7133     35.0165
  1944.0000      9.9053      2.0254      0.0083     37.8539     87.0071     36.0119
  1944.1000      9.9053      2.0046      0.1162     39.1175     95.4453     35.1479
  1944.2000      9.9053      1.9803      0.1879     40.5860    108.7712     32.7754
  1944.3000     10.0136      1.9325      0.1594     43.4829    118.6054     31.0221
  1944.4000     10.0136      1.8871      0.1973     46.2361    119.5542     31.1243
  1944.5000     10.0690      1.8595      0.2606     47.9113    114.0362     32.7292
  1944.6000     10.0690      1.8379      0.2336     49.2192    109.9480     34.3529
  1944.7000     10.0690      1.8297      0.2154     49.7136    109.7328     34.3477
  1944.8000     10.0711      1.8589      0.2401     47.9469    110.9529     32.6229
  1944.9000     10.0711      1.9308      0.2732     43.5876    111.3405     31.3644
  1945.0000     10.0110      2.0299      0.3148     37.5825    109.6024     31.8805
  1945.1000     10.0110      2.1279      0.3432     31.6409    108.8489     33.2816
  1945.2000     10.0110      2.1934      0.3702     27.6704    111.2787     34.7111
  1945.3000      9.8697      2.2179      0.3254     26.1854    113.5033     36.3137
  1945.4000      9.8697      2.2288      0.2563     25.5297    110.3319     37.9277
  1945.5000      9.6334      2.2512      0.2349     24.1722    104.2988     38.2773
  1945.6000      9.6334      2.2728      0.2099     22.8588    100.3089     36.2577
  1945.7000      9.6334      2.2737      0.1281     22.8065     98.7892     33.4731
  1945.8000      9.3178      2.2509      0.1446     24.1899     99.8856     32.2565
  1945.9000      9.3178      2.2039      0.0943     27.0352    102.2385     32.2691
  1946.0000      8.9748      2.1474      0.0088     30.4592    101.7956     32.5329
  1946.1000      8.9748      2.1081      0.0701     32.8423     96.7584     33.0368
  1946.2000      8.9748      2.0920      0.0860     33.8181     87.5314     33.3964
  1946.3000      8.6701      2.0896      0.0816     33.9652     80.1817     33.3127
  1946.4000      8.6701      2.0938      0.0640     33.7101     84.4840     33.5266
  1946.5000      8.4487      2.1032      0.0536     33.1392     98.1793     34.3250
  1946.6000      8.4487      2.1237      0.0761     31.8999    110.1612     34.4879
  1946.7000      8.4487      2.1560      0.0880     29.9407    115.2990     33.7273
  1946.8000      8.3181      2.1897      0.1072     27.8970    114.4295     33.0275
  1946.9000      8.3181      2.2201      0.0580     26.0561    114.4963     32.0996
  1947.0000      8.2575      2.2568      0.0546     23.8331    121.7955     30.4421
  1947.1000      8.2575      2.3026      0.0840     21.0529    129.1712     28.9607
  1947.2000      8.2575      2.3441      0.1115     18.5412    128.2246     28.5504
  1947.3000      8.2381      2.3718      0.0599     16.8588    124.8077     29.3441
  1947.4000      8.2381      2.3905      0.0837     15.7297    126.1852     30.6061
  1947.5000      8.2365      2.4025      0.1301     15.0007    132.6684     30.9228
  1947.6000      8.2365      2.4068      0.1272     14.7375    145.5977     30.1996
  1947.7000      8.2365      2.4092      0.1217     14.5954    156.3933     29.1108
  1947.8000      8.2394      2.4114      0.1021     14.4613    152.3967     28.0162
  1947.9000      8.2394      2.4119      0.0460     14.4273    141.0887     27.2921
  1948.0000      8.2412      2.4210      0.0295     13.8769    134.7065     27.1330
  1948.1000      8.2412      2.4441      0.0651     12.4771    131.6070     27.1132
  1948.2000      8.2412      2.4691      0.0830     10.9611    127.8015     26.3985
  1948.3000      8.2413      2.4837      0.0842     10.0810    122.7962     25.0460
  1948.4000      8.2413      2.4843      0.0952     10.0404    116.9233     23.8582
  1948.5000      8.2406      2.4766      0.0597     10.5068    112.0730     23.7126
  1948.6000      8.2406      2.4730      0.0716     10.7280    110.2125     24.9301
  1948.7000      8.2406      2.4811      0.0573     10.2380    112.8712     26.8823
  1948.8000      8.2402      2.4978      0.1138      9.2217    116.9430     28.1833
  1948.9000      8.2402      2.5133      0.1230      8.2838    117.5937     27.0286
  1949.0000      8.2401      2.5235      0.0928      7.6644    115.7514     24.2325
  1949.1000      8.2401      2.5315      0.1012      7.1797    112.1287     22.5364
  1949.2000      8.2401      2.5367      0.1185      6.8675    106.4226     22.1976
  1949.3000      8.2401      2.5351      0.0823      6.9666    102.1328     21.9126
  1949.4000      8.2401      2.5240      0.0771      7.6376    102.0274     21.6134
  1949.5000      8.2399      2.5111      0.0158      8.4182    106.3963     21.9247
  1949.6000      8.2399      2.5125      0.0443      8.3329    113.2220     23.6608
  1949.7000      8.2399      2.5300      0.0398      7.2710    120.0138     26.1722
  1949.8000      8.2398      2.5498      0.0818      6.0726    122.1072     26.6267
  1949.9000      8.2398      2.5621      0.0475      5.3247    116.2651     24.8846
  1950.0000      8.2404      2.5700      0.0803      4.8478    108.5817     23.4779
  1950.1000      8.2404      2.5811      0.0728      4.1758    106.1870     22.8637
  1950.2000      8.2404      2.6050      0.0875      2.7251    107.9820     22.9805
  1950.3000      8.2420      2.6360      0.1144      0.8490    109.5784     23.7649
  1950.4000      8.2420      2.6505      0.1784     -0.0323    110.2180     23.5138
  1950.5000      8.2447      2.6384      0.1608      0.7023    110.5690     21.5899
  1950.6000      8.2447      2.6142      0.1046      2.1683    111.5135     20.1112
  1950.7000      8.2447      2.5948      0.0889      3.3475    112.8373     20.1511
  1950.8000      8.2482      2.5874      0.0444      3.7968    113.1151     20.4749
  1950.9000      8.2482      2.5932      0.0772      3.4424    109.8096     20.5852
  1951.0000      8.2516      2.5996      0.0911      3.0556    100.7967     20.3959
  1951.1000      8.2516      2.5947      0.0661      3.3513     92.2532     19.8595
  1951.2000      8.2516      2.5886      0.0175      3.7206     92.3837     19.3673
  1951.3000      8.2540      2.5886      0.0408      3.7191     97.5655     18.3838
  1951.4000      8.2540      2.5882      0.0295      3.7479    101.6672     16.8282
  1951.5000      8.2550      2.5971      0.0256      3.2077    103.5439     16.0680
  1951.6000      8.2550      2.6174      0.0779      1.9743    104.2530     16.7923
  1951.7000      8.2550      2.6206      0.1027      1.7848    107.8362     18.4657
  1951.8000      8.2552      2.6011      0.0055      2.9612    111.1486     19.9339
  1951.9000      8.2552      2.5871      0.0527      3.8136    108.4160     21.0725
  1952.0000      8.2554      2.5839      0.0703      4.0056    104.4438     22.7475
  1952.1000      8.2554      2.5805      0.0359      4.2140    106.0238     24.4069
  1952.2000      8.2554      2.5792      0.0411      4.2897    112.8282     25.2601
  1952.3000      8.2559      2.5790      0.0699      4.3012    119.4263     25.7660
  1952.4000      8.2559      2.5656      0.0471      5.1156    123.3958     25.6292
  1952.5000      8.2565      2.5408      0.0211      6.6191    125.4382     24.2655
  1952.6000      8.2565      2.5259      0.0013      7.5184    125.4551     22.7837
  1952.7000      8.2565      2.5258      0.0385      7.5257    126.6583     22.6902
  1952.8000      8.2569      2.5267      0.0221      7.4748    131.7406     23.5360
  1952.9000      8.2569      2.5225      0.0256      7.7277    133.3079     24.1715
