~Version Information
VERS.                      2.0: CWLS Log ASCII Standard - VERSION 2.0
WRAP.                       NO: One line per depth step
~Well Information Block
STRT.FT                -6.7500: 
STOP.FT              2058.2500: 
STEP.FT                 0.2500: 
NULL.                -999.2500: 
COMP.          Petrogulf Corporation: COMPANY
WELL.           Schedler 9-23R: WELL
FLD.           Purgatorie River: FIELD
LOC.           2084' FSL & 2331' FWL--: LOCATION
PROV.                       CO: PROVINCE
CNTY.               Las Animas: COUNTRY
SRVC.                         : SERVICE COMPANY
DATE.          Fri Nov 12 13:22:46 2004: LOG DATE
UWI.       005 071 08040 : UNIQUE WELL ID
~Curve Information Block
DEPT.FT            0 000 00 00: Depth
GR.GAPI                       : Gamma Ray
CCL.                          : Casing Collar Locator
TT3.usec                      : CBL 3' Travel Time
AMP3.mV                       : CBL 3' Amplitude
~Parameter Information Block
~A  Depth        GR         CCL         TT3         AMP3    
# ...
  1366.7500    119.7574      0.0000    737.4996      7.5691
  1367.0000    118.8837      0.0000    744.5547      7.5565
  1367.2500    117.1262      0.0000    748.5989      7.4997
  1367.5000    116.4990      0.0000    749.4737      7.4112
  1367.7500    118.0296      0.0000    746.7944      7.3068
  1368.0000    121.3978      0.0000    738.7726      7.2035
  1368.2500    126.0204      0.0000    723.0175      7.1164
  1368.5000    131.5373      0.0000    699.1596      7.0516
  1368.7500    137.4178      0.0000    671.1161      7.0019
  1369.0000    142.8190      0.0000    646.2460      6.9578
  1369.2500    147.0723      0.0000    631.6276      6.9261
  1369.5000    150.2797      0.0000    630.7983      6.9284
  1369.7500    153.2312      0.0000    642.9144      6.9780
  1370.0000    156.4194      0.0000    663.4028      7.0605
  1370.2500    159.3147      0.0000    685.3076      7.1361
  1370.5000    161.0562      0.0000    701.7479      7.1584
  1370.7500    161.5781      0.0000    708.9167      7.0940
  1371.0000    161.4517      0.0000    707.6605      6.9368
  1371.2500    160.8492      0.0000    702.4688      6.7082
  1371.5000    159.3042      0.0000    698.6631      6.4387
  1371.7500    156.4394      0.0000    699.7589      6.1535
  1372.0000    152.4736      0.0000    706.4918      5.8824
  1372.2500    147.8514      0.0000    717.2484      5.6728
  1372.5000    142.7520      0.0000    729.0505      5.5696
  1372.7500    137.5732      0.0000    738.9686      5.5776
  1373.0000    134.0531      0.0000    745.4980      5.6577
  1373.2500    134.9587      0.0000    748.7411      5.7644
  1373.5000    141.6621      0.0000    749.2887      5.8816
  1373.7500    152.0096      0.0000    747.0922      6.0237
  1374.0000    161.0081      0.0000    741.4714      6.2062
  1374.2500    163.7962      0.0000    732.1034      6.4183
  1374.5000    158.5496      0.0000    720.0331      6.6236
  1374.7500    147.3833      0.0000    707.7514      6.7941
  1375.0000    134.5598      0.0000    698.1154      6.9603
  1375.2500    123.3784      0.0000    692.9268      7.2281
  1375.5000    114.4451      0.0000    692.0414      7.7269
  1375.7500    106.6152      0.0000    693.2997      8.5118
  1376.0000     99.3803      0.0000    692.6998      9.5155
  1376.2500     94.2663      0.0000    685.6096     10.6071
  1376.5000     93.7131      0.0000    670.7988     11.6831
  1376.7500     98.5210      0.0000    654.9874     12.6910
  1377.0000    106.7786      0.0000    650.2842     13.6213
  1377.2500    115.4740      0.0000    662.9349     14.5181
  1377.5000    122.7688      0.0000    685.8027     15.4336
  1377.7500    128.6162      0.0000    705.4728     16.3156
  1378.0000    133.8255     -1.7920    715.5538     16.9775
  1378.2500    139.0053      0.0000    720.0588     17.2080
  1378.5000    144.0426      0.0000    725.0684     16.8805
  1378.7500    148.0069      0.0000    730.1462     15.9946
  1379.0000    149.7148      0.0000    727.8892     14.7017
  1379.2500    148.9169      0.0000    710.8442     13.3015
  1379.5000    146.7541      0.0000    680.0693     12.1254
  1379.7500    144.4753      0.0000    648.0193     11.3459
  1380.0000    141.9969      0.0000    630.8675     10.8928
  1380.2500    138.6178      0.0000    636.0892     10.5547
  1380.5000    134.9078      0.0000    658.1324     10.1607
  1380.7500    132.5965      0.0000    685.5632      9.6902
  1381.0000    132.5374      0.0000    709.7202      9.2499
  1381.2500    133.9089      0.0000    727.1258      8.9575
  1381.5000    135.4515      0.0000    737.7612      8.8454
  1381.7500    136.5568      0.0000    743.2629      8.8574
  1382.0000    137.2191      0.0000    745.8039      8.9110
  1382.2500    137.6554      0.0000    747.3572      8.9506
  1382.5000    137.9571      0.0000    749.2931      8.9574
  1382.7500    137.6415      0.0000    752.0810      8.9382
  1383.0000    135.5835      0.0000    755.0252      8.9105
  1383.2500    130.6663      0.0000    756.7156      8.8940
  1383.5000    122.6275      0.0000    756.2759      8.9038
  1383.7500    112.5118      0.0000    754.2136      8.9447
  1384.0000    102.3665      0.0000    751.8467      9.0087
  1384.2500     94.2920      0.0000    750.0564      9.0843
  1384.5000     89.5201      0.0000    748.7418      9.1762
  1384.7500     88.0527      0.0000    747.2391      9.3104
  1385.0000     88.9349      0.0000    745.0880      9.4990
  1385.2500     91.1575      0.0000    742.4738      9.6893
  1385.5000     94.5331      0.0000    740.0596      9.7675
  1385.7500     99.2969      0.0000    738.7963      9.6474
  1386.0000    104.7990      0.0000    740.7577      9.3686
  1386.2500    109.3494      0.0000    749.9705      9.1017
  1386.5000    111.6572      0.0000    770.3110      9.0397
  1386.7500    111.7241      0.0000    800.4410      9.2693
  1387.0000    110.3812      0.0000    831.4520      9.7281
  1387.2500    108.9786      0.0000    851.8064     10.2683
  1387.5000    109.7245      0.0000    855.5009     10.7518
  1387.7500    115.1557      0.0000    844.8911     11.1022
  1388.0000    126.1462      0.0000    826.4940     11.3014
  1388.2500    140.3728      0.0000    806.0462     11.3752
  1388.5000    153.1740      0.0000    787.0939     11.3877
  1388.7500    160.2928      0.0000    771.3953     11.4175
  1389.0000    160.3987      0.0000    759.1017     11.5037
  1389.2500    155.6368      0.0000    749.3439     11.6004
  1389.5000    149.7665      0.0000    741.6444     11.5909
  1389.7500    145.3289      0.0000    736.7200     11.3617
  1390.0000    142.2864      0.0000    735.4761     10.8822
  1390.2500    138.9396      0.0000    737.2846     10.2328
  1390.5000    133.7055      0.0000    739.8997      9.5634
  1390.7500    126.3301      0.0000    741.2831      9.0225
  1391.0000    118.0666      0.0000    741.2578      8.7036
  1391.2500    110.8427      0.0000    741.1611      8.6275
  1391.5000    106.0136      0.0000    742.1403      8.7535
  1391.7500    103.6171      0.0000    744.0556      9.0046
  1392.0000    102.5138      0.0000    745.9504      9.2915
  1392.2500    101.2139      0.0000    747.1501      9.5367
  1392.5000     98.7953      0.0000    747.7702      9.6984
  1392.7500     95.1104      0.0000    748.5536      9.7845
  1393.0000     90.3725      0.0000    750.4857      9.8420
  1393.2500     84.9789      0.0000    754.1426      9.9248
  1393.5000     79.6520      0.0000    758.7878     10.0579
  1393.7500     75.3761      0.0000    762.2112     10.2187
  1394.0000     73.2478      0.0000    762.2193     10.3417
  1394.2500     74.3173      0.0000    758.5739     10.3492
  1394.5000     78.9149      0.0000    753.0258     10.1953
  1394.7500     85.7896      0.0000    747.2430      9.8965
  1395.0000     92.2500      0.0000    740.9944      9.5188
  1395.2500     95.5969      0.0000    732.4578      9.1343
  1395.5000     94.6799      0.0000    720.2161      8.7865
  1395.7500     90.4066      0.0000    705.0963      8.4897
  1396.0000     84.9170      0.0000    690.1915      8.2423
  1396.2500     80.2030      0.0000    679.0734      8.0320
  1396.5000     77.3706      0.0000    673.9025      7.8392
  1396.7500     76.7997      0.0000    674.8112      7.6539
  1397.0000     78.2833      0.0000    680.2726      7.4984
  1397.2500     80.8082      0.0000    687.7681      7.4258
  1397.5000     82.9073      0.0000    694.7542      7.4831
  1397.7500     83.9701      0.0000    699.6730      7.6668
  1398.0000     85.2017      0.0000    702.1903      7.9159
  1398.2500     88.8654      0.0000    702.4850      8.1541
  1398.5000     96.1972      0.0000    700.5164      8.3430
  1398.7500    106.0534      0.0000    696.2631      8.4908
  1399.0000    115.6925      0.0000    690.8915      8.6120
  1399.2500    122.8521      0.0000    687.6765      8.6933
  1399.5000    127.0822      0.0000    691.1166      8.7058
  1399.7500    129.5659      0.0000    704.2083      8.6380
  1400.0000    132.2639      0.0000    725.8081      8.5012
