~Version Information
VERS.                      2.0: CWLS Log ASCII Standard - VERSION 2.0
WRAP.                       NO: One line per depth step
~Well Information Block
STRT.FT               472.0000: 
STOP.FT              2428.5000: 
STEP.FT                 0.1000: 
NULL.                -999.2500: 
COMP.          Pioneer Natural Resources: COMPANY
WELL.          Flying Horse 12-11: WELL
FLD.           Purgatoire River: FIELD
LOC.           2428' FNL & 308' FWL: LOCATION
PROV.                 Colorado: PROVINCE
CNTY.               Las Animas: COUNTRY
SRVC.                Patterson: SERVICE COMPANY
DATE.          Mon May 30 06:06:20 2005: LOG DATE
UWI.           05 071 08378 00: UNIQUE WELL ID
~Curve Information Block
DEPT.FT            0 000 00 00: Depth
DCAL.in                       : CDL Caliper
RHOB.g/cc                     : CDL Bulk Density
RHOC.g/cc                     : CDL Density Correction
DPOR.pu                       : CDL Density Porosity
GR.GAPI                       : Gamma Ray
NPOR.pu                       : Neutron Porosity
~Parameter Information Block
~A  Depth       DCAL        RHOB        RHOC        DPOR         GR         NPOR    
# ...
  1633.6000      8.5413      2.2181      0.1870     26.1767    126.0809     33.1515
  1633.7000      8.5413      2.2078      0.0567     26.8004    131.3598     33.0911
  1633.8000      8.7546      2.2368      0.1230     25.0450    137.8505     32.8456
  1633.9000      8.7546      2.2906      0.1704     21.7800    144.7848     32.8801
  1634.0000      8.3677      2.3246      0.2144     19.7183    152.8639     33.0737
  1634.1000      8.3677      2.3077      0.2522     20.7460    158.9367     33.3777
  1634.2000      8.3677      2.2410      0.2519     24.7857    157.9429     34.0984
  1634.3000      8.1958      2.1322      0.2402     31.3830    149.8610     34.6198
  1634.4000      8.1958      1.9738      0.1985     40.9825    139.7394     33.8937
  1634.5000      8.4390      1.7714      0.0946     53.2479    132.5437     32.3480
  1634.6000      8.4390      1.5601      0.0159     66.0550    128.4365     32.1311
  1634.7000      8.4390      1.3729     -0.0340     77.4024    126.0150     33.7665
  1634.8000      8.7285      1.2333     -0.0851     85.8603    126.3868     35.2223
  1634.9000      8.7285      1.1650     -0.0606     90.0006    126.6448     35.4739
  1635.0000      9.3302      1.1724     -0.0443     89.5509    124.5290     35.0960
  1635.1000      9.3302      1.2392      0.0182     85.5024    122.4512     34.7388
  1635.2000      9.3302      1.3538      0.0366     78.5551    120.7955     34.5953
  1635.3000      9.8027      1.5197      0.1059     68.5043    122.0525     34.3967
  1635.4000      9.8027      1.7253      0.1784     56.0428    127.7104     34.2727
  1635.5000     10.1053      1.9214      0.2484     44.1547    131.7695     34.4656
  1635.6000     10.1053      2.0565      0.2849     35.9701    129.7679     34.5943
  1635.7000     10.1053      2.1142      0.2886     32.4698    125.2482     34.3071
  1635.8000     10.1168      2.1030      0.3071     33.1533    123.2859     34.0718
  1635.9000     10.1168      2.0369      0.2627     37.1592    123.2366     34.4920
  1636.0000     10.2930      1.9332      0.2165     43.4449    123.8521     34.8884
  1636.1000     10.2930      1.8172      0.0793     50.4751    125.4713     34.5808
  1636.2000     10.2930      1.7242     -0.0961     56.1121    125.1031     34.2422
  1636.3000     10.0984      1.6733     -0.0575     59.1924    121.6454     34.4261
  1636.4000     10.0984      1.6646     -0.1076     59.7188    119.5694     34.6402
  1636.5000      8.3852      1.7096     -0.0401     56.9937    119.9184     34.3140
  1636.6000      8.3852      1.8183      0.0606     50.4063    121.6215     33.7107
  1636.7000      8.3852      1.9743      0.1911     40.9539    122.0110     33.3223
  1636.8000      8.0854      2.1336      0.2636     31.2980    117.6899     33.4738
  1636.9000      8.0854      2.2469      0.2758     24.4315    113.4846     33.8220
  1637.0000      8.0501      2.3031      0.1734     21.0233    115.2370     33.9019
  1637.1000      8.0501      2.3333      0.1518     19.1957    121.7178     34.1648
  1637.2000      8.0501      2.3629      0.1216     17.3996    127.9546     34.5346
  1637.3000      8.0577      2.3903      0.1383     15.7422    131.9151     34.2682
  1637.4000      8.0577      2.4010      0.0749     15.0918    135.1027     33.2986
  1637.5000      8.0648      2.3781      0.0839     16.4799    135.6821     32.1838
  1637.6000      8.0648      2.3131      0.0433     20.4208    133.6793     31.1018
  1637.7000      8.0648      2.2338     -0.0526     25.2271    132.1281     29.8888
  1637.8000      8.0330      2.1765      0.0507     28.6968    131.9044     29.1977
  1637.9000      8.0330      2.1361      0.0466     31.1476    135.1771     29.6465
  1638.0000      8.0280      2.1001      0.0017     33.3253    139.8109     30.7881
  1638.1000      8.0280      2.0818      0.0153     34.4367    138.7074     31.9390
  1638.2000      8.0280      2.0864      0.0591     34.1563    131.8444     32.6495
  1638.3000      8.0174      2.1008      0.0816     33.2849    124.0654     32.4678
  1638.4000      8.0174      2.1282      0.0758     31.6262    118.4065     31.7101
  1638.5000      8.0168      2.1831      0.1213     28.2967    117.6269     31.3909
  1638.6000      8.0168      2.2561      0.2085     23.8717    119.0420     31.9266
  1638.7000      8.0168      2.3290      0.1677     19.4536    117.4182     32.3564
  1638.8000      8.0190      2.3999      0.1489     15.1579    114.1057     31.8875
  1638.9000      8.0190      2.4718      0.0801     10.7993    110.9320     30.8828
  1639.0000      8.0409      2.5417      0.1310      6.5617    108.6350     29.8360
  1639.1000      8.0409      2.5970      0.0813      3.2096    109.4386     29.1233
  1639.2000      8.0409      2.6192      0.0803      1.8660    113.4632     28.9044
  1639.3000      8.0405      2.6037      0.0645      2.8077    118.0929     28.5507
  1639.4000      8.0405      2.5784      0.0266      4.3406    121.3190     27.6009
  1639.5000      8.0127      2.5691      0.0617      4.9014    120.8344     26.9043
  1639.6000      8.0127      2.5650      0.0413      5.1545    116.7129     27.1714
  1639.7000      8.0127      2.5545      0.0010      5.7853    113.2800     27.8715
  1639.8000      8.0189      2.5541     -0.0343      5.8121    111.8117     28.6171
  1639.9000      8.0189      2.5734      0.0471      4.6408    114.0131     29.6240
  1640.0000      8.0300      2.5965     -0.0075      3.2397    118.9262     30.0935
  1640.1000      8.0300      2.6097      0.0283      2.4418    119.7881     29.1992
  1640.2000      8.0300      2.6123      0.0412      2.2871    119.1227     27.9910
  1640.3000      8.0358      2.6043      0.0422      2.7718    122.7698     27.5490
  1640.4000      8.0358      2.5846     -0.0050      3.9616    125.1136     27.4379
  1640.5000      8.0412      2.5661     -0.0301      5.0819    122.7978     27.1913
  1640.6000      8.0412      2.5665     -0.0505      5.0613    122.7827     27.3395
  1640.7000      8.0412      2.5784      0.0271      4.3365    127.3079     28.0814
  1640.8000      8.0361      2.5882     -0.0097      3.7454    131.5366     28.7167
  1640.9000      8.0361      2.5960      0.0233      3.2736    135.6725     28.6504
  1641.0000      8.0292      2.5918     -0.0025      3.5288    139.2721     28.1840
  1641.1000      8.0292      2.5756     -0.0170      4.5078    138.2549     27.8749
  1641.2000      8.0292      2.5682      0.0162      4.9559    135.6719     27.7110
  1641.3000      8.0243      2.5713      0.0079      4.7711    133.6874     27.9652
  1641.4000      8.0243      2.5756      0.0165      4.5083    128.5358     29.0872
  1641.5000      8.0173      2.5849      0.0366      3.9461    120.6843     30.3815
  1641.6000      8.0173      2.5994      0.0217      3.0658    115.2782     31.1806
  1641.7000      8.0173      2.6017      0.0445      2.9281    114.4993     31.7129
  1641.8000      7.9894      2.5727      0.0221      4.6824    119.5710     31.3718
  1641.9000      7.9894      2.5276     -0.0346      7.4210    128.1552     29.5069
  1642.0000      7.9832      2.5060     -0.0333      8.7295    132.8627     27.3260
  1642.1000      7.9832      2.5218      0.0009      7.7682    133.1891     26.2347
  1642.2000      7.9832      2.5480      0.0762      6.1831    135.6277     26.1663
  1642.3000      7.9813      2.5565      0.0336      5.6692    141.3952     26.5430
  1642.4000      7.9813      2.5449      0.0619      6.3695    144.3357     27.4151
  1642.5000      7.9774      2.5201      0.0331      7.8733    141.2421     28.1415
  1642.6000      7.9774      2.5005     -0.0417      9.0591    137.2707     27.5971
  1642.7000      7.9774      2.5049     -0.0229      8.7909    135.8257     26.3907
  1642.8000      7.9848      2.5204      0.0189      7.8568    133.3286     25.9211
  1642.9000      7.9848      2.5229      0.0245      7.7016    129.7472     26.2259
  1643.0000      7.9989      2.5143     -0.0152      8.2231    129.2601     26.3803
  1643.1000      7.9989      2.5099     -0.0124      8.4920    131.0021     26.4445
