~Version Information
VERS.                      2.0: CWLS Log ASCII Standard - VERSION 2.0
WRAP.                       NO: One line per depth step
~Well Information Block
STRT.FT               650.0000: 
STOP.FT              1999.0000: 
STEP.FT                 0.2500: 
NULL.                -999.2500: 
COMP.          Pioneer Natural Resources: COMPANY
WELL.           Firehawk 34-26: WELL
FLD.           Purgatoire River: FIELD
LOC.           1196' FSL & 1595' FEL--: LOCATION
STAT.                 Colorado: State
CNTY.               Las Animas: COUNTY
CTRY. USA : Country
SECT. 26 : Section
TOWN. 32S : Township
RANG. 66W : Range
SRVC.                Patterson: SERVICE COMPANY
DATE.          Sun Oct 16 16:57:28 2005: LOG DATE
API.           05 071 08389 00: UNIQUE WELL ID
~Curve Information Block
DEPT.FT            0 000 00 00: Depth
SN.Ohm-m                      : IEL Short Normal
SP.mV                         : IEL Spontaneous Potential
DIR.Ohm-m                     : IEL Induction Resistivity
GR.GAPI                       : Gamma Ray
~Parameter Information Block
~A  Depth        SN          SP         DIR          GR     
# ...
  1521.0000     20.7735     23.2344     17.3052     93.2598
  1521.2500     20.4538     22.9908     17.3536     96.9217
  1521.5000     20.1752     22.7029     17.4327     98.5116
  1521.7500     19.9800     22.3641     17.5293     96.8498
  1522.0000     19.8748     21.9764     17.6290     91.7235
  1522.2500     19.8488     21.5552     17.7153     87.6329
  1522.5000     19.9028     21.1267     17.7705     81.3462
  1522.7500     20.0695     20.7434     17.7810     77.0075
  1523.0000     20.4048     20.5072     17.7428     70.4120
  1523.2500     20.9279     20.5526     17.6659     66.4747
  1523.5000     21.5759     20.9676     17.5716     62.2111
  1523.7500     22.2435     21.7009     17.4844     60.6249
  1524.0000     22.8291     22.5388     17.4237     59.9825
  1524.2500     23.2421     23.1872     17.3993     60.7971
  1524.5000     23.4221     23.4239     17.4100     64.3172
  1524.7500     23.3582     23.2251     17.4450     68.2400
  1525.0000     23.0590     22.7575     17.4866     75.8481
  1525.2500     22.5292     22.2371     17.5135     81.3873
  1525.5000     21.7924     21.7955     17.5053     88.9335
  1525.7500     20.9225     21.4644     17.4466     92.5705
  1526.0000     20.0344     21.2398     17.3312     95.0474
  1526.2500     19.2364     21.1194     17.1623     94.9362
  1526.5000     18.5840     21.0865     16.9502     93.6623
  1526.7500     18.0715     21.0943     16.7086     93.1521
  1527.0000     17.6588     21.0909     16.4534     94.2347
  1527.2500     17.3086     21.0547     16.2038     96.4693
  1527.5000     17.0068     20.9964     15.9803    101.5101
  1527.7500     16.7749     20.9279     15.8000    105.0364
  1528.0000     16.6652     20.8475     15.6724    108.4949
  1528.2500     16.7045     20.7590     15.5994    108.7495
  1528.5000     16.8368     20.6909     15.5806    106.2283
  1528.7500     16.9465     20.6862     15.6169    103.5946
  1529.0000     16.9429     20.7783     15.7087    100.2801
  1529.2500     16.8225     20.9812     15.8502     99.1944
  1529.5000     16.6610     21.2926     16.0249     98.9488
  1529.7500     16.5496     21.6910     16.2090     98.8980
  1530.0000     16.5489     22.1329     16.3791     97.6129
  1530.2500     16.6788     22.5610     16.5199     95.6866
  1530.5000     16.9157     22.9307     16.6226     92.0092
  1530.7500     17.2080     23.2380     16.6800     90.0178
  1531.0000     17.5071     23.5238     16.6802     89.2196
  1531.2500     17.7642     23.8425     16.6082     90.3389
  1531.5000     17.9174     24.2196     16.4524     93.4823
  1531.7500     17.9242     24.6387     16.2131     95.6996
  1532.0000     17.7855     25.0676     15.9038     98.6584
  1532.2500     17.5059     25.4849     15.5463    100.8344
  1532.5000     17.0652     25.8842     15.1618    105.4760
  1532.7500     16.4516     26.2664     14.7651    109.6355
  1533.0000     15.7091     26.6396     14.3656    116.7816
  1533.2500     14.9307     27.0188     13.9691    121.5147
  1533.5000     14.2008     27.4147     13.5794    127.4726
  1533.7500     13.5456     27.8162     13.1961    130.2680
  1534.0000     12.9494     28.1841     12.8146    132.7720
  1534.2500     12.4106     28.4673     12.4284    133.6029
  1534.5000     11.9576     28.6387     12.0350    133.5418
  1534.7500     11.6156     28.7192     11.6400    132.1972
  1535.0000     11.3779     28.7638     11.2564    127.9409
  1535.2500     11.2077     28.8229     10.8992    124.3614
  1535.5000     11.0603     28.9135     10.5810    120.4440
  1535.7500     10.9095     29.0211     10.3093    120.0578
  1536.0000     10.7628     29.1169     10.0882    122.8084
  1536.2500     10.6488     29.1780      9.9179    125.5631
  1536.5000     10.5849     29.2083      9.7949    128.4776
  1536.7500     10.5567     29.2437      9.7118    129.0368
  1537.0000     10.5295     29.3281      9.6586    128.8522
  1537.2500     10.4740     29.4779      9.6252    129.0118
  1537.5000     10.3842     29.6713      9.6032    130.3545
  1537.7500     10.2728     29.8711      9.5868    131.7284
  1538.0000     10.1497     30.0532      9.5733    133.7648
  1538.2500     10.0132     30.2172      9.5621    134.8757
  1538.5000      9.8617     30.3775      9.5542    136.2201
  1538.7500      9.7091     30.5472      9.5513    137.0127
  1539.0000      9.5880     30.7307      9.5550    138.0676
  1539.2500      9.5364     30.9271      9.5664    138.6145
  1539.5000      9.5786     31.1299      9.5862    138.9877
  1539.7500      9.7184     31.3151      9.6138    138.6731
  1540.0000      9.9349     31.4401      9.6466    136.8266
  1540.2500     10.1776     31.4699      9.6800    134.7285
  1540.5000     10.3880     31.4077      9.7098    131.4771
  1540.7500     10.5313     31.2949      9.7353    130.2180
  1541.0000     10.5972     31.1823      9.7608    130.2810
  1541.2500     10.5902     31.1020      9.7949    130.9384
  1541.5000     10.5381     31.0524      9.8479    131.2316
  1541.7500     10.4946     31.0004      9.9292    130.8199
  1542.0000     10.5095     30.9066     10.0450    130.4184
  1542.2500     10.5952     30.7569     10.1966    130.7161
  1542.5000     10.7292     30.5729     10.3797    131.0396
  1542.7500     10.8806     30.3887     10.5873    130.0874
  1543.0000     11.0285     30.2242     10.8135    126.2689
  1543.2500     11.1714     30.0826     11.0555    123.0157
  1543.5000     11.3399     29.9631     11.3124    119.4258
  1543.7500     11.5932     29.8639     11.5821    118.4895
  1544.0000     11.9841     29.7759     11.8611    118.0730
  1544.2500     12.5261     29.6861     12.1450    117.1065
  1544.5000     13.1837     29.5954     12.4278    113.0092
  1544.7500     13.8698     29.5299     12.6986    108.5302
  1545.0000     14.4642     29.5265     12.9397    100.8108
  1545.2500     14.8805     29.6068     13.1314     96.4962
  1545.5000     15.1178     29.7650     13.2620     93.7041
  1545.7500     15.2410     29.9823     13.3340     94.9633
  1546.0000     15.3075     30.2447     13.3604    100.7548
  1546.2500     15.3071     30.5362     13.3539    105.9577
  1546.5000     15.1780     30.8201     13.3168    113.5448
  1546.7500     14.8727     31.0393     13.2390    117.6077
  1547.0000     14.3995     31.1464     13.1060    121.4962
  1547.2500     13.8212     31.1291     12.9106    122.4633
  1547.5000     13.2212     31.0078     12.6604    121.7626
  1547.7500     12.6643     30.8157     12.3760    120.4827
  1548.0000     12.1904     30.5867     12.0820    118.7635
  1548.2500     11.8348     30.3598     11.7992    118.2946
  1548.5000     11.6324     30.1889     11.5419    118.6695
  1548.7500     11.5866     30.1374     11.3195    119.3954
  1549.0000     11.6419     30.2488     11.1388    120.8439
  1549.2500     11.7177     30.5080     11.0035    121.8818
  1549.5000     11.7661     30.8315     10.9136    122.9784
  1549.7500     11.7776     31.1054     10.8645    122.9410
  1550.0000     11.7594     31.2428     10.8488    121.4403
  1550.2500     11.7302     31.2145     10.8599    119.8953
  1550.5000     11.7128     31.0383     10.8945    118.0250
  1550.7500     11.7118     30.7562     10.9532    117.5718
  1551.0000     11.7111     30.4247     11.0392    117.8909
  1551.2500     11.7098     30.1053     11.1573    118.1571
  1551.5000     11.7460     29.8400     11.3133    117.4073
  1551.7500     11.8609     29.6341     11.5133    115.7634
  1552.0000     12.0522     29.4686     11.7609    112.1325
  1552.2500     12.2786     29.3310     12.0551    109.8738
  1552.5000     12.5011     29.2273     12.3897    108.2359
  1552.7500     12.7271     29.1712     12.7553    108.4539
  1553.0000     13.0119     29.1710     13.1439    109.7099
  1553.2500     13.4058     29.2237     13.5510    110.3564
  1553.5000     13.9091     29.3117     13.9746    109.9744
  1553.7500     14.4835     29.4010     14.4129    108.3902
  1554.0000     15.0878     29.4506     14.8611    103.7949
  1554.2500     15.7100     29.4370     15.3119     99.6892
