~Version Information
VERS.                      2.0: CWLS Log ASCII Standard - VERSION 2.0
WRAP.                       NO: One line per depth step
~Well Information Block
STRT.FT               430.0000: 
STOP.FT              1910.2000: 
STEP.FT                 0.1000: 
NULL.                -999.2500: 
COMP.          Pioneer Natural Resources: COMPANY
WELL.          Formula 23-11 Tr: WELL
FLD.           Purgatoire River: FIELD
LOC.           1976' FSL & 1935' FWL--: LOCATION
PROV.                 Colorado: PROVINCE
CNTY.               Las Animas: COUNTRY
SRVC.                Patterson: SERVICE COMPANY
DATE.          Mon Jun 13 07:32:15 2005: LOG DATE
UWI.           05 071 08399 00: UNIQUE WELL ID
~Curve Information Block
DEPT.FT            0 000 00 00: Depth
DCAL.in                       : CDL Caliper
RHOB.g/cc                     : CDL Bulk Density
RHOC.g/cc                     : CDL Density Correction
DPOR.pu                       : CDL Density Porosity
NPOR.pu                       : Neutron Porosity
GR.GAPI                       : Gamma Ray
~Parameter Information Block
~A  Depth       DCAL        RHOB        RHOC        DPOR        NPOR         GR     
# ...
  1495.6000      7.8971      2.6385      0.0431      0.6985     23.1760     76.2970
  1495.7000      7.8971      2.6349      0.0359      0.9140     23.5489     67.6589
  1495.8000      7.8963      2.6338      0.0206      0.9817     24.0504     59.0186
  1495.9000      7.8963      2.6212      0.0233      1.7483     24.1166     54.8419
  1496.0000      7.8951      2.5892      0.0131      3.6875     23.4645     53.0397
  1496.1000      7.8951      2.5493     -0.0147      6.1051     22.4989     53.8015
  1496.2000      7.8951      2.5270     -0.0187      7.4542     21.6418     58.5477
  1496.3000      7.8929      2.5282      0.0325      7.3790     21.0403     63.9073
  1496.4000      7.8929      2.5248      0.0591      7.5905     20.8637     67.6152
  1496.5000      7.8927      2.5029      0.0138      8.9126     21.0459     71.0636
  1496.6000      7.8927      2.4850      0.0409      9.9992     21.3812     74.2074
  1496.7000      7.8927      2.4795      0.0392     10.3309     21.7563     73.3485
  1496.8000      7.8941      2.4752      0.0316     10.5965     22.0400     66.1746
  1496.9000      7.8941      2.4740      0.0375     10.6653     22.3956     58.5348
  1497.0000      7.8940      2.4839      0.0270     10.0654     22.9024     57.4064
  1497.1000      7.8940      2.4969      0.0988      9.2806     23.1592     60.5125
  1497.2000      7.8940      2.5031      0.0463      8.9044     23.0960     63.1631
  1497.3000      7.8919      2.5038      0.0769      8.8576     23.0124     63.2616
  1497.4000      7.8919      2.4967      0.1087      9.2930     22.6772     57.4770
  1497.5000      7.8911      2.4837      0.0855     10.0778     21.9598     49.9833
  1497.6000      7.8911      2.4801      0.0748     10.2949     21.3504     48.0655
  1497.7000      7.8911      2.4863      0.1160      9.9199     20.9404     48.6459
  1497.8000      7.8916      2.4902      0.0769      9.6828     20.5869     47.6885
  1497.9000      7.8916      2.4900      0.0838      9.6994     20.3824     47.6854
  1498.0000      7.8932      2.4875      0.0492      9.8483     20.4248     48.1463
  1498.1000      7.8932      2.4821      0.0583     10.1729     20.7735     44.9616
  1498.2000      7.8932      2.4642      0.0653     11.2605     21.0214     39.8816
  1498.3000      7.8964      2.4316      0.0163     13.2336     20.6798     37.5319
  1498.4000      7.8964      2.4096      0.0067     14.5683     20.2106     37.5557
  1498.5000      7.8991      2.4184      0.0244     14.0388     20.1539     37.1770
  1498.6000      7.8991      2.4454      0.0607     12.3997     20.0891     37.0585
  1498.7000      7.8991      2.4682      0.0808     11.0153     19.7623     39.7901
  1498.8000      7.8980      2.4886      0.0650      9.7846     19.6503     45.3551
  1498.9000      7.8980      2.5174      0.0990      8.0348     19.6426     50.7186
  1499.0000      7.8955      2.5392      0.1576      6.7131     19.0967     53.2476
  1499.1000      7.8955      2.5359      0.1037      6.9179     17.8751     53.1172
  1499.2000      7.8955      2.5190      0.0981      7.9411     16.5989     51.4327
  1499.3000      7.8959      2.5045      0.0787      8.8178     16.0798     49.5332
  1499.4000      7.8959      2.4964      0.0822      9.3067     16.1535     48.2166
  1499.5000      7.8958      2.4998      0.0880      9.1034     16.0942     47.0056
  1499.6000      7.8958      2.5149      0.1122      8.1850     15.7509     46.0502
  1499.7000      7.8958      2.5257      0.1050      7.5327     15.5776     45.9986
  1499.8000      7.8937      2.5226      0.0678      7.7220     15.6246     47.1310
  1499.9000      7.8937      2.5219      0.0454      7.7652     15.4714     49.6855
  1500.0000      7.8929      2.5394      0.0700      6.7047     15.0701     51.8835
  1500.1000      7.8929      2.5635      0.1270      5.2412     14.6247     52.2408
  1500.2000      7.8929      2.5757      0.1101      4.5016     14.5705     52.1929
  1500.3000      7.8944      2.5836      0.0820      4.0254     14.8375     52.5743
  1500.4000      7.8944      2.6049      0.0743      2.7349     14.7890     50.7921
  1500.5000      7.8962      2.6291      0.1424      1.2642     14.4240     45.0240
  1500.6000      7.8962      2.6327      0.1278      1.0471     14.1078     40.7560
  1500.7000      7.8962      2.6191      0.1167      1.8751     13.9809     44.5609
  1500.8000      7.8960      2.6083      0.0852      2.5248     14.3159     52.7153
  1500.9000      7.8960      2.6070      0.0830      2.6084     15.2821     59.5026
  1501.0000      7.8956      2.5967      0.1153      3.2329     16.8708     65.1469
  1501.1000      7.8956      2.5618      0.0689      5.3470     19.0396     70.6093
  1501.2000      7.8956      2.5261      0.0233      7.5064     21.0246     76.5824
  1501.3000      7.8990      2.5162      0.0584      8.1094     22.1922     83.8322
  1501.4000      7.8990      2.5182      0.0605      7.9850     23.1338     91.9330
  1501.5000      7.9079      2.5115      0.0153      8.3947     24.6998     99.9034
  1501.6000      7.9079      2.5007     -0.0328      9.0477     26.6994    105.6666
  1501.7000      7.9079      2.4948      0.0321      9.4073     28.3888    109.1206
  1501.8000      7.9195      2.4881      0.0187      9.8122     29.6085    114.0842
  1501.9000      7.9195      2.4710      0.0635     10.8472     30.6382    121.4911
  1502.0000      7.9281      2.4350      0.0261     13.0322     31.6047    130.4665
  1502.1000      7.9281      2.3777      0.0226     16.5031     32.5654    139.1865
  1502.2000      7.9281      2.2982      0.0423     21.3225     33.4573    144.4344
  1502.3000      7.9357      2.1902     -0.0044     27.8678     34.2575    146.0939
  1502.4000      7.9357      2.0596     -0.0506     35.7810     34.9522    144.9812
  1502.5000      7.9419      1.9300     -0.0899     43.6380     35.2360    140.1315
  1502.6000      7.9419      1.8221     -0.1296     50.1729     35.0465    131.5144
  1502.7000      7.9419      1.7349     -0.1135     55.4609     34.8459    120.1364
  1502.8000      7.9426      1.6608     -0.1251     59.9499     34.6193    109.3692
  1502.9000      7.9426      1.6168     -0.1108     62.6172     33.9819    103.6001
  1503.0000      7.9383      1.6290     -0.0303     61.8771     33.1409    103.1382
  1503.1000      7.9383      1.7032      0.0606     57.3797     32.4995    104.5560
  1503.2000      7.9383      1.8251      0.1663     49.9961     31.8927    106.8464
  1503.3000      7.9301      1.9680      0.2429     41.3319     30.6164    108.7860
  1503.4000      7.9301      2.1059      0.2877     32.9781     28.6955    105.6753
  1503.5000      7.9151      2.2268      0.3018     25.6502     26.9884     99.0574
  1503.6000      7.9151      2.3303      0.3113     19.3745     25.7070     97.0288
  1503.7000      7.9151      2.4151      0.2942     14.2386     24.8802    101.7006
  1503.8000      7.8922      2.4791      0.2721     10.3571     24.8753    106.0268
  1503.9000      7.8922      2.5230      0.2142      7.6946     25.3011    106.0533
  1504.0000      7.8651      2.5453      0.1745      6.3441     25.1628    105.4477
  1504.1000      7.8651      2.5433      0.1654      6.4641     24.4982    107.5276
  1504.2000      7.8651      2.5257      0.0884      7.5356     23.9456    110.5966
  1504.3000      7.8505      2.5127      0.0576      8.3208     23.5685    111.5488
  1504.4000      7.8505      2.5180      0.0458      8.0014     23.3163    112.7130
  1504.5000      7.8462      2.5308      0.0702      7.2260     23.5418    115.6224
  1504.6000      7.8462      2.5305      0.0338      7.2430     24.4052    116.9052
  1504.7000      7.8462      2.5211      0.0055      7.8112     25.3868    116.6707
  1504.8000      7.8436      2.5199      0.0269      7.8851     25.8846    117.3593
  1504.9000      7.8436      2.5272      0.0545      7.4427     25.8298    119.0610
  1505.0000      7.8426      2.5353      0.0749      6.9504     25.6660    120.8351
  1505.1000      7.8426      2.5392      0.0888      6.7141     25.5169    122.6753
