~Version Information
 VERS.                                  2.0 : CWLS LAS VERSION
 WRAP.                                   NO : WRAPING MODE
 SWARE .                 MController 2.5.0H : SOFTWARE VERSION
~Well Information
 WELL.                        TAMI J. 23-18 : WELL
 COMP.            PIONEER NATURAL RESOURCES : COMPANY
 FLD.                      PURGATOIRE RIVER : FIELD
 LOC.                 NE/SW Sec18 T33S R65W : LOCATION
 DATE.                             12/12/04 : DATE(S) LOGGED
 SRVC.        BLANCO GEOLOGICAL SEVICES LLC : SERVICE COMPANY
 STAT.                                   CO : STATE
 CNTY.                           LAS ANIMAS : COUNTY
 CTRY.                                  USA : COUNTRY
 API.                          05-071-08073 : API NUMBER
 STRT.FT                             263.00 : START DEPTH
 STOP.FT                            1765.00 : STOP DEPTH
 STEP.FT                               1.00 : DEPTH INCREMENT
 NULL.                                -9999 : NULL VALUE
~Curve information
 DEPTH.FT                                   :
 ROP.MIN/FT                                 :
 GAS.UNITS                                  :
~ASCII Log data
# ...
     1263.00        0.400         72.4 
     1264.00        0.333         67.0 
     1265.00        0.300         58.5 
     1266.00        0.267         58.1 
     1267.00        0.267         52.1 
     1268.00        0.233         47.0 
     1269.00        0.267         44.7 
     1270.00        0.333         41.8 
     1271.00        0.367         37.5 
     1272.00        0.200         36.0 
     1273.00        0.183         35.0 
     1274.00        0.167         34.3 
     1275.00        0.167         34.3 
     1276.00        0.200         34.2 
     1277.00        0.233         34.0 
     1278.00        0.233         34.0 
     1279.00        0.267         34.2 
     1280.00        0.233         33.2 
     1281.00        0.233         34.1 
     1282.00        0.233         34.0 
     1283.00        0.167         32.6 
     1284.00        0.167         32.6 
     1285.00        0.167         31.1 
     1286.00        2.717         74.3 
     1287.00        0.333         74.8 
     1288.00        0.267         74.7 
     1289.00        0.267         73.5 
     1290.00        0.167         72.4 
     1291.00        0.167         71.4 
     1292.00        0.133         73.4 
     1293.00        0.183         77.5 
     1294.00        0.233         80.4 
     1295.00        0.333         91.7 
     1296.00        0.233         92.9 
     1297.00        0.267         91.9 
     1298.00        0.400         88.8 
     1299.00        0.233         77.7 
     1300.00        0.167         77.7 
     1301.00        0.267         77.0 
     1302.00        0.267         69.7 
     1303.00        0.200         62.0 
     1304.00        0.233         61.5 
     1305.00        0.200         57.4 
     1306.00        0.250         56.2 
     1307.00        0.233         55.3 
     1308.00        0.300         55.1 
     1309.00        0.333         52.4 
     1310.00        0.267         50.4 
     1311.00        0.267         49.6 
     1312.00        0.233         47.2 
     1313.00        0.233         45.7 
     1314.00        0.233         46.5 
     1315.00        0.267         45.4 
     1316.00        2.917        122.2 
     1317.00        0.500        118.8 
     1318.00        0.333        115.3 
     1319.00        0.367        112.2 
     1320.00        0.383        104.6 
     1321.00        0.333        104.2 
     1322.00        0.300         95.0 
     1323.00        0.267         84.6 
     1324.00        0.267         83.7 
     1325.00        0.300         75.9 
     1326.00        0.267         68.4 
     1327.00        0.267         67.2 
     1328.00        0.233         60.4 
     1329.00        0.200         58.2 
     1330.00        0.267         55.7 
     1331.00        0.200         52.8 
     1332.00        0.183         49.3 
     1333.00        0.200         48.7 
     1334.00        0.167         44.3 
     1335.00        0.200         42.5 
     1336.00        0.167         41.2 
     1337.00        0.200         40.7 
     1338.00        0.167         40.5 
     1339.00        0.167         40.5 
     1340.00        0.200         41.2 
     1341.00        0.200         42.3 
     1342.00        0.233         43.9 
     1343.00        0.267         45.9 
     1344.00        0.233         45.9 
     1345.00        0.300         46.9 
     1346.00        2.917        126.8 
     1347.00        0.433        123.0 
     1348.00        0.300        116.1 
     1349.00        0.350        111.2 
     1350.00        0.333        104.0 
     1351.00        0.333         93.5 
     1352.00        0.300         92.7 
     1353.00        0.267         83.5 
     1354.00        0.300         82.8 
     1355.00        0.300         72.0 
     1356.00        0.333         70.0 
     1357.00        0.300         66.4 
     1358.00        0.233         59.5 
     1359.00        0.233         54.9 
     1360.00        0.200         54.9 
     1361.00        0.283         53.3 
     1362.00        0.233         48.6 
     1363.00        0.200         48.0 
     1364.00        0.200         46.0 
     1365.00        0.233         44.6 
     1366.00        0.267         44.4 
     1367.00        0.233         45.6 
     1368.00        0.267         45.4 
     1369.00        0.267         44.4 
     1370.00        0.233         43.4 
     1371.00        0.233         43.2 
     1372.00        0.267         41.4 
     1373.00        0.233         40.3 
     1374.00        0.267         38.7 
     1375.00        0.283         35.8 
     1376.00        2.900        123.3 
     1377.00        0.100        113.0 
     1378.00        0.250        110.6 
     1379.00        0.167        109.4 
     1380.00        0.367        111.9 
     1381.00        0.433        116.4 
     1382.00        0.367        116.4 
     1383.00        0.200        113.7 
     1384.00        0.200        107.2 
     1385.00        0.267        106.3 
     1386.00        0.200         91.7 
     1387.00        0.100         91.7 
     1388.00        0.133         91.1 
     1389.00        0.100         87.3 
     1390.00        0.200         86.0 
     1391.00        0.300         86.5 
     1392.00        0.383         87.6 
     1393.00        0.300         87.5 
     1394.00        0.267         87.0 
     1395.00        0.300         83.3 
     1396.00        0.233         81.4 
     1397.00        0.233         79.8 
     1398.00        0.200         79.4 
     1399.00        0.167         78.3 
     1400.00        0.233         77.9 
     1401.00        0.233         75.9 
     1402.00        0.167         74.0 
     1403.00        0.300         72.8 
     1404.00        0.233         71.1 
     1405.00        0.200         64.7 
     1406.00        2.883        175.0 
     1407.00        0.200        167.7 
     1408.00        0.367        165.5 
     1409.00        0.283        162.3 
     1410.00        0.233        156.2 
     1411.00        0.167        147.9 
     1412.00        0.233        147.0 
     1413.00        0.300        141.8 
     1414.00        0.233        132.0 
     1415.00        0.200        132.0 
     1416.00        0.333        125.1 
     1417.00        0.167        118.5 
     1418.00        0.267        117.8 
     1419.00        0.300        112.0 
     1420.00        0.300        107.2 
     1421.00        0.267        100.5 
     1422.00        0.550         97.6 
     1423.00        0.300         88.8 
     1424.00        0.300         82.8 
     1425.00        0.333         77.4 
     1426.00        0.233         74.9 
     1427.00        0.267         70.7 
     1428.00        0.233         69.8 
     1429.00        0.233         69.8 
     1430.00        0.267         70.8 
     1431.00        0.300         72.1 
     1432.00        0.350         73.5 
     1433.00        0.200         73.7 
     1434.00        0.267         72.4 
     1435.00        0.233         68.7 
     1436.00        3.350        245.3 
     1437.00        0.300        213.0 
     1438.00        0.367        191.8 
     1439.00        0.400        174.3 
     1440.00        0.367        170.0 
     1441.00        0.267        163.2 
     1442.00        0.300        152.9 
     1443.00        0.300        136.4 
     1444.00        0.317        126.5 
     1445.00        0.233        118.3 
     1446.00        0.267        109.7 
     1447.00        0.300        104.2 
     1448.00        0.267         98.4 
     1449.00        0.300         88.6 
     1450.00        0.233         87.7 
     1451.00        0.233         78.3 
     1452.00        0.267         72.7 
     1453.00        0.333         71.1 
     1454.00        0.233         69.1 
     1455.00        0.200         63.1 
     1456.00        0.233         61.0 
     1457.00        0.183         56.4 
     1458.00        0.167         55.3 
     1459.00        0.167         55.3 
     1460.00        0.200         58.3 
     1461.00        0.233         62.7 
     1462.00        0.233         67.1 
