~Version Information
VERS.                      2.0: CWLS Log ASCII Standard - VERSION 2.0
WRAP.                       NO: One line per depth step
~Well Information Block
STRT.FT               390.0000: 
STOP.FT               902.2000: 
STEP.FT                 0.1000: 
NULL.                -999.2500: 
COMP.          Pioneer Natural Resources: COMPANY
WELL.              Venom 32-22: WELL
FLD.           Purgatoire River: FIELD
LOC.           2307' FNL & 2024' FEL----: LOCATION
PROV.                 Colorado: PROVINCE
CNTY.               Las Animas: COUNTRY
SRVC.                Patterson: SERVICE COMPANY
DATE.          Wed May 11 08:31:39 2005: LOG DATE
UWI.           05 071 08361 00: UNIQUE WELL ID
~Curve Information Block
DEPT.FT            0 000 00 00: Depth
DCAL.in                       : CDL Caliper
RHOB.g/cc                     : CDL Bulk Density
RHOC.g/cc                     : CDL Density Correction
DPOR.pu                       : CDL Density Porosity
NPOR.pu                       : Neutron Porosity
GR.GAPI                       : Gamma Ray
~Parameter Information Block
~A  Depth       DCAL        RHOB        RHOC        DPOR        NPOR         GR     
# ...
   514.8000      7.9715      2.6016      0.0605      2.9355     18.9554     83.1101
   514.9000      7.9715      2.5996      0.0793      3.0564     19.5424     91.1525
   515.0000      7.9780      2.6101      0.0154      2.4211     23.2825     95.3931
   515.1000      7.9780      2.6286      0.0652      1.2950     26.2461     94.1327
   515.2000      7.9780      2.6339      0.0795      0.9741     25.1292     88.5675
   515.3000      7.9875      2.6218      0.0178      1.7070     22.4401     84.3782
   515.4000      7.9875      2.6142      0.0483      2.1694     22.2124     83.3387
   515.5000      7.9912      2.6133      0.0600      2.2261     24.9069     81.2377
   515.6000      7.9912      2.6052      0.0246      2.7178     26.5840     81.1007
   515.7000      7.9912      2.5896      0.0428      3.6598     23.8814     88.2884
   515.8000      7.9872      2.5721      0.0226      4.7225     20.7338     97.5274
   515.9000      7.9872      2.5593      0.0334      5.4976     20.9279    101.3877
   516.0000      7.9804      2.5627     -0.0255      5.2886     23.2834     98.7432
   516.1000      7.9804      2.5829      0.0559      4.0697     24.1214     92.2942
   516.2000      7.9804      2.5946      0.0810      3.3592     21.5419     87.6352
   516.3000      7.9770      2.5868      0.0112      3.8297     18.2303     88.9202
   516.4000      7.9770      2.5798      0.0337      4.2548     17.6449     93.2233
   516.5000      7.9790      2.5798      0.0782      4.2558     20.7053     93.1259
   516.6000      7.9790      2.5763      0.0573      4.4660     24.0652     86.0386
   516.7000      7.9790      2.5734     -0.0029      4.6446     22.3886     77.3948
   516.8000      7.9826      2.5746      0.0460      4.5719     19.0010     73.3101
   516.9000      7.9826      2.5744      0.0130      4.5800     18.9787     73.6342
   517.0000      7.9829      2.5833     -0.0307      4.0412     21.4551     73.9942
   517.1000      7.9829      2.6115      0.0301      2.3339     21.7645     73.0858
   517.2000      7.9829      2.6414      0.1072      0.5220     18.8281     74.7082
   517.3000      7.9776      2.6657      0.0475     -0.9497     17.1679     81.0543
   517.4000      7.9776      2.7164      0.0840     -4.0261     18.8984     87.6437
   517.5000      7.9718      2.8093      0.0816     -9.6551     22.7600     89.5696
   517.6000      7.9718      2.9057      0.2075    -15.4942     24.5412     88.0327
   517.7000      7.9718      2.9522      0.1666    -18.3122     22.3357     84.0915
   517.8000      7.9622      2.9445      0.1262    -17.8504     20.3008     75.7424
   517.9000      7.9622      2.9189      0.1392    -16.2990     22.1622     65.8762
   518.0000      7.9453      2.9050      0.0783    -15.4566     26.9904     62.9622
   518.1000      7.9453      2.9021      0.1248    -15.2802     28.8876     67.9700
   518.2000      7.9453      2.8748      0.0675    -13.6245     26.3009     72.8016
   518.3000      7.9333      2.8087     -0.0368     -9.6202     24.7711     72.1255
   518.4000      7.9333      2.7396     -0.0848     -5.4329     26.4606     66.0854
   518.5000      7.9365      2.6914     -0.1164     -2.5114     27.4512     59.1833
   518.6000      7.9365      2.6491     -0.1051      0.0550     24.4142     58.1524
   518.7000      7.9365      2.6021     -0.0989      2.9043     20.7380     61.7543
   518.8000      7.9489      2.5721     -0.0652      4.7223     20.0615     63.6650
   518.9000      7.9489      2.5818      0.0116      4.1338     21.7347     61.7410
   519.0000      7.9556      2.6103      0.0678      2.4088     22.2050     58.7937
   519.1000      7.9556      2.6204      0.0812      1.7941     19.3879     59.6403
   519.2000      7.9556      2.6129      0.0654      2.2505     16.6548     67.2130
   519.3000      7.9596      2.6098      0.0628      2.4338     16.8907     78.9728
   519.4000      7.9596      2.6113      0.0588      2.3433     19.9258     88.6784
   519.5000      7.9625      2.6041      0.0482      2.7793     22.2136     90.8204
   519.6000      7.9625      2.5897      0.0657      3.6540     20.4042     87.0129
   519.7000      7.9625      2.5794      0.0369      4.2776     17.6423     83.2253
   519.8000      7.9595      2.5803      0.0603      4.2213     17.4538     79.7549
   519.9000      7.9595      2.5882      0.0691      3.7450     19.9031     74.5417
   520.0000      7.9518      2.5960      0.0647      3.2733     21.9411     69.1178
   520.1000      7.9518      2.6013      0.0693      2.9541     20.0610     66.7900
   520.2000      7.9518      2.6033      0.0705      2.8298     16.8489     67.5898
   520.3000      7.9442      2.6044      0.0719      2.7662     16.5304     66.9723
   520.4000      7.9442      2.5999      0.0896      3.0352     19.3111     65.2132
   520.5000      7.9407      2.5817      0.0451      4.1401     21.0314     69.0410
   520.6000      7.9407      2.5607      0.0197      5.4133     18.8576     76.8124
   520.7000      7.9407      2.5556      0.0252      5.7240     16.6453     81.3030
   520.8000      7.9446      2.5661      0.0364      5.0859     16.4736     83.4762
   520.9000      7.9446      2.5810      0.0572      4.1825     16.4561     86.7502
   521.0000      7.9561      2.5985      0.0416      3.1227     14.7316     89.4998
   521.1000      7.9561      2.6225      0.0701      1.6694     13.4879     89.3219
   521.2000      7.9561      2.6461      0.0904      0.2370     14.9296     85.2085
   521.3000      7.9688      2.6515      0.1159     -0.0937     18.7493     80.0738
   521.4000      7.9688      2.6331      0.0639      1.0264     20.5007     75.8223
   521.5000      7.9806      2.6034      0.0793      2.8262     19.0399     70.1305
   521.6000      7.9806      2.5773      0.0368      4.4052     19.2879     63.7698
   521.7000      7.9806      2.5665      0.0126      5.0603     22.6241     63.3488
   521.8000      7.9871      2.5660      0.0582      5.0911     24.6835     70.9971
   521.9000      7.9871      2.5644      0.0334      5.1872     21.7847     78.3864
   522.0000      7.9884      2.5633      0.0439      5.2563     18.0322     79.7916
   522.1000      7.9884      2.5589      0.0433      5.5192     17.7291     79.3747
   522.2000      7.9884      2.5472      0.0206      6.2294     20.0044     80.5534
   522.3000      7.9870      2.5425      0.0278      6.5138     20.5551     83.3963
   522.4000      7.9870      2.5563      0.0545      5.6782     17.5190     86.5233
   522.5000      7.9869      2.5797      0.0677      4.2576     14.5404     86.8255
   522.6000      7.9869      2.5975      0.0518      3.1794     13.8186     88.0855
   522.7000      7.9869      2.6057      0.0655      2.6822     15.2671     94.5077
   522.8000      7.9936      2.6110      0.0565      2.3622     17.7779     99.1926
   522.9000      7.9936      2.6168      0.0769      2.0092     18.2176     97.6987
   523.0000      8.0000      2.6208      0.0864      1.7699     15.9330     94.0458
   523.1000      8.0000      2.6252      0.0497      1.5049     14.1104     91.4279
   523.2000      8.0000      2.6269      0.0998      1.4018     14.4048     91.0320
   523.3000      7.9997      2.6130      0.0671      2.2441     17.0452     91.6303
   523.4000      7.9997      2.5861      0.0345      3.8749     19.8516     91.4312
   523.5000      8.0013      2.5646     -0.0139      5.1759     18.4556     92.3742
   523.6000      8.0013      2.5533      0.0403      5.8584     15.0452     95.5275
   523.7000      8.0013      2.5398      0.0546      6.6797     14.0428     96.8802
   523.8000      8.0099      2.5245      0.0118      7.6032     15.8785     96.7992
   523.9000      8.0099      2.5236      0.0375      7.6610     17.7746    101.3129
   524.0000      8.0180      2.5452      0.0249      6.3508     16.3397    110.2732
   524.1000      8.0180      2.5860      0.0823      3.8767     14.4554    116.0523
   524.2000      8.0180      2.6281      0.0911      1.3243     15.4307    111.6085
   524.3000      8.0235      2.6491      0.1020      0.0549     19.5088    101.0475
