~Version Information
VERS.                      2.0: CWLS Log ASCII Standard - VERSION 2.0
WRAP.                       NO: One line per depth step
~Well Information Block
STRT.FT               -12.5000: 
STOP.FT              2200.2500: 
STEP.FT                 0.2500: 
NULL.                -999.2500: 
COMP.          Pioneer Natural Resources: COMPANY
WELL.           Ogallela 44-12: WELL
FLD.           Purgatorie River: FIELD
LOC.           610' FSL & 671' FEL------: LOCATION
PROV.                       CO: PROVINCE
CNTY.               Las Animas: COUNTRY
SRVC.          Patterson Wireline: SERVICE COMPANY
DATE.          Tue Mar 22 17:18:22 2005: LOG DATE
UWI.           05 071 08283 00: UNIQUE WELL ID
~Curve Information Block
DEPT.FT            0 000 00 00: Depth
CCL.                          : Casing Collar Locator
TT3.usec                      : CBL 3' Travel Time
AMP3.mV                       : CBL 3' Amplitude
GR.GAPI                       : Gamma Ray
~Parameter Information Block
~A  Depth       CCL         TT3         AMP3         GR     
# ...
   423.0000      0.0000    268.0076     83.2816     73.4634
   423.2500      0.0000    267.9892     83.4771     74.5493
   423.5000      0.0000    267.9829     83.6656     73.5856
   423.7500      0.0000    267.9905     83.7820     70.5857
   424.0000      0.0000    268.0097     83.8188     66.6989
   424.2500      0.0000    268.0375     83.8248     63.2556
   424.5000      0.0000    268.0725     83.8548     60.9139
   424.7500      0.0000    268.1149     83.9116     59.7166
   425.0000      0.0000    268.1625     83.9467     59.5396
   425.2500      0.0000    268.2086     83.9308     60.1838
   425.5000      0.0000    268.2419     83.8989     61.2759
   425.7500      0.0000    268.2536     83.9059     62.5074
   426.0000      0.0000    268.2424     83.9531     64.0278
   426.2500      0.0000    268.2159     83.9893     66.2677
   426.5000      0.0000    268.1844     83.9823     69.1384
   426.7500      0.0000    268.1552     83.9620     71.6767
   427.0000      0.0000    268.1316     83.9865     72.8922
   427.2500      0.0000    268.1138     84.0897     72.9332
   427.5000      0.0000    268.1023     84.2669     73.0584
   427.7500      0.0000    268.1009     84.4893     74.4416
   428.0000      0.0000    268.1138     84.7257     77.2450
   428.2500      0.0000    268.1389     84.9594     80.7456
   428.5000      0.0000    268.1671     85.1831     83.9088
   428.7500      0.0000    268.1895     85.3720     85.7665
   429.0000      0.0000    268.2043     85.4780     85.7727
   429.2500      0.0000    268.2139     85.4662     84.2262
   429.5000      0.0000    268.2185     85.3484     82.1926
   429.7500      0.0000    268.2149     85.1701     80.7182
   430.0000      0.0000    268.1988     84.9796     80.1093
   430.2500      0.0000    268.1684     84.8225     80.1328
   430.5000      0.0000    268.1279     84.7372     80.7713
   430.7500      0.0000    268.0880     84.7264     82.2914
   431.0000      0.0000    268.0609     84.7487     84.4677
   431.2500      0.0000    268.0531     84.7646     86.2967
   431.5000      0.0000    268.0648     84.7724     86.8231
   431.7500      0.0000    268.0940     84.7783     85.9352
   432.0000      0.0000    268.1361     84.7566     84.0945
   432.2500      0.0000    268.1826     84.6606     81.7056
   432.5000      0.0000    268.2226     84.4591     79.1136
   432.7500      0.0000    268.2467     84.1612     76.9338
   433.0000      0.0000    268.2497     83.8265     76.0083
   433.2500      0.0000    268.2294     83.5455     76.9761
   433.5000      0.0000    268.1890     83.3857     79.7412
   433.7500      0.0000    268.1391     83.3488     83.1767
   434.0000      0.0000    268.0955     83.3822     85.5155
   434.2500      0.0000    268.0729     83.4221     85.4499
   434.5000      0.0000    268.0779     83.4300     83.0302
   434.7500      0.0000    268.1070     83.4041     79.4805
   435.0000      0.0000    268.1497     83.3634     76.1888
   435.2500      0.0000    268.1950     83.3141     73.8863
   435.5000      0.0000    268.2358     83.2308     72.6392
   435.7500      0.0000    268.2684     83.0746     72.3793
   436.0000      0.0000    268.2885     82.8304     73.1893
   436.2500      0.0000    268.2903     82.5258     75.0008
   436.5000      0.0000    268.2700     82.2143     77.0845
   436.7500      0.0000    268.2292     81.9447     78.0597
   437.0000      0.0000    268.1772     81.7425     76.8223
   437.2500      0.0000    268.1278     81.6194     73.7368
   437.5000      0.0000    268.0921     81.5953     70.5587
   437.7500      0.0000    268.0745     81.7020     68.7862
   438.0000      0.0000    268.0750     81.9598     68.3169
   438.2500      0.0000    268.0922     82.3529     67.9499
   438.5000      0.0000    268.1241     82.8308     66.9076
   438.7500      0.0000    268.1659     83.3262     65.6524
   439.0000      0.0000    268.2108     83.7685     65.4072
   439.2500      0.0000    268.2514     84.0927     67.0760
   439.5000      0.0000    268.2811     84.2619     70.5943
   439.7500      0.0000    268.2945     84.2907     75.2406
   440.0000      0.0000    268.2873     84.2381     80.4862
   440.2500      0.0000    268.2605     84.1687     86.4217
   440.5000      0.0000    268.2218     84.1231     93.3603
   440.7500      0.0000    268.1835     84.1282    101.3019
   441.0000      0.0000    268.1574     84.2212    109.9069
   441.2500      0.0000    268.1494     84.4389    118.7138
   441.5000      0.0000    268.1581     84.7728    127.0833
   441.7500      0.0000    268.1793     85.1347    133.9800
   442.0000      0.0000    268.2113     85.3775    138.0592
   442.2500      0.0000    268.2514     85.3780    138.2811
   442.5000      0.0000    268.2884     85.1277    134.8114
   442.7500      0.0000    268.3042     84.7554    129.3717
   443.0000      0.0000    268.2854     84.4478    124.3376
   443.2500      0.0000    268.2343     84.3234    121.1370
   443.5000      0.0000    268.1687     84.3647    119.4694
   443.7500      0.0000    268.1113     84.4637    118.0736
   444.0000      0.0000    268.0775     84.5282    116.1226
   444.2500      0.0000    268.0721     84.5315    113.7809
   444.5000      0.0000    268.0948     84.4633    111.6806
   444.7500      0.0000    268.1424     84.2732    110.3315
   445.0000      0.0000    268.2045     83.9049    110.0401
   445.2500      0.0000    268.2635     83.3839    110.8942
   445.5000      0.0000    268.3009     82.8388    112.6334
   445.7500      0.0000    268.3065     82.4283    114.7856
   446.0000      0.0000    268.2823     82.2489    117.0508
   446.2500      0.0000    268.2401     82.2955    119.3964
   446.5000      0.0000    268.1960     82.4899    121.6893
   446.7500      0.0000    268.1634     82.7426    123.3796
   447.0000      0.0000    268.1498     82.9980    123.7348
   447.2500      0.0000    268.1562     83.2348    122.4865
   447.5000      0.0000    268.1804     83.4343    120.3086
   447.7500      0.0000    268.2188     83.5559    118.5254
   448.0000      0.0000    268.2649     83.5560    118.1833
   448.2500      0.0000    268.3062     83.4283    119.4205
   448.5000      0.0000    268.3279     83.2031    121.5780
   448.7500      0.0000    268.3216     82.9096    123.6245
   449.0000      0.0000    268.2892     82.5710    124.7375
   449.2500      0.0000    268.2413     82.2332    124.9474
   449.5000      0.0000    268.1926     81.9639    124.9690
   449.7500      0.0000    268.1562     81.8148    124.9596
   450.0000      0.0000    268.1386     81.8093    123.8807
   450.2500      0.0000    268.1394     81.9552    120.7010
   450.5000      0.0000    268.1550     82.2335    115.9322
   450.7500      0.0000    268.1803     82.5765    111.4461
   451.0000      0.0000    268.2077     82.8928    108.9064
   451.2500      0.0000    268.2259     83.1328    108.6042
   451.5000      0.0000    268.2244     83.3226    109.5820
   451.7500      0.0000    268.2006     83.5288    110.6284
   452.0000      0.0000    268.1616     83.7931    111.1696
   452.2500      0.0000    268.1205     84.1070    111.2341
   452.5000      0.0000    268.0904     84.4316    110.8328
   452.7500      0.0000    268.0812     84.7219    109.8017
   453.0000      0.0000    268.0975     84.9338    108.0868
   453.2500      0.0000    268.1378     85.0311    105.7120
   453.5000      0.0000    268.1917     85.0022    102.5878
   453.7500      0.0000    268.2397     84.8708     98.6551
   454.0000      0.0000    268.2625     84.6896     94.1521
   454.2500      0.0000    268.2535     84.5091     89.6527
   454.5000      0.0000    268.2251     84.3411     85.9295
   454.7500      0.0000    268.2011     84.1425     83.7196
   455.0000      0.0000    268.2105     83.7907     83.3349
   455.2500      0.0000    268.3016     82.9831     84.4826
   455.5000      0.0000    268.5722     81.1284     86.6004
   455.7500      0.0000    269.1728     77.5392     89.2206
   456.0000      0.0000    270.2319     72.0561     91.8249
   456.2500      0.0000    271.7281     65.5519     93.5955
