~Version Information
 VERS.                                  2.0 : CWLS LAS VERSION
 WRAP.                                   NO : WRAPING MODE
 SWARE .                 MController 2.5.0J : SOFTWARE VERSION
~Well Information
 WELL.                         Schedler9-23R: WELL
 COMP.                             Petrogulf: COMPANY
 FLD.                      Purgatoire River : FIELD
 LOC.                 NE/SW Sec.9 T33s R67w : LOCATION
 DATE.                              10/31/04: DATE(S) LOGGED
 SRVC.                    Blanco Geological : SERVICE COMPANY
 STAT.                                   CO : STATE
 CNTY.                           Las Animas : COUNTY
 CTRY.                                  USA: COUNTRY
 API.                           05-071-08040: API NUMBER
 STRT.FT                             713.00 : START DEPTH
 STOP.FT                            2080.00 : STOP DEPTH
 STEP.FT                               1.00 : DEPTH INCREMENT
 NULL.                                -9999 : NULL VALUE
~Curve information
 DEPTH.FT                                   :
 ROP.MIN/FT                                 :
 GAS.UNITS                                  :
~ASCII Log data
# ...
      1313.0         0.17         28.0 
      1314.0         0.27         27.4 
      1315.0         0.27         25.7 
      1316.0         0.67         25.6 
      1317.0         0.33         23.0 
      1318.0         0.33         22.4 
      1319.0         0.27         22.6 
      1320.0         0.27         21.1 
      1321.0         0.23         20.7 
      1322.0         0.20         19.9 
      1323.0         0.20         20.0 
      1324.0         0.20         19.7 
      1325.0         0.22         19.8 
      1326.0         0.23         19.2 
      1327.0         0.43         19.3 
      1328.0         0.30         18.8 
      1329.0         0.20         18.4 
      1330.0         0.20         18.2 
      1331.0         0.17         16.7 
      1332.0         0.17         23.2 
      1333.0         0.23         23.2 
      1334.0         0.17         28.4 
      1335.0         0.13         28.4 
      1336.0         0.13         31.6 
      1337.0         0.13         31.6 
      1338.0         0.13         32.3 
      1339.0         0.13         30.9 
      1340.0         0.17         28.2 
      1341.0         0.13         28.2 
      1342.0         0.13         27.8 
      1343.0         0.28         28.0 
      1344.0         0.27         24.6 
      1345.0         0.40         24.6 
      1346.0         0.13         24.6 
      1347.0         0.17         25.4 
      1348.0         0.23         24.2 
      1349.0         0.23         23.9 
      1350.0         0.20         24.2 
      1351.0         0.20         23.6 
      1352.0         0.40         23.8 
      1353.0         0.27         22.7 
      1354.0         0.20         21.7 
      1355.0         0.37         22.5 
      1356.0         0.23         20.4 
      1357.0         0.30         19.0 
      1358.0         0.30         19.5 
      1359.0         0.22         18.1 
      1360.0         0.20         17.9 
      1361.0         0.20         19.0 
      1362.0         0.23         18.1 
      1363.0         0.23         18.4 
      1364.0         0.23         26.1 
      1365.0         0.17         26.1 
      1366.0         0.20         33.9 
      1367.0         0.17         38.6 
      1368.0         0.17         38.6 
      1369.0         0.17         38.7 
      1370.0         0.10         38.7 
      1371.0         0.17         37.9 
      1372.0         0.20         34.2 
      1373.0         0.27         32.3 
      1374.0         0.23         29.1 
      1375.0         0.13         27.8 
      1376.0         0.42         27.4 
      1377.0         0.20         26.4 
      1378.0         0.17         25.7 
      1379.0         0.37         24.6 
      1380.0         0.27         22.5 
      1381.0         0.37         22.3 
      1382.0         0.20         20.3 
      1383.0         0.30         20.5 
      1384.0         0.17         21.6 
      1385.0         0.17         21.6 
      1386.0         0.20         22.2 
      1387.0         0.25         22.4 
      1388.0         0.27         22.2 
      1389.0         0.27         20.8 
      1390.0         0.33         19.9 
      1391.0         0.33         20.4 
      1392.0         0.27         19.9 
      1393.0         0.27         19.1 
      1394.0         0.27         19.7 
      1395.0         0.30         51.8 
      1396.0         0.20         41.6 
      1397.0         0.20         41.6 
      1398.0         0.17         40.3 
      1399.0         0.17         35.7 
      1400.0         0.13         33.1 
      1401.0         0.13         33.1 
      1402.0         0.18         31.8 
      1403.0         0.17         28.2 
      1404.0         0.17         27.5 
      1405.0         0.17         26.0 
      1406.0         0.17         25.3 
      1407.0         0.27         25.8 
      1408.0         0.40         28.0 
      1409.0         0.30         29.5 
      1410.0         0.23         30.0 
      1411.0         0.35         32.6 
      1412.0         0.33         33.7 
      1413.0         0.20         32.8 
      1414.0         0.33         31.8 
      1415.0         0.23         30.5 
      1416.0         0.20         30.9 
      1417.0         0.20         29.6 
      1418.0         0.27         29.5 
      1419.0         0.30         29.2 
      1420.0         0.20         27.9 
      1421.0         0.20         27.4 
      1422.0         0.23         27.4 
      1423.0         0.20         27.8 
      1424.0         0.20         27.9 
      1425.0         0.25         44.7 
      1426.0         0.20         44.7 
      1427.0         0.20         52.3 
      1428.0         0.17         57.5 
      1429.0         0.17         58.0 
      1430.0         0.20         57.7 
      1431.0         0.17         56.1 
      1432.0         0.20         51.7 
      1433.0         0.20         48.3 
      1434.0         0.27         42.9 
      1435.0         0.27         42.6 
      1436.0         0.17         40.0 
      1437.0         0.23         40.0 
      1438.0         0.23         37.6 
      1439.0         0.23         36.0 
      1440.0         0.17         33.2 
      1441.0         0.40         32.8 
      1442.0         0.42         32.5 
      1443.0         0.47         33.3 
      1444.0         0.40         32.4 
      1445.0         0.30         29.6 
      1446.0         0.23         26.6 
      1447.0         0.13         26.6 
      1448.0         0.27         25.8 
      1449.0         0.27         25.0 
      1450.0         0.40         23.2 
      1451.0         0.20         22.6 
      1452.0         0.17         21.1 
      1453.0         0.17         21.3 
      1454.0         0.18         22.3 
      1455.0         0.20         44.4 
      1456.0         0.40         23.3 
      1457.0         0.30         22.8 
      1458.0         0.20         21.8 
      1459.0         0.17         21.4 
      1460.0         0.13         21.9 
      1461.0         0.13         22.9 
      1462.0         0.17         22.9 
      1463.0         0.13         23.3 
      1464.0         0.30         24.9 
      1465.0         0.27         25.4 
      1466.0         0.30         26.5 
      1467.0         0.27         25.9 
      1468.0         0.20         26.0 
      1469.0         0.33         28.0 
      1470.0         0.33         26.1 
      1471.0         0.32         24.0 
      1472.0         0.27         23.8 
      1473.0         0.20         23.3 
      1474.0         0.20         23.1 
      1475.0         0.17         22.8 
      1476.0         0.23         22.5 
      1477.0         0.20         23.5 
      1478.0         0.40         23.8 
      1479.0         0.20         22.1 
      1480.0         0.20         22.5 
      1481.0         0.27         21.9 
      1482.0         0.23         21.0 
      1483.0         0.17         20.6 
      1484.0         0.27         20.9 
      1485.0         0.35         21.1 
      1486.0         0.27         41.8 
      1487.0         0.17         35.9 
      1488.0         0.13         35.9 
      1489.0         0.20         34.9 
      1490.0         0.27         33.6 
      1491.0         0.20         32.8 
      1492.0         0.23         31.8 
      1493.0         0.23         30.4 
      1494.0         0.20         29.7 
      1495.0         0.27         28.6 
      1496.0         0.27         28.2 
      1497.0         0.37         26.6 
      1498.0         0.27         25.4 
      1499.0         0.27         25.5 
      1500.0         0.27         25.1 
      1501.0         0.23         24.0 
      1502.0         0.23         25.3 
      1503.0         0.27         23.7 
      1504.0         0.27         23.6 
      1505.0         0.23         22.4 
      1506.0         0.27         22.6 
      1507.0         0.23         22.3 
      1508.0         0.27         22.8 
      1509.0         0.25         22.8 
      1510.0         0.27         21.9 
      1511.0         0.27         21.9 
      1512.0         0.23         21.6 
