~Version Information
VERS.                      2.0: CWLS Log ASCII Standard - VERSION 2.0
WRAP.                       NO: One line per depth step
~Well Information Block
STRT.FT               250.0000: 
STOP.FT               894.7500: 
STEP.FT                 0.2500: 
NULL.                -999.2500: 
COMP.          Pioneer Natural Resources: COMPANY
WELL.          Santisteven 13-22: WELL
FLD.           Purgatoire River: FIELD
LOC.           1861' FSL & 992' FWL----: LOCATION
PROV.                 Colorado: PROVINCE
CNTY.               Las Animas: COUNTRY
SRVC.                Patterson: SERVICE COMPANY
DATE.          Sat Apr 02 14:49:07 2005: LOG DATE
UWI.           05 071 08337 00: UNIQUE WELL ID
~Curve Information Block
DEPT.FT            0 000 00 00: Depth
SN.Ohm-m                      : IEL Short Normal
SP.mV                         : IEL Spontaneous Potential
DIR.Ohm-m                     : IEL Induction Resistivity
GR.GAPI                       : Gamma Ray
~Parameter Information Block
~A  Depth        SN          SP         DIR          GR     
# ...
   719.0000    461.1113     26.0766     15.6448    117.5840
   719.2500    475.3510     26.0754     15.4517    120.6926
   719.5000    514.9020     26.0750     15.2154    126.1216
   719.7500    563.2551     26.0749     14.9523    129.1753
   720.0000    602.2645     26.0749     14.6889    131.9593
   720.2500    621.0775     26.0746     14.4615    132.9442
   720.5000    618.1313     26.0736     14.3084    133.8848
   720.7500    599.7503     26.0717     14.2592    134.0322
   721.0000    578.8979     26.0687     14.3269    132.7207
   721.2500    570.2452     26.0648     14.5056    130.5020
   721.5000    580.3007     26.0601     14.7729    124.8062
   721.7500    602.2679     26.0552     15.0958    119.1907
   722.0000    623.0529     26.0504     15.4378    108.2812
   722.2500    634.2405     26.0464     15.7657    100.3547
   722.5000    636.0396     26.0434     16.0554     90.2476
   722.7500    633.8585     26.0416     16.2944     86.1145
   723.0000    633.1415     26.0410     16.4832     84.9879
   723.2500    635.8282     26.0413     16.6297     87.6432
   723.5000    639.5041     26.0424     16.7395     95.8806
   723.7500    638.9551     26.0442     16.8036    102.9728
   724.0000    628.6183     26.0468     16.7943    112.5922
   724.2500    605.7860     26.0505     16.6771    116.3293
   724.5000    575.1374     26.0555     16.4350    116.5440
   724.7500    550.1644     26.0620     16.0867    113.8908
   725.0000    545.3266     26.0701     15.6823    108.7285
   725.2500    563.2515     26.0796     15.2773    106.2301
   725.5000    590.8364     26.0902     14.9037    105.5123
   725.7500    608.1099     26.1015     14.5551    106.9548
   726.0000    598.3752     26.1131     14.1897    110.5914
   726.2500    552.1169     26.1245     13.7513    113.2701
   726.5000    469.6342     26.1353     13.1991    117.9192
   726.7500    364.7138     26.1453     12.5323    122.3379
   727.0000    262.2034     26.1539     11.7923    132.0597
   727.2500    187.1037     26.1608     11.0432    140.2265
   727.5000    155.1568     26.1655     10.3470    152.7875
   727.7500    172.2832     26.1679      9.7493    159.9412
   728.0000    236.5337     26.1678      9.2756    167.4483
   728.2500    335.4396     26.1654      8.9352    170.1628
   728.5000    444.5500     26.1610      8.7262    170.6952
   728.7500    535.9559     26.1552      8.6409    168.2470
   729.0000    591.1138     26.1489      8.6713    159.4249
   729.2500    604.4630     26.1428      8.8122    150.2203
   729.5000    577.4308     26.1378      9.0641    133.5994
   729.7500    515.3436     26.1344      9.4331    122.7062
   730.0000    433.2089     26.1327      9.9311    109.8324
   730.2500    360.3115     26.1326     10.5738    104.4147
   730.5000    330.2897     26.1336     11.3766    100.5618
   730.7500    358.8137     26.1350     12.3446    100.0244
   731.0000    428.9359     26.1366     13.4543    101.2589
   731.2500    500.5985     26.1382     14.6285    103.2180
   731.5000    536.4082     26.1400     15.7184    107.2733
   731.7500    521.4822     26.1422     16.5239    109.9711
   732.0000    466.3096     26.1451     16.8707    112.7821
   732.2500    396.0018     26.1488     16.7078    113.8630
   732.5000    333.2924     26.1529     16.1367    115.9670
   732.7500    285.9047     26.1568     15.3436    118.9164
   733.0000    248.1199     26.1597     14.5044    126.3306
   733.2500    212.5986     26.1608     13.7335    132.4570
   733.5000    178.2979     26.1596     13.0822    141.1951
   733.7500    149.0915     26.1557     12.5601    145.8834
   734.0000    129.6306     26.1493     12.1592    150.8991
   734.2500    123.7458     26.1407     11.8697    152.7974
   734.5000    133.9414     26.1303     11.6887    152.9721
   734.7500    159.4359     26.1187     11.6217    151.2495
   735.0000    194.0465     26.1066     11.6793    146.7147
   735.2500    227.7617     26.0948     11.8729    143.0078
   735.5000    252.4801     26.0838     12.2088    136.9553
   735.7500    266.4345     26.0744     12.6845    132.6737
   736.0000    272.5679     26.0671     13.2858    126.1194
   736.2500    274.2326     26.0620     13.9860    121.8787
   736.5000    274.2002     26.0592     14.7485    116.0838
   736.7500    276.4596     26.0581     15.5316    112.8633
   737.0000    285.1436     26.0581     16.2940    109.5078
   737.2500    299.1819     26.0583     16.9992    108.3932
   737.5000    309.5858     26.0580     17.6152    108.1134
   737.7500    306.6548     26.0568     18.1135    108.4772
   738.0000    292.3404     26.0545     18.4744    109.1885
   738.2500    283.0575     26.0515     18.6969    109.6017
   738.5000    297.0077     26.0483     18.8080    110.5866
   738.7500    338.3238     26.0455     18.8579    112.1696
   739.0000    394.3187     26.0433     18.9053    117.0788
   739.2500    446.7161     26.0421     19.0014    122.1841
   739.5000    482.1871     26.0417     19.1788    131.3218
   739.7500    493.5537     26.0419     19.4482    136.8168
   740.0000    480.0336     26.0424     19.8025    141.0695
   740.2500    452.3281     26.0431     20.2254    140.2228
   740.5000    432.1138     26.0439     20.7004    134.2776
   740.7500    438.7268     26.0446     21.2134    128.9493
   741.0000    474.6221     26.0453     21.7485    122.2012
   741.2500    524.9942     26.0460     22.2834    119.6208
   741.5000    570.9117     26.0467     22.7857    118.2867
   741.7500    602.3596     26.0475     23.2175    117.9546
   742.0000    620.7102     26.0486     23.5465    116.4098
   742.2500    632.0601     26.0501     23.7647    114.3579
   742.5000    640.4248     26.0523     23.8977    110.4343
   742.7500    646.5417     26.0551     23.9932    107.7542
   743.0000    650.2284     26.0586     24.0931    103.9017
   743.2500    651.9410     26.0626     24.2096    101.4349
   743.5000    652.5470     26.0667     24.3232     98.2644
   743.7500    652.7065     26.0707     24.4001     96.9318
   744.0000    652.7187     26.0744     24.4162     96.4469
   744.2500    652.6202     26.0777     24.3682     96.8049
   744.5000    652.2352     26.0811     24.2724     97.1905
   744.7500    651.1635     26.0847     24.1540     96.7867
   745.0000    648.9434     26.0891     24.0372     95.2511
   745.2500    645.6380     26.0947     23.9357     94.3034
   745.5000    642.4019     26.1016     23.8499     94.5097
   745.7500    641.0240     26.1097     23.7720     96.0570
   746.0000    642.4014     26.1186     23.6967     99.3193
   746.2500    645.6350     26.1277     23.6264    100.8797
   746.5000    648.9282     26.1364     23.5674    101.0174
   746.7500    651.0996     26.1442     23.5206     99.9296
   747.0000    652.0173     26.1507     23.4784     98.1897
   747.2500    651.9807     26.1558     23.4295     97.8926
   747.5000    651.0068     26.1598     23.3649     99.2841
   747.7500    648.3055     26.1631     23.2814    100.9305
   748.0000    641.8168     26.1659     23.1800    102.7357
   748.2500    628.4111     26.1684     23.0641    102.7371
   748.5000    605.9614     26.1704     22.9374    101.2075
   748.7500    577.0634     26.1719     22.8039     99.9426
   749.0000    550.9306     26.1726     22.6662     98.4301
   749.2500    539.3408     26.1725     22.5227     97.4260
   749.5000    548.1485     26.1718     22.3687     95.3740
   749.7500    572.4889     26.1706     22.2004     93.9060
   750.0000    601.0388     26.1693     22.0220     92.7674
   750.2500    624.4331     26.1683     21.8467     93.1904
   750.5000    639.4423     26.1678     21.6891     95.3012
   750.7500    647.3795     26.1678     21.5564     97.0678
   751.0000    650.9101     26.1686     21.4459     99.2717
   751.2500    652.2258     26.1701     21.3528    100.2591
   751.5000    652.6299     26.1722     21.2784    101.3193
   751.7500    652.7291     26.1747     21.2297    101.9487
   752.0000    652.7472     26.1776     21.2071    102.7650
   752.2500    652.7505     26.1802     21.1945    103.1736
