~Version Information
VERS.                      2.0: CWLS Log ASCII Standard - VERSION 2.0
WRAP.                       NO: One line per depth step
~Well Information Block
STRT.FT               362.0000: 
STOP.FT               983.0000: 
STEP.FT                 0.1000: 
NULL.                -999.2500: 
COMP.          Pioneer Natural Resources: COMPANY
WELL.             Tomcat 32-10: WELL
FLD.           Purgatoire River: FIELD
LOC.           2286' FNL & 2463' FEL: LOCATION
PROV.                 Colorado: PROVINCE
CNTY.               Las Animas: COUNTRY
SRVC.                Patterson: SERVICE COMPANY
DATE.          Tue Mar 22 11:24:45 2005: LOG DATE
UWI.           05 071 08301 00: UNIQUE WELL ID
~Curve Information Block
DEPT.FT            0 000 00 00: Depth
DCAL.in                       : CDL Caliper
RHOB.g/cc                     : CDL Bulk Density
RHOC.g/cc                     : CDL Density Correction
DPOR.pu                       : CDL Density Porosity
GR.GAPI                       : Gamma Ray
NPOR.pu                       : Neutron Porosity
~Parameter Information Block
~A  Depth       DCAL        RHOB        RHOC        DPOR         GR         NPOR    
# ...
   726.8000      8.1300      2.4833      0.1013     10.1055    102.4541     28.4094
   726.9000      8.1300      2.4591      0.0696     11.5697    102.2329     28.4342
   727.0000      8.1160      2.4531      0.0387     11.9354    108.1995     28.3948
   727.1000      8.1160      2.4609      0.0513     11.4626    113.3391     28.5182
   727.2000      8.1160      2.4762      0.0520     10.5309    114.3365     28.9615
   727.3000      8.1265      2.4931      0.0192      9.5105    112.7055     29.4535
   727.4000      8.1265      2.5072      0.0652      8.6555    109.8306     29.6020
   727.5000      8.1506      2.5083      0.0854      8.5886    107.2319     29.3011
   727.6000      8.1506      2.4907      0.0673      9.6547    104.4755     28.6991
   727.7000      8.1506      2.4667      0.0451     11.1114     99.3728     27.8883
   727.8000      8.1389      2.4538     -0.0265     11.8938     92.7593     27.0852
   727.9000      8.1389      2.4525      0.0492     11.9724     88.0875     26.4415
   728.0000      8.1401      2.4410      0.0390     12.6696     88.6204     25.7611
   728.1000      8.1401      2.4103     -0.0030     14.5296     95.5951     25.1765
   728.2000      8.1401      2.3814     -0.0102     16.2814    104.3787     24.8060
   728.3000      8.1742      2.3677      0.0020     17.1119    112.1152     24.2425
   728.4000      8.1742      2.3490      0.0448     18.2440    119.0096     23.4368
   728.5000      8.2332      2.2988      0.0285     21.2819    119.0249     22.6234
   728.6000      8.2332      2.2214     -0.0092     25.9728    109.7878     21.9920
   728.7000      8.2332      2.1449      0.0124     30.6100     99.7689     21.8840
   728.8000      8.2424      2.0830      0.0637     34.3609     95.4740     22.2266
   728.9000      8.2424      2.0414     -0.0072     36.8847     93.9107     22.7489
   729.0000      8.2551      2.0383      0.0189     37.0733     92.0132     23.5576
   729.1000      8.2551      2.0734      0.1178     34.9462     92.5190     24.4239
   729.2000      8.2551      2.1221      0.1278     31.9966     94.8930     24.8821
   729.3000      8.2541      2.1717      0.1334     28.9893     95.1545     25.1421
   729.4000      8.2541      2.2194      0.2337     26.0959     93.6286     25.6193
   729.5000      8.1974      2.2576      0.2232     23.7817     93.8721     26.2083
   729.6000      8.1974      2.2923      0.1127     21.6768     97.8367     26.6739
   729.7000      8.1974      2.3325      0.0972     19.2445    101.6263     27.0122
   729.8000      8.1460      2.3639      0.0716     17.3364    100.4296     27.1043
   729.9000      8.1460      2.3771      0.0091     16.5383     97.7228     26.9237
   730.0000      8.1420      2.3805      0.0113     16.3349     99.3344     26.6942
   730.1000      8.1420      2.3858     -0.0520     16.0104    101.9503     26.5740
   730.2000      8.1420      2.4063      0.0018     14.7724    100.9561     26.5773
   730.3000      8.0975      2.4366      0.1067     12.9354    100.7245     26.7285
   730.4000      8.0975      2.4624      0.0607     11.3709    103.8312     26.9708
   730.5000      8.0730      2.4863      0.1083      9.9212    105.7104     27.0052
   730.6000      8.0730      2.5087      0.1774      8.5624    102.6265     26.8062
   730.7000      8.0730      2.5215      0.1904      7.7903     95.8520     26.6674
   730.8000      8.0798      2.5273      0.1485      7.4364     89.1970     26.5783
   730.9000      8.0798      2.5319      0.1214      7.1602     86.5528     26.3649
   731.0000      8.0217      2.5284      0.1244      7.3721     89.6097     26.2607
   731.1000      8.0217      2.5058      0.1631      8.7382     95.5371     26.4006
   731.2000      8.0217      2.4675      0.0783     11.0623    100.3030     26.3073
   731.3000      8.0121      2.4434      0.0201     12.5195    102.5002     25.8661
   731.4000      8.0121      2.4459      0.0830     12.3692    105.2523     25.6628
   731.5000      8.0017      2.4494      0.0595     12.1590    111.7994     25.9734
   731.6000      8.0017      2.4494      0.0188     12.1595    119.2495     26.4186
   731.7000      8.0017      2.4583      0.0631     11.6176    119.4241     26.7161
   731.8000      8.0296      2.4685      0.0651     11.0030    108.9162     27.0132
   731.9000      8.0296      2.4731      0.0845     10.7225     97.8724     27.3270
   732.0000      8.0327      2.4780      0.1473     10.4271     96.7924     27.3601
   732.1000      8.0327      2.4872      0.1045      9.8657    103.6250     26.9265
   732.2000      8.0327      2.4962      0.1216      9.3187    111.1015     26.2989
   732.3000      8.0786      2.4957      0.0839      9.3528    114.4651     26.1318
   732.4000      8.0786      2.4952     -0.0059      9.3804    110.7946     26.7200
   732.5000      8.0331      2.5079      0.0882      8.6128    102.9733     27.6854
   732.6000      8.0331      2.5248      0.0940      7.5869     97.9673     28.5783
   732.7000      8.0331      2.5452      0.0700      6.3537     95.8485     29.1169
   732.8000      8.0444      2.5711      0.1208      4.7802     95.2196     29.1597
   732.9000      8.0444      2.5880      0.1160      3.7559     96.6021     28.8174
   733.0000      8.0737      2.5910      0.0765      3.5777     96.8324     28.5252
   733.1000      8.0737      2.5841      0.0719      3.9914     94.7003     28.4967
   733.2000      8.0737      2.5678      0.0129      4.9841     90.7387     28.4554
   733.3000      8.0749      2.5539     -0.0619      5.8214     83.9063     28.1996
   733.4000      8.0749      2.5498      0.0510      6.0713     76.4856     27.7388
   733.5000      8.0814      2.5420     -0.0158      6.5462     72.7611     27.0115
   733.6000      8.0814      2.5287     -0.0003      7.3533     74.9524     26.2223
   733.7000      8.0814      2.5246     -0.0100      7.6008     80.4365     25.7722
   733.8000      8.1000      2.5355     -0.0093      6.9408     84.8442     25.3700
   733.9000      8.1000      2.5483      0.0335      6.1659     87.5823     24.6276
   734.0000      8.1279      2.5540     -0.0448      5.8206     87.9751     24.0302
   734.1000      8.1279      2.5608      0.0073      5.4040     85.6516     24.0874
   734.2000      8.1279      2.5740      0.0360      4.6053     83.7793     24.6269
   734.3000      8.0863      2.5779      0.1129      4.3676     84.9087     25.0971
   734.4000      8.0863      2.5502      0.0368      6.0485     88.3614     25.0274
   734.5000      8.0629      2.5007      0.0091      9.0455     93.0027     24.5051
   734.6000      8.0629      2.4645     -0.0794     11.2451     97.7247     24.0148
   734.7000      8.0629      2.4567     -0.0071     11.7156     99.8980     23.9094
   734.8000      8.0845      2.4568      0.0160     11.7088     99.1843     24.2197
   734.9000      8.0845      2.4376      0.0490     12.8742     96.4610     24.6654
   735.0000      8.0953      2.4070     -0.0513     14.7266     91.8210     24.9871
   735.1000      8.0953      2.4047     -0.0369     14.8682     87.1911     25.0831
   735.2000      8.0953      2.4427      0.0141     12.5610     85.0860     25.0459
   735.3000      8.0828      2.4935      0.0309      9.4876     85.6435     25.2456
   735.4000      8.0828      2.5287      0.0459      7.3486     87.1835     25.7762
   735.5000      8.0891      2.5432      0.0576      6.4717     88.0859     26.2385
   735.6000      8.0891      2.5438      0.0801      6.4347     87.9516     26.2438
   735.7000      8.0891      2.5429      0.0395      6.4910     87.0273     25.8824
   735.8000      8.0576      2.5575      0.0741      5.6057     86.6932     25.5685
   735.9000      8.0576      2.5740      0.1530      4.6056     89.2836     25.2836
   736.0000      8.0130      2.5559      0.1546      5.7006     94.0194     24.8021
   736.1000      8.0130      2.5038      0.0855      8.8632     98.3971     24.5238
   736.2000      8.0130      2.4516      0.0643     12.0237    100.6292     24.9560
   736.3000      7.9787      2.4153      0.0970     14.2267    102.0552     25.6500
