~Version Information
VERS.                      2.0: CWLS Log ASCII Standard - VERSION 2.0
WRAP.                       NO: One line per depth step
~Well Information Block
STRT.FT               823.7000: 
STOP.FT              2444.0000: 
STEP.FT                 0.1000: 
NULL.                -999.2500: 
COMP.          Petrogulf Corporation: COMPANY
WELL.            Kraft 17-23 V: WELL
FLD.           Purgatorie River: FIELD
LOC.           1500' FSL & 1773' FWL: LOCATION
CNTY.               Las Animas: COUNTY
SRVC.                         : SERVICE COMPANY
DATE.          Thu Nov 20 07:09:00 2003: LOG DATE
UWI.                          : UNIQUE WELL ID
STAT.                 Colorado: STATE
~Curve Information Block
DEPT.FT            0 000 00 00: Depth
DCAL.in                       : CDL Caliper
RHOB.g/cc                     : CDL Bulk Density
RHOC.g/cc                     : CDL Density Correction
DPOR.pu                       : CDL Density Porosity
GR.GAPI                       : Gamma Ray
NPOR.pu                       : Neutron Porosity
~Parameter Information Block
~A  Depth       DCAL        RHOB        RHOC        DPOR         GR         NPOR    
# ...
  1159.7000      8.1922      2.4639      0.0290     11.2774     37.3456     15.5852
  1159.8000      8.1990      2.4597      0.0128     11.5346     35.7846     16.9258
  1159.9000      8.1990      2.4616      0.0177     11.4209     33.0313     18.3258
  1160.0000      8.2155      2.4727      0.0367     10.7478     32.5147     18.9854
  1160.1000      8.2155      2.4819      0.0817     10.1901     32.1204     18.6251
  1160.2000      8.2155      2.4775      0.0400     10.4539     28.8743     17.7532
  1160.3000      8.1972      2.4715     -0.0136     10.8186     26.1048     17.0761
  1160.4000      8.1972      2.4847      0.0167     10.0193     27.2557     16.9787
  1160.5000      8.1630      2.5105      0.0463      8.4571     30.7268     17.0963
  1160.6000      8.1630      2.5297      0.0986      7.2912     35.2670     16.9771
  1160.7000      8.1630      2.5398      0.0950      6.6763     39.7604     17.0770
  1160.8000      8.1524      2.5473      0.1108      6.2227     42.5152     17.7088
  1160.9000      8.1524      2.5411      0.1387      6.6024     42.6090     18.4066
  1161.0000      8.1087      2.5087      0.0563      8.5664     40.4728     18.8711
  1161.1000      8.1087      2.4704      0.0012     10.8860     38.2770     19.1024
  1161.2000      8.1087      2.4478      0.0156     12.2565     37.2020     19.1045
  1161.3000      8.0635      2.4346      0.0634     13.0525     37.0635     18.9715
  1161.4000      8.0635      2.4304     -0.0140     13.3064     36.6557     19.0516
  1161.5000      8.1283      2.4409      0.0862     12.6714     35.7488     19.4535
  1161.6000      8.1283      2.4472      0.0644     12.2904     37.5659     19.6716
  1161.7000      8.1283      2.4322      0.0218     13.1979     42.6200     19.3176
  1161.8000      8.2218      2.4118     -0.0410     14.4337     46.3109     18.9259
  1161.9000      8.2218      2.4149     -0.0302     14.2501     46.0457     19.0802
  1162.0000      8.2616      2.4364      0.0760     12.9440     42.6864     19.5705
  1162.1000      8.2616      2.4377      0.0986     12.8677     38.9751     19.9707
  1162.2000      8.2616      2.4141     -0.0024     14.2997     37.6347     20.1991
  1162.3000      8.2017      2.4113     -0.0281     14.4665     38.8447     20.3039
  1162.4000      8.2017      2.4451      0.0535     12.4175     40.6375     20.3998
  1162.5000      8.0987      2.4723      0.1091     10.7667     40.6064     20.5062
  1162.6000      8.0987      2.4701      0.0457     10.9006     40.0120     20.5426
  1162.7000      8.0987      2.4619      0.0498     11.3999     40.1505     20.4112
  1162.8000      8.1095      2.4589      0.0557     11.5815     39.0102     20.1165
  1162.9000      8.1095      2.4540      0.0482     11.8758     36.4574     20.0393
  1163.0000      8.1545      2.4567      0.0008     11.7130     33.8976     20.3657
  1163.1000      8.1545      2.4752      0.1041     10.5918     32.4186     20.6644
  1163.2000      8.1545      2.4923      0.1057      9.5595     33.1524     20.7355
  1163.3000      8.1667      2.4845      0.1455     10.0284     34.4237     20.9213
  1163.4000      8.1667      2.4527      0.0278     11.9552     34.7305     21.2723
  1163.5000      8.1976      2.4247      0.0060     13.6536     35.2493     21.4708
  1163.6000      8.1976      2.4114      0.0221     14.4582     36.8554     21.5039
  1163.7000      8.1976      2.3986      0.0202     15.2348     40.4426     21.5315
  1163.8000      8.2111      2.3917     -0.0661     15.6521     45.1609     21.2271
  1163.9000      8.2111      2.4101      0.0051     14.5421     47.5311     20.4060
  1164.0000      8.2120      2.4405      0.0908     12.6986     45.0017     19.6410
  1164.1000      8.2120      2.4510      0.0745     12.0603     40.1031     19.6152
  1164.2000      8.2120      2.4338      0.0212     13.1029     37.6683     20.0237
  1164.3000      8.2058      2.4030      0.0279     14.9718     38.2329     20.1358
  1164.4000      8.2058      2.3793      0.0011     16.4063     38.2952     19.9607
  1164.5000      8.2005      2.3801     -0.0418     16.3599     36.3838     19.6445
  1164.6000      8.2005      2.4017     -0.0219     15.0497     35.7096     19.1805
  1164.7000      8.2005      2.4221      0.0413     13.8127     37.8357     19.0090
  1164.8000      8.2072      2.4304      0.0019     13.3101     40.0914     19.4831
  1164.9000      8.2072      2.4388     -0.0017     12.7998     39.7750     20.1441
  1165.0000      8.2046      2.4484      0.1273     12.2159     36.9331     20.4874
  1165.1000      8.2046      2.4502      0.0642     12.1114     33.9021     20.6182
  1165.2000      8.2046      2.4477      0.0267     12.2628     31.5510     20.6391
  1165.3000      8.1965      2.4366      0.0704     12.9355     31.8623     20.6187
  1165.4000      8.1965      2.4156     -0.0228     14.2032     37.2639     20.7937
  1165.5000      8.1936      2.4096     -0.0251     14.5672     44.0604     21.0148
  1165.6000      8.1936      2.4345     -0.0003     13.0582     46.6238     20.8487
  1165.7000      8.1936      2.4722      0.0830     10.7737     44.9968     20.1442
  1165.8000      8.1855      2.4940      0.0882      9.4554     43.7416     19.1854
  1165.9000      8.1855      2.4945      0.0573      9.4242     44.3672     18.3635
  1166.0000      8.1721      2.4850      0.1223      9.9981     43.1802     17.8456
  1166.1000      8.1721      2.4735      0.1023     10.6998     38.7377     17.7512
  1166.2000      8.1721      2.4687      0.0490     10.9850     35.0542     17.9145
  1166.3000      8.1581      2.4754      0.1136     10.5808     33.8706     17.9901
  1166.4000      8.1581      2.4897      0.0363      9.7173     34.3776     17.9549
  1166.5000      8.1544      2.5063      0.0584      8.7078     37.0537     17.6223
  1166.6000      8.1544      2.5155      0.0467      8.1516     40.2933     16.9498
  1166.7000      8.1544      2.5077      0.1039      8.6269     40.4226     16.3638
  1166.8000      8.1710      2.4862      0.0340      9.9256     36.6101     15.9184
  1166.9000      8.1710      2.4732      0.0131     10.7172     32.7962     15.5027
  1167.0000      8.1800      2.4832      0.0462     10.1085     29.2364     15.2887
  1167.1000      8.1800      2.5089      0.0236      8.5519     24.6402     15.3485
  1167.2000      8.1800      2.5321      0.0864      7.1443     23.8316     15.5131
  1167.3000      8.1613      2.5364      0.0851      6.8857     27.9139     15.4056
  1167.4000      8.1613      2.5265      0.0483      7.4868     31.7140     14.9380
  1167.5000      8.1611      2.5134      0.0523      8.2767     33.3721     14.3952
  1167.6000      8.1611      2.4991     -0.0155      9.1467     33.0543     13.9810
  1167.7000      8.1611      2.4931      0.0288      9.5114     30.4501     13.7774
  1167.8000      8.1593      2.5019      0.0481      8.9785     26.2957     13.8587
  1167.9000      8.1593      2.5195      0.0226      7.9072     23.6670     14.2654
  1168.0000      8.1445      2.5325      0.1274      7.1231     24.3307     14.6586
  1168.1000      8.1445      2.5312      0.0767      7.1996     25.3360     15.0243
  1168.2000      8.1445      2.5230      0.1079      7.6944     25.2208     15.6997
  1168.3000      8.1787      2.5177      0.0571      8.0203     25.5686     16.5616
  1168.4000      8.1787      2.5180      0.0910      8.0010     26.6836     17.2783
  1168.5000      8.2110      2.5203      0.0341      7.8601     28.3613     17.6251
  1168.6000      8.2110      2.5184      0.0739      7.9767     29.2427     17.7157
  1168.7000      8.2110      2.5041      0.0751      8.8412     28.1263     17.9292
  1168.8000      8.2216      2.4798     -0.0036     10.3137     26.8648     18.3208
  1168.9000      8.2216      2.4594      0.0418     11.5527     27.8656     18.6016
  1169.0000      8.2223      2.4553     -0.0363     11.7990     31.7924     18.6881
  1169.1000      8.2223      2.4722      0.0471     10.7781     36.0391     18.9054
  1169.2000      8.2223      2.4969      0.0177      9.2759     37.1499     19.6073
