~Version Information
VERS.                      2.0: CWLS Log ASCII Standard - VERSION 2.0
WRAP.                       NO: One line per depth step
~Well Information Block
STRT.FT                37.7500: 
STOP.FT              1898.5000: 
STEP.FT                 0.2500: 
NULL.                -999.2500: 
COMP.          Petrogulf Corporation: COMPANY
WELL.           Montoya 12-41R: WELL
FLD.           Purgatorie River: FIELD
LOC.           1086' FNL & 610' FEL--: LOCATION
PROV.                       CO: PROVINCE
CNTY.               Las Animas: COUNTRY
SRVC.                         : SERVICE COMPANY
DATE.          Wed Feb 09 11:45:45 2005: LOG DATE
UWI.         005 071 08241 : UNIQUE WELL ID
~Curve Information Block
DEPT.FT            0 000 00 00: Depth
CCL.                          : Casing Collar Locator
TT3.usec                      : CBL 3' Travel Time
AMP3.mV                       : CBL 3' Amplitude
GR.GAPI                       : Gamma Ray
~Parameter Information Block
~A  Depth       CCL         TT3         AMP3         GR     
# ...
   272.2500      0.0000    265.7603     83.7398     92.2909
   272.5000      0.0000    265.7229     83.8764     88.1927
   272.7500      0.0000    265.7128     83.9742     86.0514
   273.0000      0.0000    265.7317     84.0319     85.9662
   273.2500      0.0000    265.7697     84.0475     88.0745
   273.5000      0.0000    265.8120     84.0003     92.5785
   273.7500      0.0000    265.8435     83.8789     99.0562
   274.0000      0.0000    265.8522     83.7227    105.7320
   274.2500      0.0000    265.8327     83.6140    109.8556
   274.5000      0.0000    265.7880     83.6219    109.6622
   274.7500      0.0000    265.7290     83.7439    106.5026
   275.0000      0.0000    265.6720     83.8935    104.5379
   275.2500      0.0000    265.6319     83.9556    107.5088
   275.5000      0.0000    265.6164     83.8725    115.7263
   275.7500      0.0000    265.6241     83.6827    126.4630
   276.0000      0.0000    265.6483     83.4807    136.9030
   276.2500      0.0000    265.6814     83.3468    145.9099
   276.5000      0.0000    265.7158     83.3128    153.0673
   276.7500      0.0000    265.7433     83.3746    157.3672
   277.0000      0.0000    265.7557     83.5142    157.9225
   277.2500      0.0000    265.7498     83.6991    155.6946
   277.5000      0.0000    265.7319     83.8794    153.4326
   277.7500      0.0000    265.7130     84.0112    153.3159
   278.0000      0.0000    265.7018     84.0856    154.8579
   278.2500      0.0000    265.7046     84.1264    155.5207
   278.5000      0.0000    265.7257     84.1745    153.1588
   278.7500      0.0000    265.7591     84.2778    147.4950
   279.0000      0.0000    265.7822     84.4632    139.6274
   279.2500      0.0000    265.7719     84.6892    130.8180
   279.5000      0.0000    265.7296     84.8423    121.8503
   279.7500      0.0000    265.6829     84.8174    113.2907
   280.0000      0.0000    265.6619     84.6043    106.2374
   280.2500      0.0000    265.6764     84.2965    102.3939
   280.5000      0.0000    265.7115     84.0307    102.7108
   280.7500      0.0000    265.7379     83.9144    105.9524
   281.0000      0.0000    265.7327     83.9692    109.2917
   281.2500      0.0000    265.6974     84.1177    110.5944
   281.5000      0.0000    265.6591     84.2318    109.8141
   281.7500      0.0000    265.6480     84.2138    108.0434
   282.0000      0.0000    265.6728     84.0510    105.7032
   282.2500      0.0000    265.7177     83.8172    102.3652
   282.5000      0.0000    265.7581     83.6255     98.1525
   282.7500      0.0000    265.7769     83.5511     94.2639
   283.0000      0.0000    265.7706     83.5808     91.8049
   283.2500      0.0000    265.7471     83.6448     90.8277
   283.5000      0.0000    265.7198     83.7013     90.7608
   283.7500      0.0000    265.6995     83.7729     91.0295
   284.0000      0.0000    265.6880     83.8981     90.9563
   284.2500      0.0000    265.6795     84.0631     89.8477
   284.5000      0.0000    265.6689     84.1957     87.9022
   284.7500      0.0000    265.6599     84.2249     86.7628
   285.0000      0.0000    265.6632     84.1398     88.5004
   285.2500      0.0000    265.6846     83.9920     93.8608
   285.5000      0.0000    265.7140     83.8516    101.5009
   285.7500      0.0000    265.7299     83.7624    108.7103
   286.0000      0.0000    265.7156     83.7284    112.9874
   286.2500      0.0000    265.6727     83.7355    113.6082
   286.5000      0.0000    265.6239     83.7762    112.1597
   286.7500      0.0000    265.5985     83.8476    111.4049
   287.0000      0.0000    265.6089     83.9383    113.2600
   287.2500      0.0000    265.6384     84.0387    117.4069
   287.5000      0.0000    265.6566     84.1550    121.5388
   287.7500      0.0000    265.6477     84.2896    123.0985
   288.0000      0.0000    265.6222     84.4089    121.1458
   288.2500      0.0000    265.6009     84.4552    116.7311
   288.5000      0.0000    265.5944     84.3896    111.7168
   288.7500      0.0000    265.6006     84.2145    107.6272
   289.0000      0.0000    265.6163     83.9608    105.3949
   289.2500      0.0000    265.6418     83.6711    105.3547
   289.5000      0.0000    265.6736     83.3971    106.9480
   289.7500      0.0000    265.7020     83.2021    108.8061
   290.0000      0.0000    265.7177     83.1492    109.6699
   290.2500      0.0000    265.7178     83.2669    109.3454
   290.5000      0.0000    265.7070     83.5138    108.8676
   290.7500      0.0000    265.6941     83.7888    110.0700
   291.0000      0.0000    265.6864     83.9930    114.6282
   291.2500      0.0000    265.6858     84.0825    122.4885
   291.5000      0.0000    265.6892     84.0506    131.1109
   291.7500      0.0000    265.6922     83.8562    137.0751
   292.0000      0.0000    265.6982     83.3285    138.7552
   292.2500      0.0000    265.7404     82.0886    137.2197
   292.5000      0.0000    265.9122     79.6060    134.8009
   292.7500      0.0000    266.3687     75.5701    133.3809
   293.0000      0.0000    267.2491     70.4297    133.8810
   293.2500      0.0000    268.5466     65.4700    136.4951
   293.5000      0.0000    270.0466     62.0221    140.7841
   293.7500      0.0000    271.4332     60.4651    145.7013
   294.0000      0.0000    272.4787     60.1265    150.0592
   294.2500      0.0000    273.1389     60.1133    153.2944
   294.5000      0.0000    273.5009     60.0088    155.6134
   294.7500      0.0000    273.6794     59.8381    157.1576
   295.0000      2.0000    273.7505     59.7515    157.3654
   295.2500      0.0000    273.7354     59.9834    155.6562
   295.5000      0.0000    273.6121     61.0328    152.3966
   295.7500      0.0000    273.3354     63.5866    148.4006
   296.0000      0.0000    272.8534     67.9247    143.8401
   296.2500      0.0000    272.1265     73.3154    138.7558
   296.5000      0.0000    271.1655     78.2616    134.4707
   296.7500      0.0000    270.0712     81.5684    133.0851
   297.0000      0.0000    269.0198     83.1035    135.0704
   297.2500      0.0000    268.1794     83.5290    138.4125
   297.5000      0.0000    267.6246     83.5383    140.7229
   297.7500      0.0000    267.3257     83.4504    141.4005
   298.0000      0.0000    267.2014     83.3054    141.3842
   298.2500      0.0000    267.1724     83.0962    141.6867
   298.5000      0.0000    267.1832     82.8652    142.5487
   298.7500      0.0000    267.2021     82.6782    143.4033
   299.0000      0.0000    267.2155     82.5826    143.4973
   299.2500      0.0000    267.2197     82.5968    142.7286
   299.5000      0.0000    267.2136     82.7059    141.7525
   299.7500      0.0000    267.1979     82.8585    141.2056
   300.0000      0.0000    267.1793     82.9929    140.9845
   300.2500      0.0000    267.1697     83.0828    140.1493
   300.5000      0.0000    267.1793     83.1514    137.3253
   300.7500      0.0000    267.2079     83.2302    131.6782
   301.0000      0.0000    267.2439     83.3146    124.1707
   301.2500      0.0000    267.2709     83.3646    117.7517
   301.5000      0.0000    267.2771     83.3430    115.6392
   301.7500      0.0000    267.2625     83.2456    118.9203
   302.0000      0.0000    267.2392     83.1060    125.3941
   302.2500      0.0000    267.2244     82.9808    130.7791
   302.5000      0.0000    267.2285     82.9208    131.6988
   302.7500      0.0000    267.2488     82.9389    127.9895
   303.0000      0.0000    267.2714     82.9994    122.3018
   303.2500      0.0000    267.2787     83.0490    117.8465
   303.5000      0.0000    267.2598     83.0666    116.6474
   303.7500      0.0000    267.2164     83.0758    119.1298
   304.0000      0.0000    267.1609     83.1138    124.2950
   304.2500      0.0000    267.1057     83.1997    129.9924
   304.5000      0.0000    267.0552     83.3221    133.6402
   304.7500      0.0000    267.0103     83.4297    133.6236
   305.0000      0.0000    266.9760     83.4412    130.4375
   305.2500      0.0000    266.9631     83.3017    126.1065
   305.5000      0.0000    266.9795     83.0474    122.1977
