~Version Information
VERS.                      2.0: CWLS Log ASCII Standard - VERSION 2.0
WRAP.                       NO: One line per depth step
~Well Information Block
STRT.FT               -12.0000: 
STOP.FT              2137.5000: 
STEP.FT                 0.2500: 
NULL.                -999.2500: 
COMP.          Pioneer Natural Resources: COMPANY
WELL.           Ogallela 44-12: WELL
FLD.           Purgatorie River: FIELD
LOC.           610' FSL & 671' FEL------------: LOCATION
PROV.                       CO: PROVINCE
CNTY.               Las Animas: COUNTRY
SRVC.          Patterson Wireline: SERVICE COMPANY
DATE.          Thu Apr 07 14:25:46 2005: LOG DATE
UWI.           05 071 08283 00: UNIQUE WELL ID
~Curve Information Block
DEPT.FT            0 000 00 00: Depth
CCL.                          : Casing Collar Locator
TT3.usec                      : CBL 3' Travel Time
AMP3.mV                       : CBL 3' Amplitude
ATT3.db/ft                    : CBL 3' Attenuation
GR.GAPI                       : Gamma Ray
~Parameter Information Block
~A  Depth       CCL         TT3         AMP3        ATT3         GR     
# ...
  1696.0000      0.0000    692.5394      4.3906     -8.8956    161.0309
  1696.2500      0.0000    699.3876      4.4194     -8.8766    159.3412
  1696.5000      0.0000    704.6218      4.4153     -8.8793    159.7336
  1696.7500      0.0000    707.4575      4.3567     -8.9180    161.8626
  1697.0000      0.0000    708.3654      4.2377     -8.9982    163.7855
  1697.2500      0.0000    707.7467      4.1045     -9.0907    163.8669
  1697.5000      0.0000    705.3627      4.0052     -9.1616    162.6306
  1697.7500      0.0000    700.7977      3.9278     -9.2180    162.4852
  1698.0000      0.0000    694.5776      3.8331     -9.2887    165.3511
  1698.2500      0.0000    688.7928      3.7302     -9.3675    170.6129
  1698.5000      0.0000    686.0900      3.6711     -9.4137    175.5437
  1698.7500      0.0000    687.5067      3.6806     -9.4063    177.6027
  1699.0000      0.0000    691.4218      3.7450     -9.3560    176.0824
  1699.2500      0.0000    695.0317      3.8631     -9.2661    171.8729
  1699.5000      0.0000    696.8320      4.0541     -9.1264    166.5658
  1699.7500      0.0000    697.3137      4.3030     -8.9539    162.1265
  1700.0000      0.0000    697.5110      4.5400     -8.7987    160.5593
  1700.2500      0.0000    697.8948      4.6969     -8.7003    162.8083
  1700.5000      0.0000    699.1541      4.7637     -8.6594    167.5900
  1700.7500      0.0000    703.1818      4.7722     -8.6542    171.6337
  1701.0000      0.0000    712.1499      4.7477     -8.6691    171.7762
  1701.2500      0.0000    726.1852      4.6986     -8.6992    167.3997
  1701.5000      0.0000    741.9854      4.6268     -8.7438    161.0358
  1701.7500      0.0000    754.0691      4.5164     -8.8137    156.3550
  1702.0000      0.0000    758.2468      4.3296     -8.9361    155.0976
  1702.2500      0.0000    754.6115      4.0511     -9.1286    155.8211
  1702.5000      0.0000    747.1873      3.7342     -9.3644    155.6293
  1702.7500      0.0000    740.4201      3.4725     -9.5748    153.0061
  1703.0000      0.0000    735.8661      3.3178     -9.7067    149.0840
  1703.2500      0.0000    732.1978      3.2498     -9.7667    146.5285
  1703.5000      0.0000    728.2560      3.2259     -9.7881    147.2236
  1703.7500      0.0000    725.2138      3.2277     -9.7864    150.6223
  1704.0000      0.0000    725.0060      3.2502     -9.7663    154.0669
  1704.2500      0.0000    727.3676      3.2879     -9.7329    154.7686
  1704.5000      0.0000    729.9126      3.3584     -9.6715    151.8543
  1704.7500      0.0000    731.1987      3.5041     -9.5486    146.9926
  1705.0000      0.0000    732.2795      3.7378     -9.3616    143.1687
  1705.2500      0.0000    734.7776      4.0040     -9.1624    142.4010
  1705.5000      0.0000    738.9395      4.2180     -9.0117    144.1745
  1705.7500      0.0000    744.0885      4.3378     -8.9306    145.9615
  1706.0000      0.0000    749.0664      4.3795     -8.9029    145.3520
  1706.2500      0.0000    751.5349      4.3690     -8.9098    141.8307
  1706.5000      0.0000    749.2089      4.3015     -8.9549    136.8056
  1706.7500      0.0000    743.3475      4.1661     -9.0475    132.3389
  1707.0000      0.0000    739.4395      3.9894     -9.1730    129.8439
  1707.2500      0.0000    742.5994      3.8218     -9.2973    129.5329
  1707.5000      0.0000    752.2877      3.6770     -9.4091    130.6391
  1707.7500      0.0000    762.5728      3.5286     -9.5284    132.0654
  1708.0000      0.0000    768.3926      3.3739     -9.6582    133.1368
  1708.2500      0.0000    770.9149      3.2600     -9.7576    133.9391
  1708.5000      0.0000    775.3035      3.2231     -9.7905    134.9475
  1708.7500      0.0000    783.8306      3.2424     -9.7732    136.3770
  1709.0000      0.0000    793.3952      3.2838     -9.7366    138.0111
  1709.2500      0.0000    799.7281      3.3506     -9.6783    139.5232
  1709.5000      0.0000    801.8503      3.4535     -9.5907    140.7801
  1709.7500      0.0000    801.7397      3.5592     -9.5034    141.9074
  1710.0000      0.0000    801.0521      3.6202     -9.4542    143.2598
  1710.2500      0.0000    799.1752      3.6449     -9.4344    145.2431
  1710.5000      0.0000    793.9294      3.6903     -9.3986    147.9037
  1710.7500      0.0000    783.3103      3.7817     -9.3278    150.5662
  1711.0000      0.0000    767.0316      3.8812     -9.2526    152.0597
  1711.2500      0.0000    747.4644      3.9428     -9.2070    151.4496
  1711.5000      0.0000    728.8107      3.9593     -9.1949    148.4154
  1711.7500      0.0000    714.3292      3.9397     -9.2093    142.9268
  1712.0000      0.0000    704.2236      3.8736     -9.2583    135.0438
  1712.2500      0.0000    696.5590      3.7530     -9.3498    125.2379
  1712.5000      0.0000    689.9768      3.6164     -9.4572    114.4849
  1712.7500      0.0000    685.0078      3.5354     -9.5228    103.8764
  1713.0000      0.0000    682.5583      3.5446     -9.5152     94.5769
  1713.2500      0.0000    681.4634      3.6005     -9.4699     88.1336
  1713.5000      0.0000    678.4631      3.6174     -9.4564     86.2394
  1713.7500      0.0000    671.4395      3.5342     -9.5238     89.9374
  1714.0000      0.0000    662.7222      3.3501     -9.6786     99.0210
  1714.2500      0.0000    658.2089      3.1246     -9.8804    111.8116
  1714.5000      0.0000    662.1131      2.9496    -10.0472    125.3069
  1714.7500      0.0000    672.6518      2.8969    -10.0995    136.2424
  1715.0000      0.0000    683.6960      2.9612    -10.0359    142.9516
  1715.2500      0.0000    690.4774      3.0661     -9.9351    146.3117
  1715.5000      0.0000    692.7823      3.1485     -9.8584    148.4362
  1715.7500      0.0000    693.0507      3.2301     -9.7843    150.2758
  1716.0000      0.0000    693.2128      3.3777     -9.6549    150.7388
  1716.2500      0.0000    694.0497      3.5987     -9.4714    148.2677
  1716.5000      0.0000    696.0981      3.8141     -9.3031    142.8938
  1716.7500      0.0000    699.7706      3.9404     -9.2087    136.2805
  1717.0000      0.0000    705.1022      3.9701     -9.1870    130.0374
  1717.2500      0.0000    712.4544      3.9526     -9.1998    124.6023
  1717.5000      0.0000    723.3312      3.9169     -9.2261    119.7180
  1717.7500      0.0000    739.2725      3.8480     -9.2775    115.5492
  1718.0000      0.0000    759.0352      3.7391     -9.3606    113.0597
  1718.2500      0.0000    777.2020      3.6267     -9.4489    113.1360
  1718.5000      0.0000    786.8287      3.5493     -9.5114    115.2820
  1718.7500      0.0000    784.2056      3.5045     -9.5482    117.5443
  1719.0000      0.0000    770.9868      3.4767     -9.5712    118.0075
  1719.2500      0.0000    752.1127      3.4791     -9.5692    116.1924
  1719.5000      0.0000    732.5201      3.5292     -9.5279    112.9444
  1719.7500      0.0000    715.7110      3.5939     -9.4753    109.4239
  1720.0000      0.0000    704.3910      3.6081     -9.4638    106.4518
  1720.2500      0.0000    701.1846      3.5573     -9.5049    104.3763
  1720.5000      0.0000    707.3661      3.5048     -9.5479    103.0329
  1720.7500      0.0000    720.6819      3.5129     -9.5412    101.8173
  1721.0000      0.0000    735.9578      3.5696     -9.4949    100.2161
  1721.2500      0.0000    748.9460      3.6256     -9.4498     98.5556
  1721.5000     -2.0000    758.5850      3.6758     -9.4100     97.9614
  1721.7500      0.0000    765.0551      3.7521     -9.3506     99.1635
  1722.0000      0.0000    767.1687      3.8544     -9.2727    101.5332
  1722.2500      0.0000    762.7255      3.9401     -9.2090    103.8214
  1722.5000      0.0000    751.1954      3.9777     -9.1815    105.6521
  1722.7500      0.0000    735.7512      3.9655     -9.1904    107.8516
  1723.0000      0.0000    722.0555      3.8935     -9.2435    111.5666
  1723.2500      0.0000    714.5100      3.7370     -9.3622    117.3845
  1723.5000      0.0000    714.1603      3.5057     -9.5472    124.8758
  1723.7500      0.0000    720.1130      3.2689     -9.7497    132.6574
