~Version Information
VERS.                      2.0: CWLS Log ASCII Standard - VERSION 2.0
WRAP.                       NO: One line per depth step
~Well Information Block
STRT.FT               375.0000: 
STOP.FT              1727.7000: 
STEP.FT                 0.1000: 
NULL.                -999.2500: 
COMP.          Pioneer Natural Resources: COMPANY
WELL.          Warrior 33-1 Tr: WELL
FLD.           Purgatoire River: FIELD
LOC.           2648' FSL & 2341' FEL--: LOCATION
PROV.                 Colorado: PROVINCE
CNTY.               Las Animas: COUNTRY
SRVC.                Patterson: SERVICE COMPANY
DATE.          Sat Jun 18 07:53:12 2005: LOG DATE
UWI.           05 071 08412 00: UNIQUE WELL ID
~Curve Information Block
DEPT.FT            0 000 00 00: Depth
DCAL.in                       : CDL Caliper
RHOB.g/cc                     : CDL Bulk Density
RHOC.g/cc                     : CDL Density Correction
DPOR.pu                       : CDL Density Porosity
NPOR.pu                       : Neutron Porosity
GR.GAPI                       : Gamma Ray
~Parameter Information Block
~A  Depth       DCAL        RHOB        RHOC        DPOR        NPOR         GR     
# ...
   989.4000      8.1472      2.4689      0.0158     10.9752     21.5542     49.8580
   989.5000      8.1615      2.4666      0.0216     11.1166     21.5416     47.5166
   989.6000      8.1615      2.4854      0.0713      9.9774     21.5239     46.2666
   989.7000      8.1615      2.4994      0.1145      9.1243     21.2750     45.3762
   989.8000      8.1792      2.5002      0.0499      9.0765     20.9803     42.4674
   989.9000      8.1792      2.5009      0.0647      9.0391     20.7292     37.2186
   990.0000      8.1915      2.5061      0.0708      8.7188     20.4048     32.5858
   990.1000      8.1915      2.5080      0.0833      8.6048     20.3733     30.9160
   990.2000      8.1915      2.5040      0.0787      8.8457     20.8117     31.8227
   990.3000      8.2023      2.4964      0.0620      9.3107     21.0025     33.4555
   990.4000      8.2023      2.4849      0.0722     10.0043     20.5675     34.4930
   990.5000      8.2108      2.4715      0.0446     10.8174     20.0950     33.6259
   990.6000      8.2108      2.4628      0.0209     11.3441     20.0812     30.6880
   990.7000      8.2108      2.4675      0.0094     11.0606     20.2715     27.9411
   990.8000      8.2137      2.4849      0.0716     10.0061     20.3761     26.5071
   990.9000      8.2137      2.4987      0.0721      9.1691     20.8235     25.1822
   991.0000      8.2147      2.4959      0.0905      9.3374     21.5084     23.9895
   991.1000      8.2147      2.4841      0.0285     10.0526     21.5319     24.2634
   991.2000      8.2147      2.4827      0.0449     10.1382     20.8427     25.0519
   991.3000      8.2156      2.4961      0.0853      9.3249     20.1684     23.8905
   991.4000      8.2156      2.5155      0.0450      8.1521     19.7090     22.0940
   991.5000      8.2159      2.5317      0.0950      7.1691     19.1649     23.0871
   991.6000      8.2159      2.5293      0.0849      7.3129     18.5824     25.3086
   991.7000      8.2159      2.5079      0.0576      8.6119     18.3340     25.2860
   991.8000      8.2173      2.4867      0.0665      9.8962     18.7003     24.0141
   991.9000      8.2173      2.4740      0.0432     10.6655     19.2796     24.7990
   992.0000      8.2225      2.4681     -0.0018     11.0231     19.6719     29.1073
   992.1000      8.2225      2.4694      0.0601     10.9484     20.2453     35.9140
   992.2000      8.2225      2.4735      0.0695     10.6979     20.9257     41.4700
   992.3000      8.2290      2.4816      0.0423     10.2067     20.9111     40.9603
   992.4000      8.2290      2.4926      0.1022      9.5400     20.3088     35.5739
   992.5000      8.2319      2.4920      0.0653      9.5763     20.0373     30.5769
   992.6000      8.2319      2.4828      0.0123     10.1332     20.3632     27.7196
   992.7000      8.2319      2.4819      0.0757     10.1882     20.8195     26.8541
   992.8000      8.2305      2.4949      0.0073      9.4022     21.0265     28.8185
   992.9000      8.2305      2.5147      0.0903      8.1979     21.1521     31.9675
   993.0000      8.2304      2.5197      0.0950      7.8951     21.6095     34.0241
   993.1000      8.2304      2.5007      0.0808      9.0489     22.3722     36.1324
   993.2000      8.2304      2.4738      0.0634     10.6790     23.1169     38.5672
   993.3000      8.2310      2.4600      0.0244     11.5157     23.6175     40.6399
   993.4000      8.2310      2.4611      0.0651     11.4464     23.6824     42.3977
   993.5000      8.2292      2.4628      0.0611     11.3459     23.5170     42.4927
   993.6000      8.2292      2.4656      0.0436     11.1755     23.5500     40.9493
   993.7000      8.2292      2.4728      0.0769     10.7397     23.8712     39.5419
   993.8000      8.2255      2.4693      0.0697     10.9524     24.1798     39.2282
   993.9000      8.2255      2.4418      0.0387     12.6182     24.4969     39.2115
   994.0000      8.2224      2.3873      0.0511     15.9194     25.1751     39.2632
   994.1000      8.2224      2.3109     -0.0112     20.5535     25.8831     41.7529
   994.2000      8.2224      2.2214      0.0014     25.9783     26.2341     47.5226
   994.3000      8.2189      2.1223     -0.0440     31.9806     26.7181     51.9493
   994.4000      8.2189      2.0259     -0.0713     37.8234     27.5001     51.4842
   994.5000      8.2149      1.9638     -0.1014     41.5881     28.3279     48.4244
   994.6000      8.2149      1.9647     -0.1376     41.5346     29.2556     46.3552
   994.7000      8.2149      2.0237     -0.0136     37.9569     30.2715     46.1339
   994.8000      8.2113      2.1033      0.0703     33.1335     30.8775     46.3157
   994.9000      8.2113      2.1725      0.1236     28.9379     30.8292     46.1685
   995.0000      8.2022      2.2260      0.2111     25.6990     30.7889     45.9327
   995.1000      8.2022      2.2605      0.2796     23.6088     31.1554     44.8978
   995.2000      8.2022      2.2638      0.2777     23.4071     31.6478     42.7291
   995.3000      8.1868      2.2277      0.2036     25.5911     32.1810     40.0427
   995.4000      8.1868      2.1509      0.0930     30.2489     32.9791     38.1738
   995.5000      8.2014      2.0338      0.0080     37.3449     34.0077     37.5265
   995.6000      8.2014      1.8848     -0.1058     46.3763     34.6118     37.4407
   995.7000      8.2014      1.7266     -0.1728     55.9619     34.4553     35.8533
   995.8000      8.2761      1.5865     -0.1893     64.4559     34.0069     32.5259
   995.9000      8.2761      1.4844     -0.1267     70.6422     33.5110     29.4708
   996.0000      8.3565      1.4224     -0.0239     74.3998     33.1280     26.6990
   996.1000      8.3565      1.3811      0.0248     76.9017     33.0840     24.8592
   996.2000      8.3565      1.3426      0.0210     79.2360     33.2218     26.2297
   996.3000      8.3755      1.3090     -0.0062     81.2751     33.6379     28.7956
   996.4000      8.3755      1.2923     -0.0145     82.2857     34.4197     27.7519
   996.5000      8.3512      1.2961      0.0066     82.0565     35.2623     24.4610
   996.6000      8.3512      1.3110      0.0430     81.1507     35.8231     23.4976
   996.7000      8.3512      1.3277      0.0454     80.1369     35.8288     25.6704
   996.8000      8.3798      1.3496      0.0393     78.8105     35.3728     29.2514
   996.9000      8.3798      1.3878      0.0577     76.4945     34.7139     32.5903
   997.0000      8.5292      1.4519      0.0721     72.6122     33.9022     36.1406
   997.1000      8.5292      1.5467      0.0973     66.8637     32.9343     39.4270
   997.2000      8.5292      1.6672      0.1679     59.5617     31.9119     41.6328
   997.3000      8.7246      1.8013      0.2254     51.4362     30.7998     46.5768
   997.4000      8.7246      1.9405      0.2735     43.0019     29.6888     54.8967
   997.5000      8.7024      2.0798      0.2908     34.5552     28.9857     60.6257
   997.6000      8.7024      2.2120      0.3114     26.5442     28.7354     63.0460
   997.7000      8.7024      2.3289      0.2946     19.4621     28.3939     65.9398
   997.8000      8.4228      2.4247      0.2667     13.6528     27.8999     68.0619
   997.9000      8.4228      2.4910      0.2803      9.6380     27.8192     68.0104
   998.0000      8.2152      2.5229      0.2258      7.7008     28.2237     69.0853
   998.1000      8.2152      2.5257      0.1579      7.5325     28.3735     71.4064
   998.2000      8.2152      2.5099      0.0773      8.4883     27.8081     72.5103
   998.3000      8.1585      2.4964      0.0305      9.3082     26.9653     72.8150
   998.4000      8.1585      2.4964      0.0650      9.3120     26.0609     71.9199
   998.5000      8.1448      2.4950      0.0881      9.3948     24.9178     68.0408
   998.6000      8.1448      2.4852      0.0399      9.9853     23.9592     64.1986
   998.7000      8.1448      2.4802      0.0437     10.2905     23.6635     63.3325
   998.8000      8.1389      2.4849      0.0261     10.0043     23.7056     62.7849
   998.9000      8.1389      2.4958      0.0574      9.3482     23.6415     62.0086
