~Version Information
VERS.                      2.0: CWLS Log ASCII Standard - VERSION 2.0
WRAP.                       NO: One line per depth step
~Well Information Block
STRT.FT                -3.2500: 
STOP.FT              1637.5000: 
STEP.FT                 0.2500: 
NULL.                -999.2500: 
COMP.          Pioneer Natural Resources: COMPANY
WELL.            Mad Dog 42-31: WELL
FLD.           Purgatorie River: FIELD
LOC.           2064' FNL & 479' FEL--: LOCATION
PROV.                       CO: PROVINCE
CNTY.               Las Animas: COUNTRY
SRVC.                         : SERVICE COMPANY
DATE.          Fri Oct 15 16:13:39 2004: LOG DATE
UWI.          005 071 08195   : UNIQUE WELL ID
~Curve Information Block
DEPT.FT            0 000 00 00: Depth
HVOLTA.V                      : Head Voltage Apparent
GR.GAPI                       : Gamma Ray
CCL.                          : Casing Collar Locator
TT3.usec                      : CBL 3' Travel Time
AMP3.mV                       : CBL 3' Amplitude
~Parameter Information Block
~A  Depth      HVOLTA        GR         CCL         TT3         AMP3    
    -3.2500   -999.2500   -999.2500   -999.2500   -999.2500   -999.2500
    -3.0000   -999.2500   -999.2500   -999.2500   -999.2500   -999.2500
    -2.7500   -999.2500   -999.2500   -999.2500   -999.2500   -999.2500
    -2.5000   -999.2500   -999.2500   -999.2500   -999.2500   -999.2500
    -2.2500   -999.2500   -999.2500   -999.2500   -999.2500   -999.2500
    -2.0000   -999.2500   -999.2500   -999.2500    921.0000     -0.2440
    -1.7500   -999.2500   -999.2500   -999.2500    921.0000     -0.2119
    -1.5000   -999.2500   -999.2500   -999.2500    921.0000     -0.1861
    -1.2500   -999.2500   -999.2500   -999.2500    921.0000     -0.1810
    -1.0000   -999.2500   -999.2500   -999.2500    921.0000     -0.2022
    -0.7500   -999.2500   -999.2500   -999.2500    921.0000     -0.2383
    -0.5000   -999.2500   -999.2500   -999.2500    921.0000     -0.2671
    -0.2500   -999.2500   -999.2500   -999.2500    921.0000     -0.2750
     0.0000   -999.2500   -999.2500   -999.2500    921.0000     -0.2670
     0.2500   -999.2500   -999.2500   -999.2500    921.0000     -0.2574
     0.5000   -999.2500   -999.2500   -999.2500    921.0000     -0.2526
     0.7500   -999.2500   -999.2500   -999.2500    921.0000     -0.2459
     1.0000   -999.2500   -999.2500   -999.2500    921.0000     -0.2264
     1.2500   -999.2500   -999.2500   -999.2500    921.0000     -0.1902
     1.5000   -999.2500   -999.2500   -999.2500    921.0000     -0.1450
     1.7500   -999.2500   -999.2500   -999.2500    921.0000     -0.1057
     2.0000   -999.2500   -999.2500   -999.2500    921.0000     -0.0849
     2.2500   -999.2500   -999.2500   -999.2500    921.0000     -0.0868
     2.5000   -999.2500   -999.2500   -999.2500    921.0000     -0.1081
     2.7500   -999.2500   -999.2500   -999.2500    921.0000     -0.1422
     3.0000   -999.2500   -999.2500   -999.2500    921.0000     -0.1813
     3.2500   -999.2500   -999.2500   -999.2500    921.0000     -0.2166
     3.5000   -999.2500   -999.2500      0.0000    921.0000     -0.2396
     3.7500   -999.2500   -999.2500      0.0000    921.0000     -0.2452
     4.0000   -999.2500   -999.2500      0.0000    921.0000     -0.2349
     4.2500   -999.2500   -999.2500      0.0000    921.0000     -0.2148
     4.5000   -999.2500   -999.2500      0.0000    920.9564     -0.1882
     4.7500   -999.2500   -999.2500      0.0000    920.6722     -0.1448
     5.0000   -999.2500   -999.2500      0.0000    919.2291     -0.0259
     5.2500   -999.2500   -999.2500      0.0000    913.5211      0.3653
     5.5000   -999.2500   -999.2500      0.0000    895.9381      1.5083
     5.7500   -999.2500   -999.2500      0.0000    853.7551      4.1957
     6.0000   -999.2500   -999.2500      0.0000    774.9376      9.1696
     6.2500   -999.2500   -999.2500      0.0000    660.2775     16.3942
     6.5000   -999.2500   -999.2500      0.0000    530.4816     24.6647
     6.7500   -999.2500   -999.2500      0.0000    416.7141     32.2214
     7.0000   -999.2500   -999.2500     -2.0000    341.5167     37.9182
     7.2500   -999.2500   -999.2500      0.0000    309.6924     41.7451
     7.5000   -999.2500   -999.2500      0.0000    313.7741     44.3642
     7.7500     96.9738   -999.2500      0.0000    340.3149     46.4600
     8.0000     97.1147   -999.2500      0.0000    370.0501     48.5641
     8.2500     97.3466     69.8513      0.0000    381.9806     51.1469
     8.5000     97.2927     66.7746      0.0000    366.4207     54.5370
     8.7500     97.4671     62.0714      0.0000    332.5064     58.6982
     9.0000     97.2414     56.8070      0.0000    298.3583     63.1766
     9.2500     97.2510     52.2307      0.0000    275.5577     67.3135
     9.5000     97.1494     49.2549      0.0000    264.5820     70.5697
     9.7500     97.1255     48.1636      0.0000    260.6402     72.7409
    10.0000     97.1518     48.6121      0.0000    259.5594     73.9576
    10.2500     97.0873     50.0089      0.0000    259.3248     74.5446
    10.5000     97.3847     52.0797      0.0000    259.2767     74.8628
    10.7500     97.2867     54.9999      0.0000    259.2743     75.1770
    11.0000     97.2257     58.9191      0.0000    259.2751     75.5900
    11.2500     96.9288     63.5179      0.0000    259.2770     76.0784
    11.5000     97.1400     68.1021      0.0000    259.2799     76.5904
    11.7500     97.0395     71.9076      0.0000    259.2852     77.0902
    12.0000     97.0705     74.2635      0.0000    259.2950     77.5334
    12.2500     97.1900     74.8383      0.0000    259.3095     77.8513
    12.5000     97.2068     73.9926      0.0000    259.3249     77.9898
    12.7500     97.1925     72.6734      0.0000    259.3342     77.9604
    13.0000     97.2068     71.6158      0.0000    259.3322     77.8479
    13.2500     97.0288     70.6773      0.0000    259.3206     77.7712
    13.5000     97.3059     69.2237      0.0000    259.3085     77.8395
    13.7500     97.4051     67.1003      0.0000    259.3079     78.1205
    14.0000     97.3943     64.8122      0.0000    259.3234     78.6019
    14.2500     97.0359     62.7071      0.0000    259.3473     79.1731
    14.5000     97.1650     60.4231      0.0000    259.3649     79.6831
    14.7500     97.3298     57.4259      0.0000    259.3669     80.0385
    15.0000     97.1351     53.8606      0.0000    259.3540     80.2391
    15.2500     97.2820     50.4843      0.0000    259.3330     80.3355
    15.5000     97.1590     47.8104      0.0000    259.3091     80.3815
    15.7500     97.1554     45.7448      0.0000    259.2835     80.4192
    16.0000     97.1996     44.1643      0.0000    259.2564     80.4707
    16.2500     97.1864     43.4479      0.0000    259.2294     80.5297
    16.5000     97.2068     44.1541      0.0000    259.2048     80.5741
    16.7500     97.1793     46.1945      0.0000    259.1829     80.5940
    17.0000     97.1732     48.5776      0.0000    259.1627     80.6039
    17.2500     97.1900     50.2715      0.0000    259.1472     80.6320
    17.5000     97.1900     51.2518      0.0000    259.1442     80.6987
    17.7500     97.2342     52.3126      0.0000    259.1584     80.7988
    18.0000     97.3466     53.8263      0.0000    259.1847     80.9074
    18.2500     97.1351     55.1792      0.0000    259.2099     81.0129
    18.5000     97.3298     55.6023      0.0000    259.2224     81.1396
    18.7500     97.1183     55.1634      0.0000    259.2186     81.3280
    19.0000     97.3298     54.5750      0.0000    259.2046     81.5887
    19.2500     97.2282     54.1635      0.0000    259.1914     81.8794
    19.5000     97.2784     53.4253      0.0000    259.1898     82.1301
    19.7500     97.1183     51.7841      0.0000    259.2051     82.2922
    20.0000     97.2749     49.5318      0.0000    259.2337     82.3627
    20.2500     97.0837     47.7351      0.0000    259.2643     82.3673
    20.5000     97.1996     47.3089      0.0000    259.2840     82.3303
    20.7500     97.2449     48.3294      0.0000    259.2880     82.2518
    21.0000     97.0323     50.0739      0.0000    259.2831     82.0808
    21.2500     97.3776     51.5887      0.0000    259.2888     81.6659
    21.5000     97.0670     52.3324      0.0000    259.3468     80.7238
    21.7500     97.2068     52.3618      0.0000    259.5391     78.9713
    22.0000     97.4122     51.9884      0.0000    259.9891     76.4211
    22.2500     97.1829     51.5818      0.0000    260.8029     73.5065
    22.5000     97.1757     51.7181      0.0000    261.9623     70.7803
    22.7500     97.1732     53.0298      0.0000    263.2670     68.5554
    23.0000     97.3334     55.5994      0.0000    264.4193     66.9335
    23.2500     97.0873     58.6801      0.0000    265.2045     65.9776
    23.5000     97.1793     61.1733      0.0000    265.5992     65.6617
    23.7500     97.1219     62.4007      0.0000    265.7187     65.7899
    24.0000     97.0491     62.5344      2.0000    265.6907     66.1189
    24.2500     97.2485     62.4678      0.0000    265.5833     66.4879
    24.5000     97.1960     63.2130      0.0000    265.4012     66.8410
