~Version Information
VERS.                      2.0: CWLS Log ASCII Standard - VERSION 2.0
WRAP.                       NO: One line per depth step
~Well Information Block
STRT.FT               460.0000: 
STOP.FT               961.2000: 
STEP.FT                 0.1000: 
NULL.                -999.2500: 
COMP.          Pioneer Natural Resources: COMPANY
WELL.                Pug 33-19: WELL
FLD.           Purgatoire River: FIELD
LOC.           1381' FSL & 2140' FEL: LOCATION
PROV.                 Colorado: PROVINCE
CNTY.               Las Animas: COUNTRY
SRVC.                Patterson: SERVICE COMPANY
DATE.          Wed Dec 15 07:19:20 2004: LOG DATE
UWI.           05 071 08193 00: UNIQUE WELL ID
~Curve Information Block
DEPT.FT            0 000 00 00: Depth
DCAL.in                       : CDL Caliper
RHOB.g/cc                     : CDL Bulk Density
RHOC.g/cc                     : CDL Density Correction
DPOR.pu                       : CDL Density Porosity
NPOR.pu                       : Neutron Porosity
GR.GAPI                       : Gamma Ray
~Parameter Information Block
~A  Depth       DCAL        RHOB        RHOC        DPOR        NPOR         GR     
   460.0000      8.0389      2.5464     -0.2662      6.2775     29.8799     81.2372
   460.1000      8.0389      2.5783     -0.1427      4.3470     29.9272     80.5493
   460.2000      8.0389      2.6041     -0.1844      2.7792     30.0154     85.5889
   460.3000      8.0385      2.6030     -0.1673      2.8471     30.0644     91.8782
   460.4000      8.0385      2.5745     -0.1508      4.5788     30.0499     96.4188
   460.5000      8.0383      2.5393     -0.2059      6.7064     30.2603    102.2521
   460.6000      8.0383      2.5257     -0.2212      7.5347     30.7644    107.7584
   460.7000      8.0383      2.5317     -0.1862      7.1693     30.9129    104.7501
   460.8000      8.0379      2.5324     -0.1977      7.1299     30.5288     94.0838
   460.9000      8.0379      2.5170     -0.1890      8.0608     30.2653     85.1619
   461.0000      8.0364      2.4896     -0.2080      9.7199     30.4949     83.0986
   461.1000      8.0364      2.4592     -0.2615     11.5609     30.8832     88.4756
   461.2000      8.0364      2.4433     -0.2629     12.5292     31.0888     99.0130
   461.3000      8.0353      2.4455     -0.2213     12.3918     31.2020    109.2441
   461.4000      8.0353      2.4464     -0.1978     12.3423     31.4874    113.5317
   461.5000      8.0350      2.4380     -0.2682     12.8456     31.8867    110.2644
   461.6000      8.0350      2.4326     -0.2285     13.1736     31.9022    105.2206
   461.7000      8.0350      2.4369     -0.2444     12.9171     31.3075    105.2090
   461.8000      8.0346      2.4500     -0.2096     12.1226     30.5760    109.1096
   461.9000      8.0346      2.4682     -0.2281     11.0176     30.1104    111.0104
   462.0000      8.0350      2.4823     -0.2083     10.1637     30.1084    108.8373
   462.1000      8.0350      2.4857     -0.2253      9.9579     30.3545    109.8708
   462.2000      8.0350      2.4894     -0.2312      9.7310     30.3390    118.1350
   462.3000      8.0371      2.5000     -0.1664      9.0918     30.3665    124.4296
   462.4000      8.0371      2.5065     -0.1844      8.6959     30.7965    121.7769
   462.5000      8.0384      2.5084     -0.1854      8.5841     31.0621    113.3454
   462.6000      8.0384      2.5139     -0.2208      8.2495     30.5893    102.7960
   462.7000      8.0384      2.5229     -0.1450      7.7031     29.5756     95.5022
   462.8000      8.0379      2.5338     -0.2245      7.0431     29.0785     95.5578
   462.9000      8.0379      2.5480     -0.1495      6.1826     29.5186     96.8675
   463.0000      8.0375      2.5569     -0.2303      5.6442     29.8639     95.3813
   463.1000      8.0375      2.5553     -0.2160      5.7388     29.4890     96.9707
   463.2000      8.0375      2.5450     -0.1907      6.3632     29.0919    103.6873
   463.3000      8.0376      2.5315     -0.2509      7.1793     29.3604    111.8445
   463.4000      8.0376      2.5189     -0.2357      7.9482     30.0256    115.8754
   463.5000      8.0382      2.4988     -0.2220      9.1620     30.4952    112.7616
   463.6000      8.0382      2.4709     -0.2373     10.8524     30.9751    104.4712
   463.7000      8.0382      2.4521     -0.2386     11.9922     31.6578     95.1570
   463.8000      8.0384      2.4554     -0.2663     11.7920     31.7471     88.6671
   463.9000      8.0384      2.4714     -0.2277     10.8214     30.9352     85.1237
   464.0000      8.0380      2.4752     -0.1986     10.5913     30.0978     81.6016
   464.1000      8.0380      2.4557     -0.2094     11.7762     29.8618     77.5242
   464.2000      8.0380      2.4301     -0.2771     13.3284     30.2596     74.7624
   464.3000      8.0381      2.4220     -0.2322     13.8173     30.7086     75.4312
   464.4000      8.0381      2.4420     -0.2249     12.6051     30.5376     79.2832
   464.5000      8.0376      2.4826     -0.1965     10.1452     30.0590     81.8851
   464.6000      8.0376      2.5114     -0.1494      8.3985     29.9146     79.5802
   464.7000      8.0376      2.5085     -0.2284      8.5760     29.9185     73.7876
   464.8000      8.0378      2.4943     -0.2029      9.4361     29.5432     68.4913
   464.9000      8.0378      2.4874     -0.1898      9.8538     29.1385     65.4089
   465.0000      8.0398      2.4897     -0.1635      9.7147     29.2091     63.0250
   465.1000      8.0398      2.4995     -0.1695      9.1206     29.2597     62.1466
   465.2000      8.0398      2.5076     -0.1905      8.6331     28.9091     65.1552
   465.3000      8.0409      2.5052     -0.1771      8.7740     28.6748     71.0994
   465.4000      8.0409      2.4927     -0.1462      9.5345     28.8287     75.0920
   465.5000      8.0403      2.4739     -0.1706     10.6740     29.1953     74.0304
   465.6000      8.0403      2.4618     -0.2327     11.4081     29.5349     70.4029
   465.7000      8.0403      2.4645     -0.1637     11.2411     29.8212     68.3818
   465.8000      8.0403      2.4690     -0.1849     10.9719     30.0724     69.6773
   465.9000      8.0403      2.4672     -0.1805     11.0798     29.9438     72.0838
   466.0000      8.0406      2.4616     -0.1902     11.4204     29.7258     71.0531
   466.1000      8.0406      2.4479     -0.1995     12.2510     30.4634     67.3221
   466.2000      8.0406      2.4232     -0.2200     13.7452     31.7697     64.5441
   466.3000      8.0393      2.3937     -0.2246     15.5303     32.2276     63.6707
   466.4000      8.0393      2.3683     -0.2602     17.0724     31.7107     65.0242
   466.5000      8.0380      2.3575     -0.2438     17.7250     31.0744     67.3469
   466.6000      8.0380      2.3720     -0.2648     16.8507     30.7948     70.4020
   466.7000      8.0380      2.4087     -0.1844     14.6237     30.8873     73.5148
   466.8000      8.0371      2.4439     -0.1661     12.4904     31.0042     75.2313
   466.9000      8.0371      2.4586     -0.1683     11.5988     30.9405     77.9135
   467.0000      8.0357      2.4615     -0.1944     11.4266     30.8090     81.7588
   467.1000      8.0357      2.4687     -0.1715     10.9866     30.4041     86.4547
   467.2000      8.0357      2.4740     -0.1567     10.6650     29.5886     92.9591
   467.3000      8.0348      2.4630     -0.1392     11.3360     28.8302     96.0567
   467.4000      8.0348      2.4425     -0.2002     12.5777     28.5182     92.6759
   467.5000      8.0354      2.4346     -0.2258     13.0557     28.5379     89.4304
   467.6000      8.0354      2.4409     -0.1964     12.6733     28.6004     90.7728
   467.7000      8.0354      2.4381     -0.1653     12.8435     28.9154     90.7542
   467.8000      8.0367      2.4209     -0.1893     13.8874     29.8256     84.4585
   467.9000      8.0367      2.4145     -0.2337     14.2752     30.8536     75.4042
   468.0000      8.0387      2.4301     -0.1932     13.3280     31.4811     67.9256
   468.1000      8.0387      2.4481     -0.1975     12.2360     31.6928     62.5259
   468.2000      8.0387      2.4548     -0.1621     11.8277     31.5708     58.7834
   468.3000      8.0406      2.4527     -0.1874     11.9602     31.5372     56.6507
   468.4000      8.0406      2.4457     -0.2001     12.3843     31.7180     57.3940
   468.5000      8.0407      2.4388     -0.2238     12.8002     31.5532     61.8977
   468.6000      8.0407      2.4400     -0.2289     12.7249     31.0928     68.9330
   468.7000      8.0407      2.4532     -0.2091     11.9261     30.9007     73.8791
   468.8000      8.0392      2.4689     -0.1800     10.9737     30.8842     70.7990
   468.9000      8.0392      2.4771     -0.1629     10.4812     30.5913     63.9763
   469.0000      8.0384      2.4816     -0.2280     10.2060     30.1342     59.6132
   469.1000      8.0384      2.4848     -0.1972     10.0105     29.7519     56.1555
   469.2000      8.0384      2.4808     -0.2271     10.2543     29.3597     55.3403
   469.3000      8.0384      2.4758     -0.2537     10.5592     29.1957     58.6752
   469.4000      8.0384      2.4846     -0.2198     10.0271     29.5034     62.4345
   469.5000      8.0379      2.5085     -0.2239      8.5764     29.8372     63.9361
