~Version Information
VERS.                      2.0: CWLS Log ASCII Standard - VERSION 2.0
WRAP.                       NO: One line per depth step
~Well Information Block
STRT.FT               866.0000: 
STOP.FT              2029.0000: 
STEP.FT                 0.2500: 
NULL.                -999.2500: 
COMP.          Petrogulf Corporation: COMPANY
WELL.             State 16-21R: WELL
FLD.           Purgatorie River: FIELD
LOC.           203' FNL & 1560' FWL: LOCATION
PROV.                 Colorado: PROVINCE
CNTY.               Las Animas: COUNTRY
SRVC.                Patterson: SERVICE COMPANY
DATE.          Tue Aug 16 12:55:36 2005: LOG DATE
UWI.                071 08313 : UNIQUE WELL ID
~Curve Information Block
DEPT.FT            0 000 00 00: Depth
SP.mV                         : DIL Spontaneous Potential
RILD.Ohm-m                    : DIL Deep Resistivity
RILM.Ohm-m                    : DIL Medium Resistivity
RLL3.Ohm-m                    : DIL Shallow Resistivity
GR.GAPI                       : Gamma Ray
~Parameter Information Block
~A  Depth        SP         RILD        RILM        RLL3         GR     
# ...
   950.0000   -218.3431      0.4289      0.5718    203.9851     73.6730
   950.2500   -193.9024      0.3908      0.5460    221.3054     81.4842
   950.5000   -170.4767      0.4257      0.5240    108.1315    109.2759
   950.7500   -151.4950      0.7014      0.5089     43.8299    119.5647
   951.0000   -138.8072      1.3620      0.5491     31.0821    121.4295
   951.2500   -129.3639      1.9806      0.7641     23.2647    131.9183
   951.5000   -122.8817      3.0765      1.3583     25.4685    122.3974
   951.7500   -117.1325      9.7849      2.8395     29.9483    113.1096
   952.0000   -112.6502 100000.0000      3.5714     30.9406    113.6773
   952.2500   -108.6310 100000.0000      3.7786     26.0205    123.1120
   952.5000   -105.4560 100000.0000      5.3080     22.1124    138.6924
   952.7500   -103.1345 100000.0000      8.1366     22.0852    124.7345
   953.0000   -101.3027 100000.0000     13.4546     26.5982     98.3393
   953.2500    -99.9208 100000.0000     25.1379     40.8120     88.5447
   953.5000    -98.4373 100000.0000   5352.6685     70.4067     76.7544
   953.7500    -96.8339 100000.0000 100000.0000    108.7426     67.6876
   954.0000    -95.7945    598.8150 100000.0000    106.2450     71.4722
   954.2500    -94.7717     24.2774     29.8372     75.1660     80.9593
   954.5000    -93.5272     16.1501     12.3443     56.9494     94.7731
   954.7500    -91.4330     14.4553      9.8567     41.8220     93.0962
   955.0000    -88.5982     14.4534      9.0969     28.1014    101.9239
   955.2500    -86.3869     15.9026      8.6766     24.2696    109.7294
   955.5000    -86.3181     17.4358      8.2547     23.0199    122.9733
   955.7500    -86.8894     19.0107      7.9002     24.2211    130.5960
   956.0000    -88.1952     20.1667      7.7543     25.8556    123.8029
   956.2500    -89.8202     18.3383      8.1280     27.0448    118.0621
   956.5000    -89.1567     15.1056      8.6080     29.6342    115.3573
   956.7500    -87.4770     13.2628      9.1112     31.7078    119.3392
   957.0000    -87.2900     12.7088      9.7910     33.6835    116.1928
   957.2500    -87.9569     12.6582     11.2527     33.2930    110.7457
   957.5000    -88.9332     13.1358     13.4267     33.2100    104.5070
   957.7500    -89.4878     13.5408     15.1556     33.6212    108.7762
   958.0000    -90.6430     14.3681     17.0275     39.0192    117.1960
   958.2500    -89.9573     15.1253     19.0737     41.3704    116.5206
   958.5000    -90.6839     15.8693     22.0060     42.4906    106.0749
   958.7500    -91.5361     17.0777     25.0485     45.4995    101.5030
   959.0000    -92.7184     17.9722     27.3083     54.1121     99.7966
   959.2500    -91.3156     19.2765     28.4423     61.5872    100.2719
   959.5000    -88.3795     20.9802     28.2292     63.5626     93.0714
   959.7500    -88.0603     22.2048     28.5554     56.2302     93.8625
   960.0000    -89.1470     24.2061     29.5621     50.0112    110.7367
   960.2500    -90.9175     26.6757     31.5270     48.6727    111.7348
   960.5000    -93.0027     28.5335     32.4641     49.5767    109.1703
   960.7500    -95.6126     31.3135     35.1336     52.3100    101.1063
   961.0000    -97.9394     33.9955     39.3708     58.7012     97.4604
   961.2500    -98.6572     36.3734     43.4297     72.1016     94.7662
   961.5000    -99.9600     39.3721     47.7195     95.3776     85.0440
   961.7500   -102.0275     41.9441     53.3415    114.9283     87.8453
   962.0000   -103.9717     43.2744     59.0034    129.9402     83.3078
   962.2500   -105.5551     45.6056     63.4092    143.8209     80.1208
   962.5000   -106.6696     46.8333     69.0035    142.1068     72.4598
   962.7500   -105.4103     47.1780     80.4253    127.1586     73.6635
   963.0000   -105.0768     45.6146     85.8666    140.6278     72.3184
   963.2500   -102.6478     46.6924    102.7677    198.2630     68.3155
   963.5000    -98.2427     42.1496     93.0110    247.6767     69.6811
   963.7500    -93.7759     39.5406     84.4590    243.5742     72.1484
   964.0000    -89.9625     35.5274     62.4670    202.2743     81.3881
   964.2500    -86.9488     32.5887     50.6288    144.5723     85.5855
   964.5000    -84.4691     29.6951     40.7958     83.7451    102.1955
   964.7500    -83.2971     26.7074     31.9288     55.6872    106.0197
   965.0000    -81.2827     24.9418     27.1129     41.4884    107.4118
   965.2500    -78.9318     23.1871     22.5485     32.2659    111.0248
   965.5000    -76.1696     22.2678     19.7865     22.7326    119.4890
   965.7500    -74.9881     21.1251     17.9914     19.1686    117.7611
   966.0000    -73.8866     20.0755     16.8023     19.1512    134.0019
   966.2500    -73.0574     19.1138     16.4350     20.1019    126.7411
   966.5000    -72.6222     18.3634     16.2464     19.1254    118.7214
   966.7500    -72.4523     17.8903     16.2800     19.2325    113.7073
   967.0000    -73.0418     17.1266     16.2673     21.7476    113.3920
   967.2500    -72.7671     16.6928     16.1501     26.6706    113.4303
   967.5000    -69.9871     16.1152     16.4438     28.3469    105.3330
   967.7500    -66.2193     16.0759     16.2253     29.2867    109.6178
   968.0000    -62.6943     16.1260     16.4815     29.4870    112.2039
   968.2500    -61.3095     16.4318     16.7761     30.7132    108.2348
   968.5000    -60.7725     17.0621     16.9698     30.3858    104.5865
   968.7500    -60.2754     17.6046     17.6087     29.6121    102.3364
   969.0000    -59.9045     18.1070     18.4318     28.7282    105.1389
   969.2500    -60.1354     18.6272     19.0695     33.5961    105.4954
   969.5000    -61.1106     19.3278     19.5551     35.7768    102.7026
   969.7500    -60.9871     19.9919     20.6295     34.4598    100.4602
   970.0000    -60.3457     20.5055     20.9030     31.5010    103.0807
   970.2500    -60.2365     20.9215     21.1448     31.6261     93.8219
   970.5000    -60.3635     20.8380     21.8070     35.2027     86.9015
   970.7500    -61.2495     21.6376     23.0546     37.0004     91.3144
   971.0000    -61.9582     22.2050     23.6397     38.2350     84.8864
   971.2500    -63.4507     22.6951     23.7639     36.2767     84.7111
   971.5000    -64.8337     23.0490     24.3030     31.6082     85.2529
   971.7500    -65.7483     23.9936     24.2671     43.6502     90.2470
   972.0000    -65.3995     24.6180     24.8462     47.0979     88.7180
   972.2500    -66.2478     25.4436     25.0290     36.1235     85.6385
   972.5000    -66.5795     25.9767     26.1127     32.0577     95.7562
   972.7500    -66.7921     27.2041     28.0609     41.1955     91.9745
   973.0000    -66.8240     27.5570     30.4944     41.3785     82.1362
   973.2500    -67.5164     28.3921     31.5257     45.4702     80.6880
   973.5000    -66.6983     29.1985     33.4334     51.0143     78.4760
   973.7500    -65.7273     29.9569     34.3915     49.4733     77.1785
   974.0000    -65.9717     30.3161     35.2442     48.9380     82.2882
   974.2500    -66.6560     29.6617     36.3851     51.6266     78.4757
   974.5000    -67.8120     30.1980     37.5743     60.2402     77.3296
   974.7500    -68.6482     31.2113     37.3422     67.2400     81.3609
   975.0000    -69.0573     31.5648     38.5232     66.3415     78.9189
   975.2500    -68.9166     33.2039     37.2579     56.4381     82.2574
   975.5000    -69.4433     32.3293     35.2905     47.5423     88.8017
   975.7500    -69.9418     31.9197     35.6244     42.3197     89.0386
   976.0000    -70.7514     32.4498     36.5916     37.3162     94.2093
   976.2500    -70.1152     31.3366     36.6737     42.5310     93.2346
   976.5000    -67.6454     30.6744     36.5340     50.9286     90.5499
   976.7500    -66.6018     30.0789     36.7531     51.5684     84.9462
   977.0000    -65.0705     28.7875     35.5833     43.3831     86.5202
   977.2500    -62.0601     26.9784     35.3754     40.8088     89.4928
   977.5000    -58.8244     24.7234     32.1954     43.1381     94.2758
   977.7500    -56.7542     23.9037     30.1525     44.6546     90.7015
