~Version Information
VERS.                      2.0: CWLS Log ASCII Standard - VERSION 2.0
WRAP.                       NO: One line per depth step
~Well Information Block
STRT.FT               507.5000: 
STOP.FT              2145.0000: 
STEP.FT                 0.2500: 
NULL.                -999.2500: 
COMP.          Petrogulf Corporation: COMPANY
WELL.            Montoya 1-44R: WELL
FLD.           Purgatorie River: FIELD
LOC.           658' FSL & 1052' FWL: LOCATION
CNTY.               Las Animas: COUNTY
SRVC.                         : SERVICE COMPANY
DATE.          Tue Nov 16 02:59:24 2004: LOG DATE
UWI.           05 071 08239 00: UNIQUE WELL ID
STAT.                 Colorado: STATE
~Curve Information Block
DEPT.FT            0 000 00 00: Depth
SP.mV                         : DIL Spontaneous Potential
RILD.Ohm-m                    : DIL Deep Resistivity
RILM.Ohm-m                    : DIL Medium Resistivity
RLL3.Ohm-m                    : DIL Shallow Resistivity
GR.GAPI                       : Gamma Ray
~Parameter Information Block
~A  Depth        SP         RILD        RILM        RLL3         GR     
# ...
  1571.5000     -7.9211      8.8099      9.3615      9.1979    141.6449
  1571.7500     -8.0063      8.7133      9.2437      9.1209    141.1496
  1572.0000     -8.2168      8.6332      9.1339      8.9870    141.2040
  1572.2500     -8.5096      8.5719      9.0391      8.8166    142.2705
  1572.5000     -8.8368      8.5313      8.9667      8.6480    144.9045
  1572.7500     -9.1615      8.5120      8.9243      8.5283    146.4538
  1573.0000     -9.4520      8.5138      8.9185      8.5049    147.4106
  1573.2500     -9.6868      8.5354      8.9545      8.6204    147.3322
  1573.5000     -9.8508      8.5745      9.0353      8.9104    147.3399
  1573.7500     -9.9438      8.6284      9.1613      9.4028    147.9219
  1574.0000     -9.9832      8.6939      9.3290     10.1133    149.3773
  1574.2500    -10.0135      8.7681      9.5307     11.0339    149.9436
  1574.5000    -10.0993      8.8486      9.7544     12.1190    148.4544
  1574.7500    -10.3102      8.9336      9.9842     13.2743    145.2758
  1575.0000    -10.6978      9.0220     10.2017     14.3617    137.6235
  1575.2500    -11.2713      9.1133     10.3890     15.2218    131.5019
  1575.5000    -11.9903      9.2073     10.5318     15.7133    122.5007
  1575.7500    -12.7701      9.3036     10.6226     15.7542    117.4686
  1576.0000    -13.4975      9.4011     10.6613     15.3479    112.7724
  1576.2500    -14.0627      9.4975     10.6551     14.5828    112.2764
  1576.5000    -14.3876      9.5891     10.6159     13.6049    115.8488
  1576.7500    -14.4435      9.6711     10.5570     12.5766    120.4384
  1577.0000    -14.2578      9.7378     10.4913     11.6370    128.4169
  1577.2500    -13.9077      9.7836     10.4290     10.8774    133.3391
  1577.5000    -13.4958      9.8044     10.3775     10.3376    139.4999
  1577.7500    -13.1244      9.7985     10.3411     10.0145    142.9258
  1578.0000    -12.8699      9.7674     10.3214      9.8778    146.9222
  1578.2500    -12.7594      9.7162     10.3182      9.8825    148.3245
  1578.5000    -12.7722      9.6522     10.3297      9.9788    147.7094
  1578.7500    -12.8551      9.5846     10.3527     10.1168    145.6528
  1579.0000    -12.9355      9.5220     10.3837     10.2532    141.9057
  1579.2500    -12.9395      9.4723     10.4188     10.3560    140.4118
  1579.5000    -12.8028      9.4408     10.4544     10.4089    141.2276
  1579.7500    -12.4677      9.4305     10.4876     10.4125    143.6500
  1580.0000    -11.8862      9.4417     10.5164     10.3816    148.3212
  1580.2500    -11.0194      9.4722     10.5394     10.3377    150.8618
  1580.5000     -9.8579      9.5184     10.5557     10.3021    152.4449
  1580.7500     -8.4317      9.5752     10.5645     10.2882    151.8840
  1581.0000     -6.8280      9.6372     10.5642     10.2986    149.1707
  1581.2500     -5.1949      9.6995     10.5533     10.3251    146.7095
  1581.5000     -3.7313      9.7582     10.5304     10.3530    143.4115
  1581.7500     -2.6533      9.8112     10.4949     10.3661    142.2530
  1582.0000     -2.1558      9.8583     10.4486     10.3537    142.5471
  1582.2500     -2.3653      9.9011     10.3957     10.3140    143.5882
  1582.5000     -3.3042      9.9431     10.3432     10.2562    144.7488
  1582.7500     -4.8701      9.9890     10.2999     10.1977    144.6093
  1583.0000     -6.8479     10.0447     10.2757     10.1581    143.4948
  1583.2500     -8.9511     10.1165     10.2802     10.1532    143.0299
  1583.5000    -10.8866     10.2108     10.3217     10.1895    143.8238
  1583.7500    -12.4267     10.3341     10.4070     10.2651    145.2639
  1584.0000    -13.4601     10.4919     10.5414     10.3752    147.7613
  1584.2500    -14.0187     10.6886     10.7288     10.5233    149.0145
  1584.5000    -14.2421     10.9271     10.9730     10.7315    149.8047
  1584.7500    -14.3172     11.2083     11.2776     11.0508    149.6632
  1585.0000    -14.4088     11.5311     11.6467     11.5636    148.5440
  1585.2500    -14.5999     11.8922     12.0844     12.3770    147.0901
  1585.5000    -14.8720     12.2869     12.5944     13.6050    143.7312
  1585.7500    -15.1334     12.7095     13.1786     15.3382    140.8895
  1586.0000    -15.2573     13.1536     13.8362     17.6068    136.1997
  1586.2500    -15.1430     13.6126     14.5615     20.3440    132.7650
  1586.5000    -14.7402     14.0803     15.3435     23.3650    126.4084
  1586.7500    -14.0593     14.5504     16.1651     26.3747    121.0911
  1587.0000    -13.1502     15.0174     17.0048     29.0111    112.5318
  1587.2500    -12.0780     15.4752     17.8382     30.9232    107.7354
  1587.5000    -10.9025     15.9178     18.6419     31.8599    103.6026
  1587.7500     -9.6741     16.3383     19.3962     31.7450    103.0282
  1588.0000     -8.4477     16.7289     20.0882     30.7060    104.7604
  1588.2500     -7.2882     17.0802     20.7121     29.0440    107.1537
  1588.5000     -6.2808     17.3815     21.2685     27.1502    111.6357
  1588.7500     -5.5171     17.6213     21.7615     25.3983    114.5466
  1589.0000     -5.0780     17.7891     22.1951     24.0516    117.9579
  1589.2500     -5.0109     17.8772     22.5699     23.2146    119.5648
  1589.5000     -5.3268     17.8816     22.8809     22.8436    121.3698
  1589.7500     -5.9980     17.8035     23.1153     22.8024    122.2153
  1590.0000     -6.9790     17.6482     23.2537     22.9344    122.4837
  1590.2500     -8.2117     17.4248     23.2727     23.1200    121.7064
  1590.5000     -9.6279     17.1444     23.1475     23.3000    119.2436
  1590.7500    -11.1402     16.8192     22.8591     23.4615    117.2472
  1591.0000    -12.6351     16.4622     22.3976     23.6014    114.7389
  1591.2500    -13.9718     16.0860     21.7680     23.6899    113.6275
  1591.5000    -15.0007     15.7030     20.9915     23.6546    112.5277
  1591.7500    -15.5915     15.3239     20.1044     23.3925    112.0853
  1592.0000    -15.6586     14.9578     19.1532     22.8060    112.5188
  1592.2500    -15.1797     14.6113     18.1877     21.8454    114.1833
  1592.5000    -14.1898     14.2882     17.2544     20.5391    119.1701
  1592.7500    -12.7771     13.9903     16.3911     18.9977    123.6074
  1593.0000    -11.0655     13.7179     15.6240     17.3883    130.0401
  1593.2500     -9.1972     13.4706     14.9680     15.8916    133.1838
  1593.5000     -7.3229     13.2484     14.4281     14.6556    135.6266
  1593.7500     -5.5915     13.0520     14.0020     13.7656    136.0127
  1594.0000     -4.1338     12.8831     13.6826     13.2358    135.2578
  1594.2500     -3.0626     12.7445     13.4599     13.0241    133.8375
  1594.5000     -2.4550     12.6396     13.3233     13.0589    129.9961
  1594.7500     -2.3585     12.5726     13.2627     13.2664    126.4126
  1595.0000     -2.7719     12.5482     13.2692     13.5892    120.5915
  1595.2500     -3.6419     12.5716     13.3358     13.9936    117.2178
  1595.5000     -4.8510     12.6475     13.4572     14.4652    113.5836
  1595.7500     -6.2201     12.7808     13.6297     14.9987    111.9307
  1596.0000     -7.5294     12.9754     13.8515     15.5864    110.0539
  1596.2500     -8.5620     13.2330     14.1223     16.2138    109.1391
  1596.5000     -9.1627     13.5533     14.4440     16.8650    108.5004
  1596.7500     -9.2778     13.9321     14.8206     17.5399    108.5994
  1597.0000     -8.9746     14.3612     15.2586     18.2815    109.3744
  1597.2500     -8.4142     14.8279     15.7660     19.2022    110.3275
  1597.5000     -7.7839     15.3156     16.3509     20.4961    112.8269
  1597.7500     -7.2254     15.8044     17.0189     22.4204    115.3858
  1598.0000     -6.7811     16.2731     17.7692     25.2416    119.8351
  1598.2500     -6.3806     16.7017     18.5906     29.1527    121.9769
  1598.5000     -5.8773     17.0743     19.4573     34.1825    121.4377
  1598.7500     -5.1136     17.3818     20.3262     40.1248    117.8006
  1599.0000     -3.9919     17.6228     21.1399     46.5142    108.1127
  1599.2500     -2.5130     17.8046     21.8332     52.6653    100.0480
