~Version Information
VERS.                      2.0: CWLS Log ASCII Standard - VERSION 2.0
WRAP.                       NO: One line per depth step
~Well Information Block
STRT.FT               630.0000: 
STOP.FT              1156.0000: 
STEP.FT                 0.2500: 
NULL.                -999.2500: 
COMP.          Pioneer Natural Resources: COMPANY
WELL.          Drewmeister 34-34: WELL
FLD.           Purgatoire River: FIELD
LOC.           958' FSL & 1857' FEL: LOCATION
STAT.                 Colorado: State
CNTY.               Las Animas: COUNTY
CTRY. USA : Country
SECT. 34 : Section
TOWN. 32S : Township
RANG. 65W : Range
SRVC.                Patterson: SERVICE COMPANY
DATE.          Mon Oct 03 23:24:37 2005: LOG DATE
API.           05 071 08131 00: UNIQUE WELL ID
~Curve Information Block
DEPT.FT            0 000 00 00: Depth
SN.Ohm-m                      : IEL Short Normal
SP.mV                         : IEL Spontaneous Potential
DIR.Ohm-m                     : IEL Induction Resistivity
GR.GAPI                       : Gamma Ray
~Parameter Information Block
~A  Depth        SN          SP         DIR          GR     
# ...
   998.5000     20.6669    799.9761     18.2842     83.6281
   998.7500     20.5855    799.9761     18.4092     86.3452
   999.0000     20.5614    799.9761     18.5695     90.6490
   999.2500     20.7282    799.9761     18.7354     93.1184
   999.5000     21.1814    799.9761     18.8580     95.3990
   999.7500     21.8991    799.9761     18.8981     95.7184
  1000.0000     22.8255    799.9761     18.8516     94.7282
  1000.2500     24.1380    799.9761     18.7539     93.8719
  1000.5000     26.0940    799.9761     18.6633     94.3913
  1000.7500     28.5178    799.9761     18.6377     97.0794
  1001.0000     31.5350    799.9761     18.7123    105.1613
  1001.2500     36.5594    799.9761     18.8834    112.2863
  1001.5000     45.6864    799.9761     19.1067    122.1424
  1001.7500     64.9002    799.9761     19.3165    126.1122
  1002.0000    110.0705    799.9761     19.4577    126.7224
  1002.2500    193.0365    799.9761     19.5119    124.2220
  1002.5000    284.8306    799.9761     19.5029    118.2461
  1002.7500    317.7863    799.9761     19.4808    113.5344
  1003.0000    260.5643    799.9761     19.4984    105.3942
  1003.2500    161.0789    799.9761     19.5872     99.1100
  1003.5000     83.4771    799.9761     19.7415     89.0377
  1003.7500     46.1516    799.9761     19.9134     82.9150
  1004.0000     34.9746    799.9761     20.0291     76.8141
  1004.2500     36.2729    799.9725     20.0261     75.7746
  1004.5000     46.9073    799.9435     19.8907     79.1558
  1004.7500     68.3453    799.7858     19.6638     84.1953
  1005.0000     99.8728    799.1160     19.4094     94.2710
  1005.2500    145.0776    796.8621     19.1799    101.5538
  1005.5000    221.3462    790.8356     19.0049    111.9225
  1005.7500    335.8494    777.9808     18.8971    118.2590
  1006.0000    456.9032    755.9816     18.8580    127.3322
  1006.2500    548.6816    725.5262     18.8752    133.0586
  1006.5000    615.5620    690.9675     18.9197    139.3800
  1006.7500    681.5376    658.2203     18.9558    140.3529
  1007.0000    751.1485    632.0243     18.9580    135.0910
  1007.2500    806.9990    615.4626     18.9217    127.6394
  1007.5000    837.0819    611.2628     18.8578    113.8121
  1007.7500    847.8370    621.8774     18.7805    105.0401
  1008.0000    850.6147    647.3500     18.7062     95.3238
  1008.2500    851.0497    683.3354     18.6629     91.9341
  1008.5000    849.5112    721.8896     18.6952     91.6256
  1008.7500    840.8539    754.9572     18.8524     94.0674
  1009.0000    811.6809    777.9811     19.1624     99.7698
  1009.2500    746.8476    791.0028     19.6089    103.3882
  1009.5000    648.2831    796.9572     20.1255    106.0984
  1009.7500    533.5009    799.1327     20.6204    105.3739
  1010.0000    410.9503    799.6983     21.0256    100.8111
  1010.2500    294.7275    799.5386     21.3354     96.2669
  1010.5000    230.6219    798.6209     21.5989     89.0436
  1010.7500    258.9354    796.4202     21.8718     85.0698
  1011.0000    364.0648    792.5563     22.1765     81.6789
  1011.2500    466.4195    787.6691     22.5019     81.0237
  1011.5000    488.9312    783.7186     22.8328     80.5737
  1011.7500    455.4711    782.8445     23.1694     79.2770
  1012.0000    450.6123    785.5562     23.5100     74.9408
  1012.2500    485.3918    790.2571     23.8173     71.0154
  1012.5000    496.4334    794.6353     24.0127     65.2336
  1012.7500    450.1462    797.1426     24.0188     62.1864
  1013.0000    375.6672    796.9466     23.8137     59.5982
  1013.2500    310.1425    792.7007     23.4423     59.5635
  1013.5000    258.6214    781.6196     22.9796     62.3824
  1013.7500    223.0268    759.9896     22.4860     65.9169
  1014.0000    230.4198    724.9911     21.9926     72.4614
  1014.2500    307.9395    676.3929     21.5073     76.9130
  1014.5000    451.1979    616.6641     21.0249     83.2538
  1014.7500    616.7411    549.6342     20.5293     87.3843
  1015.0000    747.3821    479.0161     19.9970     93.4536
  1015.2500    817.8973    407.6859     19.4121     97.0031
  1015.5000    843.7952    337.7927     18.7856    100.5210
  1015.7500    850.2521    271.3146     18.1619    101.3114
  1016.0000    851.3433    210.4207     17.5982    100.5331
  1016.2500    851.4673    157.2666     17.1350     99.2866
  1016.5000    851.4747    113.5038     16.7794     97.1697
  1016.7500    851.4747     79.8936     16.5153     95.8798
  1017.0000    851.4747     56.1071     16.3275     94.7748
  1017.2500    851.4747     40.7898     16.2191     95.1355
  1017.5000    851.4747     32.0399     16.2106     97.6890
  1017.7500    851.4747     28.0650     16.3247    100.1846
  1018.0000    851.4747     27.5279     16.5712    103.4086
  1018.2500    851.4747     29.5387     16.9432    104.5163
  1018.5000    851.4747     33.6979     17.4231    104.7092
  1018.7500    851.4747     40.2770     17.9912    104.4394
  1019.0000    851.4747     50.1676     18.6308    104.5824
  1019.2500    851.4747     64.4573     19.3277    105.5825
  1019.5000    851.4747     83.9954     20.0688    108.9999
  1019.7500    851.4747    109.2922     20.8400    112.4520
  1020.0000    851.4747    140.6834     21.6243    117.9220
  1020.2500    851.4747    178.5083     22.3963    120.1831
  1020.5000    851.4747    223.1984     23.1141    118.8747
  1020.7500    851.4747    275.3064     23.7197    114.4937
  1021.0000    851.4747    335.4237     24.1532    104.8724
  1021.2500    851.4747    403.7813     24.3784     98.6490
  1021.5000    851.4747    479.3072     24.4020     92.6785
  1021.7500    851.4678    558.3677     24.2738     91.6474
  1022.0000    851.3300    634.2823     24.0720     94.1654
  1022.2500    850.0684    698.9610     23.8796     97.8299
  1022.5000    842.2925    746.4476     23.7525    104.7026
  1022.7500    810.0861    775.8048     23.6881    109.2404
  1023.0000    720.9123    790.8276     23.6154    114.6010
  1023.2500    556.7389    797.1131     23.4305    116.8633
  1023.5000    356.2350    799.2444     23.0682    119.1411
  1023.7500    193.2299    799.8260     22.5518    121.1275
  1024.0000    104.3437    799.9527     21.9756    126.4428
  1024.2500     73.4173    799.9732     21.4430    131.2518
  1024.5000     73.8420    799.9633     21.0170    137.7495
  1024.7500     91.9032    799.8859     20.7126    140.0465
  1025.0000    116.9126    799.5089     20.5165    139.9996
  1025.2500    132.5793    798.0434     20.4088    138.6297
  1025.5000    127.9775    793.4507     20.3713    136.2790
  1025.7500    107.1861    781.7984     20.3826    134.6798
  1026.0000     82.1003    757.7488     20.4101    131.3183
  1026.2500     63.5136    717.1505     20.4106    127.7765
  1026.5000     60.1108    660.7672     20.3433    120.0496
  1026.7500     84.1869    596.0779     20.1898    113.6113
  1027.0000    153.7028    535.0137     19.9674    103.2728
  1027.2500    276.4679    489.0994     19.7252     96.6769
  1027.5000    432.5744    465.3837     19.5215     88.0637
  1027.7500    587.4596    465.0864     19.3964     83.3547
  1028.0000    714.0945    484.7830     19.3510     77.7663
  1028.2500    796.6307    518.9355     19.3471     74.9439
  1028.5000    835.8139    562.1750     19.3261     72.2277
  1028.7500    848.4280    610.0707     19.2371     71.6062
  1029.0000    851.0842    658.5322     19.0562     72.3296
  1029.2500    851.4429    703.2390     18.7886     73.4853
  1029.5000    851.4725    740.1921     18.4594     75.3771
  1029.7500    851.4492    767.0621     18.1048     76.4513
  1030.0000    851.2227    784.0216     17.7660     77.6860
  1030.2500    849.7767    793.2372     17.4812     78.3519
  1030.5000    842.4719    797.5235     17.2742     79.3942
  1030.7500    813.7451    799.2176     17.1459     80.2447
  1031.0000    731.6801    799.7803     17.0761     81.7518
  1031.2500    570.9707    799.9351     17.0345     82.7898
  1031.5000    361.3052    799.9695     16.9956     84.1746
  1031.7500    180.8011    799.9753     16.9476     84.9783
