~Version Information
VERS.                      2.0: CWLS Log ASCII Standard - VERSION 2.0
WRAP.                       NO: One line per depth step
~Well Information Block
STRT.FT                -9.7500: 
STOP.FT              2566.5000: 
STEP.FT                 0.2500: 
NULL.                -999.2500: 
COMP.          Petrogulf Corporation: COMPANY
WELL.             Valejo 8-12V: WELL
FLD.           Purgatorie River: FIELD
LOC.           1510' FNL & 1460' FWL: LOCATION
CNTY.               Las Animas: COUNTY
SRVC.                         : SERVICE COMPANY
DATE.          Tue Nov 18 14:36:15 2003: LOG DATE
UWI.                          : UNIQUE WELL ID
STAT.                 Colorado: STATE
~Curve Information Block
DEPT.FT            0 000 00 00: Depth
CCL.                          : Casing Collar Locator
TT3.usec                      : CBL 3' Travel Time
AMP3.mV                       : CBL 3' Amplitude
GR.GAPI                       : Gamma Ray
~Parameter Information Block
~A  Depth       CCL         TT3         AMP3         GR     
# ...
  2201.2500      0.0000    743.1733      3.6829     80.0088
  2201.5000      0.0000    750.2112      3.7057     77.0670
  2201.7500      0.0000    757.8505      3.8020     77.1947
  2202.0000      0.0000    766.0449      3.8564     79.9435
  2202.2500      0.0000    774.4038      3.7663     83.4622
  2202.5000      0.0000    782.5527      3.5283     85.5033
  2202.7500      0.0000    789.9580      3.2383     84.3656
  2203.0000      0.0000    796.2751      2.9914     79.6249
  2203.2500      0.0000    802.5578      2.8061     72.3639
  2203.5000      0.0000    809.7142      2.6580     64.7594
  2203.7500      0.0000    815.4910      2.5492     59.1747
  2204.0000      0.0000    816.7616      2.5093     57.1812
  2204.2500      0.0000    815.1437      2.5472     59.0070
  2204.5000      0.0000    815.3904      2.6221     63.6799
  2204.7500      0.0000    817.4952      2.6631     69.6333
  2205.0000      0.0000    815.9742      2.6201     75.4366
  2205.2500      0.0000    809.1410      2.5114     80.4253
  2205.5000      0.0000    804.2098      2.4153     84.7603
  2205.7500     -2.0000    809.6988      2.4083     88.6144
  2206.0000      0.0000    825.0270      2.5048     91.4658
  2206.2500      0.0000    840.3643      2.6529     92.6483
  2206.5000      0.0000    845.3342      2.7862     92.4852
  2206.7500      0.0000    835.7407      2.8819     92.3345
  2207.0000      0.0000    813.7946      2.9574     93.3233
  2207.2500      0.0000    785.3455      3.0110     95.1999
  2207.5000      0.0000    756.9397      3.0048     96.5923
  2207.7500      0.0000    733.3245      2.9287     96.4170
  2208.0000      0.0000    716.5536      2.8434     95.0659
  2208.2500      0.0000    707.0431      2.8296     94.0864
  2208.5000      0.0000    704.9609      2.9082     94.5546
  2208.7500      0.0000    710.5162      3.0234     95.9507
  2209.0000      0.0000    722.7360      3.0936     96.9622
  2209.2500      0.0000    737.6594      3.0741     97.0795
  2209.5000      0.0000    748.5462      2.9779     96.7998
  2209.7500      0.0000    750.0833      2.8511     96.4774
  2210.0000      0.0000    743.2483      2.7387     95.8207
  2210.2500      0.0000    735.1887      2.6677     94.5845
  2210.5000      0.0000    733.5190      2.6421     93.0345
  2210.7500      0.0000    740.2025      2.6553     91.4077
  2211.0000      0.0000    749.9487      2.7101     89.2714
  2211.2500      0.0000    754.8201      2.8074     85.8377
  2211.5000      0.0000    751.8035      2.9103     81.0032
  2211.7500      0.0000    745.5620      2.9546     75.7585
  2212.0000      0.0000    742.7048      2.9152     71.4164
  2212.2500      0.0000    744.5387      2.8451     68.7690
  2212.5000      0.0000    746.8010      2.8292     68.1022
  2212.7500      0.0000    745.4137      2.9002     69.4050
  2213.0000      0.0000    741.1292      3.0070     72.1065
  2213.2500      0.0000    738.5143      3.0682     74.9857
  2213.5000      0.0000    740.5289      3.0451     76.9597
  2213.7500      0.0000    744.5336      2.9582     78.1105
  2214.0000      0.0000    744.7531      2.8529     79.6551
  2214.2500      0.0000    738.8196      2.7649     82.7181
  2214.5000      0.0000    730.3674      2.7101     87.3372
  2214.7500      0.0000    724.7617      2.6923     92.7713
  2215.0000      0.0000    723.8722      2.7080     98.1505
  2215.2500      0.0000    726.1243      2.7367    102.3409
  2215.5000      0.0000    730.2982      2.7429    103.8180
  2215.7500      0.0000    737.1825      2.7122    101.3180
  2216.0000      0.0000    746.9738      2.6746     94.4593
  2216.2500      0.0000    756.3137      2.6757     83.7458
  2216.5000      0.0000    759.4094      2.7293     70.5483
  2216.7500      0.0000    752.7999      2.8056     57.1576
  2217.0000      0.0000    739.0134      2.8580     46.1959
  2217.2500      0.0000    725.4335      2.8596     39.5403
  2217.5000      0.0000    719.4225      2.8163     37.7309
  2217.7500      0.0000    723.6556      2.7558     40.1694
  2218.0000      0.0000    734.4474      2.7103     45.6673
  2218.2500      0.0000    743.9926      2.6988     52.9160
  2218.5000      0.0000    745.9934      2.7058     60.5360
  2218.7500      0.0000    740.6232      2.6860     66.7821
  2219.0000      0.0000    733.6619      2.6087     69.7180
  2219.2500      0.0000    730.7553      2.4956     68.2800
  2219.5000      0.0000    733.3499      2.4069     63.2150
  2219.7500      0.0000    739.4446      2.3859     56.7267
  2220.0000      0.0000    746.3178      2.4161     51.1744
  2220.2500      0.0000    752.3506      2.4353     47.9968
  2220.5000      0.0000    757.6063      2.3992     47.3363
  2220.7500      0.0000    762.8112      2.3298     48.2500
  2221.0000      0.0000    766.9625      2.2993     49.4346
  2221.2500      0.0000    766.6328      2.3626     50.0961
  2221.5000      0.0000    759.2240      2.4998     50.3323
  2221.7500      0.0000    746.8452      2.6328     50.8569
  2222.0000      0.0000    735.4218      2.7056     52.3225
  2222.2500      0.0000    729.4715      2.7429     54.6130
  2222.5000      0.0000    728.4783      2.8241     56.6748
  2222.7500      0.0000    728.5931      2.9939     57.2259
  2223.0000      0.0000    727.4998      3.2012     55.8206
  2223.2500      0.0000    727.2809      3.3408     53.2687
  2223.5000      0.0000    732.2190      3.3666     51.0496
  2223.7500      0.0000    743.4348      3.3494     50.2593
  2224.0000      0.0000    756.0092      3.4032     50.9565
  2224.2500      0.0000    762.1725      3.5568     52.4997
  2224.5000      0.0000    757.4937      3.7251     54.3372
  2224.7500      0.0000    743.4562      3.8112     56.0854
  2225.0000      0.0000    724.7295      3.8128     57.0655
  2225.2500      0.0000    705.7236      3.8169     56.5897
  2225.5000      0.0000    689.5743      3.9049     54.8423
  2225.7500      0.0000    678.0794      4.0800     52.8825
  2226.0000      0.0000    671.3492      4.2869     51.5941
  2226.2500      0.0000    668.0800      4.4748     50.9823
  2226.5000      0.0000    666.6498      4.6215     50.5527
  2226.7500      0.0000    665.9792      4.7097     49.9707
  2227.0000      0.0000    665.6442      4.7218     49.1960
  2227.2500      0.0000    665.6040      4.6704     48.3492
  2227.5000      0.0000    666.1029      4.6057     47.6829
  2227.7500      0.0000    667.9460      4.5840     47.4869
  2228.0000      0.0000    672.8736      4.6414     47.8722
  2228.2500      0.0000    683.0558      4.7877     48.6706
  2228.5000      0.0000    699.0008      4.9933     49.5126
  2228.7500      0.0000    717.0894      5.1815     50.0194
  2229.0000      0.0000    730.0773      5.2642     50.0458
  2229.2500      0.0000    732.0951      5.2079     49.7990
  2229.5000      0.0000    724.0803      5.0586     49.5852
  2229.7500      0.0000    713.7842      4.8898     49.2781
  2230.0000      0.0000    710.1342      4.7289     48.2106
  2230.2500      0.0000    717.0106      4.5487     45.9002
  2230.5000      0.0000    730.6091      4.3315     42.8393
  2230.7500      0.0000    741.8433      4.1189     40.2653
  2231.0000      0.0000    742.9374      3.9744     39.1174
  2231.2500      0.0000    733.3295      3.9080     39.4208
  2231.5000      0.0000    719.2686      3.8583     40.5796
  2231.7500      0.0000    708.2234      3.7517     41.9890
  2232.0000      0.0000    704.5466      3.5686     43.3746
  2232.2500      0.0000    709.1187      3.3501     44.7447
  2232.5000      0.0000    720.1810      3.1523     46.1617
  2232.7500      0.0000    733.5134      3.0067     47.6389
  2233.0000      0.0000    743.8506      2.9125     49.1225
  2233.2500      0.0000    748.3687      2.8484     50.3880
  2233.5000      0.0000    748.6720      2.7949     51.0338
  2233.7500      0.0000    748.0936      2.7529     50.8095
  2234.0000      0.0000    747.4221      2.7386     50.0778
  2234.2500      0.0000    744.7852      2.7597     49.9332
  2234.5000      0.0000    739.5054      2.8018     51.6487
