~Version Information
VERS.                      2.0: CWLS Log ASCII Standard - VERSION 2.0
WRAP.                       NO: One line per depth step
~Well Information Block
STRT.FT               528.0000: 
STOP.FT              2250.0000: 
STEP.FT                 0.1000: 
NULL.                -999.2500: 
COMP.          Pioneer Natural Resources: COMPANY
WELL.           Parklane 43-34: WELL
FLD.           Purgatorie River: FIELD
LOC.           1704' FSL & 1119' FEL: LOCATION
PROV.                 Colorado: PROVINCE
CNTY.               Las Animas: COUNTRY
SRVC.                         : SERVICE COMPANY
DATE.          Thu Oct 07 08:21:17 2004: LOG DATE
UWI.           05 071 08162 00: UNIQUE WELL ID
~Curve Information Block
DEPT.FT            0 000 00 00: Depth
LTEN.lb                       : Surface Line Tension
DCAL.in                       : CDL Caliper
RHOB.g/cc                     : CDL Bulk Density
RHOC.g/cc                     : CDL Density Correction
DPOR.pu                       : CDL Density Porosity
GR.GAPI                       : Gamma Ray
NPOR.pu                       : Neutron Porosity
~Parameter Information Block
~A  Depth       LTEN        DCAL        RHOB        RHOC        DPOR         GR         NPOR    
# ...
  1670.4000   1068.3718      8.0392      2.5674      0.0797      5.0045    126.1203     24.6426
  1670.5000   1094.4063      8.0384      2.5574      0.0592      5.6146    132.6507     24.5486
  1670.6000   1094.4063      8.0384      2.5422      0.0323      6.5314    136.8557     24.5635
  1670.7000   1094.4063      8.0384      2.5342      0.0248      7.0175    138.2461     24.7477
  1670.8000   1028.1406      8.0297      2.5450      0.0407      6.3631    140.2031     24.2025
  1670.9000   1028.1406      8.0297      2.5672      0.0930      5.0178    146.3393     22.5350
  1671.0000   1125.1271      8.0138      2.5813      0.0725      4.1639    150.3725     20.7517
  1671.1000   1125.1271      8.0138      2.5849      0.0785      3.9472    146.4483     19.7863
  1671.2000   1125.1271      8.0138      2.5922      0.0952      3.5011    135.6626     19.9771
  1671.3000   1040.3230      8.0031      2.6082      0.1265      2.5318    120.1002     21.4275
  1671.4000   1040.3230      8.0031      2.6184      0.1404      1.9152    109.1024     23.1110
  1671.5000   1102.9121      7.9995      2.6145      0.1054      2.1491    111.5523     23.8804
  1671.6000   1102.9121      7.9995      2.6065      0.1151      2.6335    122.2758     24.2379
  1671.7000   1102.9121      7.9995      2.6009      0.1174      2.9760    129.6649     24.1667
  1671.8000   1055.4539      7.9939      2.5964      0.0853      3.2468    128.4853     22.9858
  1671.9000   1055.4539      7.9939      2.5895      0.0975      3.6668    121.7263     21.4658
  1672.0000   1101.1968      7.9838      2.5747      0.0929      4.5616    114.7501     20.4995
  1672.1000   1101.1968      7.9838      2.5593      0.0438      5.4987    111.6740     20.5377
  1672.2000   1101.1968      7.9838      2.5615      0.0399      5.3649    116.1368     21.6277
  1672.3000   1060.6510      7.9826      2.5796      0.0977      4.2685    126.4732     22.5230
  1672.4000   1060.6510      7.9826      2.5934      0.0745      3.4287    128.0797     22.2506
  1672.5000   1070.5374      8.0004      2.5971      0.0702      3.2076    117.9858     21.4533
  1672.6000   1070.5374      8.0004      2.5938      0.1040      3.4084    111.1574     20.8094
  1672.7000   1070.5374      8.0004      2.5848      0.0500      3.9522    111.9609     20.5608
  1672.8000   1057.5592      8.0238      2.5795      0.0227      4.2753    114.4677     21.1359
  1672.9000   1057.5592      8.0238      2.5860      0.0472      3.8791    119.1134     21.9549
  1673.0000   1081.0831      8.0423      2.5985      0.0583      3.1210    124.3387     21.5602
  1673.1000   1081.0831      8.0423      2.6065      0.0497      2.6388    122.8006     20.4577
  1673.2000   1081.0831      8.0423      2.6058      0.0432      2.6809    120.2597     20.4193
  1673.3000   1070.5778      8.0540      2.5950      0.0411      3.3362    125.4066     21.6304
  1673.4000   1070.5778      8.0540      2.5750      0.0115      4.5437    131.5894     22.9409
  1673.5000   1094.9050      8.0586      2.5539      0.0131      5.8222    132.1949     23.4956
  1673.6000   1094.9050      8.0586      2.5424      0.0109      6.5227    130.9577     22.8789
  1673.7000   1094.9050      8.0586      2.5470      0.0166      6.2425    133.1543     21.5891
  1673.8000   1083.1995      8.0597      2.5622      0.0568      5.3215    139.8547     20.7078
  1673.9000   1083.1995      8.0597      2.5688      0.0508      4.9195    144.8780     20.8624
  1674.0000   1097.4259      8.0492      2.5564      0.0321      5.6715    142.7719     21.3747
  1674.1000   1097.4259      8.0492      2.5403      0.0047      6.6478    137.5507     21.1677
  1674.2000   1097.4259      8.0492      2.5402      0.0414      6.6555    133.6314     20.6808
  1674.3000   1108.4822      8.0239      2.5512      0.0445      5.9849    128.4421     20.6832
  1674.4000   1108.4822      8.0239      2.5588      0.0600      5.5299    122.4814     20.9916
  1674.5000   1111.3474      7.9969      2.5609      0.0734      5.3995    119.1450     21.5338
  1674.6000   1111.3474      7.9969      2.5654      0.0569      5.1301    114.7988     22.3190
  1674.7000   1111.3474      7.9969      2.5725      0.0613      4.6978    108.5435     22.8602
  1674.8000   1102.3824      7.9668      2.5734      0.0841      4.6445    108.8308     22.7395
  1674.9000   1102.3824      7.9668      2.5686      0.0338      4.9341    114.6948     22.2286
  1675.0000   1097.7448      7.9309      2.5694      0.0703      4.8848    116.1109     21.7906
  1675.1000   1097.7448      7.9309      2.5774      0.0801      4.4029    112.2597     21.7173
  1675.2000   1097.7448      7.9309      2.5888      0.0533      3.7088    108.9558     21.9264
  1675.3000   1113.9385      7.9102      2.6038      0.0952      2.7994    108.7459     21.9181
  1675.4000   1113.9385      7.9102      2.6192      0.0747      1.8667    110.0786     22.1011
  1675.5000   1112.6398      7.9091      2.6247      0.1363      1.5311    110.3849     22.6798
  1675.6000   1112.6398      7.9091      2.6092      0.1218      2.4740    108.3549     22.5903
  1675.7000   1112.6398      7.9091      2.5791      0.0726      4.2948    106.4391     21.5142
  1675.8000   1075.3374      7.9172      2.5505      0.0580      6.0291    105.5611     20.5165
  1675.9000   1075.3374      7.9172      2.5273      0.0717      7.4335    103.2718     20.4006
  1676.0000   1132.1071      7.9290      2.5144     -0.0051      8.2187    102.7577     20.7360
  1676.1000   1132.1071      7.9290      2.5171      0.0474      8.0545    109.1082     20.9259
  1676.2000   1132.1071      7.9290      2.5266      0.0565      7.4785    117.7930     21.0540
  1676.3000   1083.9736      7.9316      2.5385      0.0612      6.7598    118.5914     20.8774
  1676.4000   1083.9736      7.9316      2.5490      0.0937      6.1233    110.7848     19.7526
  1676.5000   1157.8850      7.9215      2.5485      0.0638      6.1516    103.5428     18.3883
  1676.6000   1157.8850      7.9215      2.5386      0.0873      6.7533    101.2309     18.1740
  1676.7000   1157.8850      7.9215      2.5305      0.0603      7.2410     99.8728     19.3229
  1676.8000   1110.2086      7.9026      2.5376      0.0878      6.8101     96.5744     20.8278
  1676.9000   1110.2086      7.9026      2.5595      0.1238      5.4831     96.9907     21.6970
  1677.0000   1129.9298      7.8789      2.5799      0.1216      4.2514    104.9815     21.9087
  1677.1000   1129.9298      7.8789      2.5850      0.1713      3.9417    113.7433     21.8846
  1677.2000   1129.9298      7.8789      2.5747      0.1382      4.5618    117.9946     21.5137
  1677.3000   1101.8524      7.8640      2.5659      0.1003      5.0941    118.7232     20.8951
  1677.4000   1101.8524      7.8640      2.5737      0.1176      4.6254    119.8472     20.5497
  1677.5000   1137.5846      7.8606      2.5950      0.1458      3.3339    122.8350     20.6233
  1677.6000   1137.5846      7.8606      2.6163      0.1704      2.0431    123.3678     21.0043
  1677.7000   1137.5846      7.8606      2.6278      0.1429      1.3480    117.2647     21.2145
  1677.8000   1086.2650      7.8608      2.6333      0.1473      1.0117    107.8937     20.4624
  1677.9000   1086.2650      7.8608      2.6396      0.1490      0.6282    102.9249     18.8454
  1678.0000   1172.4484      7.8590      2.6404      0.1401      0.5848    101.1649     17.5875
  1678.1000   1172.4484      7.8590      2.6264      0.1397      1.4322     95.4412     17.5590
  1678.2000   1172.4484      7.8590      2.6030      0.1086      2.8481     88.3872     18.5436
  1678.3000   1085.7708      7.8622      2.5891      0.0775      3.6930     86.1939     19.9662
  1678.4000   1085.7708      7.8622      2.5891      0.1036      3.6913     88.2242     21.4255
  1678.5000   1157.0132      7.8754      2.5872      0.0855      3.8035     91.4245     22.4294
  1678.6000   1157.0132      7.8754      2.5844      0.0445      3.9777     95.5444     22.9159
  1678.7000   1157.0132      7.8754      2.5945      0.0895      3.3645    101.9007     22.9775
