~Version Information
VERS.                      2.0: CWLS Log ASCII Standard - VERSION 2.0
WRAP.                       NO: One line per depth step
~Well Information Block
STRT.FT               664.0000: 
STOP.FT              1113.5000: 
STEP.FT                 0.1000: 
NULL.                -999.2500: 
COMP.          Petrogulf Corporation: COMPANY
WELL.          Great Plains 22-21R: WELL
FLD.           Purgatorie River: FIELD
LOC.           73' FNL & 1992' FWL: LOCATION
PROV.                 Colorado: PROVINCE
CNTY.               Las Animas: COUNTRY
SRVC.                Patterson: SERVICE COMPANY
DATE.          Thu Sep 08 08:02:28 2005: LOG DATE
UWI.                          : UNIQUE WELL ID
~Curve Information Block
DEPT.FT            0 000 00 00: Depth
DCAL.in                       : CDL Caliper
RHOB.g/cc                     : CDL Bulk Density
RHOC.g/cc                     : CDL Density Correction
DPOR.pu                       : CDL Density Porosity
GR.GAPI                       : Gamma Ray
NPOR.pu                       : Neutron Porosity
~Parameter Information Block
~A  Depth       DCAL        RHOB        RHOC        DPOR         GR         NPOR    
   664.0000   -999.2500   -999.2500   -999.2500   -999.2500    110.9150      3.4006
   664.1000   -999.2500   -999.2500   -999.2500   -999.2500    113.3158      3.4419
   664.2000   -999.2500   -999.2500   -999.2500   -999.2500    115.3288      3.4961
   664.3000   -999.2500   -999.2500   -999.2500   -999.2500    113.4618      3.5523
   664.4000   -999.2500   -999.2500   -999.2500   -999.2500    109.5762      3.7839
   664.5000   -999.2500   -999.2500   -999.2500   -999.2500    106.0609      3.9788
   664.6000   -999.2500   -999.2500   -999.2500   -999.2500    103.3863      3.8606
   664.7000   -999.2500   -999.2500   -999.2500   -999.2500    102.2225      3.6819
   664.8000   -999.2500   -999.2500   -999.2500   -999.2500    102.8652      3.7062
   664.9000   -999.2500   -999.2500   -999.2500   -999.2500    103.6168      3.8494
   665.0000   -999.2500   -999.2500   -999.2500   -999.2500    104.0708      3.9769
   665.1000   -999.2500   -999.2500   -999.2500   -999.2500    105.8316      4.2168
   665.2000   -999.2500   -999.2500   -999.2500   -999.2500    107.4632      4.5920
   665.3000   -999.2500   -999.2500   -999.2500   -999.2500    106.1829      4.6658
   665.4000   -999.2500   -999.2500   -999.2500   -999.2500    103.5209      4.3777
   665.5000   -999.2500   -999.2500   -999.2500   -999.2500    102.9271      4.0479
   665.6000   -999.2500   -999.2500   -999.2500   -999.2500    104.3875      4.0023
   665.7000   -999.2500   -999.2500   -999.2500   -999.2500    105.3399      4.4879
   665.8000   -999.2500   -999.2500   -999.2500   -999.2500    104.8047      5.3038
   665.9000   -999.2500   -999.2500   -999.2500   -999.2500    103.8298      5.7401
   666.0000   -999.2500   -999.2500   -999.2500   -999.2500    103.7207      5.4593
   666.1000   -999.2500   -999.2500   -999.2500   -999.2500    103.5295      5.0375
   666.2000   -999.2500   -999.2500   -999.2500   -999.2500    102.6724      5.0956
   666.3000   -999.2500   -999.2500   -999.2500   -999.2500    104.2695      5.3660
   666.4000   -999.2500   -999.2500   -999.2500   -999.2500    108.2876      5.2280
   666.5000   -999.2500   -999.2500   -999.2500   -999.2500    111.9371      5.1999
   666.6000   -999.2500   -999.2500   -999.2500   -999.2500    114.8352      5.8515
   666.7000   -999.2500   -999.2500   -999.2500   -999.2500    115.9135      6.4026
   666.8000   -999.2500   -999.2500   -999.2500   -999.2500    115.3555      6.2557
   666.9000   -999.2500   -999.2500   -999.2500   -999.2500    114.0737      6.1795
   667.0000   -999.2500   -999.2500   -999.2500   -999.2500    111.8968      6.3583
   667.1000   -999.2500   -999.2500   -999.2500   -999.2500    108.4311      6.0443
   667.2000   -999.2500   -999.2500   -999.2500   -999.2500    103.0938      5.3012
   667.3000   -999.2500   -999.2500   -999.2500   -999.2500     99.0700      5.2601
   667.4000   -999.2500   -999.2500   -999.2500   -999.2500     98.8707      6.2514
   667.5000   -999.2500   -999.2500   -999.2500   -999.2500    101.0426      6.9918
   667.6000   -999.2500   -999.2500   -999.2500   -999.2500    104.5076      6.6893
   667.7000   -999.2500   -999.2500   -999.2500   -999.2500    106.4852      6.6306
   667.8000      8.1424   -999.2500   -999.2500   -999.2500    105.2872      7.4336
   667.9000      8.1424   -999.2500     -0.4969   -999.2500    104.2469      8.2652
   668.0000      8.1466   -999.2500     -0.4851   -999.2500    103.7265      8.5674
   668.1000      8.1466   -999.2500     -0.5433   -999.2500    102.0418      8.7312
   668.2000      8.1466   -999.2500     -0.5354   -999.2500    100.3386      8.8930
   668.3000      8.1404   -999.2500     -0.5036   -999.2500     98.8869      8.6229
   668.4000      8.1404      2.3113     -0.4422     20.5276     96.7439      7.5144
   668.5000      8.1434      2.3397     -0.4456     18.8064     95.2373      6.5143
   668.6000      8.1434      2.3484     -0.4709     18.2780     95.4214      6.7148
   668.7000      8.1434      2.3374     -0.3852     18.9450     95.9344      7.5655
   668.8000      8.1492      2.3086     -0.4643     20.6920     96.4687      7.8005
   668.9000      8.1492      2.2836     -0.5077     22.2039     99.0468      8.1380
   669.0000      8.1444      2.2853     -0.4965     22.1008    103.8603      9.6085
   669.1000      8.1444      2.3044     -0.4498     20.9467    108.1791     11.4916
   669.2000      8.1444      2.3152     -0.4612     20.2939    109.4694     12.6490
   669.3000      8.1467      2.3147     -0.4921     20.3226    107.5657     12.7260
   669.4000      8.1467      2.3180     -0.4922     20.1196    104.2492     12.4548
   669.5000      8.1407      2.3271     -0.4230     19.5677    103.0566     12.3674
   669.6000      8.1407      2.3280     -0.4729     19.5169    104.0688     11.6861
   669.7000      8.1407      2.3196     -0.4596     20.0238    101.6065     10.6835
   669.8000      8.1439      2.3246     -0.4662     19.7193     95.6070     11.1202
   669.9000      8.1439      2.3651     -0.4764     17.2696     91.0727     13.5203
   670.0000      8.1377      2.4366     -0.4701     12.9352     89.3278     15.8466
   670.1000      8.1377      2.5071     -0.3787      8.6618     89.4429     16.5329
   670.2000      8.1377      2.5446     -0.3400      6.3899     91.5980     16.7874
   670.3000      8.1390      2.5455     -0.3957      6.3319     94.2731     17.4009
   670.4000      8.1390      2.5261     -0.4115      7.5101     93.8548     17.3446
   670.5000      8.1414      2.4971     -0.4436      9.2689     91.8721     15.9793
   670.6000      8.1414      2.4523     -0.4303     11.9796     91.9601     14.9504
   670.7000      8.1414      2.3886     -0.4317     15.8398     93.0792     15.7376
   670.8000      8.1422      2.3313     -0.4785     19.3179     94.6072     17.8755
   670.9000      8.1422      2.3058     -0.4543     20.8615     99.6193     20.3386
   671.0000      8.1457      2.3080     -0.4607     20.7256    105.8103     21.9938
   671.1000      8.1457      2.3158     -0.3814     20.2531    108.1790     22.0569
   671.2000      8.1457      2.3092     -0.4393     20.6530    108.5945     20.9579
   671.3000      8.1413      2.2938     -0.4852     21.5904    109.8804     19.9745
   671.4000      8.1413      2.2820     -0.4387     22.3034    110.7731     20.3959
   671.5000      8.1434      2.2727     -0.4670     22.8656    109.5991     22.2084
   671.6000      8.1434      2.2717     -0.4941     22.9293    107.9474     23.9706
   671.7000      8.1434      2.2890     -0.4795     21.8791    108.5487     24.8052
   671.8000      8.1479      2.3165     -0.4540     20.2118    110.0373     24.3461
   671.9000      8.1479      2.3327     -0.4883     19.2305    110.6809     23.2940
   672.0000      8.1415      2.3242     -0.4426     19.7454    110.6280     23.1070
   672.1000      8.1415      2.3009     -0.5184     21.1557    110.7110     23.3304
   672.2000      8.1415      2.2903     -0.5496     21.7997    112.8171     22.5267
   672.3000      8.1415      2.3018     -0.5613     21.1045    115.7707     21.8052
   672.4000      8.1415      2.3148     -0.4754     20.3154    116.3634     22.6465
   672.5000      8.1417      2.3127     -0.5102     20.4413    115.2844     23.5274
   672.6000      8.1417      2.3020     -0.5249     21.0909    114.6305     22.8572
   672.7000      8.1417      2.2817     -0.4703     22.3218    113.2836     21.7662
   672.8000      8.1414      2.2491     -0.5794     24.2998    112.2938     21.6433
   672.9000      8.1414      2.2223     -0.5307     25.9186    113.6869     21.7730
   673.0000      8.1389      2.2022     -0.5271     27.1373    113.7115     22.1778
   673.1000      8.1389      2.1685     -0.5565     29.1836    110.5150     23.6832
   673.2000      8.1389      2.1185     -0.5684     32.2126    106.8763     25.3527
   673.3000      8.1358      2.0686     -0.5954     35.2378    103.6888     26.0884
   673.4000      8.1358      2.0239     -0.5629     37.9464    100.9572     25.6347
   673.5000      8.1372      1.9634     -0.5868     41.6138     99.0873     24.4241
