~Version Information
VERS.                      2.0: CWLS Log ASCII Standard - VERSION 2.0
WRAP.                       NO: One line per depth step
~Well Information Block
STRT.FT                -6.5000: 
STOP.FT              1719.0000: 
STEP.FT                 0.5000: 
NULL.                -999.2500: 
COMP.          Pioneer Natural Resources: COMPANY
WELL.             Tami J 23-18: WELL
FLD.           Purgatorie River: FIELD
LOC.           2250' FSL & 2400' FWL: LOCATION
PROV.                 Colorado: PROVINCE
CNTY.               Las Animas: COUNTRY
SRVC.          Patterson Wireline: SERVICE COMPANY
DATE.          Fri Dec 17 13:50:12 2004: LOG DATE
UWI.           05-071-08073-00: UNIQUE WELL ID
~Curve Information Block
DEPT.FT            0 000 00 00: Depth
CCL.                          : Casing Collar Locator
TT3.usec                      : CBL 3' Travel Time
AMP3.mV                       : CBL 3' Amplitude
GR.GAPI                       : Gamma Ray
~Parameter Information Block
~A  Depth       CCL         TT3         AMP3         GR     
# ...
  1467.5000      0.0000    559.4706      6.7529    106.1385
  1468.0000      0.0000    555.8861      7.0795     98.1486
  1468.5000      0.0000    570.1492      6.6482     95.6783
  1469.0000      0.0000    594.6882      5.8295     98.9301
  1469.5000      0.0000    637.5726      5.1749    104.0320
  1470.0000      0.0000    673.7988      5.0347    105.7640
  1470.5000      0.0000    695.6938      5.3472    108.9958
  1471.0000      0.0000    733.0295      5.9362    114.6060
  1471.5000      0.0000    779.9158      6.3093    108.9215
  1472.0000      0.0000    788.7981      5.9927     98.1317
  1472.5000      0.0000    779.4620      5.2463     90.6466
  1473.0000      0.0000    796.1471      4.4166     76.1771
  1473.5000      0.0000    786.4825      3.6970     61.6795
  1474.0000      0.0000    733.6927      3.1338     54.8485
  1474.5000      0.0000    714.2350      2.7387     51.6638
  1475.0000      0.0000    748.2281      2.6538     52.9109
  1475.5000      0.0000    777.8187      3.0654     62.0124
  1476.0000      0.0000    765.8381      4.1383     75.2531
  1476.5000      0.0000    735.9535      5.9559     85.8655
  1477.0000      0.0000    721.8557      7.9740     89.8304
  1477.5000      0.0000    688.5021      9.1604     91.8347
  1478.0000      0.0000    634.0557      9.0681     95.9912
  1478.5000      0.0000    599.7063      7.9046     99.4446
  1479.0000      0.0000    583.2121      6.2670     97.5932
  1479.5000      0.0000    590.5333      5.0888     92.2610
  1480.0000      0.0000    609.3530      4.8864     89.0963
  1480.5000      0.0000    614.4841      5.5578     87.6939
  1481.0000      0.0000    604.7026      6.3654     86.3026
  1481.5000      0.0000    588.5184      6.8110     86.6791
  1482.0000      0.0000    579.0823      7.0072     86.7832
  1482.5000      0.0000    586.4854      7.0147     83.9663
  1483.0000      0.0000    626.1154      6.7154     82.0559
  1483.5000      0.0000    663.8915      6.1486     81.4959
  1484.0000      0.0000    640.0333      5.5926     76.7571
  1484.5000      0.0000    605.4055      5.1404     69.6970
  1485.0000      0.0000    649.5447      4.8726     62.5887
  1485.5000      0.0000    729.5934      4.8899     60.8467
  1486.0000      0.0000    755.7631      5.1820     70.0298
  1486.5000      0.0000    731.1627      5.6095     86.8648
  1487.0000      0.0000    693.7761      6.0001    102.9210
  1487.5000      0.0000    690.3568      6.3280    109.1118
  1488.0000      0.0000    734.5768      6.5113    102.3610
  1488.5000      0.0000    756.6776      6.4260     96.7831
  1489.0000      0.0000    747.7839      6.2359     95.8455
  1489.5000      0.0000    770.3013      6.0557     84.7330
  1490.0000      0.0000    802.7606      5.4832     75.3870
  1490.5000      0.0000    807.6815      4.2842     79.4747
  1491.0000      0.0000    788.1675      3.0603     82.5252
  1491.5000      0.0000    763.4432      2.4715     76.7534
  1492.0000      0.0000    767.6490      2.6754     70.1157
  1492.5000      0.0000    793.8252      3.4021     75.1420
  1493.0000      0.0000    788.3072      4.0877     88.8859
  1493.5000      0.0000    747.6147      4.3026    101.6753
  1494.0000      0.0000    720.1742      4.1278    104.8811
  1494.5000      0.0000    726.2710      4.1798    100.5434
  1495.0000      0.0000    733.1231      4.8501     97.2854
  1495.5000      0.0000    715.6716      5.6549     97.3321
  1496.0000      0.0000    667.5048      6.0323     96.7488
  1496.5000      0.0000    642.1229      6.0284     89.4138
  1497.0000      0.0000    688.2720      5.9544     86.0004
  1497.5000      0.0000    753.7442      6.0838     89.6947
  1498.0000      0.0000    766.3626      6.4465     92.1818
  1498.5000      0.0000    767.0625      6.6468     93.3587
  1499.0000      0.0000    789.6472      6.4824     92.9662
  1499.5000      0.0000    799.3607      6.0635     91.9241
  1500.0000      0.0000    771.3320      5.6485     93.0739
  1500.5000      0.0000    711.3024      5.5131     90.6072
  1501.0000      0.0000    656.6832      5.6502     85.8428
  1501.5000      0.0000    623.1530      5.5567     87.8043
  1502.0000      0.0000    604.7294      5.0082     91.4275
  1502.5000      0.0000    598.4585      4.3717     89.0538
  1503.0000      0.0000    597.6065      4.0795     86.4984
  1503.5000      0.0000    598.6112      4.0613     91.0184
  1504.0000      0.0000    600.7949      4.0595     92.8583
  1504.5000      0.0000    603.0717      4.0013     86.1170
  1505.0000      0.0000    608.2707      3.9498     80.8060
  1505.5000      0.0000    628.0990      3.9292     81.5125
  1506.0000      0.0000    660.9860      4.0674     86.9411
  1506.5000      0.0000    689.5747      4.2453     89.6607
  1507.0000      0.0000    710.7947      4.2631     83.1065
  1507.5000      0.0000    712.5827      4.7166     72.0188
  1508.0000      0.0000    706.1390      5.4184     69.8768
  1508.5000      0.0000    710.2556      5.6750     76.9257
  1509.0000      0.0000    708.9584      5.3316     84.1776
  1509.5000      0.0000    695.8531      4.7992     81.6546
  1510.0000      0.0000    705.4560      4.9984     75.1303
  1510.5000      0.0000    742.6962      5.9316     77.4735
  1511.0000      0.0000    766.1282      6.5574     85.5962
  1511.5000      0.0000    774.2303      6.5231     92.9803
  1512.0000      0.0000    776.7130      5.9990     93.2216
  1512.5000      0.0000    780.4413      5.2593     84.5529
  1513.0000      0.0000    787.0658      4.6323     74.1389
  1513.5000      0.0000    786.1801      4.0857     71.5360
  1514.0000      0.0000    781.4690      3.8632     78.9681
  1514.5000      0.0000    768.3295      4.5173     92.4259
  1515.0000      0.0000    734.8649      5.5167    105.7052
  1515.5000      0.0000    685.3381      5.8364    111.6142
  1516.0000      0.0000    644.9871      5.2614    104.9819
  1516.5000      0.0000    657.2195      4.4581     94.8418
  1517.0000      0.0000    685.0843      4.2939     95.4331
  1517.5000      0.0000    659.5671      4.9575     99.7961
  1518.0000      0.0000    617.1996      5.9420     95.8573
  1518.5000      0.0000    637.2852      6.1932     86.6947
  1519.0000      0.0000    656.9284      5.4183     85.4088
  1519.5000      0.0000    621.0700      4.6311     89.0970
  1520.0000      0.0000    570.8227      4.7455     88.2700
  1520.5000      0.0000    534.3809      5.7233     86.7706
  1521.0000      0.0000    522.7386      6.6647     82.7819
  1521.5000      0.0000    532.3840      6.5307     79.2702
  1522.0000      0.0000    543.4438      5.5450     79.0245
  1522.5000      0.0000    544.3321      5.2510     79.1295
  1523.0000      0.0000    537.7491      6.0830     80.1095
  1523.5000      0.0000    542.8881      6.5171     80.7722
  1524.0000      0.0000    569.8984      5.7539     75.8549
  1524.5000      0.0000    600.9930      4.6571     68.2472
  1525.0000      0.0000    666.0817      4.6514     67.1264
  1525.5000      0.0000    751.0324      5.8018     71.9038
  1526.0000      0.0000    768.9555      6.5848     78.4244
  1526.5000      0.0000    735.6160      6.2026     82.8598
  1527.0000      0.0000    705.9462      5.3735     83.2272
  1527.5000      0.0000    677.5616      5.3697     87.5783
  1528.0000      0.0000    628.2753      6.0311     96.5833
  1528.5000      0.0000    580.6049      6.0455     94.9994
  1529.0000      0.0000    560.5486      5.4528     89.4087
  1529.5000      0.0000    557.1781      5.3432     93.2468
  1530.0000      0.0000    574.0726      5.8522     97.4034
  1530.5000      0.0000    593.3115      5.8555     98.1997
  1531.0000      0.0000    586.4971      5.2057     95.4632
  1531.5000      0.0000    600.0137      5.1700     85.6864
  1532.0000      0.0000    642.3477      5.9177     77.2005
  1532.5000      0.0000    678.4133      5.8913     74.2161
  1533.0000      0.0000    708.8654      5.0968     71.0172
  1533.5000      0.0000    743.2881      4.9327     60.7107
  1534.0000      0.0000    770.4589      5.3101     47.8193
