~Version Information
VERS.                      2.0: CWLS Log ASCII Standard - VERSION 2.0
WRAP.                       NO: One line per depth step
~Well Information Block
STRT.FT                -4.7500: 
STOP.FT              2809.5000: 
STEP.FT                 0.2500: 
NULL.                -999.2500: 
COMP.          Pioneer Natural Resources: COMPANY
WELL.              Lynch 43-30: WELL
FLD.           Purgatorie River: FIELD
LOC.           1438' FSL & 429' FEL--: LOCATION
PROV.                       CO: PROVINCE
CNTY.               Las Animas: COUNTRY
SRVC.                         : SERVICE COMPANY
DATE.          Sat Oct 30 09:52:34 2004: LOG DATE
UWI.          005 071 08170   : UNIQUE WELL ID
~Curve Information Block
DEPT.FT            0 000 00 00: Depth
GR.GAPI                       : Gamma Ray
CCL.                          : Casing Collar Locator
TT3.usec                      : CBL 3' Travel Time
AMP3.mV                       : CBL 3' Amplitude
~Parameter Information Block
~A  Depth        GR         CCL         TT3         AMP3    
# ...
  2206.2500    102.2765      0.0000    657.1216      5.3988
  2206.5000     90.8567      0.0000    657.2388      5.4060
  2206.7500     80.1975      0.0000    657.1386      5.4150
  2207.0000     71.1964      0.0000    657.0463      5.4213
  2207.2500     63.8538      0.0000    657.3234      5.4289
  2207.5000     58.1189      0.0000    658.6357      5.4328
  2207.7500     54.3603      0.0000    661.6593      5.4192
  2208.0000     52.8197      0.0000    665.9537      5.3837
  2208.2500     53.0946      0.0000    668.6072      5.3410
  2208.5000     54.2765      0.0000    664.1409      5.3150
  2208.7500     55.3854      0.0000    646.6945      5.3246
  2209.0000     55.9428      0.0000    613.9187      5.3737
  2209.2500     56.6165      0.0000    570.8559      5.4454
  2209.5000     58.9986      0.0000    530.7560      5.5065
  2209.7500     63.9861      0.0000    509.4648      5.5234
  2210.0000     70.2650      0.0000    515.1332      5.4822
  2210.2500     75.0388      0.0000    541.6559      5.4012
  2210.5000     76.5060      0.0000    572.6558      5.3234
  2210.7500     75.2296      0.0000    593.3249      5.2908
  2211.0000     73.0787      0.0000    600.2667      5.3184
  2211.2500     71.3648      0.0000    601.3285      5.3887
  2211.5000     70.1545      0.0000    606.5300      5.4704
  2211.7500     68.7964      0.0000    619.4391      5.5384
  2212.0000     66.5263      0.0000    636.7551      5.5841
  2212.2500     62.7356      0.0000    653.8337      5.6134
  2212.5000     57.3619      0.0000    668.2001      5.6398
  2212.7500     51.3543      0.0000    678.4675      5.6744
  2213.0000     46.5830      0.0000    682.3312      5.7195
  2213.2500     45.0211      0.0000    677.2602      5.7702
  2213.5000     47.7099      0.0000    663.6617      5.8200
  2213.7500     54.1298      0.0000    646.8771      5.8647
  2214.0000     62.4074      0.0000    633.5724      5.9053
  2214.2500     70.1863      0.0000    624.3544      5.9466
  2214.5000     75.3651      0.0000    613.0463      5.9899
  2214.7500     76.5058      0.0000    597.0038      6.0233
  2215.0000     73.4817      0.0000    585.0893      6.0255
  2215.2500     67.9544      0.0000    589.6894      5.9834
  2215.5000     62.5532      0.0000    611.3052      5.9040
  2215.7500     59.1598      0.0000    635.9149      5.8036
  2216.0000     58.0565      0.0000    648.1894      5.6912
  2216.2500     58.5078      0.0000    643.5522      5.5690
  2216.5000     59.6697      0.0000    626.3090      5.4444
  2216.7500     60.7923      0.0000    600.4605      5.3326
  2217.0000     61.0275      0.0000    567.8845      5.2434
  2217.2500     59.7385      0.0000    534.4017      5.1720
  2217.5000     57.1509      0.0000    509.7543      5.1070
  2217.7500     54.2824      0.0000    498.3127      5.0478
  2218.0000     52.0218      0.0000    495.7808      5.0075
  2218.2500     50.5376      0.0000    499.0140      4.9932
  2218.5000     49.7155      0.0000    513.6061      4.9901
  2218.7500     49.8275      0.0000    546.2823      4.9753
  2219.0000     51.6564      0.0000    593.0403      4.9476
  2219.2500     56.3176      0.0000    640.1693      4.9344
  2219.5000     64.9658      0.0000    675.8654      4.9679
  2219.7500     78.0642      0.0000    697.5490      5.0613
  2220.0000     94.5463      0.0000    709.2061      5.2041
  2220.2500    111.9248      0.0000    715.6354      5.3721
  2220.5000    127.3931      0.0000    719.9380      5.5405
  2220.7500    138.7724      0.0000    723.5962      5.6872
  2221.0000    144.8508      0.0000    726.8887      5.7887
  2221.2500    145.6924      0.0000    729.3847      5.8187
  2221.5000    142.9358      0.0000    730.6850      5.7627
  2221.7500    139.3862      0.0000    730.6318      5.6374
  2222.0000    137.7629      0.0000    729.1785      5.4933
  2222.2500    139.3621      0.0000    726.6405      5.3936
  2222.5000    143.4406      0.0000    723.9678      5.3830
  2222.7500    147.7731      0.0000    722.0323      5.4622
  2223.0000    150.1837      0.0000    719.9101      5.5862
  2223.2500    149.7822      0.0000    713.6650      5.6946
  2223.5000    146.7978      0.0000    698.2627      5.7513
  2223.7500    141.6423      0.0000    673.0038      5.7586
  2224.0000    134.4121      0.0000    645.2360      5.7409
  2224.2500    124.9084      0.0000    625.6872      5.7170
  2224.5000    112.9831      0.0000    617.7332      5.6862
  2224.7500     99.3485      0.0000    612.6526      5.6359
  2225.0000     86.0424      0.0000    598.1176      5.5608
  2225.2500     75.4521      0.0000    571.2776      5.4729
  2225.5000     68.7177      0.0000    541.7106      5.3949
  2225.7500     65.5654      0.0000    522.0671      5.3516
  2226.0000     65.7605      0.0000    519.1299      5.3672
  2226.2500     70.0828      0.0000    534.0704      5.4577
  2226.5000     79.4453      0.0000    565.0172      5.6166
  2226.7500     93.2742      0.0000    605.3875      5.8163
  2227.0000    109.0736      0.0000    644.4291      6.0246
  2227.2500    123.5980      0.0000    673.9659      6.2203
  2227.5000    134.4238      0.0000    693.1237      6.3971
  2227.7500    140.6040      0.0000    705.1515      6.5524
  2228.0000    142.4052      0.0000    711.2485      6.6652
  2228.2500    140.9067      0.0000    707.5958      6.6907
  2228.5000    137.7168      0.0000    687.2438      6.5960
  2228.7500    134.5190      0.0000    645.9337      6.4039
  2229.0000    132.4718      0.0000    588.4631      6.1836
  2229.2500    131.7675      0.0000    529.3066      5.9885
  2229.5000    131.6777      0.0000    485.2685      5.8143
  2229.7500    131.1950      0.0000    466.4162      5.6208
  2230.0000    129.6691      0.0000    473.1878      5.3878
  2230.2500    126.6885      0.0000    499.6927      5.1440
  2230.5000    121.5632      0.0000    537.5046      4.9420
  2230.7500    113.6265      0.0000    576.1741      4.8067
  2231.0000    103.3466      0.0000    602.5277      4.7037
  2231.2500     92.4562      0.0000    604.7902      4.5696
  2231.5000     82.4539      0.0000    582.8221      4.3833
  2231.7500     73.5258      0.0000    553.8964      4.1992
  2232.0000     65.3025      0.0000    542.9142      4.0948
  2232.2500     58.0097      0.0000    563.1116      4.0963
  2232.5000     52.4909      2.0000    606.1698      4.1669
  2232.7500     49.5264      2.0000    650.9026      4.2492
  2233.0000     49.3743      0.0000    680.1863      4.3064
  2233.2500     51.5374      0.0000    690.2927      4.3434
  2233.5000     54.6336      0.0000    687.8939      4.3983
  2233.7500     56.8311      0.0000    680.9517      4.4958
  2234.0000     56.9622      0.0000    671.5535      4.6093
  2234.2500     55.2506      0.0000    655.0540      4.6925
  2234.5000     52.7508      0.0000    625.7607      4.7363
  2234.7500     50.3699      0.0000    585.6411      4.7614
  2235.0000     48.7571      0.0000    548.7044      4.7676
  2235.2500     48.6589      0.0000    534.0064      4.7335
  2235.5000     50.7416      0.0000    550.8113      4.6628
  2235.7500     55.3483      0.0000    590.3574      4.6035
  2236.0000     62.8671      0.0000    633.3304      4.6129
  2236.2500     73.8531      0.0000    664.8071      4.7149
  2236.5000     88.0669      0.0000    681.8416      4.8915
  2236.7500    103.5252      0.0000    689.7014      5.1059
  2237.0000    117.1344      0.0000    694.3813      5.3246
  2237.2500    126.5004      0.0000    698.8865      5.5235
  2237.5000    131.2941      0.0000    703.9116      5.6860
  2237.7500    133.0442      0.0000    709.3528      5.8036
  2238.0000    133.7138      0.0000    714.1697      5.8753
  2238.2500    134.6286      0.0000    715.3765      5.9060
  2238.5000    136.5103      0.0000    707.9118      5.9052
  2238.7500    139.4152      0.0000    686.4116      5.8870
  2239.0000    142.2138      0.0000    649.0520      5.8669
  2239.2500    143.0278      0.0000    602.1487      5.8581
  2239.5000    140.5484      0.0000    560.7808      5.8666
