~Version Information
VERS.                      2.0: CWLS Log ASCII Standard - VERSION 2.0
WRAP.                       NO: One line per depth step
~Well Information Block
STRT.FT               640.0000: 
STOP.FT               927.0000: 
STEP.FT                 0.1000: 
NULL.                -999.2500: 
COMP.          Pioneer Natural Resources: COMPANY
WELL.          Claim Jumper 41-22: WELL
FLD.           Purgatoire River: FIELD
LOC.           1120' FNL & 977' FEL: LOCATION
PROV.                 Colorado: PROVINCE
CNTY.               Las Animas: COUNTRY
SRVC.                Patterson: SERVICE COMPANY
DATE.          Thu Jun 23 08:35:14 2005: LOG DATE
UWI.           05-071-08405-00: UNIQUE WELL ID
~Curve Information Block
DEPT.FT            0 000 00 00: Depth
DCAL.in                       : CDL Caliper
RHOB.g/cc                     : CDL Bulk Density
RHOC.g/cc                     : CDL Density Correction
DPOR.pu                       : CDL Density Porosity
GR.GAPI                       : Gamma Ray
NPOR.pu                       : Neutron Porosity
~Parameter Information Block
~A  Depth       DCAL        RHOB        RHOC        DPOR         GR         NPOR    
# ...
   745.6000      7.9512      2.5978      0.0600      3.1631     74.6006     20.0489
   745.7000      7.9512      2.5890      0.0758      3.6993     73.7297     19.9006
   745.8000      7.9495      2.5732      0.0548      4.6522     71.0676     20.0117
   745.9000      7.9495      2.5548      0.0318      5.7713     64.4373     20.4811
   746.0000      7.9510      2.5503      0.0168      6.0438     55.3728     20.8908
   746.1000      7.9510      2.5672      0.0273      5.0211     53.3974     20.9766
   746.2000      7.9510      2.5896      0.0915      3.6596     60.6341     20.9279
   746.3000      7.9511      2.6044      0.0360      2.7662     68.4131     20.8284
   746.4000      7.9511      2.6176      0.0826      1.9644     72.3986     20.7853
   746.5000      7.9477      2.6281      0.0641      1.3297     75.0918     21.0042
   746.6000      7.9477      2.6254      0.0688      1.4884     76.6070     21.2814
   746.7000      7.9477      2.6013      0.1258      2.9521     75.4124     21.4499
   746.8000      7.9430      2.5624      0.0231      5.3117     71.5871     21.6324
   746.9000      7.9430      2.5415      0.0032      6.5780     67.2940     21.8093
   747.0000      7.9382      2.5521      0.0694      5.9323     66.8663     21.8974
   747.1000      7.9382      2.5704      0.0756      4.8254     68.9642     21.9821
   747.2000      7.9382      2.5781      0.0255      4.3560     67.7515     22.0842
   747.3000      7.9323      2.5811      0.0467      4.1774     64.8728     21.9124
   747.4000      7.9323      2.5948      0.0529      3.3430     67.3622     21.5432
   747.5000      7.9260      2.6303      0.0603      1.1969     72.9053     21.3958
   747.6000      7.9260      2.6709      0.1563     -1.2649     73.0112     21.6326
   747.7000      7.9260      2.6854      0.1340     -2.1464     68.1089     22.0135
   747.8000      7.9268      2.6707      0.1088     -1.2541     63.8389     22.1137
   747.9000      7.9268      2.6448      0.0893      0.3142     62.0302     21.9046
   748.0000      7.9378      2.6237      0.0634      1.5915     62.0047     21.6730
   748.1000      7.9378      2.6211     -0.0131      1.7513     62.7872     21.3439
   748.2000      7.9378      2.6380      0.0581      0.7284     62.7092     20.9136
   748.3000      7.9512      2.6562      0.0825     -0.3775     60.7514     20.8809
   748.4000      7.9512      2.6666      0.0694     -1.0042     56.4199     21.3984
   748.5000      7.9620      2.6646      0.0950     -0.8867     51.0126     21.9258
   748.6000      7.9620      2.6370      0.0758      0.7884     46.5031     21.9946
   748.7000      7.9620      2.6004     -0.0197      3.0043     42.2727     21.5958
   748.8000      7.9682      2.5915      0.0043      3.5425     38.9727     21.0648
   748.9000      7.9682      2.6071      0.0334      2.5987     39.3908     20.6427
   749.0000      7.9721      2.6154      0.0870      2.0985     41.1880     20.3334
   749.1000      7.9721      2.6057      0.0330      2.6840     41.6279     20.2640
   749.2000      7.9721      2.5919      0.0350      3.5217     43.5955     20.4232
   749.3000      7.9727      2.5840      0.0463      3.9993     48.5926     20.4525
   749.4000      7.9727      2.5859      0.0487      3.8852     55.2684     20.3558
   749.5000      7.9735      2.5976      0.0730      3.1763     61.1483     20.3802
   749.6000      7.9735      2.6087      0.0536      2.5036     61.7464     20.2942
   749.7000      7.9735      2.6077      0.0537      2.5664     55.7640     20.0652
   749.8000      7.9764      2.5951      0.0243      3.3279     47.6915     20.0327
   749.9000      7.9764      2.5798      0.0466      4.2567     43.9913     19.9943
   750.0000      7.9689      2.5797      0.0207      4.2591     45.2614     19.6477
   750.1000      7.9689      2.6090      0.0719      2.4866     47.0438     19.3212
   750.2000      7.9689      2.6436      0.1425      0.3850     48.2620     19.4775
   750.3000      7.9532      2.6597      0.0832     -0.5853     50.3863     20.0569
   750.4000      7.9532      2.6751      0.1034     -1.5209     54.7559     20.4896
   750.5000      7.9432      2.7056      0.1133     -3.3703     59.3121     20.4816
   750.6000      7.9432      2.7326      0.1512     -5.0052     58.9407     20.3480
   750.7000      7.9432      2.7282      0.1472     -4.7412     56.7194     20.2898
   750.8000      7.9261      2.6928      0.1126     -2.5962     59.6224     20.2522
   750.9000      7.9261      2.6503      0.1132     -0.0182     66.7563     20.3469
   751.0000      7.9134      2.6095      0.1047      2.4535     70.5356     20.5284
   751.1000      7.9134      2.5702      0.0748      4.8375     69.8078     20.8861
   751.2000      7.9134      2.5473      0.0344      6.2223     69.7863     21.6063
   751.3000      7.9232      2.5471      0.0615      6.2346     71.5250     22.2510
   751.4000      7.9232      2.5512      0.0709      5.9888     73.1409     22.5421
   751.5000      7.9367      2.5474      0.0575      6.2203     70.9513     22.9641
   751.6000      7.9367      2.5503      0.0016      6.0400     64.7402     23.6315
   751.7000      7.9367      2.5789      0.0464      4.3085     61.1879     24.1408
   751.8000      7.9351      2.6267      0.1388      1.4140     63.9979     24.4338
   751.9000      7.9351      2.6691      0.2262     -1.1598     69.3142     24.8435
   752.0000      7.9217      2.6871      0.1836     -2.2462     73.7356     25.4887
   752.1000      7.9217      2.6842      0.1502     -2.0755     76.6252     25.8900
   752.2000      7.9217      2.6795      0.1138     -1.7857     75.5751     25.6135
   752.3000      7.9122      2.6796      0.1536     -1.7931     70.9055     24.7770
   752.4000      7.9122      2.6723      0.1314     -1.3518     65.4279     23.6901
   752.5000      7.9142      2.6530      0.0166     -0.1802     62.4622     22.8537
   752.6000      7.9142      2.6369     -0.0087      0.7936     63.0000     22.5955
   752.7000      7.9142      2.6298      0.1016      1.2270     65.1718     22.2284
   752.8000      7.9262      2.6186      0.0976      1.9031     65.1862     21.2887
   752.9000      7.9262      2.5942      0.1083      3.3826     61.4065     20.6107
   753.0000      7.9328      2.5575      0.0480      5.6088     59.7129     20.7542
   753.1000      7.9328      2.5213      0.0227      7.7977     63.8048     21.1605
   753.2000      7.9328      2.4992      0.0057      9.1368     70.4946     21.2407
   753.3000      7.9320      2.4942      0.0417      9.4441     78.3005     21.0942
   753.4000      7.9320      2.4969      0.0933      9.2785     85.3095     21.1171
   753.5000      7.9128      2.4954      0.1220      9.3705     88.9757     21.4623
   753.6000      7.9128      2.4916      0.1661      9.5977     92.8793     21.8222
   753.7000      7.9128      2.4964      0.1735      9.3070     98.7955     21.9452
   753.8000      7.8851      2.5117      0.1667      8.3822    102.2776     22.1058
   753.9000      7.8851      2.5317      0.1619      7.1721    103.7434     22.4000
   754.0000      7.8756      2.5589      0.1581      5.5225    102.8979     22.3394
   754.1000      7.8756      2.5988      0.2210      3.1042     96.8301     21.8894
   754.2000      7.8756      2.6428      0.2552      0.4358     88.3898     21.8684
   754.3000      7.8885      2.6753      0.2486     -1.5362     80.3646     22.6136
   754.4000      7.8885      2.6823      0.2633     -1.9559     74.7835     23.3707
   754.5000      7.9079      2.6564      0.2346     -0.3897     76.4872     23.3780
   754.6000      7.9079      2.6131      0.1682      2.2375     87.7917     22.8790
   754.7000      7.9079      2.5776      0.1222      4.3909    100.8668     22.5095
   754.8000      7.9243      2.5529      0.1444      5.8853    106.1529     22.3958
   754.9000      7.9243      2.5296      0.0779      7.2973    106.7011     22.5221
   755.0000      7.9533      2.5095      0.0686      8.5129    109.8629     22.6594
   755.1000      7.9533      2.4969      0.0701      9.2786    113.9702     22.4274
