~Version Information
VERS.                      2.0: CWLS Log ASCII Standard - VERSION 2.0
WRAP.                       NO: One line per depth step
~Well Information Block
STRT.FT               665.0000: 
STOP.FT              1972.0000: 
STEP.FT                 0.2500: 
NULL.                -999.2500: 
COMP.          Petrogulf Corporation: COMPANY
WELL.          Great Plains 22-21V: WELL
FLD.           Purgatorie River: FIELD
LOC.           63' FNL & 1895' FWL: LOCATION
PROV.                 Colorado: PROVINCE
CNTY.               Las Animas: COUNTRY
SRVC.                Patterson: SERVICE COMPANY
DATE.          Thu Sep 01 07:36:33 2005: LOG DATE
UWI.                          : UNIQUE WELL ID
~Curve Information Block
DEPT.FT            0 000 00 00: Depth
SP.mV                         : DIL Spontaneous Potential
RILD.Ohm-m                    : DIL Deep Resistivity
RILM.Ohm-m                    : DIL Medium Resistivity
RLL3.Ohm-m                    : DIL Shallow Resistivity
GR.GAPI                       : Gamma Ray
~Parameter Information Block
~A  Depth        SP         RILD        RILM        RLL3         GR     
# ...
  1953.0000    183.0311     11.6848     12.5200     14.0556   -999.2500
  1953.2500    183.3051     11.9734     12.4030     12.3440   -999.2500
  1953.5000    183.5705     12.0086     12.2284     12.0587   -999.2500
  1953.7500    183.8830     11.5254     12.2930     12.4783   -999.2500
  1954.0000    184.1815     10.9764     12.8055     11.9648   -999.2500
  1954.2500    184.5352     10.6579     13.0444     12.4485   -999.2500
  1954.5000    184.9094     10.5441     13.2845     16.5913   -999.2500
  1954.7500    185.2998     10.1258     13.4932     21.0095   -999.2500
  1955.0000    185.6243      9.8483     13.7178     21.9250   -999.2500
  1955.2500    185.9032      9.3600     13.2548     21.3857   -999.2500
  1955.5000    185.9999      9.0402     12.3454     19.7702   -999.2500
  1955.7500    185.9328      8.5222     11.4842     18.3430   -999.2500
  1956.0000    185.7207      8.1569     10.6931     16.7758   -999.2500
  1956.2500    185.4749      8.0435      9.6034     14.4707   -999.2500
  1956.5000    185.2896      8.0548      8.6411     12.7141   -999.2500
  1956.7500    185.1943      8.0533      7.8405     10.8379   -999.2500
  1957.0000    185.1008      7.9782      7.1856      8.1137   -999.2500
  1957.2500    184.8558      7.8661      6.9480      6.6076   -999.2500
  1957.5000    184.4983      7.9889      6.8828      6.3088   -999.2500
  1957.7500    184.1982      8.0064      6.9279      7.1911   -999.2500
  1958.0000    184.0721      7.9262      7.1372      9.7661   -999.2500
  1958.2500    184.2081      7.7883      7.2017     10.9630   -999.2500
  1958.5000    184.3638      7.5621      7.3498      9.3211   -999.2500
  1958.7500    184.1922      7.3996      7.4366      8.8867   -999.2500
  1959.0000    183.7988      7.2472      7.5520     10.1632   -999.2500
  1959.2500    183.3809      7.3440      7.6479     12.8591   -999.2500
  1959.5000    183.1008      7.4663      7.7679     14.5943   -999.2500
  1959.7500    182.8257      7.8932      7.7671     13.0942   -999.2500
  1960.0000    182.3262      8.3344      7.7992      9.9719   -999.2500
  1960.2500    162.5088      9.6373      7.9193      8.5031   -999.2500
  1960.5000     19.4073     41.5720      8.2946      8.6640   -999.2500
  1960.7500      0.0480     71.8339      8.9569     10.0033   -999.2500
  1961.0000   -999.2500    147.5226      9.9553     13.6071   -999.2500
  1961.2500   -999.2500    145.3403     11.1134     19.0355   -999.2500
  1961.5000   -999.2500    141.4018     11.8036     21.1156   -999.2500
  1961.7500   -999.2500    138.8074     12.5353     18.1598   -999.2500
  1962.0000   -999.2500    136.2888     13.0276     15.5659   -999.2500
  1962.2500   -999.2500    138.2256     13.4960     15.6778   -999.2500
  1962.5000   -999.2500    140.5212     13.4541     17.2565   -999.2500
  1962.7500   -999.2500    148.5863     13.4964     18.2504   -999.2500
  1963.0000   -999.2500    157.0544     13.7151     16.5961   -999.2500
  1963.2500   -999.2500    182.2548     14.1804     14.0519   -999.2500
  1963.5000   -999.2500    977.2947     14.0699     12.9561   -999.2500
  1963.7500   -999.2500   2330.4907     14.4040     13.0963   -999.2500
  1964.0000   -999.2500 100000.0000     16.6551     13.6807   -999.2500
  1964.2500   -999.2500 100000.0000     59.6788     14.4102   -999.2500
  1964.5000   -999.2500 100000.0000     91.2563     15.3229   -999.2500
  1964.7500   -999.2500 100000.0000    391.0075     15.9744   -999.2500
  1965.0000   -999.2500 100000.0000    392.5465     17.1505   -999.2500
  1965.2500   -999.2500 100000.0000    398.7737     18.1772   -999.2500
  1965.5000   -999.2500 100000.0000    418.1174     18.4174   -999.2500
  1965.7500   -999.2500 100000.0000    451.9690     17.2365   -999.2500
  1966.0000   -999.2500 100000.0000    503.4344     15.3914   -999.2500
  1966.2500   -999.2500 100000.0000    564.5020     13.9091   -999.2500
  1966.5000   -999.2500 100000.0000    604.3939     12.2837   -999.2500
  1966.7500   -999.2500 100000.0000    641.6354     11.7748   -999.2500
  1967.0000   -999.2500 100000.0000    669.8502     13.0728   -999.2500
  1967.2500   -999.2500 100000.0000    694.7669     14.3039   -999.2500
  1967.5000   -999.2500   -999.2500    692.7938     14.9375   -999.2500
  1967.7500   -999.2500   -999.2500    694.8469     15.5372   -999.2500
  1968.0000   -999.2500   -999.2500    705.6163     17.0824   -999.2500
  1968.2500   -999.2500   -999.2500    730.0682     19.2303   -999.2500
  1968.5000   -999.2500   -999.2500    723.5968     19.4258   -999.2500
  1968.7500   -999.2500   -999.2500    740.9998     18.2722   -999.2500
  1969.0000   -999.2500   -999.2500    860.6927     17.5795   -999.2500
  1969.2500   -999.2500   -999.2500   3471.1711     16.2196   -999.2500
  1969.5000   -999.2500   -999.2500   5845.5938      1.9482   -999.2500
  1969.7500   -999.2500   -999.2500 100000.0000      0.0048   -999.2500
  1970.0000   -999.2500   -999.2500 100000.0000   -999.2500   -999.2500
  1970.2500   -999.2500   -999.2500 100000.0000   -999.2500   -999.2500
  1970.5000   -999.2500   -999.2500 100000.0000   -999.2500   -999.2500
  1970.7500   -999.2500   -999.2500 100000.0000   -999.2500   -999.2500
  1971.0000   -999.2500   -999.2500 100000.0000   -999.2500   -999.2500
  1971.2500   -999.2500   -999.2500 100000.0000   -999.2500   -999.2500
  1971.5000   -999.2500   -999.2500 100000.0000   -999.2500   -999.2500
  1971.7500   -999.2500   -999.2500 100000.0000   -999.2500   -999.2500
  1972.0000   -999.2500   -999.2500 100000.0000   -999.2500   -999.2500
