~Version Information
 VERS.                                  2.0 : CWLS LAS VERSION
 WRAP.                                   NO : WRAPING MODE
 SWARE .                 MController 2.5.0E : SOFTWARE VERSION
~Well Information
 WELL.                       Montoya 12 44v : WELL
 COMP.                       Petrogulf Corp : COMPANY
 FLD.                      Purgatorie River : FIELD
 LOC.               SE/SE Sec 12 T33S R66W  : LOCATION
 DATE.                             8/7 8/04 : DATE(S) LOGGED
 SRVC.       Blanco Geological Services LLC : SERVICE COMPANY
 STAT.                                   CO : STATE
 CNTY.                           Las Animas : COUNTY
 CTRY.                                  USA : COUNTRY
 API.                       05 071 08094 00 : API NUMBER
 STRT.FT                             804.00 : START DEPTH
 STOP.FT                            2469.00 : STOP DEPTH
 STEP.FT                               1.00 : DEPTH INCREMENT
 NULL.                                 9999 : NULL VALUE
~Curve information
 DEPTH.FT                                   :
 ROP.MIN/FT                                 :
 GAS.UNITS                                  :
~ASCII Log data
# ...
     2204.00        0.250          5.8 
     2205.00        0.267          5.0 
     2206.00        0.333          5.6 
     2207.00        0.300          5.3 
     2208.00        0.333          5.4 
     2209.00        0.333          5.3 
     2210.00        0.300          5.5 
     2211.00        0.267          5.8 
     2212.00        0.300          5.8 
     2213.00        0.267          6.1 
     2214.00        0.300          6.1 
     2215.00        0.317          6.0 
     2216.00        0.267          5.8 
     2217.00        0.400          5.9 
     2218.00        0.367          5.9 
     2219.00        0.233          5.7 
     2220.00        0.233          5.7 
     2221.00        0.300          5.9 
     2222.00        5.767         16.6 
     2223.00        0.600         13.0 
     2224.00        0.567          9.8 
     2225.00        0.600          7.9 
     2226.00        0.750          8.1 
     2227.00        0.400          8.2 
     2228.00        0.467          8.3 
     2229.00        0.200          8.1 
     2230.00        0.233          7.9 
     2231.00        0.467          8.0 
     2232.00        0.500          7.2 
     2233.00        0.400          7.1 
     2234.00        0.400          6.6 
     2235.00        0.417          7.1 
     2236.00        0.267          7.2 
     2237.00        0.333          7.8 
     2238.00        0.333          7.1 
     2239.00        0.367          6.8 
     2240.00        0.267          6.4 
     2241.00        0.233          6.3 
     2242.00        0.267          6.4 
     2243.00        0.367          5.9 
     2244.00        0.367          5.9 
     2245.00        0.350          5.8 
     2246.00        0.367          5.7 
     2247.00        0.333          5.9 
     2248.00        0.333          6.0 
     2249.00        0.367          6.4 
     2250.00        0.100          6.4 
     2251.00        0.233          7.3 
     2252.00        6.767         15.8 
     2253.00        0.800         12.5 
     2254.00        0.100          9.7 
     2255.00        0.583          9.3 
     2256.00        0.433          6.9 
     2257.00        0.467          5.8 
     2258.00        0.267          5.6 
     2259.00        0.133          4.8 
     2260.00        0.267          4.8 
     2261.00        0.267          4.9 
     2262.00        0.233          4.9 
     2263.00        0.133          5.0 
     2264.00        0.167          5.3 
     2265.00        0.100          4.9 
     2266.00        0.167          5.4 
     2267.00        0.300          5.1 
     2268.00        0.333          6.1 
     2269.00        0.417          6.4 
     2270.00        0.433          6.8 
     2271.00        0.400          7.4 
     2272.00        0.400          8.4 
     2273.00        0.367          8.4 
     2274.00        0.400          8.4 
     2275.00        0.400          7.8 
     2276.00        0.367          7.7 
     2277.00        0.417          7.1 
     2278.00        0.367          6.9 
     2279.00        0.333          6.7 
     2280.00        0.500          7.1 
     2281.00        0.267          8.0 
     2282.00        0.300          8.2 
     2283.00        0.300          8.9 
     2284.00        7.883         12.3 
     2285.00        0.433          7.8 
     2286.00        0.433          6.0 
     2287.00        0.433          5.8 
     2288.00        0.467          5.6 
     2289.00        0.500          5.4 
     2290.00        0.600          5.7 
     2291.00        0.717          6.1 
     2292.00        0.700          5.9 
     2293.00        0.800          5.9 
     2294.00        0.767          6.0 
     2295.00        0.533          5.8 
     2296.00        0.483          5.9 
     2297.00        0.467          5.4 
     2298.00        0.500          5.8 
     2299.00        0.533          5.4 
     2300.00        0.300          5.4 
     2301.00        0.367          5.3 
     2302.00        0.333          5.5 
     2303.00        0.483          5.4 
     2304.00        0.533          4.8 
     2305.00        0.433          4.8 
     2306.00        0.433          4.9 
     2307.00        0.333          5.0 
     2308.00        0.233          5.3 
     2309.00        0.200          5.3 
     2310.00        0.200          5.6 
     2311.00        0.300          5.4 
     2312.00        0.433          5.5 
     2313.00        0.550          5.1 
     2314.00        9.167         21.8 
     2315.00        0.983          9.4 
     2316.00        0.800          7.9 
     2317.00        0.900          7.3 
     2318.00        0.767          7.1 
     2319.00        0.550          6.8 
     2320.00        0.367          6.7 
     2321.00        0.400          6.5 
     2322.00        0.267          5.8 
     2323.00        0.300          5.4 
     2324.00        0.433          6.0 
     2325.00        0.800          5.8 
     2326.00        0.233          5.8 
     2327.00        0.300          5.6 
     2328.00        0.317          5.7 
     2329.00        0.333          5.6 
     2330.00        0.333          5.5 
     2331.00        0.300          5.5 
     2332.00        0.300          5.7 
     2333.00        0.333          5.9 
     2334.00        0.367          5.8 
     2335.00        0.300          5.8 
     2336.00        0.200          5.8 
     2337.00        0.300          5.7 
     2338.00        0.333          5.8 
     2339.00        0.317          5.7 
     2340.00        0.300          5.6 
     2341.00        0.300          5.7 
     2342.00        0.167          5.1 
     2343.00        0.300          6.3 
     2344.00        7.433         11.8 
     2345.00        0.233         10.6 
     2346.00        0.367         10.2 
     2347.00        0.467          9.4 
     2348.00        0.583         11.4 
     2349.00        0.333         11.7 
     2350.00        0.633         11.1 
     2351.00        0.400          8.6 
     2352.00        0.567          7.6 
     2353.00        0.533          6.4 
     2354.00        0.367          6.2 
     2355.00        0.350          6.4 
     2356.00        0.333          6.4 
     2357.00        0.233          5.6 
     2358.00        0.200          6.2 
     2359.00        0.267          6.5 
     2360.00        0.367          6.4 
     2361.00        0.267          5.8 
     2362.00        0.333          6.0 
     2363.00        0.333          6.5 
     2364.00        0.333          7.1 
     2365.00        0.333          9.6 
     2366.00        0.317         11.4 
     2367.00        0.333         14.5 
     2368.00        0.333         17.0 
     2369.00        0.267         17.9 
     2370.00        0.300         19.6 
     2371.00        0.200         21.1 
     2372.00        0.267         23.4 
     2373.00        0.333         27.5 
     2374.00        6.467         30.2 
     2375.00        1.033         25.8 
     2376.00        0.950         17.4 
     2377.00        0.933         12.7 
     2378.00        0.867         13.8 
     2379.00        1.017         13.8 
     2380.00        1.000         14.7 
     2381.00        0.700         13.2 
     2382.00        0.633         11.8 
     2383.00        0.667         11.2 
     2384.00        0.683         11.4 
     2385.00        0.600          9.4 
     2386.00        0.633          9.0 
     2387.00        0.567          8.6 
     2388.00        0.567          8.4 
     2389.00        0.583          8.6 
     2390.00        0.567          8.6 
     2391.00        0.600          8.3 
     2392.00        0.633          8.6 
     2393.00        0.567          8.4 
     2394.00        0.533          8.3 
     2395.00        0.550          8.3 
     2396.00        0.600          8.0 
     2397.00        0.600          8.0 
     2398.00        0.633          8.4 
     2399.00        0.767          8.7 
     2400.00        0.950          8.6 
     2401.00        0.800          8.6 
     2402.00        1.067         10.6 
     2403.00        0.833         11.4 
