~Version Information
VERS.                      2.0: CWLS Log ASCII Standard - VERSION 2.0
WRAP.                       NO: One line per depth step
~Well Information Block
STRT.FT               430.0000: 
STOP.FT              2417.0000: 
STEP.FT                 0.1000: 
NULL.                -999.2500: 
COMP.          Evergreen Operating Corporation: COMPANY
WELL.          McCullough 34-32: WELL
FLD.           Purgatorie River: FIELD
LOC.           261' FSL & 2098' FEL: LOCATION
PROV.                 Colorado: PROVINCE
CNTY.               Las Animas: COUNTRY
SRVC.                Patterson: SERVICE COMPANY
DATE.          Mon May 17 11:25:23 2004: LOG DATE
UWI.           05 071 07953 00: UNIQUE WELL ID
~Curve Information Block
DEPT.FT            0 000 00 00: Depth
DCAL.in                       : CDL Caliper
RHOB.g/cc                     : CDL Bulk Density
RHOC.g/cc                     : CDL Density Correction
DPOR.pu                       : CDL Density Porosity
NPOR.pu                       : Neutron Porosity
GR.GAPI                       : Gamma Ray
~Parameter Information Block
~A  Depth       DCAL        RHOB        RHOC        DPOR        NPOR         GR     
# ...
  1735.6000      8.3439      2.5182      0.0463      7.9897     27.0787    154.2490
  1735.7000      8.3439      2.4993      0.0198      9.1344     27.2777    155.1885
  1735.8000      8.3494      2.4867      0.0895      9.8992     26.5642    150.6161
  1735.9000      8.3494      2.4663      0.0856     11.1315     26.2102    144.6279
  1736.0000      8.3549      2.4257      0.0959     13.5923     26.9158    143.2014
  1736.1000      8.3549      2.3805      0.0542     16.3314     28.1350    145.3029
  1736.2000      8.3549      2.3557      0.1029     17.8341     29.0506    147.4492
  1736.3000      8.4216      2.3492      0.1547     18.2326     29.4368    148.5831
  1736.4000      8.4216      2.3411      0.1187     18.7183     29.8998    150.1515
  1736.5000      8.6457      2.3165      0.1712     20.2094     30.7916    154.7855
  1736.6000      8.6457      2.2737      0.1182     22.8047     31.4227    160.6559
  1736.7000      8.6457      2.2277      0.1594     25.5962     31.2946    160.9750
  1736.8000      8.8818      2.1857      0.2437     28.1377     30.9433    153.8604
  1736.9000      8.8818      2.1395      0.2508     30.9385     30.9930    146.8055
  1737.0000      9.6175      2.0815      0.2433     34.4525     31.1469    145.2150
  1737.1000      9.6175      2.0138      0.2154     38.5586     31.2545    145.7885
  1737.2000      9.6175      1.9553      0.2170     42.1042     31.9768    145.7439
  1737.3000     10.3134      1.9331      0.2728     43.4500     33.0354    146.5540
  1737.4000     10.3134      1.9585      0.3354     41.9083     33.2421    148.8767
  1737.5000     10.7585      2.0229      0.3644     38.0039     32.3808    147.9020
  1737.6000     10.7585      2.1056      0.4358     32.9929     31.4313    143.4297
  1737.7000     10.7585      2.1879      0.4286     28.0067     31.1960    145.9825
  1737.8000     11.1903      2.2658      0.4363     23.2839     31.3422    156.9481
  1737.9000     11.1903      2.3366      0.4354     18.9918     31.0918    166.2342
  1738.0000     11.0503      2.3945      0.3774     15.4865     30.3442    169.4842
  1738.1000     11.0503      2.4373      0.3710     12.8884     29.7680    168.1562
  1738.2000     11.0503      2.4638      0.3016     11.2838     29.7477    163.6722
  1738.3000      9.8331      2.4720      0.2694     10.7853     29.8836    158.0476
  1738.4000      9.8331      2.4558      0.2432     11.7707     29.9888    153.9946
  1738.5000     10.0764      2.4149      0.2251     14.2498     30.3626    151.8146
  1738.6000     10.0764      2.3649      0.1773     17.2804     31.0059    148.7095
  1738.7000     10.0764      2.3218      0.1545     19.8916     31.3941    141.8568
  1738.8000     10.1545      2.2943      0.1630     21.5571     31.2445    132.7840
  1738.9000     10.1545      2.2858      0.2237     22.0709     31.1451    126.5190
  1739.0000     10.1964      2.2835      0.3060     22.2116     31.5308    129.2351
  1739.1000     10.1964      2.2665      0.3301     23.2410     31.9703    139.3923
  1739.2000     10.1964      2.2289      0.3548     25.5215     32.1038    145.4972
  1739.3000     10.5668      2.1808      0.3010     28.4335     32.2833    142.9464
  1739.4000     10.5668      2.1372      0.2830     31.0767     32.9978    139.9599
  1739.5000     10.7925      2.1049      0.3103     33.0362     34.1248    142.9456
  1739.6000     10.7925      2.0808      0.3316     34.4994     34.7219    148.2948
  1739.7000     10.7925      2.0675      0.3213     35.3046     34.3671    149.7449
  1739.8000     11.5421      2.0828      0.3005     34.3779     33.7921    147.3423
  1739.9000     11.5421      2.1372      0.3655     31.0803     33.6652    144.5069
  1740.0000     11.7931      2.2078      0.4189     26.7978     33.9555    141.4124
  1740.1000     11.7931      2.2587      0.4439     23.7154     34.2208    140.9521
  1740.2000     11.7931      2.2780      0.4068     22.5462     34.0413    145.1453
  1740.3000     11.4871      2.2759      0.3927     22.6750     33.2325    149.9560
  1740.4000     11.4871      2.2632      0.3186     23.4402     31.9760    152.9403
  1740.5000     11.4220      2.2523      0.2372     24.1005     30.8676    153.8950
  1740.6000     11.4220      2.2558      0.2134     23.8918     30.3866    151.5862
  1740.7000     11.4220      2.2667      0.2980     23.2285     30.1369    147.3049
  1740.8000     11.2580      2.2628      0.2840     23.4674     29.5560    143.6748
  1740.9000     11.2580      2.2429      0.2296     24.6716     29.0159    143.2824
  1741.0000     10.6650      2.2335      0.2199     25.2399     29.0434    147.7800
  1741.1000     10.6650      2.2544      0.2289     23.9773     29.4615    155.7869
  1741.2000     10.6650      2.2977      0.2238     21.3544     29.8069    163.9858
  1741.3000      9.4855      2.3391      0.2690     18.8423     29.9268    169.8323
  1741.4000      9.4855      2.3636      0.2742     17.3586     30.0170    171.7186
  1741.5000      9.1603      2.3788      0.2650     16.4338     30.2184    167.9153
  1741.6000      9.1603      2.3982      0.2289     15.2616     30.5349    160.2162
  1741.7000      9.1603      2.4254      0.2364     13.6132     30.9648    156.5022
  1741.8000      9.0076      2.4590      0.2315     11.5776     31.1820    163.0843
  1741.9000      9.0076      2.4927      0.2911      9.5333     30.7356    174.9044
  1742.0000      8.9387      2.5148      0.3203      8.1921     29.9254    182.2778
  1742.1000      8.9387      2.5191      0.2604      7.9312     29.4515    183.8975
  1742.2000      8.9387      2.5142      0.2073      8.2283     29.3713    179.9866
  1742.3000      8.5598      2.5079      0.2852      8.6128     29.2227    169.9450
  1742.4000      8.5598      2.4957      0.2365      9.3540     29.0179    160.5048
  1742.5000      8.6126      2.4766      0.2006     10.5120     29.2037    155.9972
  1742.6000      8.6126      2.4520      0.2112     11.9975     29.8694    154.2374
  1742.7000      8.6126      2.4254      0.1542     13.6147     30.6804    156.8466
  1742.8000      8.7085      2.4096      0.1326     14.5675     30.7508    161.8288
  1742.9000      8.7085      2.4140      0.1247     14.3059     29.6940    158.0058
  1743.0000      8.2075      2.4342      0.1544     13.0793     28.4677    144.7358
  1743.1000      8.2075      2.4619      0.1407     11.3979     27.5025    133.6407
  1743.2000      8.2075      2.4880      0.2194      9.8152     26.2493    128.0912
  1743.3000      8.1270      2.5013      0.2404      9.0136     24.9319    123.7022
  1743.4000      8.1270      2.5045      0.1993      8.8164     24.3705    118.9323
  1743.5000      8.1151      2.5158      0.1560      8.1318     24.4514    114.5760
  1743.6000      8.1151      2.5338      0.2269      7.0402     24.5443    113.1542
  1743.7000      8.1151      2.5431      0.1421      6.4778     24.1258    115.8876
  1743.8000      8.1194      2.5436      0.1102      6.4502     22.9943    118.0958
  1743.9000      8.1194      2.5425      0.1140      6.5182     21.6377    115.2486
  1744.0000      8.1368      2.5462      0.1165      6.2892     20.5898    107.6461
  1744.1000      8.1368      2.5588      0.1078      5.5291     19.9347     99.2845
  1744.2000      8.1368      2.5746      0.1113      4.5678     19.6103     95.2880
  1744.3000      8.1300      2.5855      0.1912      3.9090     19.2502     94.8788
  1744.4000      8.1300      2.5879      0.1697      3.7666     18.6941     96.1454
  1744.5000      8.1180      2.5874      0.1116      3.7957     18.2941    100.4334
  1744.6000      8.1180      2.5948      0.0840      3.3458     17.9684    102.7986
  1744.7000      8.1180      2.6069      0.1359      2.6129     17.5847    100.9924
  1744.8000      8.1177      2.6036      0.1234      2.8118     17.3047    100.9110
  1744.9000      8.1177      2.5796      0.0682      4.2657     17.0833    103.2676
  1745.0000      8.1203      2.5584      0.0159      5.5543     17.0646    105.0306
  1745.1000      8.1203      2.5579      0.0367      5.5807     17.3934    102.9093
