~Version Information
VERS.                      2.0: CWLS Log ASCII Standard - VERSION 2.0
WRAP.                       NO: One line per depth step
~Well Information Block
STRT.FT                -2.5000: 
STOP.FT              2329.5000: 
STEP.FT                 0.2500: 
NULL.                -999.2500: 
COMP.          Pioneer Natural Resources: COMPANY
WELL.              Whinny 42-2: WELL
FLD.           Purgatorie River: FIELD
LOC.           1836' FNL & 466' FEL--: LOCATION
PROV.                       CO: PROVINCE
CNTY.               Las Animas: COUNTRY
SRVC.          Patterson Wireline: SERVICE COMPANY
DATE.          Mon Aug 29 13:18:04 2005: LOG DATE
UWI.           05 071 08406 00: UNIQUE WELL ID
~Curve Information Block
DEPT.FT            0 000 00 00: Depth
CCL.                          : Casing Collar Locator
TT3.usec                      : CBL 3' Travel Time
AMP3.mV                       : CBL 3' Amplitude
GR.GAPI                       : Gamma Ray
~Parameter Information Block
~A  Depth       CCL         TT3         AMP3         GR     
# ...
   600.5000      0.0000    806.2216      7.6962     94.1502
   600.7500      0.0000    814.5683      7.6708     99.1713
   601.0000      0.0000    818.7233      7.6604    107.4948
   601.2500      0.0000    820.2654      7.6600    116.2690
   601.5000      0.0000    821.5754      7.6593    121.5297
   601.7500      0.0000    823.6226      7.6496    120.7026
   602.0000      0.0000    825.9291      7.6309    114.7183
   602.2500      0.0000    827.9067      7.6146    107.2326
   602.5000      0.0000    829.6306      7.6146    101.8229
   602.7500      0.0000    831.0668      7.6344    100.0782
   603.0000      0.0000    831.3410      7.6631    101.5434
   603.2500      0.0000    829.7985      7.6867    104.5391
   603.5000      0.0000    827.2017      7.7010    107.1233
   603.7500      0.0000    824.9822      7.7097    107.9795
   604.0000      0.0000    823.7947      7.7112    106.7989
   604.2500      0.0000    823.3434      7.6909    104.1416
   604.5000      0.0000    822.8518      7.6266    101.2847
   604.7500      0.0000    821.0494      7.5018     99.9462
   605.0000      0.0000    816.4402      7.3096    101.3489
   605.2500      0.0000    808.1721      7.0434    105.0029
   605.5000      0.0000    796.6569      6.6951    108.4138
   605.7500      0.0000    784.5331      6.2867    108.4498
   606.0000      0.0000    778.2436      5.8987    103.5599
   606.2500      0.0000    786.8145      5.6365     95.0867
   606.5000      0.0000    815.1007      5.5621     86.5255
   606.7500      0.0000    856.9735      5.6716     81.2517
   607.0000      0.0000    897.3676      5.9272     80.3856
   607.2500      0.0000    924.0870      6.2876     82.4692
   607.5000      0.0000    938.5906      6.7185     85.2665
   607.7500      0.0000    952.6885      7.2009     87.9086
   608.0000      0.0000    972.0901      7.7351     91.1989
   608.2500      0.0000    984.8574      8.3433     96.2071
   608.5000      0.0000    970.3854      9.0611    103.1630
   608.7500      0.0000    921.6252      9.8786    111.5386
   609.0000      0.0000    856.9048     10.6542    120.5052
   609.2500      0.0000    807.0937     11.1489    129.2052
   609.5000      0.0000    790.3907     11.2217    136.9134
   609.7500      0.0000    800.8356     10.9614    143.0413
   610.0000      0.0000    819.5745     10.5760    147.0397
   610.2500      0.0000    831.9835     10.2021    148.5106
   610.5000      0.0000    833.6635      9.8605    147.4876
   610.7500      0.0000    827.2731      9.5392    144.5879
   611.0000      0.0000    818.9051      9.2578    140.7751
   611.2500      0.0000    815.2924      9.0572    136.5926
   611.5000      0.0000    820.0147      8.9556    131.5054
   611.7500      0.0000    831.5016      8.9296    124.4875
   612.0000      0.0000    845.5610      8.9431    115.4908
   612.2500      0.0000    859.0931      8.9907    106.0446
   612.5000      0.0000    871.7267      9.1061     98.3341
   612.7500      0.0000    886.6904      9.3279     93.9773
   613.0000      0.0000    910.9540      9.6578     93.5000
   613.2500      0.0000    950.3268     10.0425     96.2327
   613.5000      0.0000   1000.8724     10.3848    100.4604
   613.7500      0.0000   1046.7950     10.5826    104.4302
   614.0000      0.0000   1069.6670     10.5828    107.8569
   614.2500      0.0000   1061.2701     10.4134    112.0693
   614.5000      0.0000   1029.5148     10.1612    118.0187
   614.7500      0.0000    992.7616      9.9169    124.3165
   615.0000      0.0000    965.8381      9.7382    127.9210
   615.2500      0.0000    949.8901      9.6465    126.9670
   615.5000      0.0000    936.1918      9.6360    122.5202
   615.7500      0.0000    917.9344      9.6848    117.4172
   616.0000      0.0000    896.0530      9.7685    113.6956
   616.2500      0.0000    875.7076      9.8683    111.2217
   616.5000      0.0000    860.4492      9.9676    108.4321
   616.7500      0.0000    850.0745     10.0431    104.1837
   617.0000      0.0000    842.5215     10.0656     98.9257
   617.2500      0.0000    836.5807     10.0141     94.3559
   617.5000      0.0000    832.2805      9.8878     92.2223
   617.7500      0.0000    829.2331      9.6994     93.3639
   618.0000      0.0000    826.2822      9.4573     97.3645
   618.2500      0.0000    823.5909      9.1637    102.8690
   618.5000      0.0000    823.4800      8.8316    108.5289
   618.7500      0.0000    827.7823      8.4974    113.8139
   619.0000      0.0000    835.3319      8.2099    118.8310
   619.2500      0.0000    843.3837      8.0089    123.5744
   619.5000      0.0000    850.8300      7.9151    127.6172
   619.7500      0.0000    858.8040      7.9337    130.6388
   620.0000      0.0000    868.0721      8.0526    133.3730
   620.2500      0.0000    876.4843      8.2317    137.7753
   620.5000      0.0000    879.9076      8.4049    145.4361
   620.7500      0.0000    876.2559      8.5041    155.4252
   621.0000      0.0000    867.8221      8.4885    164.1822
   621.2500      0.0000    858.9081      8.3600    167.8669
   621.5000      0.0000    851.8430      8.1567    164.7750
   621.7500      0.0000    845.8777      7.9339    155.9115
   622.0000      0.0000    839.0777      7.7360    143.9521
   622.2500      0.0000    830.6245      7.5771    131.8159
   622.5000      0.0000    821.6700      7.4438    121.7641
   622.7500      0.0000    814.4606      7.3209    115.1178
   623.0000      0.0000    810.6575      7.2127    112.1751
   623.2500      0.0000    810.1705      7.1381    112.2345
   623.5000      0.0000    811.2333      7.1081    113.9888
   623.7500      0.0000    811.5789      7.1105    116.1862
   624.0000      0.0000    810.0038      7.1180    118.0651
   624.2500      0.0000    807.0203      7.1098    119.3449
   624.5000      0.0000    803.9911      7.0826    120.0072
   624.7500      0.0000    801.8339      7.0411    120.1078
   625.0000      0.0000    800.6142      6.9875    119.7372
   625.2500      0.0000    799.9831      6.9248    119.0094
   625.5000      0.0000    799.6355      6.8623    117.9687
   625.7500      0.0000    799.4335      6.8120    116.6586
   626.0000      0.0000    799.3290      6.7807    115.4692
   626.2500      0.0000    799.2775      6.7659    115.2608
   626.5000      0.0000    799.2274      6.7606    116.8884
   626.7500      0.0000    799.2271      6.7594    120.5541
   627.0000      0.0000    799.6014      6.7632    125.6647
   627.2500      0.0000    801.1185      6.7786    131.1595
   627.5000      0.0000    805.1628      6.8117    135.8691
   627.7500      0.0000    813.8818      6.8598    138.7854
   628.0000      0.0000    830.2719      6.9088    139.4081
   628.2500      0.0000    857.7172      6.9405    137.8764
   628.5000      0.0000    897.5116      6.9432    134.6614
   628.7500      0.0000    944.3367      6.9183    130.3763
   629.0000      0.0000    984.5006      6.8784    125.9602
   629.2500      0.0000   1002.4199      6.8406    122.5438
   629.5000      0.0000    991.6169      6.8177    120.8114
   629.7500      0.0000    959.2858      6.8133    120.6989
   630.0000      0.0000    920.2964      6.8214    121.7136
   630.2500      0.0000    887.4848      6.8323    123.2054
   630.5000      0.0000    866.2732      6.8405    124.4322
   630.7500      0.0000    855.4774      6.8479    124.9814
   631.0000      0.0000    851.1776      6.8622    125.3320
   631.2500      0.0000    849.8980      6.8897    126.5604
   631.5000      0.0000    849.6592      6.9299    129.2199
   631.7500      0.0000    849.6281      6.9764    132.6414
   632.0000      0.0000    849.5346      7.0228    135.4952
   632.2500      0.0000    849.3229      7.0686    136.8993
   632.5000      0.0000    849.0123      7.1163    137.0221
   632.7500      0.0000    848.6656      7.1677    137.0131
   633.0000      0.0000    848.3547      7.2245    138.3559
   633.2500      0.0000    848.1360      7.2937    141.6049
   633.5000      0.0000    848.0417      7.3878    145.5204
   633.7500      0.0000    848.0764      7.5168    148.0481
