~Version Information
VERS.                      2.0: CWLS Log ASCII Standard - VERSION 2.0
WRAP.                       NO: One line per depth step
~Well Information Block
STRT.FT                -4.0000: 
STOP.FT              2638.2500: 
STEP.FT                 0.2500: 
NULL.                -999.2500: 
COMP.          Petrogulf Corporation: COMPANY
WELL.            Montoya 6-14V: WELL
FLD.           Purgatorie River: FIELD
LOC.           318' FSL & 882' FWL--: LOCATION
PROV.                       CO: PROVINCE
CNTY.               Las Animas: COUNTRY
SRVC.                         : SERVICE COMPANY
DATE.          Mon May 02 08:32:04 2005: LOG DATE
UWI.      005 071 08020: UNIQUE WELL ID
~Curve Information Block
DEPT.FT            0 000 00 00: Depth
AMP3.mV                       : CBL 3' Amplitude
CCL.                          : Casing Collar Locator
GR.GAPI                       : Gamma Ray
TT3.usec                      : CBL 3' Travel Time
~Parameter Information Block
~A  Depth       AMP3        CCL          GR         TT3     
# ...
  1905.5000      5.4477      0.0000    140.0648    689.5393
  1905.7500      5.6639      0.0000    140.9252    681.3777
  1906.0000      6.0181      0.0000    140.1912    680.8240
  1906.2500      6.4304      0.0000    138.7128    687.0571
  1906.5000      6.8494      0.0000    137.8532    697.1132
  1906.7500      7.2703      0.0000    137.7289    705.8268
  1907.0000      7.7184      0.0000    137.5119    704.4913
  1907.2500      8.2106      0.0000    137.2083    682.5824
  1907.5000      8.7330      0.0000    137.7517    633.7425
  1907.7500      9.2559      0.0000    139.2641    561.9293
  1908.0000      9.7707      0.0000    140.5645    481.8889
  1908.2500     10.3193      0.0000    140.7387    411.3886
  1908.5000     10.9913      0.0000    140.3140    360.7739
  1908.7500     11.8855      0.0000    140.4840    329.4970
  1909.0000     13.0509      0.0000    141.6473    311.3294
  1909.2500     14.4424      0.0000    143.3418    300.7513
  1909.5000     15.9038      0.0000    145.3860    295.2511
  1909.7500     17.1820      0.0000    148.0726    294.9311
  1910.0000     17.9848      0.0000    151.0056    302.1712
  1910.2500     18.0932      0.0000    152.8184    320.1642
  1910.5000     17.4814      0.0000    152.5118    348.1408
  1910.7500     16.3524      0.0000    150.3966    376.5998
  1911.0000     15.0410      0.0000    147.3602    390.8351
  1911.2500     13.8557      0.0000    143.7418    383.1223
  1911.5000     12.9811      0.0000    139.4370    359.8612
  1911.7500     12.4850      0.0000    135.0256    334.4679
  1912.0000     12.3801      0.0000    132.3281    315.7903
  1912.2500     12.6748      0.0000    133.3134    304.8953
  1912.5000     13.3893      0.0000    138.2016    299.1133
  1912.7500     14.5359      0.0000    144.7601    295.7506
  1913.0000     16.0905      0.0000    149.6753    292.9531
  1913.2500     17.9834      0.0000    150.8470    289.3789
  1913.5000     20.1033      0.0000    148.5308    284.1484
  1913.7500     22.2848      0.0000    144.3904    277.2155
  1914.0000     24.3029      0.0000    139.7437    269.6690
  1914.2500     25.9323      0.0000    134.8825    263.1466
  1914.5000     27.0642      0.0000    129.6364    258.7364
  1914.7500     27.7765      0.0000    123.9080    256.4296
  1915.0000     28.2704      0.0000    117.6435    255.5094
  1915.2500     28.7017      0.0000    110.8575    255.2414
  1915.5000     29.0625      0.0000    103.7438    255.2132
  1915.7500     29.2440      0.0000     96.3765    255.2762
  1916.0000     29.2044      0.0000     88.5426    255.3694
  1916.2500     29.0290      0.0000     80.3231    255.4334
  1916.5000     28.8363      0.0000     72.6111    255.4270
  1916.7500     28.6963      0.0000     66.6187    255.3529
  1917.0000     28.6559      0.0000     62.9295    255.2332
  1917.2500     28.7623      0.0000     61.3088    255.0792
  1917.5000     29.0047      0.0000     61.4160    254.9032
  1917.7500     29.2624      0.0000     63.4138    254.7490
  1918.0000     29.3591      0.0000     67.7090    254.7198
  1918.2500     29.1561      0.0000     74.1713    255.0309
  1918.5000     28.5728      0.0000     81.7214    256.1229
  1918.7500     27.5589      0.0000     88.5667    258.6986
  1919.0000     26.1193      0.0000     92.7622    263.4024
  1919.2500     24.3889      0.0000     92.8524    270.1423
  1919.5000     22.6344      0.0000     88.6073    277.7073
  1919.7500     21.1311      0.0000     81.4476    284.3415
  1920.0000     20.0121      0.0000     73.7789    288.8747
  1920.2500     19.2243      0.0000     67.4931    291.3017
  1920.5000     18.6051      0.0000     63.2020    292.4464
  1920.7500     18.0021      0.0000     60.9944    293.5981
  1921.0000     17.3342      0.0000     61.4995    297.0385
  1921.2500     16.5653      0.0000     65.5740    307.4644
  1921.5000     15.6482      0.0000     72.7411    332.5997
  1921.7500     14.5294      0.0000     80.4253    380.0339
  1922.0000     13.2170      0.0000     85.4172    450.0578
  1922.2500     11.8206      0.0000     86.1556    530.9028
  1922.5000     10.5016      0.0000     83.1521    603.6791
  1922.7500      9.3776      0.0000     77.5614    653.9131
  1923.0000      8.4693      0.0000     70.4448    678.4720
  1923.2500      7.7213      0.0000     63.3372    683.2481
  1923.5000      7.0604      0.0000     58.0920    677.1251
  1923.7500      6.4474      0.0000     55.4692    667.8920
  1924.0000      5.8938      0.0000     54.5848    660.8934
  1924.2500      5.4424      0.0000     54.1635    659.2288
  1924.5000      5.1352      0.0000     53.7852    664.2145
  1924.7500      4.9991      0.0000     53.6253    675.2347
  1925.0000      5.0513      0.0000     53.5885    689.6420
  1925.2500      5.3045      0.0000     53.3213    703.9952
  1925.5000      5.7555      0.0000     52.8910    716.0466
  1925.7500      6.3635      0.0000     52.8779    725.6995
  1926.0000      7.0451      0.0000     53.7045    734.5157
  1926.2500      7.7086      0.0000     55.2665    744.3164
  1926.5000      8.3136      0.0000     57.3554    755.2973
  1926.7500      8.8923      0.0000     60.1107    764.3895
  1927.0000      9.4950      0.0000     63.6989    764.9281
  1927.2500     10.1124      0.0000     67.6146    748.5511
  1927.5000     10.6692      0.0000     70.6603    709.2993
  1927.7500     11.1008      0.0000     71.8367    648.0620
  1928.0000     11.4168      0.0000     71.2365    573.2029
  1928.2500     11.6804      0.0000     69.9307    496.1088
  1928.5000     11.9301      0.0000     68.9675    426.8226
  1928.7500     12.1347      0.0000     68.6346    373.2749
  1929.0000     12.2312      0.0000     68.6565    340.9879
  1929.2500     12.2051      0.0000     68.6995    332.3429
  1929.5000     12.1123      0.0000     68.4231    347.5203
  1929.7500     12.0125      0.0000     67.4251    385.3734
  1930.0000     11.9039      0.0000     65.7816    441.6425
  1930.2500     11.7424      0.0000     64.6306    507.8290
  1930.5000     11.5001      0.0000     65.5761    574.0823
  1930.7500     11.1825      0.0000     69.1856    632.4367
  1931.0000     10.8043      0.0000     74.3955    677.4785
  1931.2500     10.3752      0.0000     79.5014    707.3368
  1931.5000      9.9131      0.0000     83.4688    725.1146
  1931.7500      9.4622      0.0000     86.3547    737.7499
  1932.0000      9.0906      0.0000     88.8467    752.6464
  1932.2500      8.8634      0.0000     91.5514    774.3917
  1932.5000      8.8107      0.0000     94.5831    802.2224
  1932.7500      8.9181      0.0000     97.6747    829.6398
  1933.0000      9.1532      0.0000    100.7870    847.9812
  1933.2500      9.4987      0.0000    104.6831    852.1068
  1933.5000      9.9370      0.0000    110.4996    842.8203
  1933.7500     10.3945      0.0000    118.3047    824.2421
  1934.0000     10.7312      0.0000    126.2714    800.0775
  1934.2500     10.8203      0.0000    131.7980    773.5815
  1934.5000     10.6361      0.0000    133.7696    750.0072
  1934.7500     10.2530      0.0000    133.4420    735.7050
  1935.0000      9.7798      0.0000    132.8051    732.5123
  1935.2500      9.3064      0.0000    132.6813    734.2981
  1935.5000      8.8848      0.0000    133.0418    731.5103
  1935.7500      8.5240      0.0000    134.2789    719.5662
  1936.0000      8.2014      0.0000    136.9563    702.1060
  1936.2500      7.8852      0.0000    140.5836    686.8960
  1936.5000      7.5505      0.0000    143.5291    679.5220
  1936.7500      7.1826      0.0000    144.3041    680.1268
  1937.0000      6.7846      0.0000    142.6486    684.6432
  1937.2500      6.3886      0.0000    139.3848    688.6724
  1937.5000      6.0530      0.0000    135.5206    690.1796
  1937.7500      5.8457      0.0000    131.6752    688.8552
  1938.0000      5.8195      0.0000    127.9374    684.3399
  1938.2500      5.9910      0.0000    123.9611    676.4301
  1938.5000      6.3372      0.0000    119.6731    666.4562
  1938.7500      6.8186      0.0000    116.0904    657.1082
