~Version Information
VERS.                      2.0: CWLS Log ASCII Standard - VERSION 2.0
WRAP.                       NO: One line per depth step
~Well Information Block
STRT.FT                -4.0000: 
STOP.FT              2638.2500: 
STEP.FT                 0.2500: 
NULL.                -999.2500: 
COMP.          Petrogulf Corporation: COMPANY
WELL.            Montoya 6-14V: WELL
FLD.           Purgatorie River: FIELD
LOC.           318' FSL & 882' FWL--: LOCATION
PROV.                       CO: PROVINCE
CNTY.               Las Animas: COUNTRY
SRVC.                         : SERVICE COMPANY
DATE.          Mon May 02 08:32:04 2005: LOG DATE
UWI.      005 071 08020: UNIQUE WELL ID
~Curve Information Block
DEPT.FT            0 000 00 00: Depth
AMP3.mV                       : CBL 3' Amplitude
CCL.                          : Casing Collar Locator
GR.GAPI                       : Gamma Ray
TT3.usec                      : CBL 3' Travel Time
~Parameter Information Block
~A  Depth       AMP3        CCL          GR         TT3     
    -4.0000   -999.2500   -999.2500     15.0708   -999.2500
    -3.7500   -999.2500   -999.2500     18.2203   -999.2500
    -3.5000   -999.2500   -999.2500     21.2208   -999.2500
    -3.2500   -999.2500   -999.2500     23.6668   -999.2500
    -3.0000   -999.2500   -999.2500     25.3726   -999.2500
    -2.7500   -999.2500   -999.2500     26.2964   -999.2500
    -2.5000   -999.2500   -999.2500     26.4750   -999.2500
    -2.2500   -999.2500   -999.2500     26.0076   -999.2500
    -2.0000   -999.2500   -999.2500     25.2835   -999.2500
    -1.7500   -999.2500   -999.2500     25.1229   -999.2500
    -1.5000   -999.2500   -999.2500     26.3106   -999.2500
    -1.2500   -999.2500   -999.2500     28.8832   -999.2500
    -1.0000   -999.2500   -999.2500     32.0840   -999.2500
    -0.7500   -999.2500   -999.2500     35.0121   -999.2500
    -0.5000   -999.2500   -999.2500     37.1235   -999.2500
    -0.2500   -999.2500   -999.2500     38.2608   -999.2500
     0.0000   -999.2500   -999.2500     38.6319   -999.2500
     0.2500      3.0588   -999.2500     39.6901    930.0000
     0.5000      3.0315   -999.2500     41.4756    930.0000
     0.7500      3.0083   -999.2500     43.8305    930.0000
     1.0000      2.9944   -999.2500     45.9843    930.0000
     1.2500      2.9860   -999.2500     47.3294    930.0000
     1.5000      2.9768   -999.2500     47.7109    930.0000
     1.7500      2.9662   -999.2500     47.4462    930.0000
     2.0000      2.9593   -999.2500     47.1413    930.0000
     2.2500      2.9589   -999.2500     47.2090    930.0000
     2.5000      2.9643   -999.2500     47.4408    930.0000
     2.7500      2.9739   -999.2500     47.2982    930.0000
     3.0000      2.9869   -999.2500     46.7068    930.0000
     3.2500      3.0001   -999.2500     46.2264    930.0000
     3.5000      3.0076   -999.2500     46.2657    930.0000
     3.7500      3.0063   -999.2500     46.4385    930.0000
     4.0000      2.9993   -999.2500     46.0174    930.0000
     4.2500      2.9928   -999.2500     44.8510    930.0000
     4.5000      2.9897   -999.2500     43.5648    930.0000
     4.7500      2.9879   -999.2500     42.9887    930.0000
     5.0000      2.9846   -999.2500     43.6601    930.0000
     5.2500      2.9787   -999.2500     45.7676    930.0000
     5.5000      2.9705   -999.2500     49.1152    930.0000
     5.7500      2.9613      0.0000     52.8356    930.0000
     6.0000      2.9540      0.0000     55.5020    930.0000
     6.2500      2.9519      0.0000     56.0854    930.0000
     6.5000      2.9552      0.0000     54.8047    930.0000
     6.7500      2.9613      0.0000     52.7306    930.0000
     7.0000      2.9667      0.0000     50.7628    930.0000
     7.2500      2.9705      0.0000     49.4173    930.0000
     7.5000      2.9751      0.0000     49.3129    930.0000
     7.7500      2.9836      0.0000     51.0739    930.0000
     8.0000      2.9952      0.0000     54.5988    930.0000
     8.2500      3.0054      0.0000     58.7379    930.0000
     8.5000      3.0095      0.0000     61.8779    930.0000
     8.7500      3.0067      0.0000     62.9293    930.0000
     9.0000      3.0017      0.0000     61.9193    930.0000
     9.2500      3.0025      0.0000     59.7060    930.0000
     9.5000      3.0138      0.0000     57.1103    930.0000
     9.7500      3.0328      0.0000     54.3550    930.0000
    10.0000      3.0500      0.0000     51.3090    930.0000
    10.2500      3.0566      0.0000     48.0229    930.0000
    10.5000      3.0509      0.0000     44.9055    930.0000
    10.7500      3.0398      0.0000     42.5292    930.0000
    11.0000      3.0339      0.0000     41.3601    930.0000
    11.2500      3.0391      0.0000     41.4926    930.0000
    11.5000      3.0521      0.0000     42.4372    930.0000
    11.7500      3.0646      0.0000     43.2836    930.0000
    12.0000      3.0723      0.0000     43.3132    930.0000
    12.2500      3.0762      0.0000     42.4410    930.0000
    12.5000      3.0772      0.0000     41.1330    930.0000
    12.7500      3.0735      0.0000     40.1618    930.0000
    13.0000      3.0643      0.0000     40.3778    930.0000
    13.2500      3.0534      0.0000     42.1980    930.0000
    13.5000      3.0451      0.0000     44.9905    930.0000
    13.7500      3.0403      0.0000     47.2012    930.0000
    14.0000      3.0366      0.0000     47.4816    930.0000
    14.2500      3.0325      0.0000     45.7771    930.0000
    14.5000      3.0271      0.0000     43.2290    930.0000
    14.7500      3.0200      0.0000     41.0317    930.0000
    15.0000      3.0104      0.0000     39.4633    930.0000
    15.2500      2.9992      0.0000     38.0984    930.0000
    15.5000      2.9897      0.0000     36.8558    930.0000
    15.7500      2.9866      0.0000     36.4461    930.0000
    16.0000      2.9927      0.0000     37.4202    930.0000
    16.2500      3.0063      0.0000     39.0548    930.0000
    16.5000      3.0224      0.0000     39.8069    930.0000
    16.7500      3.0354      0.0000     38.9211    930.0000
    17.0000      3.0433      0.0000     37.1932    930.0000
    17.2500      3.0482      0.0000     36.1271    930.0000
    17.5000      3.0536      0.0000     36.5708    930.0000
    17.7500      3.0602      0.0000     38.1457    930.0000
    18.0000      3.0664      0.0000     39.7885    930.0000
    18.2500      3.0717      0.0000     40.7493    930.0000
    18.5000      3.0768      0.0000     41.0362    930.0000
    18.7500      3.0808      0.0000     41.0065    930.0000
    19.0000      3.0819      0.0000     40.8018    930.0000
    19.2500      3.0804      0.0000     40.3406    930.0000
    19.5000      3.0791      0.0000     39.6544    930.0000
    19.7500      3.0804      0.0000     39.0310    930.0000
    20.0000      3.0844      0.0000     38.7910    930.0000
    20.2500      3.0882      0.0000     38.9413    930.0000
    20.5000      3.0880      0.0000     39.0780    930.0000
    20.7500      3.0814      0.0000     38.7436    930.0000
    21.0000      3.0689      0.0000     37.9690    930.0000
    21.2500      3.0532      0.0000     37.4063    930.0000
    21.5000      3.0388      0.0000     37.7360    930.0000
    21.7500      3.0319      0.0000     38.9284    930.0000
    22.0000      3.0368      0.0000     40.3870    930.0000
    22.2500      3.0507      0.0000     41.8410    930.0000
    22.5000      3.0624      0.0000     43.5898    930.0000
    22.7500      3.0602      0.0000     45.7533    930.0000
    23.0000      3.0401      0.0000     47.7934    930.0000
    23.2500      3.0094      0.0000     49.0870    930.0000
    23.5000      2.9816      0.0000     49.6127    930.0000
    23.7500      2.9669      0.0000     49.7882    930.0000
    24.0000      2.9648      0.0000     49.9595    930.0000
    24.2500      2.9669      0.0000     50.3448    930.0000
    24.5000      2.9671      0.0000     51.1521    930.0000
    24.7500      2.9671      0.0000     52.5281    930.0000
    25.0000      2.9718      0.0000     54.6352    930.0000
    25.2500      2.9818      0.0000     57.7879    930.0000
    25.5000      2.9926      0.0000     62.1458    930.0000
    25.7500      2.9981      0.0000     67.1519    930.0000
    26.0000      2.9939      0.0000     71.6063    930.0000
    26.2500      2.9802      0.0000     74.7621    930.0000
    26.5000      2.9623      0.0000     77.4173    929.9944
    26.7500      2.9475      0.0000     81.4336    929.9633
    27.0000      2.9403      0.0000     87.5912    929.8132
    27.2500      2.9400      0.0000     94.0969    929.2606
    27.5000      2.9436      0.0000     97.6795    927.7092
    27.7500      2.9501      0.0000     96.1739    924.4482
    28.0000      2.9601     -2.0000     89.9995    919.3592
    28.2500      2.9764      2.0000     81.5986    913.4247
    28.5000      3.0117      0.0000     73.8238    907.6824
    28.7500      3.1404     -2.0000     68.5780    900.8346
    29.0000      3.6305      0.0000     66.3297    888.2113
    29.2500      5.1552      0.0000     66.3595    862.7443
