~Version Information
VERS.                      2.0: CWLS Log ASCII Standard - VERSION 2.0
WRAP.                       NO: One line per depth step
~Well Information Block
STRT.FT                 6.5000: 
STOP.FT              1054.0000: 
STEP.FT                 0.2500: 
NULL.                -999.2500: 
COMP.          Pioneer Natural Resources: COMPANY
WELL.            Galileo 21-11: WELL
FLD.           Purgatoire River: FIELD
LOC.           407' FNL & 2394' FWL: LOCATION
PROV.                 Colorado: PROVINCE
CNTY.               Las Animas: COUNTRY
SRVC.                Patterson: SERVICE COMPANY
DATE.          Sat Apr 16 10:31:00 2005: LOG DATE
UWI.           05 071 08353 00: UNIQUE WELL ID
~Curve Information Block
DEPT.FT            0 000 00 00: Depth
GR.GAPI                       : Gamma Ray
CCL.                          : Casing Collar Locator
TT3.usec                      : CBL 3' Travel Time
AMP3.mV                       : CBL 3' Amplitude
~Parameter Information Block
~A  Depth        GR         CCL         TT3         AMP3    
# ...
   810.5000    116.0993      0.0000    956.4332     10.3796
   810.7500    116.8510      0.0000    964.0741     10.3547
   811.0000    117.6685      0.0000    954.6759     10.3280
   811.2500    118.0067      0.0000    937.1188     10.2996
   811.5000    117.1556      0.0000    916.4481     10.2586
   811.7500    114.9073      0.0000    892.1442     10.2008
   812.0000    111.8363      0.0000    865.1596     10.1437
   812.2500    109.0060      0.0000    840.0894     10.1197
   812.5000    107.3371      0.0000    820.9542     10.1555
   812.7500    107.0688      0.0000    808.5372     10.2533
   813.0000    107.8219      0.0000    801.4529     10.3870
   813.2500    109.0862      0.0000    797.8220     10.5156
   813.5000    110.4454      0.0000    796.0684     10.6010
   813.7500    111.5426      0.0000    795.1280     10.6122
   814.0000    112.2040      0.0000    794.3836     10.5147
   814.2500    112.5769      0.0000    793.6818     10.2662
   814.5000    112.7716      0.0000    794.3461      9.8359
   814.7500    112.3610      0.0000    801.2007      9.2323
   815.0000    110.7165      0.0000    823.4531      8.5048
   815.2500    107.9073      0.0000    870.1418      7.7006
   815.5000    104.6933      0.0000    940.3674      6.8396
   815.7500    101.5117      0.0000   1018.0078      5.9715
   816.0000     98.0805      0.0000   1080.5226      5.2345
   816.2500     94.2700      0.0000   1115.3710      4.7784
   816.5000     90.8972      0.0000   1126.7415      4.6178
   816.7500     89.1555      2.4854   1127.7584      4.6204
   817.0000     89.2313      0.0000   1130.3339      4.6538
   817.2500     89.7987      0.0000   1141.7788      4.7199
   817.5000     89.1654      0.0000   1163.9589      4.9717
   817.7500     86.9178      0.0000   1190.4454      5.6199
   818.0000     84.2514      0.0000   1206.3612      6.7539
   818.2500     82.6636      0.0000   1196.5823      8.1906
   818.5000     82.6379      0.0000   1156.8530      9.5457
   818.7500     83.7126      0.0000   1096.2401     10.5118
   819.0000     85.4021      0.0000   1028.9556     11.0518
   819.2500     87.6513      0.0000    965.7217     11.3189
   819.5000     90.4402      0.0000    912.7778     11.4640
   819.7500     93.2906      0.0000    874.5775     11.5440
   820.0000     95.5754      0.0000    853.5970     11.5514
   820.2500     97.2464      0.0000    848.9653     11.4777
   820.5000     98.7032      0.0000    857.7599     11.3432
   820.7500     99.9284      0.0000    875.9146     11.1828
   821.0000    100.5565      0.0000    895.6296     11.0166
   821.2500    100.8862      0.0000    904.3983     10.8418
   821.5000    101.8389      0.0000    891.8547     10.6519
   821.7500    103.5715      0.0000    859.3943     10.4550
   822.0000    104.9747      0.0000    820.3724     10.2705
   822.2500    105.0597      0.0000    788.9177     10.1124
   822.5000    104.2683      0.0000    768.9425      9.9811
   822.7500    103.7689      0.0000    754.2445      9.8718
   823.0000    103.6893      0.0000    737.8725      9.7854
   823.2500    102.7876      0.0000    720.2258      9.7240
   823.5000    100.1874      0.0000    708.6409      9.6756
   823.7500     97.0921      0.0000    710.6419      9.6149
   824.0000     96.2660      0.0000    727.7694      9.5280
   824.2500     99.4974      0.0000    754.3502      9.4330
   824.5000    105.5561      0.0000    780.9954      9.3677
   824.7500    110.8872      0.0000    799.8121      9.3610
   825.0000    112.4040      0.0000    807.9517      9.4166
   825.2500    109.3803      0.0000    807.6617      9.5210
   825.5000    103.0245      0.0000    803.5547      9.6616
   825.7500     95.2307      0.0000    799.4335      9.8345
   826.0000     87.9863      0.0000    796.8715     10.0343
   826.2500     82.9624      0.0000    795.7698     10.2367
   826.5000     80.8172      0.0000    795.5105     10.3951
   826.7500     80.9970      0.0000    795.5900     10.4653
   827.0000     82.4947      0.0000    795.7087     10.4426
   827.2500     84.7349      0.0000    795.7430     10.3693
   827.5000     87.8156      0.0000    795.7197     10.2978
   827.7500     92.1515      0.0000    795.7274     10.2511
   828.0000     97.8238      0.0000    795.7669     10.2202
   828.2500    104.0327      0.0000    795.5219     10.1901
   828.5000    109.3452      0.0000    794.0206     10.1562
   828.7500    112.7911      0.0000    789.2740     10.1210
   829.0000    114.6117      0.0000    778.6114     10.0884
   829.2500    115.7148      0.0000    760.7702     10.0654
   829.5000    116.5966      0.0000    738.6397     10.0627
   829.7500    117.0635      0.0000    718.7614     10.0892
   830.0000    116.8114      0.0000    706.2803     10.1466
   830.2500    115.8284      0.0000    701.2161     10.2306
   830.5000    114.2546      0.0000    701.1692     10.3358
   830.7500    112.2846      0.0000    705.7714     10.4615
   831.0000    110.1809      0.0000    715.9254     10.6142
   831.2500    107.8908      0.0000    729.9451     10.8046
   831.5000    104.7878      0.0000    742.9503     11.0376
   831.7500    100.4478      0.0000    750.1494     11.3036
   832.0000     95.7737      0.0000    750.3881     11.5767
   832.2500     92.6561      0.0000    747.2858     11.8230
   832.5000     92.0307      0.0000    746.8986     12.0111
   832.7500     92.5998      0.0000    753.0958     12.1228
   833.0000     92.0500      0.0000    764.7105     12.1621
   833.2500     89.4278      0.0000    777.2166     12.1535
   833.5000     85.7150      0.0000    786.7068     12.1238
   833.7500     82.1721      0.0000    792.0516     12.0797
   834.0000     78.9631      0.0000    794.0801     12.0074
   834.2500     75.7460      0.0000    793.7675     11.8921
   834.5000     72.9781      0.0000    791.2886     11.7345
   834.7500     71.9394      0.0000    786.3391     11.5492
   835.0000     73.3456      0.0000    779.1469     11.3532
   835.2500     76.2637      0.0000    771.1830     11.1569
   835.5000     78.6638      0.0000    764.8139     10.9605
   835.7500     79.1315      0.0000    762.1014     10.7598
   836.0000     78.0007      0.0000    763.6850     10.5558
   836.2500     76.6943      0.0000    768.2537     10.3617
   836.5000     76.1135      0.0000    772.8107     10.2011
   836.7500     76.0115      0.0000    774.0075     10.0964
   837.0000     75.8510      0.0000    770.1752     10.0535
   837.2500     75.6574      0.0000    762.6005     10.0590
   837.5000     75.7618      0.0000    754.8531     10.0908
   837.7500     76.2942      0.0000    750.6251     10.1294
   838.0000     77.4561      0.0000    751.7285     10.1598
   838.2500     79.8811      0.0000    757.4849     10.1705
   838.5000     83.9710      0.0000    765.3204     10.1576
   838.7500     88.8266      0.0000    771.7751     10.1303
   839.0000     92.3715      0.0000    773.7657     10.1074
   839.2500     92.8491      0.0000    770.1355     10.1029
   839.5000     90.1150      0.0000    762.5953     10.1147
   839.7500     85.4331      0.0000    754.9264     10.1298
   840.0000     80.2969      0.0000    750.6545     10.1446
   840.2500     75.6659      0.0000    750.8078     10.1769
   840.5000     72.0342      0.0000    753.6664     10.2504
   840.7500     69.6202      0.0000    756.9333     10.3679
   841.0000     68.2938      0.0000    760.2289     10.5034
   841.2500     67.5247      0.0000    765.0082     10.6221
   841.5000     66.6818      0.0000    772.0539     10.7048
   841.7500     65.5149      0.0000    779.9789     10.7566
   842.0000     64.2738      0.0000    786.5472     10.7984
   842.2500     63.3064      0.0000    790.6700     10.8501
   842.5000     62.7860      0.0000    792.7050     10.9190
   842.7500     62.9538      0.0000    793.4672     10.9980
   843.0000     64.4597      0.0000    793.4056     11.0745
   843.2500     68.2587      0.0000    792.3814     11.1368
   843.5000     74.8574      0.0000    789.7808     11.1736
   843.7500     83.2959      0.0000    784.9811     11.1741
