~Version Information
VERS.                      2.0: CWLS Log ASCII Standard - VERSION 2.0
WRAP.                       NO: One line per depth step
~Well Information Block
STRT.FT                 0.0000: 
STOP.FT              1916.0000: 
STEP.FT                 0.1000: 
NULL.                -999.2500: 
COMP.          Pioneer Natural Resources: COMPANY
WELL.          Blackjack 32-11 Tr: WELL
FLD.           Purgatorie River: FIELD
LOC.           2066' FNL & 1453' FEL: LOCATION
PROV.                 Colorado: PROVINCE
CNTY.               Las Animas: COUNTRY
SRVC.                Patterson: SERVICE COMPANY
DATE.          Tue Aug 16 12:08:23 2005: LOG DATE
UWI.                          : UNIQUE WELL ID
~Curve Information Block
DEPT.FT            0 000 00 00: Depth
DCAL.in                       : CDL Caliper
RHOB.g/cc                     : CDL Bulk Density
RHOC.g/cc                     : CDL Density Correction
DPOR.pu                       : CDL Density Porosity
GR.GAPI                       : Gamma Ray
NPOR.pu                       : Neutron Porosity
~Parameter Information Block
~A  Depth       DCAL        RHOB        RHOC        DPOR         GR         NPOR    
# ...
   624.0000      8.2087      2.5161      0.0152      8.1150    128.7134     25.7453
   624.1000      8.2087      2.5192      0.0505      7.9248    128.9223     25.8736
   624.2000      8.2087      2.5284      0.0642      7.3715    128.1536     26.0334
   624.3000      8.1178      2.5443      0.0709      6.4084    126.8776     26.0988
   624.4000      8.1178      2.5611      0.0834      5.3863    129.5594     26.1207
   624.5000      8.1135      2.5666      0.0906      5.0563    135.2591     26.1418
   624.6000      8.1135      2.5558      0.0880      5.7083    137.2816     26.0621
   624.7000      8.1135      2.5376      0.0418      6.8116    135.0353     25.9166
   624.8000      8.1255      2.5239      0.0236      7.6453    132.0352     25.8498
   624.9000      8.1255      2.5192      0.0348      7.9254    130.6577     25.8779
   625.0000      8.1595      2.5216      0.0499      7.7828    132.1874     25.9099
   625.1000      8.1595      2.5280      0.0395      7.3948    133.9105     25.8759
   625.2000      8.1595      2.5384      0.0330      6.7632    132.8383     25.8398
   625.3000      8.1675      2.5496      0.0606      6.0854    130.9005     25.9566
   625.4000      8.1675      2.5537      0.0543      5.8358    130.8737     26.2240
   625.5000      8.1746      2.5477      0.0751      6.2016    130.6658     26.5070
   625.6000      8.1746      2.5368      0.0585      6.8604    127.7046     26.6820
   625.7000      8.1746      2.5291      0.0807      7.3262    124.1294     26.5761
   625.8000      8.1677      2.5259      0.0452      7.5237    121.0443     26.1255
   625.9000      8.1677      2.5258      0.0296      7.5269    117.3394     25.5964
   626.0000      8.1028      2.5314      0.0149      7.1854    113.2401     25.3513
   626.1000      8.1028      2.5431      0.0598      6.4770    110.0080     25.4641
   626.2000      8.1028      2.5572      0.0533      5.6256    108.0226     25.7283
   626.3000      8.1138      2.5685      0.0963      4.9404    107.4769     26.0189
   626.4000      8.1138      2.5711      0.0761      4.7796    108.4881     26.2190
   626.5000      8.1606      2.5668      0.0875      5.0415    109.7875     26.2046
   626.6000      8.1606      2.5591      0.0749      5.5080    109.1403     25.9982
   626.7000      8.1606      2.5541      0.0265      5.8125    106.9335     25.6684
   626.8000      8.1191      2.5593      0.0784      5.4998    107.2568     25.3062
   626.9000      8.1191      2.5677      0.0836      4.9892    111.8683     24.9700
   627.0000      8.0817      2.5712      0.0488      4.7767    115.3097     24.7249
   627.1000      8.0817      2.5716      0.0860      4.7503    114.6501     24.7011
   627.2000      8.0817      2.5659      0.0901      5.0999    115.1249     24.9667
   627.3000      8.0591      2.5523      0.0830      5.9184    119.2912     25.2966
   627.4000      8.0591      2.5411      0.0789      6.6007    124.8076     25.4938
   627.5000      8.0565      2.5361      0.1311      6.9057    128.2117     25.8274
   627.6000      8.0565      2.5306      0.0671      7.2369    126.7497     26.3933
   627.7000      8.0565      2.5276      0.1018      7.4167    123.3153     26.7436
   627.8000      8.0766      2.5354      0.0743      6.9457    122.9205     26.7027
   627.9000      8.0766      2.5515      0.0858      5.9716    124.6411     26.4526
   628.0000      8.0948      2.5560      0.0940      5.6961    126.4637     26.1709
   628.1000      8.0948      2.5330      0.0412      7.0894    128.4179     26.0876
   628.2000      8.0948      2.4972      0.0007      9.2578    129.9673     26.2129
   628.3000      8.1015      2.4756      0.0156     10.5697    131.8060     26.3409
   628.4000      8.1015      2.4809      0.0139     10.2461    132.7089     26.4754
   628.5000      8.1291      2.5072      0.0754      8.6570    129.3814     26.8842
   628.6000      8.1291      2.5373      0.0981      6.8281    121.9460     27.5619
   628.7000      8.1291      2.5624      0.1004      5.3114    113.9669     28.0658
   628.8000      8.0843      2.5827      0.1247      4.0761    109.2744     28.1959
   628.9000      8.0843      2.5972      0.1503      3.2012    108.2088     28.0866
   629.0000      8.0701      2.6011      0.1109      2.9610    108.2099     27.7910
   629.1000      8.0701      2.5933      0.1373      3.4342    107.6253     27.3478
   629.2000      8.0701      2.5770      0.0821      4.4254    105.4311     26.7733
   629.3000      8.0588      2.5564      0.0740      5.6716    101.9331     26.0417
   629.4000      8.0588      2.5313      0.0637      7.1916     99.7544     25.3910
   629.5000      8.0380      2.5038     -0.0082      8.8593     99.3700     24.9992
   629.6000      8.0380      2.4868      0.0047      9.8924     98.0934     24.6916
   629.7000      8.0380      2.4858      0.0122      9.9545     95.2830     24.3213
   629.8000      8.0401      2.4874      0.0453      9.8535     94.0345     23.8353
   629.9000      8.0401      2.4758      0.0461     10.5549     93.6392     23.3097
   630.0000      8.1427      2.4579     -0.0156     11.6412     90.3962     22.8844
   630.1000      8.1427      2.4554      0.0313     11.7923     86.4390     22.5682
   630.2000      8.1427      2.4685      0.0992     11.0030     85.6423     22.3500
   630.3000      8.1093      2.4780      0.0965     10.4213     87.4422     22.2382
   630.4000      8.1093      2.4794      0.0741     10.3374     89.7739     22.1976
   630.5000      8.1431      2.4835      0.0584     10.0919     91.0953     22.3081
   630.6000      8.1431      2.4941      0.0993      9.4474     90.6509     22.5324
   630.7000      8.1431      2.5055      0.1281      8.7577     89.0286     22.6194
   630.8000      8.0934      2.5159      0.1179      8.1297     87.2743     22.6584
   630.9000      8.0934      2.5272      0.1227      7.4402     85.4372     22.8130
   631.0000      8.0669      2.5366      0.1090      6.8739     82.7266     22.9396
   631.1000      8.0669      2.5413      0.0939      6.5897     79.8167     23.0380
   631.2000      8.0669      2.5444      0.1205      6.3993     80.2861     23.1754
   631.3000      8.0594      2.5508      0.0852      6.0093     84.3488     23.2488
   631.4000      8.0594      2.5604      0.0798      5.4319     86.1619     23.2390
   631.5000      8.0687      2.5603      0.1302      5.4350     84.2401     23.2078
   631.6000      8.0687      2.5418      0.0634      6.5573     81.6727     23.1144
   631.7000      8.0687      2.5145      0.0459      8.2150     79.2047     22.9458
   631.8000      8.0598      2.4877      0.0363      9.8366     77.2382     22.6540
   631.9000      8.0598      2.4657      0.0565     11.1672     77.0123     22.0739
   632.0000      8.0668      2.4537      0.0435     11.8975     78.7116     21.3141
   632.1000      8.0668      2.4505      0.0717     12.0916     81.3117     20.7145
   632.2000      8.0668      2.4509      0.0427     12.0683     83.9503     20.4943
   632.3000      8.0663      2.4587      0.0096     11.5968     84.5864     20.5467
   632.4000      8.0663      2.4738      0.0984     10.6800     82.9867     20.5590
   632.5000      8.0820      2.4834      0.0803     10.0957     82.1637     20.4384
   632.6000      8.0820      2.4839      0.0804     10.0637     82.0395     20.3141
   632.7000      8.0820      2.4805      0.1115     10.2705     80.3364     20.2783
   632.8000      8.0934      2.4743      0.1153     10.6515     77.7237     20.2849
   632.9000      8.0934      2.4674      0.0817     11.0656     75.9308     20.2099
   633.0000      8.1351      2.4597      0.1379     11.5324     76.3309     20.0764
   633.1000      8.1351      2.4467      0.0893     12.3226     78.4368     20.0735
   633.2000      8.1351      2.4329      0.0546     13.1558     79.8435     20.2092
   633.3000      8.1564      2.4257      0.0609     13.5956     78.4434     20.3521
   633.4000      8.1564      2.4302      0.0062     13.3189     73.9501     20.3601
   633.5000      8.1850      2.4506      0.0606     12.0841     70.3667     20.1606
