~Version Information
VERS.                      2.0: CWLS Log ASCII Standard - VERSION 2.0
WRAP.                       NO: One line per depth step
~Well Information Block
STRT.FT               555.6000: 
STOP.FT              2132.0000: 
STEP.FT                 0.1000: 
NULL.                -999.2500: 
COMP.          Petrogulf Corporation: COMPANY
WELL.           Montoya 12-41R: WELL
FLD.           Purgatorie River: FIELD
LOC.           1086' FNL & 610' FEL: LOCATION
CNTY.               Las Animas: COUNTY
SRVC.                         : SERVICE COMPANY
DATE.          Thu Nov 18 08:45:51 2004: LOG DATE
UWI.           05 071 08241 00: UNIQUE WELL ID
STAT.                 Colorado: STATE
~Curve Information Block
DEPT.FT            0 000 00 00: Depth
DCAL.in                       : CDL Caliper
RHOB.g/cc                     : CDL Bulk Density
RHOC.g/cc                     : CDL Density Correction
DPOR.pu                       : CDL Density Porosity
GR.GAPI                       : Gamma Ray
NPOR.pu                       : Neutron Porosity
~Parameter Information Block
~A  Depth       DCAL        RHOB        RHOC        DPOR         GR         NPOR    
# ...
   680.4000      8.3186      2.5777      0.0016      4.3834    139.4627     27.8734
   680.5000      8.3269      2.5964      0.0543      3.2514    132.3846     28.1766
   680.6000      8.3269      2.6098      0.0194      2.4363    127.7016     28.2613
   680.7000      8.3269      2.6053      0.0646      2.7105    128.1250     27.9485
   680.8000      8.3220      2.5842      0.0369      3.9865    132.5001     27.4612
   680.9000      8.3220      2.5738     -0.0055      4.6183    138.7876     27.0887
   681.0000      8.3163      2.5964      0.0253      3.2455    145.4208     26.8518
   681.1000      8.3163      2.6335      0.0528      0.9979    149.8252     26.6750
   681.2000      8.3163      2.6508      0.0910     -0.0485    146.3932     26.4630
   681.3000      8.3179      2.6383      0.0545      0.7090    138.7040     26.3447
   681.4000      8.3179      2.6151      0.0209      2.1154    138.1081     26.4683
   681.5000      8.3143      2.5959      0.0360      3.2816    144.6702     26.6777
   681.6000      8.3143      2.5772     -0.0178      4.4140    148.1808     26.9532
   681.7000      8.3143      2.5613      0.0025      5.3753    144.2856     27.3060
   681.8000      8.3113      2.5545     -0.0067      5.7886    137.9506     27.3512
   681.9000      8.3113      2.5533      0.0159      5.8588    134.9198     26.8687
   682.0000      8.3119      2.5526     -0.0104      5.9029    137.5906     26.2888
   682.1000      8.3119      2.5507      0.0276      6.0187    144.9516     25.9917
   682.2000      8.3119      2.5525      0.0162      5.9091    152.1664     25.8551
   682.3000      8.3128      2.5669      0.0560      5.0344    156.1271     25.7135
   682.4000      8.3128      2.5877      0.0749      3.7745    159.6633     25.7096
   682.5000      8.3133      2.6029      0.0556      2.8544    162.3055     26.0027
   682.6000      8.3133      2.6102      0.0818      2.4141    158.2281     26.4971
   682.7000      8.3133      2.6123      0.0633      2.2846    148.1562     26.9101
   682.8000      8.3102      2.6128      0.0834      2.2561    139.2334     26.9483
   682.9000      8.3102      2.6113      0.0528      2.3428    134.2848     26.6525
   683.0000      8.3081      2.6060      0.0374      2.6638    132.3888     26.4025
   683.1000      8.3081      2.5972      0.0022      3.1972    133.7238     26.3241
   683.2000      8.3081      2.5855      0.0310      3.9114    137.8898     26.1957
   683.3000      8.3112      2.5705     -0.0045      4.8184    145.5671     25.7114
   683.4000      8.3112      2.5611     -0.0162      5.3864    154.3568     24.9055
   683.5000      8.3151      2.5696     -0.0015      4.8712    156.2820     24.2882
   683.6000      8.3151      2.5867      0.0386      3.8376    150.9110     24.2011
   683.7000      8.3151      2.5877      0.0489      3.7732    147.8486     24.4281
   683.8000      8.3186      2.5655      0.0247      5.1205    151.7844     24.4802
   683.9000      8.3186      2.5369     -0.0316      6.8550    159.1242     24.3362
   684.0000      8.2915      2.5233      0.0075      7.6802    162.1268     24.4914
   684.1000      8.2915      2.5264      0.0568      7.4904    158.0243     24.9231
   684.2000      8.2915      2.5315      0.0244      7.1789    155.0664     25.1159
   684.3000      8.1256      2.5297      0.0190      7.2913    157.0069     25.1187
   684.4000      8.1256      2.5295      0.0230      7.3019    159.0581     25.1941
   684.5000      7.8717      2.5477      0.0222      6.2027    161.3784     25.4220
   684.6000      7.8717      2.5807      0.0820      4.2024    165.7194     26.0435
   684.7000      7.8717      2.6089      0.0721      2.4912    168.5662     26.9391
   684.8000      7.8169      2.6268      0.0946      1.4060    168.4547     27.4792
   684.9000      7.8169      2.6429      0.0722      0.4283    167.1458     27.4723
   685.0000      7.9779      2.6588      0.1292     -0.5349    163.1426     27.3413
   685.1000      7.9779      2.6569      0.1469     -0.4194    156.6556     27.2200
   685.2000      7.9779      2.6275      0.0988      1.3626    154.8195     26.8321
   685.3000      8.1797      2.5817      0.0961      4.1417    159.5699     26.0804
   685.4000      8.1797      2.5281      0.0228      7.3861    162.0154     25.2943
   685.5000      8.3165      2.4674      0.0360     11.0645    160.6184     24.8315
   685.6000      8.3165      2.3964     -0.0103     15.3696    163.4244     24.5678
   685.7000      8.3165      2.3199     -0.0196     20.0090    167.9288     24.1991
   685.8000      8.3905      2.2514     -0.0630     24.1604    166.5130     23.9800
   685.9000      8.3905      2.1981     -0.0721     27.3893    163.8484     24.2582
   686.0000      8.4824      2.1618     -0.0696     29.5903    167.0870     24.6348
   686.1000      8.4824      2.1517     -0.0185     30.2028    173.4051     24.9074
   686.2000      8.4824      2.1865      0.0083     28.0897    177.7840     25.3965
   686.3000      8.6420      2.2829      0.1128     22.2473    176.4775     26.0488
   686.4000      8.6420      2.4169      0.3693     14.1269    167.7608     26.5394
   686.5000      8.7825      2.5205      0.4290      7.8479    157.9178     26.7381
   686.6000      8.7825      2.5553      0.3773      5.7397    152.9826     26.7639
   686.7000      8.7825      2.5474      0.2390      6.2181    148.8906     26.8277
   686.8000      8.7535      2.5378      0.2159      6.7988    143.5590     26.7905
   686.9000      8.7535      2.5380      0.1849      6.7901    142.0629     26.5732
   687.0000      8.5675      2.5450      0.0890      6.3628    145.7418     26.5776
   687.1000      8.5675      2.5565      0.1297      5.6638    149.9352     26.8435
   687.2000      8.5675      2.5628      0.0942      5.2858    150.5653     26.8210
   687.3000      8.4117      2.5583      0.0530      5.5562    149.5053     26.4683
   687.4000      8.4117      2.5434      0.0619      6.4627    150.6930     26.1430
   687.5000      8.3570      2.5223      0.0025      7.7385    151.6780     25.9354
   687.6000      8.3570      2.5076      0.0159      8.6296    151.6040     25.7413
   687.7000      8.3570      2.5045      0.0127      8.8161    154.9967     25.4982
   687.8000      8.3524      2.5091      0.0373      8.5424    162.6447     25.4120
   687.9000      8.3524      2.5093      0.0455      8.5268    169.2499     25.5199
   688.0000      8.3546      2.4932      0.0334      9.5055    169.4887     25.4942
   688.1000      8.3546      2.4655     -0.0013     11.1788    164.8892     25.3811
   688.2000      8.3546      2.4423      0.0135     12.5859    162.7203     25.2933
   688.3000      8.3485      2.4302      0.0178     13.3184    162.3914     24.9816
   688.4000      8.3485      2.4257     -0.0033     13.5961    156.5147     24.5030
   688.5000      8.3276      2.4178      0.0353     14.0748    147.2466     24.1628
   688.6000      8.3276      2.3881      0.0713     15.8721    142.9128     23.9390
   688.7000      8.3276      2.3390      0.0028     18.8513    147.9098     23.5857
   688.8000      8.3023      2.3079      0.0214     20.7334    157.2603     23.0950
   688.9000      8.3023      2.3113      0.1120     20.5249    161.4923     22.5883
   689.0000      8.2974      2.3251      0.0781     19.6932    160.1962     22.1204
   689.1000      8.2974      2.3352      0.1119     19.0813    156.4407     21.7981
   689.2000      8.2974      2.3513      0.1304     18.1024    150.7306     21.7550
   689.3000      8.3279      2.3887      0.1223     15.8370    146.8903     22.1012
   689.4000      8.3279      2.4456      0.2864     12.3886    148.3899     22.3887
   689.5000      8.3854      2.4888      0.3411      9.7708    153.3567     22.1353
   689.6000      8.3854      2.4829      0.3351     10.1286    157.3719     21.6140
   689.7000      8.3854      2.4217      0.2851     13.8370    156.8659     21.2789
   689.8000      8.4177      2.3280      0.1553     19.5149    150.9281     21.5168
   689.9000      8.4177      2.2265      0.1091     25.6692    144.1235     22.2649
