~Version Information
VERS.                      2.0: CWLS Log ASCII Standard - VERSION 2.0
WRAP.                       NO: One line per depth step
~Well Information Block
STRT.FT               472.0000: 
STOP.FT              2430.5000: 
STEP.FT                 0.2500: 
NULL.                -999.2500: 
COMP.          Pioneer Natural Resources: COMPANY
WELL.          Flying Horse 12-11: WELL
FLD.           Purgatoire River: FIELD
LOC.           2428' FNL & 308' FWL: LOCATION
PROV.                 Colorado: PROVINCE
CNTY.               Las Animas: COUNTRY
SRVC.                Patterson: SERVICE COMPANY
DATE.          Sun May 29 11:58:35 2005: LOG DATE
UWI.           05 071 08378 00: UNIQUE WELL ID
~Curve Information Block
DEPT.FT            0 000 00 00: Depth
SN.Ohm-m                      : IEL Short Normal
SP.mV                         : IEL Spontaneous Potential
DIR.Ohm-m                     : IEL Induction Resistivity
GR.GAPI                       : Gamma Ray
~Parameter Information Block
~A  Depth        SN          SP         DIR          GR     
# ...
  1745.0000     21.3547    -68.0620     22.6813    110.5919
  1745.2500     21.6038    -68.0697     22.7547    106.9290
  1745.5000     21.8294    -68.0583     22.8445    101.3873
  1745.7500     21.9407    -68.0471     22.9842     98.2812
  1746.0000     21.9314    -68.0570     23.1764     94.6768
  1746.2500     21.9133    -68.1004     23.3819     92.7747
  1746.5000     22.0159    -68.1768     23.5392     90.2602
  1746.7500     22.2426    -68.2728     23.6058     88.7034
  1747.0000     22.4903    -68.3738     23.5876     86.7084
  1747.2500     22.6998    -68.4763     23.5332     85.7775
  1747.5000     22.9050    -68.5913     23.4983     84.9739
  1747.7500     23.1389    -68.7365     23.5150     84.5427
  1748.0000     23.4010    -68.9249     23.5847     83.4692
  1748.2500     23.6967    -69.1520     23.6893     82.4498
  1748.5000     23.9899    -69.3891     23.8046     81.1966
  1748.7500     24.1907    -69.5929     23.9045     81.1011
  1749.0000     24.2457    -69.7304     23.9640     82.4224
  1749.2500     24.1820    -69.8038     23.9706     83.9745
  1749.5000     24.0940    -69.8513     23.9413     86.3501
  1749.7500     24.0740    -69.9191     23.9250     87.5610
  1750.0000     24.1306    -70.0283     23.9799     88.7793
  1750.2500     24.2268    -70.1638     24.1384     89.4886
  1750.5000     24.3736    -70.2872     24.3842     91.2414
  1750.7500     24.5880    -70.3614     24.6558     93.4622
  1751.0000     24.7858    -70.3719     24.8782     99.0190
  1751.2500     24.8598    -70.3302     24.9999    103.9402
  1751.5000     24.8107    -70.2575     25.0141    111.3393
  1751.7500     24.7042    -70.1644     24.9500    114.8721
  1752.0000     24.5949    -70.0486     24.8481    116.4686
  1752.2500     24.4982    -69.9094     24.7390    115.2174
  1752.5000     24.3870    -69.7587     24.6363    111.9190
  1752.7500     24.2583    -69.6182     24.5381    110.2678
  1753.0000     24.1627    -69.5054     24.4307    110.0278
  1753.2500     24.1188    -69.4229     24.2937    111.1882
  1753.5000     24.1018    -69.3572     24.1066    113.5663
  1753.7500     24.1308    -69.2826     23.8538    114.7465
  1754.0000     24.2671    -69.1700     23.5276    115.1371
  1754.2500     24.5044    -69.0064     23.1297    114.6681
  1754.5000     24.7023    -68.8202     22.6760    114.3730
  1754.7500     24.6986    -68.6820     22.1984    115.5745
  1755.0000     24.4695    -68.6655     21.7414    120.5720
  1755.2500     24.0802    -68.7947     21.3560    125.7829
  1755.5000     23.5283    -69.0222     21.0912    134.7586
  1755.7500     22.7423    -69.2548     20.9832    140.3644
  1756.0000     21.7423    -69.4008     21.0449    146.8922
  1756.2500     20.7709    -69.4105     21.2628    149.8114
  1756.5000     20.2007    -69.2887     21.6048    152.3645
  1756.7500     20.2782    -69.0848     22.0396    152.9495
  1757.0000     21.0338    -68.8779     22.5524    151.4031
  1757.2500     22.4337    -68.7620     23.1511    147.6945
  1757.5000     24.3930    -68.8085     23.8581    136.1860
  1757.7500     26.6898    -69.0100     24.6969    124.2520
  1758.0000     29.2604    -69.2640     25.6821    101.7919
  1758.2500     32.4761    -69.4341     26.8147     85.8490
  1758.5000     36.8250    -69.4347     28.0837     64.1561
  1758.7500     42.4619    -69.2667     29.4660     52.7220
  1759.0000     48.9421    -68.9944     30.9249     41.2881
  1759.2500     55.0797    -68.6992     32.4106     37.3585
  1759.5000     59.4026    -68.4407     33.8664     35.8477
  1759.7500     61.1844    -68.2328     35.2336     36.8676
  1760.0000     60.8656    -68.0388     36.4520     40.0314
  1760.2500     59.3171    -67.7866     37.4656     42.6047
  1760.5000     57.0546    -67.4027     38.2439     46.5939
  1760.7500     54.2713    -66.8515     38.7972     49.4775
  1761.0000     51.1449    -66.1558     39.1523     55.1715
  1761.2500     47.8736    -65.3856     39.2931     60.4602
  1761.5000     44.6665    -64.6194     39.1190     70.3549
  1761.7500     41.7997    -63.9066     38.4772     77.2175
  1762.0000     39.4667    -63.2638     37.2605     85.6830
  1762.2500     37.5791    -62.7009     35.4944     89.2429
  1762.5000     35.8937    -62.2351     33.3377     91.2223
  1762.7500     34.3018    -61.8739     31.0052     90.8528
  1763.0000     32.8870    -61.5923     28.6834     89.6434
  1763.2500     31.7305    -61.3376     26.4897     89.6822
  1763.5000     30.7412    -61.0625     24.4771     92.4476
  1763.7500     29.6600    -60.7591     22.6593     96.1396
  1764.0000     28.2079    -60.4620     21.0378    103.6259
  1764.2500     26.3033    -60.2180     19.6158    109.3911
  1764.5000     24.1372    -60.0552     18.3937    118.5274
  1764.7500     21.9842    -59.9743     17.3586    124.5763
  1765.0000     19.9916    -59.9571     16.4796    133.0160
  1765.2500     18.1604    -59.9779     15.7159    137.9987
  1765.5000     16.5129    -60.0094     15.0301    144.0533
  1765.7500     15.1984    -60.0297     14.3984    146.6508
  1766.0000     14.3186    -60.0301     13.8122    147.6164
  1766.2500     13.7938    -60.0163     13.2744    146.5003
  1766.5000     13.5299    -60.0021     12.7943    143.9580
  1766.7500     13.5013    -59.9983     12.3825    142.9005
  1767.0000     13.5827    -60.0061     12.0460    143.0448
  1767.2500     13.5693    -60.0151     11.7866    143.8189
  1767.5000     13.4210    -60.0086     11.6023    144.6502
  1767.7500     13.2734    -59.9728     11.4930    144.4281
  1768.0000     13.1929    -59.9078     11.4639    142.5505
  1768.2500     13.1024    -59.8321     11.5254    140.3755
  1768.5000     12.9549    -59.7740     11.6860    136.5820
  1768.7500     12.8389    -59.7539     11.9454    134.3556
  1769.0000     12.8944    -59.7730     12.2904    131.7641
  1769.2500     13.1964    -59.8162     12.6964    129.8559
  1769.5000     13.7180    -59.8661     13.1353    124.8761
  1769.7500     14.3285    -59.9164     13.5840    119.6488
  1770.0000     14.8718    -59.9793     14.0284    110.3290
  1770.2500     15.3286    -60.0807     14.4600    104.9052
  1770.5000     15.8469    -60.2443     14.8731    100.5745
  1770.7500     16.5984    -60.4697     15.2656    100.6607
  1771.0000     17.6125    -60.7231     15.6447    104.2985
  1771.2500     18.6845    -60.9516     16.0258    108.0275
  1771.5000     19.4931    -61.1126     16.4226    113.5250
  1771.7500     19.8302    -61.1922     16.8338    116.0308
  1772.0000     19.7346    -61.2011     17.2396    117.2150
  1772.2500     19.4651    -61.1605     17.6093    116.5984
  1772.5000     19.2803    -61.0946     17.9153    114.8261
  1772.7500     19.2569    -61.0289     18.1401    113.8167
  1773.0000     19.3290    -60.9840     18.2736    113.4688
  1773.2500     19.4192    -60.9655     18.3108    114.2214
  1773.5000     19.5185    -60.9584     18.2509    116.5144
  1773.7500     19.6437    -60.9375     18.0994    118.4287
  1774.0000     19.7159    -60.8869     17.8715    121.3664
  1774.2500     19.5615    -60.8155     17.5884    123.2360
  1774.5000     19.1175    -60.7532     17.2670    125.7848
  1774.7500     18.5309    -60.7356     16.9045    127.2621
  1775.0000     18.0194    -60.7950     16.4786    129.1977
  1775.2500     17.7189    -60.9591     15.9673    130.4365
  1775.5000     17.5487    -61.2414     15.3771    132.4248
  1775.7500     17.1888    -61.6256     14.7480    133.8024
  1776.0000     16.4103    -62.0724     14.1320    135.6109
  1776.2500     15.4147    -62.5519     13.5711    136.4918
  1776.5000     14.6166    -63.0640     13.0912    137.4860
  1776.7500     14.2177    -63.6252     12.7092    138.2326
  1777.0000     14.1211    -64.2479     12.4385    139.9863
  1777.2500     14.0881    -64.9335     12.2877    141.6678
  1777.5000     13.9411    -65.6723     12.2569    144.6069
  1777.7500     13.7150    -66.4432     12.3366    146.3829
  1778.0000     13.5977    -67.2205     12.5086    147.5521
  1778.2500     13.7170    -67.9855     12.7514    146.3580
