~Version Information
VERS.                      2.0: CWLS Log ASCII Standard - VERSION 2.0
WRAP.                       NO: One line per depth step
~Well Information Block
STRT.FT                -2.7500: 
STOP.FT              2141.2500: 
STEP.FT                 0.2500: 
NULL.                -999.2500: 
COMP.          Pioneer Nautural Resources: COMPANY
WELL.             Enzo 43-8 Tr: WELL
FLD.           Purgatorie River: FIELD
LOC.           2303' FSL & 604' FEL--: LOCATION
PROV.                       CO: PROVINCE
CNTY.               Las Animas: COUNTRY
SRVC.                         : SERVICE COMPANY
DATE.          Thu Nov 04 09:01:55 2004: LOG DATE
UWI.            05-071-08213  : UNIQUE WELL ID
~Curve Information Block
DEPT.FT            0 000 00 00: Depth
GR.GAPI                       : Gamma Ray
CCL.                          : Casing Collar Locator
TT3.usec                      : CBL 3' Travel Time
AMP3.mV                       : CBL 3' Amplitude
~Parameter Information Block
~A  Depth        GR         CCL         TT3         AMP3    
# ...
   432.7500    110.9839      0.0000    836.9651      6.6568
   433.0000    107.0248      0.0000    837.3373      6.7183
   433.2500    105.5957      0.0000    839.6898      6.7234
   433.5000    107.7364      0.0000    847.2286      6.6773
   433.7500    112.9685      0.0000    861.5861      6.5859
   434.0000    118.9986      0.0000    880.1779      6.4581
   434.2500    122.3378      0.0000    897.7094      6.3126
   434.5000    120.6199      0.0000    910.1616      6.1799
   434.7500    114.5760      0.0000    916.9363      6.0903
   435.0000    107.2296      0.0000    919.7830      6.0583
   435.2500    101.3033      0.0000    920.7110      6.0799
   435.5000     97.7020      0.0000    920.9465      6.1416
   435.7500     95.9057      0.0000    920.9929      6.2243
   436.0000     95.0109      0.0000    921.0000      6.2995
   436.2500     94.3250      0.0000    921.0000      6.3342
   436.5000     93.3394      0.0000    921.0000      6.3119
   436.7500     91.4900      0.0000    921.0000      6.2453
   437.0000     88.3552      0.0000    921.0000      6.1659
   437.2500     84.3468      0.0000    921.0000      6.1006
   437.5000     80.8608      0.0000    921.0000      6.0595
   437.7500     79.1620      0.0000    921.0000      6.0374
   438.0000     79.0776      0.0000    921.0000      6.0215
   438.2500     79.1326      0.0000    921.0000      5.9976
   438.5000     77.8664      0.0000    921.0000      5.9533
   438.7500     74.6436      0.0000    921.0000      5.8831
   439.0000     69.4662      0.0000    921.0000      5.7888
   439.2500     62.8926      0.0000    921.0000      5.6681
   439.5000     56.2645      0.0000    921.0000      5.5105
   439.7500     51.2576      0.0000    921.0000      5.3139
   440.0000     48.8311      0.0000    921.0000      5.1052
   440.2500     48.8343      0.0000    921.0000      4.9359
   440.5000     50.5488      0.0000    921.0000      4.8559
   440.7500     53.2171      0.0000    921.0000      4.8869
   441.0000     55.9545      0.0000    921.0000      5.0070
   441.2500     57.6079      0.0000    920.9956      5.1570
   441.5000     57.3194      0.0000    920.9671      5.2722
   441.7500     55.5428      0.0000    920.8224      5.3237
   442.0000     54.1610      0.0000    920.2502      5.3304
   442.2500     54.9637      0.0000    918.4879      5.3307
   442.5000     57.9210      0.0000    914.2597      5.3465
   442.7500     61.3607      0.0000    906.3544      5.3761
   443.0000     63.8043      0.0000    894.8261      5.4114
   443.2500     65.0653      0.0000    881.6853      5.4512
   443.5000     65.5032      0.0000    869.9200      5.4999
   443.7500     64.9503      0.0000    861.5510      5.5612
   444.0000     62.9137      0.0000    856.6963      5.6344
   444.2500     59.5903      0.0000    854.2764      5.7153
   444.5000     56.2217      0.0000    853.1617      5.7981
   444.7500     54.1320      0.0000    852.6768      5.8806
   445.0000     53.3301      0.0000    852.4973      5.9687
   445.2500     52.4813      0.0000    852.4356      6.0720
   445.5000     50.6390      0.0000    852.3665      6.1917
   445.7500     48.4835      0.0000    852.2390      6.3125
   446.0000     47.2165      0.0000    852.0648      6.4134
   446.2500     46.8961      0.0000    851.8623      6.4847
   446.5000     46.7666      0.0000    851.6279      6.5333
   446.7500     46.7029      0.0000    851.3523      6.5738
   447.0000     47.3798      0.0000    851.0380      6.6227
   447.2500     49.2428      0.0000    850.6865      6.6955
   447.5000     51.9436      0.0000    850.2557      6.7995
   447.7500     54.6694      0.0000    849.5737      6.9266
   448.0000     56.6860      0.0000    848.2180      7.0544
   448.2500     57.6252      0.0000    845.5138      7.1582
   448.5000     57.5165      0.0000    840.9510      7.2257
   448.7500     56.7909      0.0000    834.8784      7.2630
   449.0000     56.3588      0.0000    828.5770      7.2889
   449.2500     57.3600      0.0000    823.2153      7.3237
   449.5000     60.2528      0.0000    818.8578      7.3818
   449.7500     64.0416      0.0000    814.8969      7.4668
   450.0000     66.8476      0.0000    811.1730      7.5715
   450.2500     67.5255      0.0000    808.1443      7.6857
   450.5000     66.5874      0.0000    806.1908      7.8053
   450.7500     65.4029      0.0000    805.2448      7.9258
   451.0000     64.5685      0.0000    805.1127      8.0281
   451.2500     63.3373      0.0000    805.9589      8.0774
   451.5000     60.7735      0.0000    808.6086      8.0381
   451.7500     57.1954      0.0000    814.3962      7.8812
   452.0000     54.1748      0.0000    824.3586      7.5873
   452.2500     53.1462      0.0000    838.1995      7.1646
   452.5000     54.1803      0.0000    854.1136      6.6698
   452.7500     56.0931      0.0000    869.5143      6.1811
   453.0000     57.4979      0.0000    881.7664      5.7362
   453.2500     57.6375      0.0000    889.1686      5.3171
   453.5000     56.5148      0.0000    892.5410      4.9008
   453.7500     54.6831      0.0000    895.2301      4.4902
   454.0000     52.9934      0.0000    900.0441      4.0904
   454.2500     52.1510      2.0000    906.3696      3.6911
   454.5000     52.1550      0.0000    910.8754      3.2920
   454.7500     52.3764      0.0000    910.2082      2.9330
   455.0000     52.4613      0.0000    902.5860      2.6924
   455.2500     52.7417      0.0000    888.1508      2.6593
   455.5000     53.3830      0.0000    869.0771      2.9015
   455.7500     53.7782      0.0000    849.0301      3.4401
   456.0000     53.5007      0.0000    831.6906      4.2358
   456.2500     53.2966      0.0000    819.2401      5.1722
   456.5000     54.2673      0.0000    811.8548      6.0591
   456.7500     56.3129      0.0000    808.2931      6.7081
   457.0000     58.0144      0.0000    806.9554      7.0442
   457.2500     57.9432      0.0000    806.6282      7.1367
   457.5000     55.7013      0.0000    806.6335      7.1244
   457.7500     52.0307      0.0000    806.6582      7.1176
   458.0000     48.6754      0.0000    806.5939      7.1546
   458.2500     48.1224      0.0000    806.4650      7.2201
   458.5000     52.6970      0.0000    806.3644      7.2892
   458.7500     63.0767      0.0000    806.3886      7.3570
   459.0000     77.2559      0.0000    806.6149      7.4331
   459.2500     91.1722      0.0000    807.1495      7.5190
   459.5000    101.1727      0.0000    808.2189      7.5988
   459.7500    106.4112      0.0000    810.1094      7.6534
   460.0000    108.6996      0.0000    812.7498      7.6815
   460.2500    110.0496      0.0000    815.2670      7.7017
   460.5000    110.9544      0.0000    816.3392      7.7356
   460.7500    110.9877      0.0000    815.4064      7.7914
   461.0000    110.0735      0.0000    813.4272      7.8584
   461.2500    108.7365      0.0000    812.2842      7.9152
   461.5000    107.6071      0.0000    813.6108      7.9418
   461.7500    107.0478      0.0000    818.0292      7.9310
   462.0000    106.9156      0.0000    824.7737      7.8911
   462.2500    106.2686      0.0000    831.7866      7.8418
   462.5000    103.5995      0.0000    836.8545      7.8068
   462.7500     98.0694      0.0000    839.2413      7.8044
   463.0000     90.8098      0.0000    840.1763      7.8342
   463.2500     84.6203      0.0000    841.9196      7.8731
   463.5000     82.0787      0.0000    846.7977      7.8895
   463.7500     83.9623      0.0000    856.5255      7.8674
   464.0000     89.1502      0.0000    870.7988      7.8178
   464.2500     95.3464      0.0000    886.0355      7.7676
   464.5000    100.0424      0.0000    896.4227      7.7387
   464.7500    101.7155      0.0000    897.2224      7.7384
   465.0000    100.5282      0.0000    888.0355      7.7693
   465.2500     97.6593      0.0000    873.5314      7.8361
   465.5000     93.9700      0.0000    860.0176      7.9361
   465.7500     89.5664      0.0000    850.1596      8.0411
   466.0000     84.3928      0.0000    842.1087      8.1029
