~Version Information
VERS.                      2.0: CWLS Log ASCII Standard - VERSION 2.0
WRAP.                       NO: One line per depth step
~Well Information Block
STRT.FT               819.0000: 
STOP.FT              2499.5000: 
STEP.FT                 0.2500: 
NULL.                -999.2500: 
COMP.          Petrogulf Corporation: COMPANY
WELL.             State 16-21V: WELL
FLD.           Purgatorie River: FIELD
LOC.           1738' FWL & 332' FWL: LOCATION
PROV.                 Colorado: PROVINCE
CNTY.               Las Animas: COUNTRY
SRVC.          Patterson Wireline: SERVICE COMPANY
DATE.          Sun Jul 13 13:34:36 2003: LOG DATE
UWI.           05 071 08829 00: UNIQUE WELL ID
~Curve Information Block
DEPT.FT            0 000 00 00: Depth
SP.mV                         : DIL Spontaneous Potential
RILD.Ohm-m                    : DIL Deep Resistivity
RILM.Ohm-m                    : DIL Medium Resistivity
RLL3.Ohm-m                    : DIL Shallow Resistivity
GR.GAPI                       : Gamma Ray
~Parameter Information Block
~A  Depth        SP         RILD        RILM        RLL3         GR     
# ...
  1491.0000   -131.2090     11.4712     11.8474     13.3473    120.8160
  1491.2500   -131.2750     11.2316     11.4605     12.9030    125.3112
  1491.5000   -131.3740     11.0720     11.2225     13.0791    129.9689
  1491.7500   -131.5181     10.9944     11.1231     13.5257    131.7463
  1492.0000   -131.7050     11.0024     11.1552     14.1627    132.2759
  1492.2500   -131.9086     11.0993     11.3142     15.1461    131.1178
  1492.5000   -132.0847     11.2877     11.5983     16.9176    127.1698
  1492.7500   -132.1870     11.5705     12.0072     20.1975    123.0844
  1493.0000   -132.1847     11.9536     12.5418     25.6721    114.5245
  1493.2500   -132.0693     12.4462     13.2034     33.2490    107.1010
  1493.5000   -131.8536     13.0588     13.9923     41.3393     94.1220
  1493.7500   -131.5699     13.7981     14.9066     47.1837     85.3380
  1494.0000   -131.2658     14.6622     15.9404     48.5965     74.2672
  1494.2500   -130.9897     15.6366     17.0824     45.7492     69.2479
  1494.5000   -130.7684     16.6932     18.3127     41.0855     65.7032
  1494.7500   -130.5933     17.7878     19.6018     37.3990     65.7175
  1495.0000   -130.4273     18.8564     20.9080     36.0545     68.2954
  1495.2500   -130.2300     19.8181     22.1774     36.7674     70.8760
  1495.5000   -129.9793     20.5909     23.3457     38.4879     74.5512
  1495.7500   -129.6786     21.1165     24.3430     40.2426     76.3457
  1496.0000   -129.3504     21.3756     25.1016     41.4192     77.9810
  1496.2500   -129.0250     21.3835     25.5659     41.6899     78.6002
  1496.5000   -128.7299     21.1726     25.7015     40.9283     79.2784
  1496.7500   -128.4841     20.7777     25.5014     39.2420     79.8441
  1497.0000   -128.2934     20.2309     24.9869     36.9865     81.5504
  1497.2500   -128.1512     19.5638     24.2027     34.6441     83.7821
  1497.5000   -128.0421     18.8095     23.2094     32.6267     89.3261
  1497.7500   -127.9507     18.0033     22.0741     31.1148     94.1325
  1498.0000   -127.8674     17.1791     20.8625     29.9866    101.0174
  1498.2500   -127.7909     16.3660     19.6326     28.8747    104.1235
  1498.5000   -127.7294     15.5862     18.4319     27.3766    106.2056
  1498.7500   -127.6959     14.8553     17.2960     25.3156    107.0525
  1499.0000   -127.7005     14.1833     16.2493     22.8531    110.2057
  1499.2500   -127.7450     13.5755     15.3063     20.3601    114.3252
  1499.5000   -127.8254     13.0331     14.4740     18.1826    122.7812
  1499.7500   -127.9386     12.5543     13.7535     16.4940    128.8066
  1500.0000   -128.0885     12.1361     13.1416     15.2904    136.5587
  1500.2500   -128.2844     11.7766     12.6326     14.4680    140.2442
  1500.5000   -128.5340     11.4761     12.2194     13.9149    143.4541
  1500.7500   -128.8325     11.2359     11.8938     13.5800    144.3177
  1501.0000   -129.1576     11.0555     11.6474     13.4834    143.9904
  1501.2500   -129.4730     10.9299     11.4721     13.6652    142.6663
  1501.5000   -129.7412     10.8496     11.3600     14.1268    139.0711
  1501.7500   -129.9362     10.8043     11.3038     14.8126    135.8189
  1502.0000   -130.0493     10.7879     11.2971     15.6283    130.1052
  1502.2500   -130.0855     10.8016     11.3347     16.4605    125.9955
  1502.5000   -130.0586     10.8527     11.4125     17.1871    120.0556
  1502.7500   -129.9887     10.9507     11.5281     17.6885    116.7717
  1503.0000   -129.9010     11.1035     11.6803     17.8637    113.6128
  1503.2500   -129.8210     11.3141     11.8694     17.6671    112.9233
  1503.5000   -129.7662     11.5802     12.0966     17.1659    114.1381
  1503.7500   -129.7390     11.8949     12.3638     16.5662    116.2906
  1504.0000   -129.7260     12.2471     12.6725     16.1502    120.5653
  1504.2500   -129.7028     12.6232     13.0238     16.1485    123.1436
  1504.5000   -129.6433     13.0077     13.4167     16.6346    124.8310
  1504.7500   -129.5277     13.3856     13.8482     17.5056    123.8746
  1505.0000   -129.3483     13.7458     14.3118     18.5587    119.5178
  1505.2500   -129.1118     14.0828     14.7971     19.6191    115.4361
  1505.5000   -128.8408     14.3959     15.2891     20.6267    109.2987
  1505.7500   -128.5735     14.6850     15.7681     21.6156    106.1024
  1506.0000   -128.3573     14.9472     16.2102     22.6213    103.5032
  1506.2500   -128.2350     15.1742     16.5892     23.6151    103.0690
  1506.5000   -128.2256     15.3521     16.8788     24.5115    102.9608
  1506.7500   -128.3158     15.4642     17.0568     25.2014    102.3125
  1507.0000   -128.4656     15.4966     17.1086     25.5673     99.9561
  1507.2500   -128.6257     15.4438     17.0308     25.4991     98.0104
  1507.5000   -128.7565     15.3114     16.8322     24.9341     96.2122
  1507.7500   -128.8386     15.1140     16.5324     23.8941     96.6142
  1508.0000   -128.8735     14.8715     16.1592     22.4854    100.1517
  1508.2500   -128.8755     14.6054     15.7437     20.8722    104.0986
  1508.5000   -128.8616     14.3358     15.3164     19.2407    110.9402
  1508.7500   -128.8453     14.0782     14.9036     17.7549    115.2616
  1509.0000   -128.8362     13.8412     14.5260     16.5123    120.6465
  1509.2500   -128.8452     13.6251     14.1977     15.5372    123.3773
  1509.5000   -128.8890     13.4236     13.9261     14.8249    125.8951
  1509.7500   -128.9882     13.2273     13.7128     14.3969    126.4403
  1510.0000   -129.1568     13.0281     13.5539     14.3175    126.2531
  1510.2500   -129.3877     12.8221     13.4406     14.6670    126.1836
  1510.5000   -129.6456     12.6100     13.3601     15.5087    126.7029
  1510.7500   -129.8759     12.3945     13.2963     16.8693    127.0654
  1511.0000   -130.0219     12.1779     13.2316     18.7034    126.4436
  1511.2500   -130.0420     11.9614     13.1481     20.8220    124.7698
  1511.5000   -129.9212     11.7471     13.0308     22.8352    120.3067
  1511.7500   -129.6753     11.5399     12.8693     24.2078    116.4733
  1512.0000   -129.3468     11.3462     12.6598     24.4651    110.8756
  1512.2500   -128.9923     11.1705     12.4052     23.4483    108.1555
  1512.5000   -128.6666     11.0127     12.1146     21.4267    106.5216
  1512.7500   -128.4063     10.8672     11.8013     18.9633    107.1082
  1513.0000   -128.2188     10.7258     11.4805     16.6332    110.0000
  1513.2500   -128.0810     10.5820     11.1674     14.8056    112.7604
  1513.5000   -127.9535     10.4345     10.8757     13.5996    117.0997
  1513.7500   -127.8004     10.2887     10.6169     12.9589    119.6369
  1514.0000   -127.6044     10.1547     10.4001     12.7330    122.7498
  1514.2500   -127.3679     10.0439     10.2329     12.7250    124.6652
  1514.5000   -127.1054      9.9668     10.1210     12.7392    128.0514
  1514.7500   -126.8336      9.9327     10.0697     12.6554    130.8954
  1515.0000   -126.5680      9.9506     10.0836     12.4950    135.5523
  1515.2500   -126.3208     10.0294     10.1671     12.4293    138.0564
  1515.5000   -126.0968     10.1764     10.3250     12.6995    139.1990
  1515.7500   -125.8889     10.3951     10.5617     13.4658    137.6938
  1516.0000   -125.6828     10.6851     10.8815     14.6815    132.4043
  1516.2500   -125.4690     11.0429     11.2878     16.1315    127.5847
  1516.5000   -125.2519     11.4624     11.7819     17.6520    120.0077
  1516.7500   -125.0470     11.9351     12.3618     19.3388    115.5543
  1517.0000   -124.8688     12.4481     13.0197     21.5612    110.2279
  1517.2500   -124.7225     12.9819     13.7399     24.8098    107.0929
  1517.5000   -124.6042     13.5107     14.4964     29.4911    101.6543
  1517.7500   -124.5068     14.0056     15.2521     35.6661     97.0709
  1518.0000   -124.4276     14.4406     15.9600     42.7808     88.9555
  1518.2500   -124.3708     14.7976     16.5694     49.6140     83.2765
  1518.5000   -124.3456     15.0698     17.0340     54.5737     75.7236
  1518.7500   -124.3623     15.2596     17.3224     56.1783     72.2385
