~Version Information
VERS.                      2.0: CWLS Log ASCII Standard - VERSION 2.0
WRAP.                       NO: One line per depth step
~Well Information Block
STRT.FT               875.6000: 
STOP.FT              2510.0000: 
STEP.FT                 0.1000: 
NULL.                -999.2500: 
COMP.          Petrogulf Corporation: COMPANY
WELL.          Collister 17-31 V: WELL
FLD.           Purgatoire River: FIELD
LOC.           910' FNL & 1594' FEL: LOCATION
PROV.                 Colorado: PROVINCE
CNTY.               Las Animas: COUNTRY
SRVC.                Patterson: SERVICE COMPANY
DATE.          Fri Dec 12 13:49:30 2003: LOG DATE
UWI.                          : UNIQUE WELL ID
~Curve Information Block
DEPT.FT            0 000 00 00: Depth
DCAL.in                       : CDL Caliper
DPOR.pu                       : CDL Density Porosity
NPOR.pu                       : Neutron Porosity
RHOB.g/cc                     : CDL Bulk Density
RHOC.g/cc                     : CDL Density Correction
GR.GAPI                       : Gamma Ray
~Parameter Information Block
~A  Depth       DCAL        DPOR        NPOR        RHOB        RHOC         GR     
# ...
  1106.0000      8.1173      9.0225     14.4101      2.5011      0.0971     68.8543
  1106.1000      8.1173      9.6881     14.0137      2.4901      0.1132     71.0835
  1106.2000      8.1173     10.3479     13.8150      2.4793      0.0392     72.2510
  1106.3000      8.1057      8.7717     13.9575      2.5053      0.1395     71.7088
  1106.4000      8.1057      5.9489     14.3916      2.5518      0.2198     71.4739
  1106.5000      8.0915      4.5031     14.5676      2.5757      0.1780     72.7460
  1106.6000      8.0915      5.0518     14.2000      2.5666      0.1720     74.6654
  1106.7000      8.0915      6.0977     13.7052      2.5494      0.1356     77.0712
  1106.8000      8.0810      5.7272     13.3446      2.5555      0.1096     79.4098
  1106.9000      8.0810      4.4985     12.9292      2.5758      0.2132     81.4722
  1107.0000      8.0841      4.9670     12.5548      2.5680      0.2037     81.5242
  1107.1000      8.0841      7.3096     12.3786      2.5294      0.1348     78.0310
  1107.2000      8.0841      9.6315     12.1297      2.4911      0.0977     71.5406
  1107.3000      8.0849     10.9547     11.7127      2.4692      0.0691     65.1644
  1107.4000      8.0849     10.9437     11.5360      2.4694      0.0228     62.7060
  1107.5000      8.0818     10.1334     11.7389      2.4828      0.1535     65.1933
  1107.6000      8.0818      9.9426     11.9902      2.4859      0.0846     70.3910
  1107.7000      8.0818     10.4776     11.9340      2.4771      0.0711     72.4123
  1107.8000      8.0947     11.6060     11.6250      2.4585      0.1118     67.4620
  1107.9000      8.0947     13.2179     11.3819      2.4319      0.0535     61.5301
  1108.0000      8.0888     14.2476     11.5279      2.4149      0.0543     60.6769
  1108.1000      8.0888     14.3049     12.1438      2.4140      0.0353     64.1214
  1108.2000      8.0888     13.9703     12.9543      2.4195      0.1096     66.4229
  1108.3000      8.0894     13.6315     13.4666      2.4251      0.0673     64.9380
  1108.4000      8.0894     13.0716     13.1834      2.4343      0.0604     64.5652
  1108.5000      8.0619     12.4825     12.6170      2.4440      0.1002     69.6393
  1108.6000      8.0619     12.4524     12.7321      2.4445      0.1014     77.1458
  1108.7000      8.0619     13.1143     13.4297      2.4336      0.1021     80.8277
  1108.8000      8.0877     14.1115     13.8059      2.4172      0.0530     77.0661
  1108.9000      8.0877     14.6277     13.4932      2.4086      0.0385     69.2695
  1109.0000      8.0957     14.1439     12.9413      2.4166      0.0396     63.9768
  1109.1000      8.0957     12.9242     12.8292      2.4368      0.0470     61.3564
  1109.2000      8.0957     11.4347     13.3522      2.4613      0.0610     59.1831
  1109.3000      8.0997     10.0814     13.8778      2.4837      0.1111     57.9976
  1109.4000      8.0997      9.6536     13.7966      2.4907      0.1496     55.7660
  1109.5000      8.1012     10.8769     13.3348      2.4705      0.0837     51.3121
  1109.6000      8.1012     12.9835     12.9916      2.4358      0.0698     49.3693
  1109.7000      8.1012     14.4600     12.9572      2.4114      0.0286     51.8912
  1109.8000      8.1100     14.2123     13.2910      2.4155      0.0213     56.8286
  1109.9000      8.1100     12.5651     13.6462      2.4427      0.0487     62.4573
  1110.0000      8.1163     11.4209     13.4559      2.4616      0.1157     67.4753
  1110.1000      8.1163     11.5732     12.7901      2.4590      0.0553     67.9248
  1110.2000      8.1163     11.6622     12.3798      2.4576      0.0423     62.4418
  1110.3000      8.1070     10.9458     12.6792      2.4694      0.0854     58.1379
  1110.4000      8.1070     10.2358     13.2655      2.4811      0.1110     58.3348
  1110.5000      8.1253     10.2852     13.5717      2.4803      0.0937     59.5220
  1110.6000      8.1253     10.8214     13.7284      2.4714      0.0769     57.4634
  1110.7000      8.1253     11.0231     13.8313      2.4681      0.0840     53.0721
  1110.8000      8.1236     10.6322     13.5443      2.4746      0.0975     52.8290
  1110.9000      8.1236     10.3734     13.1717      2.4788      0.1302     58.0297
  1111.0000      8.1418     10.9874     13.1820      2.4687      0.0605     62.9301
  1111.1000      8.1418     11.4966     13.3235      2.4603      0.0259     63.5984
  1111.2000      8.1418     10.6022     13.4110      2.4751      0.0530     62.5327
  1111.3000      8.1488      9.1770     13.7803      2.4986      0.1173     65.5726
  1111.4000      8.1488      8.4377     14.4334      2.5108      0.0758     71.5154
  1111.5000      8.1389      8.0888     14.7148      2.5165      0.1142     74.9214
  1111.6000      8.1389      7.7638     14.1423      2.5219      0.0961     76.3528
  1111.7000      8.1389      7.7100     13.1819      2.5228      0.1057     78.0607
  1111.8000      8.1519      8.3353     12.6857      2.5125      0.0626     78.9610
  1111.9000      8.1519      9.1706     12.9615      2.4987      0.0568     77.5489
  1112.0000      8.1744      8.7264     13.6428      2.5060      0.0394     75.2177
  1112.1000      8.1744      6.6985     14.1843      2.5395      0.0992     75.2107
  1112.2000      8.1744      5.0505     14.3312      2.5667      0.1373     78.5445
  1112.3000      8.1484      5.6931     14.1972      2.5561      0.1145     81.6633
  1112.4000      8.1484      8.0605     13.8895      2.5170      0.0581     79.3267
  1112.5000      8.1221     10.1166     13.3649      2.4831      0.0317     74.1927
  1112.6000      8.1221     10.7327     12.8565      2.4729      0.0367     73.4530
  1112.7000      8.1221     10.3291     12.5643      2.4796      0.0282     76.9617
  1112.8000      8.1193     10.2633     12.2970      2.4807      0.0883     80.1743
  1112.9000      8.1193     11.6042     11.7667      2.4585      0.0522     80.7328
  1113.0000      8.1209     14.0274     11.1772      2.4185      0.0157     79.5602
  1113.1000      8.1209     16.2859     11.0694      2.3813     -0.0154     79.7358
  1113.2000      8.1209     17.2911     11.4261      2.3647      0.0122     82.0150
  1113.3000      8.1209     16.8836     11.9050      2.3714     -0.0153     84.1915
  1113.4000      8.1209     15.7972     12.3622      2.3893      0.0101     83.5210
  1113.5000      8.1277     14.6834     12.6734      2.4077      0.0463     79.1319
  1113.6000      8.1277     13.8815     12.7049      2.4210      0.0715     73.0817
  1113.7000      8.1277     13.3038     12.6599      2.4305      0.0675     66.7046
  1113.8000      8.1427     12.2883     12.7328      2.4472      0.0743     60.7662
  1113.9000      8.1427     10.8354     12.5878      2.4712      0.1371     56.9354
  1114.0000      8.1102      9.6717     12.1184      2.4904      0.0797     56.1127
  1114.1000      8.1102      8.7550     11.8436      2.5055      0.0866     56.5552
  1114.2000      8.1102      7.9792     11.8484      2.5183      0.1276     56.5892
  1114.3000      8.1076      7.9173     11.5574      2.5194      0.1233     56.7639
  1114.4000      8.1076      8.5168     10.9472      2.5095      0.1309     58.5429
  1114.5000      8.0833      8.7614     10.7423      2.5054      0.1329     62.5219
  1114.6000      8.0833      7.9379     11.2344      2.5190      0.0987     65.8759
  1114.7000      8.0833      6.4245     11.8718      2.5440      0.1200     65.1818
  1114.8000      8.0619      5.0480     11.8743      2.5667      0.1222     63.7646
  1114.9000      8.0619      4.4839     11.3345      2.5760      0.1268     65.8700
  1115.0000      8.0995      4.7031     11.0708      2.5724      0.0917     68.9765
  1115.1000      8.0995      4.9564     11.0615      2.5682      0.1548     71.1790
  1115.2000      8.0995      5.5492     10.8871      2.5584      0.1617     71.4484
  1115.3000      8.1203      6.9229     10.7857      2.5358      0.0799     66.9300
  1115.4000      8.1203      8.0668     10.8280      2.5169      0.0708     60.7909
  1115.5000      8.1092      8.4525     10.5038      2.5105      0.0835     59.8648
