~Version Information
VERS.                      2.0: CWLS Log ASCII Standard - VERSION 2.0
WRAP.                       NO: One line per depth step
~Well Information Block
STRT.FT                15.0000: 
STOP.FT              1211.0000: 
STEP.FT                 0.2500: 
NULL.                -999.2500: 
COMP.          Pioneer Natural Resources: COMPANY
WELL.          Santa Fe 43-27 Tr: WELL
FLD.           Purgatoire River: FIELD
LOC.           2018' FSL & 534' FEL: LOCATION
PROV.                 Colorado: PROVINCE
CNTY.               Las Animas: COUNTRY
SRVC.                Patterson: SERVICE COMPANY
DATE.          Mon Mar 14 15:43:40 2005: LOG DATE
UWI.           05 071 08303 00: UNIQUE WELL ID
~Curve Information Block
DEPT.FT            0 000 00 00: Depth
GR.GAPI                       : Gamma Ray
CCL.                          : Casing Collar Locator
TT3.usec                      : CBL 3' Travel Time
AMP3.mV                       : CBL 3' Amplitude
AMP5.mV                       : CBL 5' Amplitude
~Parameter Information Block
~A  Depth        GR         CCL         TT3         AMP3        AMP5    
# ...
   799.0000    134.5032      0.0000    890.4724     17.9540      2.9653
   799.2500    133.4853      0.0000    906.6002     17.0743      2.8540
   799.5000    133.6584      0.0000    922.0914     15.9537      2.6613
   799.7500    134.0545      0.0000    947.0823     14.5677      2.3720
   800.0000    132.5600      0.0000    985.1980     12.9724      2.0466
   800.2500    127.2708      0.0000   1031.2594     11.2599      1.7741
   800.5000    118.5169      0.0000   1077.9287      9.5161      1.6017
   800.7500    109.1012      0.0000   1118.1974      7.8784      1.5175
   801.0000    102.0470      0.0000   1141.1688      6.5723      1.4837
   801.2500     98.2852      0.0000   1134.3887      5.7751      1.4697
   801.5000     96.5895      0.0000   1096.3036      5.4530      1.4609
   801.7500     95.1954      0.0000   1043.6395      5.3989      1.4550
   802.0000     93.0965      0.0000   1002.5297      5.4197      1.4529
   802.2500     90.2576      0.0000    989.9573      5.4910      1.4549
   802.5000     87.2379      0.0000   1001.7945      5.7797      1.4597
   802.7500     84.6868      0.0000   1017.8415      6.5179      1.4671
   803.0000     82.9445      0.0000   1018.0185      7.7967      1.4804
   803.2500     82.1344      0.0000    994.2888      9.4678      1.5115
   803.5000     82.5029      0.0000    951.3041     11.2546      1.5830
   803.7500     84.2187      0.0000    901.0497     12.9082      1.7131
   804.0000     86.8399      0.0000    856.4896     14.2521      1.8919
   804.2500     89.5193      0.0000    825.6542     15.1881      2.0833
   804.5000     91.8196      0.0000    809.0241     15.7292      2.2583
   804.7500     94.0081      0.0000    802.1017     15.9856      2.4134
   805.0000     96.5943      0.0000    799.9016     16.0793      2.5484
   805.2500     99.7898      0.0000    799.3234     16.0855      2.6470
   805.5000    103.4235      0.0000    799.0723     16.0411      2.6923
   805.7500    107.4304      0.0000    798.7936     15.9731      2.6865
   806.0000    112.2805      0.0000    798.4836     15.8952      2.6481
   806.2500    118.4792      0.0000    798.1964     15.7910      2.5969
   806.5000    125.6718      0.0000    797.9658     15.6234      2.5466
   806.7500    132.7448      0.0000    797.7828     15.3787      2.5046
   807.0000    138.7316      0.0000    797.6152     15.0954      2.4756
   807.2500    143.0898      0.0000    797.4356     14.8413      2.4608
   807.5000    145.2334      0.0000    797.2477     14.6675      2.4563
   807.7500    144.5080      0.0000    797.0977     14.5855      2.4536
   808.0000    140.8344      0.0000    797.0614     14.5749      2.4450
   808.2500    135.0231      0.0000    797.1973     14.5960      2.4299
   808.5000    128.1832      0.0000    797.4820     14.6017      2.4168
   808.7500    120.8424      0.0000    797.7925     14.5508      2.4237
   809.0000    112.8254      0.0000    797.9822     14.4178      2.4711
   809.2500    104.0058      0.0000    797.9873     14.2004      2.5656
   809.5000     94.9280      0.0000    797.8542     13.9298      2.6816
   809.7500     86.7096      0.0000    797.6752     13.6775      2.7639
   810.0000     80.5882      0.0000    797.5117     13.5386      2.7629
   810.2500     77.4716      0.0000    797.3615     13.5901      2.6763
   810.5000     77.5105      0.0000    797.1849     13.8516      2.5538
   810.7500     79.9471      0.0000    796.9647     14.2708      2.4580
   811.0000     83.5738      0.0000    796.7465     14.7396      2.4212
   811.2500     87.4944      0.0000    796.6069     15.1410      2.4360
   811.5000     91.5355      0.0000    796.5813     15.4073      2.4781
   811.7500     96.0245      0.0000    796.6417     15.5429      2.5255
   812.0000    101.1949      0.0000    796.7394     15.5921      2.5607
   812.2500    106.8704      0.0000    796.8367     15.5953      2.5634
   812.5000    112.8393      0.0000    796.8931     15.5767      2.5108
   812.7500    119.2935      0.0000    796.8559     15.5530      2.3931
   813.0000    126.3794      0.0000    796.6852     15.5306      2.2328
   813.2500    133.2787      0.0000    796.3799     15.4951      2.0866
   813.5000    138.3035      0.0000    795.9833     15.4244      2.0153
   813.7500    140.2253      0.0000    795.6153     15.3222      2.0475
   814.0000    139.3246      0.0000    795.5703     15.2290      2.1671
   814.2500    136.8659      0.0000    796.4227     15.1889      2.3280
   814.5000    133.6110      0.0000    798.9182     15.2103      2.4794
   814.7500    129.2460      0.0000    803.3585     15.2684      2.5870
   815.0000    123.3546      0.0000    808.7000     15.3367      2.6431
   815.2500    116.4059      0.0000    812.5073     15.4025      2.6592
   815.5000    109.4820      0.0000    812.5721     15.4580      2.6489
   815.7500    103.4579      0.0000    808.8734     15.4904      2.6174
   816.0000     98.8980      0.0000    803.5809     15.4846      2.5668
   816.2500     96.4709      0.0000    799.1017     15.4296      2.5073
   816.5000     96.7365      0.0000    796.4943     15.3265      2.4611
   816.7500     99.2446      0.0000    795.5995     15.1967      2.4500
   817.0000    102.4990      0.0000    796.0266     15.0755      2.4826
   817.2500    105.3974      0.0000    797.6366     14.9897      2.5537
   817.5000    108.2404      0.0000    800.1611     14.9388      2.6457
   817.7500    111.8128      0.0000    802.6384     14.8952      2.7301
   818.0000    115.9904      0.0000    803.6693     14.8254      2.7820
   818.2500    119.7038      0.0000    802.5481     14.7197      2.7970
   818.5000    121.8289      0.0000    799.9522     14.6062      2.7800
   818.7500    121.8339      0.0000    797.2603     14.5286      2.7206
   819.0000    119.9532      0.0000    795.3969     14.5050      2.5977
   819.2500    117.1229      0.0000    794.4784     14.5125      2.4172
   819.5000    114.6592      0.0000    794.2563     14.5139      2.2389
   819.7500    113.5262      0.0000    794.5886     14.4882      2.1477
   820.0000    113.6316      0.0000    795.5927     14.4334      2.1812
   820.2500    114.0249      0.0000    797.5002     14.3573      2.2893
   820.5000    113.9548      0.0000    800.2566     14.2784      2.3780
   820.7500    113.5486      0.0000    803.1558     14.2237      2.3850
   821.0000    113.4176      0.0000    805.2239     14.2063      2.3068
   821.2500    113.8330      0.0000    806.2634     14.2078      2.1792
   821.5000    114.3621      0.0000    807.5305     14.1944      2.0554
   821.7500    114.2410      0.0000    811.6281     14.1496      1.9903
   822.0000    113.2799      0.0000    822.9996     14.0860      2.0161
   822.2500    112.5566      0.0000    848.1178     14.0286      2.1231
   822.5000    113.9406      0.0000    891.0223     13.9906      2.2666
   822.7500    118.6030      0.0000    944.4260     13.9653      2.3940
   823.0000    125.7971      0.0000    987.2610     13.9382      2.4667
   823.2500    132.9504      0.0000    997.5461     13.9055      2.4725
   823.5000    137.0242      0.0000    970.4877     13.8748      2.4321
   823.7500    136.1454      0.0000    922.2105     13.8454      2.3885
   824.0000    130.5390      0.0000    875.6766     13.7965      2.3791
   824.2500    122.4892      0.0000    844.5820     13.7116      2.4206
   824.5000    115.4106      0.0000    829.0944     13.6119      2.5106
   824.7500    112.1497      0.0000    822.1071     13.5410      2.6192
   825.0000    113.3210      0.0000    816.9417     13.5090      2.6742
   825.2500    117.0769      0.0000    810.9269     13.4736      2.5911
   825.5000    120.9839      0.0000    804.7686     13.3874      2.3535
   825.7500    124.4431      0.0000    800.0126     13.2494      2.0547
   826.0000    128.7480      0.0000    797.2678     13.1057      1.8356
   826.2500    134.5393      0.0000    796.0900     13.0103      1.7816
   826.5000    140.3359      0.0000    795.8026     12.9854      1.8784
   826.7500    144.3575      0.0000    796.0717     13.0058      2.0491
