~Version Information
VERS.                      2.0: CWLS Log ASCII Standard - VERSION 2.0
WRAP.                       NO: One line per depth step
~Well Information Block
STRT.FT               523.0000: 
STOP.FT              1709.0000: 
STEP.FT                 0.1000: 
NULL.                -999.2500: 
COMP.          Evergreen Operating Corporation: COMPANY
WELL.            Rimrock 14-29: WELL
FLD.           Purgatorie River: FIELD
LOC.           945' FSL & 604' FWL: LOCATION
PROV.                 Colorado: PROVINCE
CNTY.               Las Animas: COUNTRY
SRVC.                         : SERVICE COMPANY
DATE.          Tue Sep 21 04:15:40 2004: LOG DATE
UWI.           05 071 08136 00: UNIQUE WELL ID
~Curve Information Block
DEPT.FT            0 000 00 00: Depth
DCAL.in                       : CDL Caliper
RHOB.g/cc                     : CDL Bulk Density
RHOC.g/cc                     : CDL Density Correction
DPOR.pu                       : CDL Density Porosity
GR.GAPI                       : Gamma Ray
NPOR.pu                       : Neutron Porosity
~Parameter Information Block
~A  Depth       DCAL        RHOB        RHOC        DPOR         GR         NPOR    
# ...
  1300.6000      7.9321      2.4101      0.0787     14.5392     42.5096     12.8067
  1300.7000      7.9321      2.4190      0.0596     14.0021     43.6911     13.0346
  1300.8000      7.9421      2.4212      0.0643     13.8673     44.7806     12.9729
  1300.9000      7.9421      2.4264      0.0724     13.5527     46.0253     12.5464
  1301.0000      7.9199      2.4373      0.0679     12.8918     47.2065     12.0401
  1301.1000      7.9199      2.4462      0.0766     12.3520     47.6049     11.5653
  1301.2000      7.9199      2.4483      0.0551     12.2216     45.4130     11.1600
  1301.3000      7.9153      2.4417      0.0745     12.6240     42.1007     10.9129
  1301.4000      7.9153      2.4277      0.0483     13.4748     41.0699     10.8148
  1301.5000      7.9161      2.4115      0.0440     14.4572     41.7690     10.8682
  1301.6000      7.9161      2.3915      0.0285     15.6690     39.9662     10.9518
  1301.7000      7.9161      2.3658      0.0311     17.2218     34.8235     10.9221
  1301.8000      7.9150      2.3432      0.0130     18.5927     29.7750     10.9505
  1301.9000      7.9150      2.3340      0.0214     19.1519     27.8203     11.1562
  1302.0000      7.9137      2.3380      0.0403     18.9099     28.5194     11.3950
  1302.1000      7.9137      2.3469      0.0640     18.3681     29.4954     11.5232
  1302.2000      7.9137      2.3542      0.0695     17.9276     29.3110     11.5901
  1302.3000      7.9087      2.3558      0.0698     17.8283     29.2264     11.7867
  1302.4000      7.9087      2.3514      0.0684     18.0960     30.7711     12.1692
  1302.5000      7.9186      2.3451      0.0605     18.4810     31.9059     12.5955
  1302.6000      7.9186      2.3422      0.0581     18.6534     31.0611     12.9138
  1302.7000      7.9186      2.3447      0.0508     18.5036     30.0139     13.2207
  1302.8000      7.9194      2.3496      0.0496     18.2050     29.4364     13.5969
  1302.9000      7.9194      2.3577      0.0414     17.7152     31.6103     13.9367
  1303.0000      7.9188      2.3720      0.0747     16.8499     38.7127     14.1707
  1303.1000      7.9188      2.3918      0.0774     15.6457     46.8621     14.4379
  1303.2000      7.9188      2.4187      0.0789     14.0174     51.9810     14.6594
  1303.3000      7.9151      2.4541      0.1032     11.8721     55.0163     14.4944
  1303.4000      7.9151      2.4922      0.1239      9.5639     58.7977     14.0706
  1303.5000      7.9093      2.5200      0.1579      7.8811     64.5034     13.6007
  1303.6000      7.9093      2.5295      0.1022      7.3016     72.1694     12.8246
  1303.7000      7.9093      2.5233      0.0934      7.6769     79.9636     11.7992
  1303.8000      7.9112      2.4895      0.1281      9.7278     85.2757     11.1539
  1303.9000      7.9112      2.4076      0.0825     14.6880     88.9655     11.2028
  1304.0000      7.9320      2.2889     -0.0101     21.8875     93.1353     11.7863
  1304.1000      7.9320      2.1597     -0.0250     29.7169     97.1334     12.7284
  1304.2000      7.9320      2.0372     -0.0709     37.1413     99.1048     13.9286
  1304.3000      7.9107      1.9456     -0.1246     42.6932     99.5146     15.2922
  1304.4000      7.9107      1.8999     -0.1077     45.4587    101.1180     16.6495
  1304.5000      7.9435      1.8833     -0.0462     46.4683    104.7461     18.0299
  1304.6000      7.9435      1.8814     -0.0584     46.5805    108.4495     19.5030
  1304.7000      7.9435      1.9056      0.0204     45.1143    109.6675     20.7914
  1304.8000      7.9604      1.9607      0.1620     41.7786    108.7176     21.6817
  1304.9000      7.9604      2.0357      0.1662     37.2291    112.2673     22.3466
  1305.0000      7.9160      2.1175      0.2172     32.2736    123.3394     23.1382
  1305.1000      7.9160      2.1918      0.2031     27.7684    132.6489     23.9374
  1305.2000      7.9160      2.2600      0.1373     23.6345    133.8192     24.3554
  1305.3000      7.9191      2.3342      0.0260     19.1380    135.8032     24.7825
  1305.4000      7.9191      2.4105      0.0642     14.5143    144.3786     25.6391
  1305.5000      7.9256      2.4743      0.1055     10.6469    149.1501     26.5170
  1305.6000      7.9256      2.5214      0.1591      7.7957    145.1495     26.8280
  1305.7000      7.9256      2.5555      0.1386      5.7247    141.2977     26.4633
  1305.8000      7.9114      2.5789      0.1999      4.3069    142.2269     25.8100
  1305.9000      7.9114      2.5890      0.1784      3.6945    145.8420     25.3651
  1306.0000      7.8970      2.5888      0.1530      3.7074    148.9268     25.2950
  1306.1000      7.8970      2.5894      0.1656      3.6745    146.4798     25.3265
  1306.2000      7.8970      2.6036      0.1136      2.8113    138.2743     25.1350
  1306.3000      7.9056      2.6303      0.1426      1.1920    136.3486     24.8393
  1306.4000      7.9056      2.6459      0.1392      0.2474    146.3419     24.7582
  1306.5000      7.8948      2.6345      0.1295      0.9398    153.3932     24.7531
  1306.6000      7.8948      2.6109      0.0977      2.3708    146.0880     24.5177
  1306.7000      7.8948      2.5983      0.0742      3.1356    133.6887     24.2403
  1306.8000      7.8877      2.5936      0.0845      3.4162    131.0006     24.2501
  1306.9000      7.8877      2.5795      0.0533      4.2746    140.4603     24.3257
  1307.0000      7.9017      2.5553      0.0435      5.7367    151.1160     24.1557
  1307.1000      7.9017      2.5353      0.0302      6.9502    155.5605     24.0387
  1307.2000      7.9017      2.5312      0.0268      7.2014    158.3984     24.2734
  1307.3000      7.8900      2.5445      0.0793      6.3910    164.7616     24.5291
  1307.4000      7.8900      2.5625      0.1088      5.3033    169.0767     24.6077
  1307.5000      7.9069      2.5696      0.1137      4.8731    165.9367     24.7583
  1307.6000      7.9069      2.5721      0.0664      4.7200    160.6720     25.0399
  1307.7000      7.9069      2.5814      0.0746      4.1565    155.6355     25.2965
  1307.8000      7.9143      2.5792      0.1093      4.2936    148.3749     25.4258
  1307.9000      7.9143      2.5460      0.0185      6.3024    142.3493     25.3532
  1308.0000      7.9146      2.5007     -0.0205      9.0485    142.1821     25.2271
  1308.1000      7.9146      2.4682     -0.0028     11.0187    141.4092     25.1719
  1308.2000      7.9146      2.4534     -0.0336     11.9161    133.6225     25.1779
  1308.3000      7.9128      2.4537     -0.0192     11.8967    128.6328     25.2136
  1308.4000      7.9128      2.4586      0.0236     11.5972    134.2059     25.2061
  1308.5000      7.9173      2.4606     -0.0295     11.4789    145.2945     25.1732
  1308.6000      7.9173      2.4670     -0.0077     11.0901    154.7530     24.9641
  1308.7000      7.9173      2.4744      0.0359     10.6450    160.3800     24.2419
  1308.8000      7.9294      2.4726     -0.0010     10.7545    164.9361     23.2622
  1308.9000      7.9294      2.4707      0.0157     10.8639    166.5036     22.6697
  1309.0000      7.9199      2.4767      0.0408     10.5048    158.0848     22.6561
  1309.1000      7.9199      2.4784      0.0380     10.4000    146.4640     22.8769
  1309.2000      7.9199      2.4647      0.0259     11.2316    144.6094     22.8861
  1309.3000      7.9147      2.4385      0.0101     12.8211    149.2710     22.5674
  1309.4000      7.9147      2.4087      0.0085     14.6256    154.9384     22.0941
  1309.5000      7.9243      2.3852     -0.0101     16.0500    162.2734     21.8941
  1309.6000      7.9243      2.3715     -0.0072     16.8792    166.4730     22.4697
  1309.7000      7.9243      2.3639     -0.0068     17.3406    162.4126     23.6646
  1309.8000      7.9048      2.3669     -0.0283     17.1577    153.5456     24.6578
  1309.9000      7.9048      2.3912      0.0278     15.6863    143.9130     24.9479
  1310.0000      7.9154      2.4387      0.0529     12.8038    137.7099     24.9054
  1310.1000      7.9154      2.4973      0.1124      9.2527    138.7770     25.0096
