~Version Information
VERS.                      2.0: CWLS Log ASCII Standard - VERSION 2.0
WRAP.                       NO: One line per depth step
~Well Information Block
STRT.FT              2246.0000: 
STOP.FT              2472.6000: 
STEP.FT                 0.1000: 
NULL.                -999.2500: 
COMP.          Petrogulf Corporation: COMPANY
WELL.           Schedler 9-23V: WELL
FLD.           Purgatorie River: FIELD
LOC.           2185' FSL & 2328' FWL: LOCATION
CNTY.               Las Animas: COUNTY
SRVC.                         : SERVICE COMPANY
DATE.          Thu Jul 10 10:29:30 2003: LOG DATE
UWI.           05 071 07876 00: UNIQUE WELL ID
STAT.                 Colorado: STATE
~Curve Information Block
DEPT.FT            0 000 00 00: Depth
DCAL.in                       : CDL Caliper
RHOB.g/cc                     : CDL Bulk Density
RHOC.g/cc                     : CDL Density Correction
DPOR.pu                       : CDL Density Porosity
GR.GAPI                       : Gamma Ray
NPOR.pu                       : Neutron Porosity
~Parameter Information Block
~A  Depth       DCAL        RHOB        RHOC        DPOR         GR         NPOR    
# ...
  2342.0000      7.9192      2.5713      0.0748      4.7675     85.0047     23.6695
  2342.1000      7.9192      2.5699      0.0727      4.8562     85.2070     23.6283
  2342.2000      7.9192      2.5684      0.0705      4.9470     85.4529     23.6257
  2342.3000      7.9197      2.5669      0.0682      5.0361     85.7351     23.6655
  2342.4000      7.9197      2.5655      0.0660      5.1194     86.0346     23.7480
  2342.5000      7.9213      2.5643      0.0638      5.1932     86.3202     23.8690
  2342.6000      7.9213      2.5633      0.0619      5.2539     86.5522     24.0197
  2342.7000      7.9213      2.5626      0.0603      5.2985     86.6844     24.1877
  2342.8000      7.9256      2.5621      0.0591      5.3245     86.6741     24.3580
  2342.9000      7.9256      2.5620      0.0583      5.3305     86.4851     24.5140
  2343.0000      7.9303      2.5623      0.0579      5.3158     86.1007     24.6406
  2343.1000      7.9303      2.5629      0.0579      5.2809     85.5247     24.7259
  2343.2000      7.9303      2.5638      0.0582      5.2271     84.7867     24.7627
  2343.3000      7.9321      2.5649      0.0588      5.1569     83.9381     24.7497
  2343.4000      7.9321      2.5663      0.0596      5.0733     83.0486     24.6916
  2343.5000      7.9320      2.5678      0.0605      4.9804     82.1942     24.5974
  2343.6000      7.9320      2.5694      0.0614      4.8821     81.4441     24.4795
  2343.7000      7.9320      2.5711      0.0624      4.7830     80.8518     24.3514
  2343.8000      7.9311      2.5727      0.0632      4.6873     80.4434     24.2255
  2343.9000      7.9311      2.5741      0.0639      4.5989     80.2170     24.1116
  2344.0000      7.9286      2.5754      0.0643      4.5213     80.1406     24.0164
  2344.1000      7.9286      2.5765      0.0645      4.4568     80.1597     23.9421
  2344.2000      7.9286      2.5773      0.0645      4.4071     80.2048     23.8868
  2344.3000      7.9257      2.5778      0.0642      4.3728     80.2020     23.8456
  2344.4000      7.9257      2.5782      0.0636      4.3533     80.0841     23.8110
  2344.5000      7.9236      2.5783      0.0629      4.3472     79.7967     23.7743
  2344.6000      7.9236      2.5782      0.0621      4.3523     79.3076     23.7269
  2344.7000      7.9236      2.5780      0.0613      4.3656     78.6085     23.6617
  2344.8000      7.9245      2.5777      0.0607      4.3841     77.7190     23.5740
  2344.9000      7.9245      2.5773      0.0604      4.4044     76.6801     23.4622
  2345.0000      7.9286      2.5770      0.0605      4.4235     75.5531     23.3279
  2345.1000      7.9286      2.5768      0.0611      4.4388     74.4075     23.1753
  2345.2000      7.9286      2.5766      0.0622      4.4487     73.3137     23.0100
  2345.3000      7.9315      2.5765      0.0639      4.4523     72.3281     22.8378
  2345.4000      7.9315      2.5766      0.0662      4.4497     71.4847     22.6631
  2345.5000      7.9314      2.5767      0.0690      4.4422     70.7906     22.4882
  2345.6000      7.9314      2.5769      0.0722      4.4320     70.2224     22.3128
  2345.7000      7.9314      2.5770      0.0756      4.4221     69.7370     22.1347
  2345.8000      7.9290      2.5771      0.0790      4.4158     69.2768     21.9500
  2345.9000      7.9290      2.5771      0.0822      4.4164     68.7842     21.7549
  2346.0000      7.9214      2.5770      0.0849      4.4271     68.2125     21.5470
  2346.1000      7.9214      2.5766      0.0870      4.4502     67.5340     21.3258
  2346.2000      7.9214      2.5760      0.0883      4.4869     66.7421     21.0932
  2346.3000      7.9095      2.5751      0.0890      4.5371     65.8509     20.8531
  2346.4000      7.9095      2.5741      0.0890      4.5989     64.8906     20.6100
  2346.5000      7.9008      2.5730      0.0886      4.6691     63.9012     20.3685
  2346.6000      7.9008      2.5717      0.0881      4.7427     62.9282     20.1320
  2346.7000      7.9008      2.5706      0.0879      4.8138     62.0170     19.9024
  2346.8000      7.8990      2.5696      0.0883      4.8758     61.2126     19.6804
  2346.9000      7.8990      2.5688      0.0895      4.9216     60.5576     19.4660
  2347.0000      7.9030      2.5684      0.0917      4.9447     60.0934     19.2593
  2347.1000      7.9030      2.5685      0.0950      4.9397     59.8550     19.0620
  2347.2000      7.9030      2.5691      0.0992      4.9023     59.8734     18.8762
  2347.3000      7.9048      2.5703      0.1043      4.8306     60.1676     18.7066
  2347.4000      7.9048      2.5720      0.1099      4.7243     60.7406     18.5582
  2347.5000      7.8990      2.5743      0.1157      4.5857     61.5752     18.4365
  2347.6000      7.8990      2.5771      0.1214      4.4195     62.6317     18.3460
  2347.7000      7.8990      2.5802      0.1267      4.2318     63.8519     18.2895
  2347.8000      7.8923      2.5835      0.1314      4.0308     65.1595     18.2675
  2347.9000      7.8923      2.5869      0.1353      3.8257     66.4728     18.2778
  2348.0000      7.8947      2.5902      0.1382      3.6261     67.7108     18.3160
  2348.1000      7.8947      2.5932      0.1400      3.4413     68.8057     18.3753
  2348.2000      7.8947      2.5959      0.1406      3.2803     69.7083     18.4488
  2348.3000      7.9071      2.5980      0.1401      3.1504     70.3943     18.5305
  2348.4000      7.9071      2.5996      0.1382      3.0572     70.8645     18.6157
  2348.5000      7.9230      2.6004      0.1352      3.0040     71.1409     18.7029
  2348.6000      7.9230      2.6006      0.1309      2.9914     71.2633     18.7938
  2348.7000      7.9230      2.6002      0.1256      3.0178     71.2779     18.8927
  2348.8000      7.9346      2.5992      0.1193      3.0786     71.2292     19.0054
  2348.9000      7.9346      2.5977      0.1123      3.1673     71.1531     19.1376
  2349.0000      7.9473      2.5960      0.1049      3.2756     71.0700     19.2939
  2349.1000      7.9473      2.5940      0.0973      3.3936     70.9804     19.4755
  2349.2000      7.9473      2.5921      0.0901      3.5116     70.8696     19.6807
  2349.3000      7.9643      2.5903      0.0835      3.6193     70.7109     19.9046
  2349.4000      7.9643      2.5888      0.0779      3.7078     70.4774     20.1398
  2349.5000      7.9739      2.5878      0.0736      3.7695     70.1499     20.3770
  2349.6000      7.9739      2.5873      0.0707      3.7992     69.7258     20.6068
  2349.7000      7.9739      2.5874      0.0694      3.7937     69.2223     20.8194
  2349.8000      7.9773      2.5881      0.0696      3.7526     68.6718     21.0062
  2349.9000      7.9773      2.5893      0.0711      3.6779     68.1190     21.1598
  2350.0000      7.9791      2.5910      0.0736      3.5738     67.6075     21.2742
  2350.1000      7.9791      2.5931      0.0769      3.4463     67.1692     21.3449
  2350.2000      7.9791      2.5955      0.0805      3.3028     66.8163     21.3698
  2350.3000      7.9784      2.5980      0.0840      3.1512     66.5404     21.3496
  2350.4000      7.9784      2.6005      0.0872      2.9993     66.3123     21.2874
  2350.5000      7.9770      2.6029      0.0896      2.8546     66.0893     21.1896
  2350.6000      7.9770      2.6051      0.0911      2.7229     65.8262     21.0645
  2350.7000      7.9770      2.6069      0.0916      2.6093     65.4836     20.9222
  2350.8000      7.9765      2.6085      0.0910      2.5166     65.0358     20.7729
  2350.9000      7.9765      2.6096      0.0894      2.4463     64.4748     20.6262
  2351.0000      7.9771      2.6104      0.0870      2.3980     63.8111     20.4889
  2351.1000      7.9771      2.6109      0.0841      2.3703     63.0714     20.3654
  2351.2000      7.9771      2.6111      0.0809      2.3606     62.2943     20.2558
  2351.3000      7.9788      2.6110      0.0777      2.3658     61.5250     20.1571
  2351.4000      7.9788      2.6107      0.0748      2.3826     60.8100     20.0633
  2351.5000      7.9802      2.6103      0.0725      2.4079     60.1909     19.9674
