~Version Information
VERS.                      2.0: CWLS Log ASCII Standard - VERSION 2.0
WRAP.                       NO: One line per depth step
~Well Information Block
STRT.FT               -19.2500: 
STOP.FT              2421.5000: 
STEP.FT                 0.2500: 
NULL.                -999.2500: 
COMP.          Petrogulf Corporation: COMPANY
WELL.           Montoya 13-41V: WELL
FLD.           Purgatorie River: FIELD
LOC.           449' FNL & 891' FEL: LOCATION
CNTY.               Las Animas: COUNTY
SRVC.                         : SERVICE COMPANY
DATE.          Mon Sep 13 13:48:36 2004: LOG DATE
UWI.                       N/A: UNIQUE WELL ID
STAT.                 Colorado: STATE
~Curve Information Block
DEPT.FT            0 000 00 00: Depth
TT3.usec                      : CBL 3' Travel Time
AMP3.mV                       : CBL 3' Amplitude
GR.GAPI                       : Gamma Ray
CCL.                          : Casing Collar Locator
~Parameter Information Block
~A  Depth       TT3         AMP3         GR         CCL     
   -19.2500   -999.2500   -999.2500   -999.2500      0.0000
   -19.0000   -999.2500   -999.2500   -999.2500      0.0000
   -18.7500   -999.2500   -999.2500   -999.2500      0.0000
   -18.5000   -999.2500   -999.2500   -999.2500      0.0000
   -18.2500   -999.2500   -999.2500   -999.2500      0.0000
   -18.0000   -999.2500   -999.2500   -999.2500      0.0000
   -17.7500   -999.2500   -999.2500   -999.2500      0.0000
   -17.5000   -999.2500   -999.2500   -999.2500      0.0000
   -17.2500   -999.2500   -999.2500   -999.2500      0.0000
   -17.0000   -999.2500   -999.2500   -999.2500      0.0000
   -16.7500   -999.2500   -999.2500   -999.2500      0.0000
   -16.5000   -999.2500   -999.2500   -999.2500      0.0000
   -16.2500   -999.2500   -999.2500   -999.2500      0.0000
   -16.0000   -999.2500   -999.2500   -999.2500      0.0000
   -15.7500   -999.2500   -999.2500    141.7740      0.0000
   -15.5000   -999.2500   -999.2500    142.3290      0.0000
   -15.2500   -999.2500   -999.2500    142.0498      0.0000
   -15.0000   -999.2500   -999.2500    141.0628      0.0000
   -14.7500   -999.2500   -999.2500    139.4180      0.0000
   -14.5000   -999.2500   -999.2500    137.3813      0.0000
   -14.2500   -999.2500   -999.2500    135.2925      0.0000
   -14.0000   -999.2500   -999.2500    133.4336      0.0000
   -13.7500   -999.2500   -999.2500    132.0543      0.0000
   -13.5000   -999.2500   -999.2500    131.3259      0.0000
   -13.2500   -999.2500   -999.2500    131.1635      0.0000
   -13.0000   -999.2500   -999.2500    131.2063      0.0000
   -12.7500   -999.2500   -999.2500    131.1392      0.0000
   -12.5000   -999.2500   -999.2500    131.0537      0.0000
   -12.2500   -999.2500   -999.2500    131.5073      0.0000
   -12.0000   -999.2500   -999.2500    133.1835      0.0000
   -11.7500   -999.2500   -999.2500    136.3259      0.0000
   -11.5000   -999.2500   -999.2500    140.4451      0.0000
   -11.2500   -999.2500   -999.2500    144.6798      0.0000
   -11.0000   -999.2500   -999.2500    148.3649      0.0000
   -10.7500   -999.2500   -999.2500    151.1287      0.0000
   -10.5000   -999.2500   -999.2500    152.7064      0.0000
   -10.2500   -999.2500   -999.2500    153.0039      0.0000
   -10.0000   1424.1541      0.5861    152.2322      0.0000
    -9.7500   1424.3671      0.5921    150.6726      0.0000
    -9.5000   1424.6329      0.5986    148.4254      0.0000
    -9.2500   1424.8458      0.6013    145.6075      0.0000
    -9.0000   1424.9542      0.5999    142.6665      0.0000
    -8.7500   1424.9825      0.5978    140.3269      0.0000
    -8.5000   1424.9542      0.5967    139.2708      0.0000
    -8.2500   1424.8458      0.5964    139.8304      0.0000
    -8.0000   1424.6329      0.5964    141.6920      0.0000
    -7.7500   1424.3671      0.5964    143.6911      0.0000
    -7.5000   1424.1541      0.5964    144.1771      0.0000
    -7.2500   1424.0447      0.5964    142.1338      0.0000
    -7.0000   1424.0088      0.5964    138.2361      0.0000
    -6.7500   1424.0022      0.5967    134.5976      0.0000
    -6.5000   1424.0087      0.5982    133.2208      0.0000
    -6.2500   1424.0436      0.6037    134.6735      0.0000
    -6.0000   1424.1454      0.6203    138.0283      0.0000
    -5.7500   1424.3223      0.6619    141.5372      0.0000
    -5.5000   1424.4790      0.7335    143.4645      0.0000
    -5.2500   1424.4800      0.7993    143.1043      0.0000
    -5.0000   1424.3300      0.8020    141.4051      0.0000
    -4.7500   1424.1825      0.7396    140.2303      0.0000
    -4.5000   1424.1615      0.6676    140.5037      1.8753
    -4.2500   1424.2651      0.6231    140.9198     -5.0000
    -4.0000   1424.4125      0.6019    138.5730      5.0000
    -3.7500   1424.5354      0.5949    130.9080      5.0000
    -3.5000   1424.5883      0.5995    117.3536      0.0000
    -3.2500   1424.5149      0.6079     99.7406      0.0000
    -3.0000   1424.3300      0.6103     81.5900      0.0000
    -2.7500   1424.1464      0.6056     66.5582      0.0000
    -2.5000   1424.0437      0.6008     56.8587      0.0000
    -2.2500   1424.0087      0.6020     52.7857      0.0000
    -2.0000   1424.0022      0.6057     53.4503      0.0000
    -1.7500   1424.0078      0.6053     57.6806      0.0000
    -1.5000   1424.0371      0.6013     64.3028      0.0000
    -1.2500   1424.1180      0.5981     71.9977      0.0000
    -1.0000   1424.2577      0.5967     79.2945      0.0000
    -0.7500   1424.4200      0.5961     84.9138      0.0000
    -0.5000   1424.5800      0.5947     88.1644      0.0000
    -0.2500   1424.7423      0.5912     89.0802      0.0000
     0.0000   1424.8818      0.5865     88.2900      0.0000
     0.2500   1424.9836      0.5914     84.9212      0.0000
     0.5000   1424.9553      0.6014     83.0915      0.0000
     0.7500   1424.8535      0.6075     81.0459      0.0000
     1.0000   1424.6689      0.6066     78.8641      0.0000
     1.2500   1424.4763      0.6029     76.7916      0.0000
     1.5000   1424.3671      0.6013     74.8354      0.0000
     1.7500   1424.3107      0.6000     72.6751      0.0000
     2.0000   1424.2217      0.5933     69.9886      0.0000
     2.2500   1424.1105      0.5815     66.8463      0.0000
     2.5000   1424.0361      0.5720     63.7564      0.0000
     2.7500   1424.0076      0.5688     61.2194      0.0000
     3.0000   1424.0010      0.5720     59.3566      0.0000
     3.2500   1424.0001      0.5815     58.1627      0.0000
     3.5000   1424.0001      0.5933     57.9044      0.0000
     3.7500   1424.0011      0.5996     58.8633      0.0000
     4.0000   1424.0087      0.5996     60.6679      0.0000
     4.2500   1424.0437      0.5977     62.1840      0.0000
     4.5000   1424.1465      0.5967     62.3262      0.0000
     4.7500   1424.3311      0.5964     60.9890      0.0000
     5.0000   1424.5237      0.5960     58.9885      0.0000
     5.2500   1424.6329      0.5947     57.0864      0.0000
     5.5000   1424.6892      0.5911     55.3556      0.0000
     5.7500   1424.7772      0.5861     53.5775      0.0000
     6.0000   1424.8809      0.5832     51.9181      0.0000
     6.2500   1424.9192      0.5844     50.9066     -1.5808
     6.5000   1424.8384      0.5855     50.7847      0.0000
     6.7500   1424.6320      0.5830     51.0610      0.0000
     7.0000   1424.3669      0.5796     50.8630      0.0000
     7.2500   1424.1541      0.5807     49.8505      0.0000
     7.5000   1424.0447      0.5868     48.7822      0.0000
     7.7500   1424.0087      0.5919     49.0901      0.0000
     8.0000   1424.0011      0.5908     51.8339      0.0000
     8.2500   1423.9048      0.5872     56.9523      0.0000
     8.5000   1422.8066      0.5898     63.2635      0.0000
     8.7500   1414.6886      0.6158     69.2087      0.0000
     9.0000   1376.2013      0.7682     73.8501      0.0000
     9.2500   1259.0896      1.4452     77.0633      0.0000
     9.5000   1030.0477      3.4625     78.6510      0.0000
     9.7500    741.1422      7.4074     77.7266      0.0000
    10.0000    504.1684     12.4956     73.3851      0.0000
    10.2500    375.3236     16.9720     65.8823      0.0000
    10.5000    326.8858     20.0107     56.9509      0.0000
    10.7500    313.1519     22.2191     48.8775      0.0000
    11.0000    309.6327     24.4309     43.1215      0.0000
    11.2500    308.4685     26.8130     39.6386      0.0000
    11.5000    307.8369     29.0484     37.3598      0.0000
    11.7500    307.3781     30.9296     35.2993      0.0000
    12.0000    307.0186     32.4380     33.3428      0.0000
    12.2500    306.7236     33.5813     32.1518      0.0000
    12.5000    306.5299     34.5703     32.4154      0.0000
    12.7500    306.5222     35.8222     34.1733      0.0000
    13.0000    306.6778     37.7734     36.6740      0.0000
    13.2500    306.8547     40.7759     38.7395      0.0000
    13.5000    306.9563     44.5690     39.4351      0.0000
    13.7500    306.9904     48.0655     38.7791      0.0000
    14.0000    306.9913     50.2156     37.9408      0.0000
