~Version Information
VERS.                      2.0: CWLS Log ASCII Standard - VERSION 2.0
WRAP.                       NO: One line per depth step
~Well Information Block
STRT.FT               -19.5000: 
STOP.FT              2456.0000: 
STEP.FT                 0.2500: 
NULL.                -999.2500: 
COMP.          Petrogulf Corporation: COMPANY
WELL.           Montoya 12-44V: WELL
FLD.           Purgatorie River: FIELD
LOC.           698' FSL & 599' FEL: LOCATION
CNTY.               Las Animas: COUNTY
SRVC.                         : SERVICE COMPANY
DATE.          Mon Sep 13 13:44:10 2004: LOG DATE
UWI.           05-071-08094-00: UNIQUE WELL ID
STAT.                 Colorado: STATE
~Curve Information Block
DEPT.FT            0 000 00 00: Depth
TT3.usec                      : CBL 3' Travel Time
AMP3.mV                       : CBL 3' Amplitude
GR.GAPI                       : Gamma Ray
CCL.                          : Casing Collar Locator
~Parameter Information Block
~A  Depth       TT3         AMP3         GR         CCL     
# ...
  2426.0000    354.7646      7.9757     69.4772      0.0000
  2426.2500    342.2075      8.1737     67.9162      0.0000
  2426.5000    338.0710      8.3926     65.9940      0.0000
  2426.7500    337.0586      8.5557     63.6310      0.0000
  2427.0000    336.9184      8.5311     60.8870      0.0000
  2427.2500    337.1337      8.3090     58.1503      0.0000
  2427.5000    337.4218      8.0358     56.1597      0.0000
  2427.7500    337.6175      7.8479     55.6979      0.0000
  2428.0000    337.7618      7.7773     57.0524      0.0000
  2428.2500    337.9502      7.7973     59.5421      0.0000
  2428.5000    338.6974      7.8653     61.6404      0.0000
  2428.7500    342.7900      7.9161     61.9655      0.0000
  2429.0000    358.2320      7.8807     60.4740      0.0000
  2429.2500    394.9172      7.7540     58.5691      0.0000
  2429.5000    446.8227      7.6105     57.7817      0.0000
  2429.7500    486.7668      7.4927     58.3645      0.0000
  2430.0000    506.9034      7.3363     59.3039      0.0000
  2430.2500    539.3105      7.0770     59.5614      0.0000
  2430.5000    601.2788      6.7531     59.1391      0.0000
  2430.7500    665.9167      6.4282     59.1445      0.0000
  2431.0000    707.0715      6.0999     60.9838      0.0000
  2431.2500    728.6505      5.7355     65.2258      0.0000
  2431.5000    746.6467      5.3451     70.9910      0.0000
  2431.7500    767.8740      4.9663     76.4605      0.0000
  2432.0000    786.9816      4.6065     80.0260      0.0000
  2432.2500    795.5766      4.2434     81.0632      0.0000
  2432.5000    790.5376      3.8589     79.9781      0.0000
  2432.7500    774.6193      3.4528     77.8430      0.0000
  2433.0000    753.2663      3.0459     75.9152      0.0000
  2433.2500    732.7559      2.6760     75.0935      0.0000
  2433.5000    718.2426      2.3772     75.4321      0.0000
  2433.7500    710.8263      2.1555     76.0692      0.0000
  2434.0000    708.8687      1.9842     75.8336      0.0000
  2434.2500    711.8092      1.8232     74.1172      0.0000
  2434.5000    718.8524      1.6485     71.2394      0.0000
  2434.7500    724.8025      1.4698     68.1526      0.0000
  2435.0000    722.9044      1.3304     65.9610      0.0000
  2435.2500    713.3467      1.2852     65.4837      0.0000
  2435.5000    703.7824      1.3496     66.8305      0.0000
  2435.7500    701.0496      1.4748     69.2068      0.0000
  2436.0000    706.0817      1.6019     71.2222      0.0000
  2436.2500    715.0776      1.7189     71.5405      0.0000
  2436.5000    724.1706      1.8273     69.5137      0.0000
  2436.7500    734.3228      1.8948     65.5822      0.0000
  2437.0000    750.4227      1.8923     61.1630      0.0000
  2437.2500    774.3545      1.8297     57.9201      0.0000
  2437.5000    799.9141      1.7283     56.8890      0.0000
  2437.7500    816.9622      1.6024     58.0427      0.0000
  2438.0000    821.8353      1.4652     60.5117      0.0000
  2438.2500    820.1984      1.3268     63.3206      2.0126
  2438.5000    818.0619      1.2011     66.1366     -2.7344
  2438.7500    814.0608      1.1152     69.2582      0.0000
  2439.0000    802.3658      1.0731     72.8191      0.0000
  2439.2500    784.3535      1.0294     76.2425     -1.8631
  2439.5000    774.3112      0.9559     78.6444      4.6051
  2439.7500    783.5280      0.8797     79.6482      0.0000
  2440.0000    802.5024      0.8244     79.7135     -2.8275
  2440.2500    813.5079      0.7810     79.8008      0.0000
  2440.5000    813.8714      0.7391     80.6514      0.0000
  2440.7500    812.8221      0.7042     81.9621   -999.2500
  2441.0000    816.2424      0.6822     81.9344   -999.2500
  2441.2500    821.4742      0.6663     77.8578   -999.2500
  2441.5000    818.8817      0.6456     67.7573   -999.2500
  2441.7500    800.3747      0.6193     52.1640   -999.2500
  2442.0000    769.0090      0.5993     34.4786   -999.2500
  2442.2500    736.6476      0.5969     19.0925   -999.2500
  2442.5000    713.8113      0.6071      8.6910   -999.2500
  2442.7500    702.9902      0.6186      3.2064   -999.2500
  2443.0000    700.3820      0.6314      0.9484   -999.2500
  2443.2500    701.1989      0.6548      0.2228   -999.2500
  2443.5000    701.8688      0.6957      0.0409   -999.2500
  2443.7500    700.6183      0.7409      0.0053   -999.2500
  2444.0000    698.2615      0.7523   -999.2500   -999.2500
  2444.2500    696.8538      0.7160   -999.2500   -999.2500
  2444.5000    696.9761      0.6827   -999.2500   -999.2500
  2444.7500    697.7002      0.7181   -999.2500   -999.2500
  2445.0000    698.4753      0.8256   -999.2500   -999.2500
  2445.2500    699.4392      0.9341   -999.2500   -999.2500
  2445.5000    700.4459      0.9717   -999.2500   -999.2500
  2445.7500    700.9371      0.9402   -999.2500   -999.2500
  2446.0000    700.6349      0.8895   -999.2500   -999.2500
  2446.2500    699.8709      0.8538   -999.2500   -999.2500
  2446.5000    699.2629      0.8380   -999.2500   -999.2500
  2446.7500    699.2082      0.8372   -999.2500   -999.2500
  2447.0000    699.6990      0.8626   -999.2500   -999.2500
  2447.2500    700.0681      0.9390   -999.2500   -999.2500
  2447.5000    696.2701      1.0563   -999.2500   -999.2500
  2447.7500    672.7294      1.1565   -999.2500   -999.2500
  2448.0000    597.2203      1.1900   -999.2500   -999.2500
  2448.2500    447.7234      1.1559   -999.2500   -999.2500
  2448.5000    259.9080      1.0913   -999.2500   -999.2500
  2448.7500    109.1615      1.0378   -999.2500   -999.2500
  2449.0000     31.6911      1.0108   -999.2500   -999.2500
  2449.2500      6.1782      1.0021   -999.2500   -999.2500
  2449.5000      0.7922      1.0003   -999.2500   -999.2500
  2449.7500   -999.2500   -999.2500   -999.2500   -999.2500
  2450.0000   -999.2500   -999.2500   -999.2500   -999.2500
  2450.2500   -999.2500   -999.2500   -999.2500   -999.2500
  2450.5000   -999.2500   -999.2500   -999.2500   -999.2500
  2450.7500   -999.2500   -999.2500   -999.2500   -999.2500
  2451.0000   -999.2500   -999.2500   -999.2500   -999.2500
  2451.2500   -999.2500   -999.2500   -999.2500   -999.2500
  2451.5000   -999.2500   -999.2500   -999.2500   -999.2500
  2451.7500   -999.2500   -999.2500   -999.2500   -999.2500
  2452.0000   -999.2500   -999.2500   -999.2500   -999.2500
  2452.2500   -999.2500   -999.2500   -999.2500   -999.2500
  2452.5000   -999.2500   -999.2500   -999.2500   -999.2500
  2452.7500   -999.2500   -999.2500   -999.2500   -999.2500
  2453.0000   -999.2500   -999.2500   -999.2500   -999.2500
  2453.2500   -999.2500   -999.2500   -999.2500   -999.2500
  2453.5000   -999.2500   -999.2500   -999.2500   -999.2500
  2453.7500   -999.2500   -999.2500   -999.2500   -999.2500
  2454.0000   -999.2500   -999.2500   -999.2500   -999.2500
  2454.2500   -999.2500   -999.2500   -999.2500   -999.2500
  2454.5000   -999.2500   -999.2500   -999.2500   -999.2500
  2454.7500   -999.2500   -999.2500   -999.2500   -999.2500
  2455.0000   -999.2500   -999.2500   -999.2500   -999.2500
  2455.2500   -999.2500   -999.2500   -999.2500   -999.2500
  2455.5000   -999.2500   -999.2500   -999.2500   -999.2500
  2455.7500   -999.2500   -999.2500   -999.2500   -999.2500
  2456.0000   -999.2500   -999.2500   -999.2500   -999.2500
