~Version Information
 VERS.                                  2.0 : CWLS LAS VERSION
 WRAP.                                   NO : WRAPING MODE
 SWARE .                 MController 2.5.0E : SOFTWARE VERSION
~Well Information
 WELL.                       Montoya 12 44v : WELL
 COMP.                       Petrogulf Corp : COMPANY
 FLD.                      Purgatorie River : FIELD
 LOC.               SE/SE Sec 12 T33S R66W  : LOCATION
 DATE.                             8/7 8/04 : DATE(S) LOGGED
 SRVC.       Blanco Geological Services LLC : SERVICE COMPANY
 STAT.                                   CO : STATE
 CNTY.                           Las Animas : COUNTY
 CTRY.                                  USA : COUNTRY
 API.                       05 071 08094 00 : API NUMBER
 STRT.FT                             804.00 : START DEPTH
 STOP.FT                            2469.00 : STOP DEPTH
 STEP.FT                               1.00 : DEPTH INCREMENT
 NULL.                                 9999 : NULL VALUE
~Curve information
 DEPTH.FT                                   :
 ROP.MIN/FT                                 :
 GAS.UNITS                                  :
~ASCII Log data
# ...
     1404.00        0.233          1.9 
     1405.00        0.300          2.0 
     1406.00        0.400          2.0 
     1407.00        0.333          1.9 
     1408.00        0.367          1.4 
     1409.00        0.283          2.0 
     1410.00        2.533          2.2 
     1411.00        0.400          2.0 
     1412.00        0.250          1.9 
     1413.00        0.267          1.9 
     1414.00        0.400          1.9 
     1415.00        0.233          1.8 
     1416.00        0.300          2.0 
     1417.00        0.433          2.0 
     1418.00        0.400          2.0 
     1419.00        0.167          1.9 
     1420.00        0.200          1.9 
     1421.00        0.167          2.0 
     1422.00        0.200          1.7 
     1423.00        0.200          1.9 
     1424.00        0.167          2.0 
     1425.00        0.217          1.9 
     1426.00        0.167          2.0 
     1427.00        0.200          1.9 
     1428.00        0.167          1.7 
     1429.00        0.167          1.9 
     1430.00        0.167          2.1 
     1431.00        0.300          1.9 
     1432.00        0.200          2.0 
     1433.00        0.267          2.0 
     1434.00        0.233          1.9 
     1435.00        0.200          1.9 
     1436.00        0.233          2.0 
     1437.00        0.200          2.1 
     1438.00        0.233          1.7 
     1439.00        0.233          2.0 
     1440.00        3.150          2.5 
     1441.00        0.683          2.0 
     1442.00        0.200          2.0 
     1443.00        0.167          1.8 
     1444.00        0.233          1.9 
     1445.00        0.233          1.7 
     1446.00        0.267          1.9 
     1447.00        0.267          1.6 
     1448.00        0.267          1.9 
     1449.00        0.200          1.5 
     1450.00        0.233          1.7 
     1451.00        0.267          1.2 
     1452.00        0.300          1.7 
     1453.00        0.233          1.1 
     1454.00        0.233          1.6 
     1455.00        0.217          1.7 
     1456.00        0.267          1.5 
     1457.00        0.200          1.3 
     1458.00        0.167          1.5 
     1459.00        0.133          1.3 
     1460.00        0.167          1.8 
     1461.00        0.167          1.8 
     1462.00        0.167          0.9 
     1463.00        0.267          1.6 
     1464.00        0.300          1.6 
     1465.00        0.300          1.8 
     1466.00        0.200          1.9 
     1467.00        0.200          2.1 
     1468.00        0.233          2.1 
     1469.00        0.200          2.0 
     1470.00        4.267          3.7 
     1471.00        0.400          4.0 
     1472.00        0.233          4.4 
     1473.00        0.233          4.3 
     1474.00        0.400          4.4 
     1475.00        0.400          4.0 
     1476.00        0.367          3.9 
     1477.00        0.367          3.4 
     1478.00        0.417          3.6 
     1479.00        0.400          3.7 
     1480.00        0.400          3.7 
     1481.00        0.333          3.8 
     1482.00        0.400          3.3 
     1483.00        0.400          3.5 
     1484.00        0.233          3.6 
     1485.00        0.167          3.5 
     1486.00        0.333          3.4 
     1487.00        0.333          3.5 
     1488.00        0.283          3.1 
     1489.00        0.200          2.8 
     1490.00        0.200          3.3 
     1491.00        0.200          2.7 
     1492.00        0.267          3.7 
     1493.00        0.233          3.4 
     1494.00        0.233          3.3 
     1495.00        0.233          3.5 
     1496.00        0.200          3.5 
     1497.00        0.167          3.6 
     1498.00        0.300          3.8 
     1499.00        0.200          3.7 
     1500.00        3.617          4.4 
     1501.00        0.333          4.7 
     1502.00        0.383          5.0 
     1503.00        0.400          4.8 
     1504.00        0.567          4.4 
     1505.00        0.467          4.6 
     1506.00        0.400          4.7 
     1507.00        0.467          4.6 
     1508.00        0.467          3.7 
     1509.00        0.517          3.9 
     1510.00        0.500          3.5 
     1511.00        0.333          3.4 
     1512.00        0.200          3.2 
     1513.00        0.200          3.3 
     1514.00        0.400          3.1 
     1515.00        0.333          3.3 
     1516.00        0.300          3.2 
     1517.00        0.267          3.0 
     1518.00        0.267          3.3 
     1519.00        0.133          3.2 
     1520.00        0.317          3.3 
     1521.00        0.367          3.2 
     1522.00        0.400          3.3 
     1523.00        0.233          3.1 
     1524.00        0.267          3.5 
     1525.00        0.333          3.1 
     1526.00        0.233          3.3 
     1527.00        0.267          3.5 
     1528.00        0.300          2.6 
     1529.00        0.300          3.3 
     1530.00        4.767          4.5 
     1531.00        0.500          3.8 
     1532.00        0.367          3.7 
     1533.00        0.467          3.5 
     1534.00        0.400          3.8 
     1535.00        0.333          3.5 
     1536.00        0.300          3.1 
     1537.00        0.483          3.2 
     1538.00        0.467          3.3 
     1539.00        0.467          2.8 
     1540.00        0.433          3.0 
     1541.00        0.467          3.1 
     1542.00        0.400          2.9 
     1543.00        0.400          2.3 
     1544.00        0.367          2.9 
     1545.00        0.317          2.9 
     1546.00        0.300          3.0 
     1547.00        0.267          3.0 
     1548.00        0.333          2.8 
     1549.00        0.367          3.1 
     1550.00        0.300          3.1 
     1551.00        0.267          3.1 
     1552.00        0.300          2.8 
     1553.00        0.233          2.9 
     1554.00        0.267          3.1 
     1555.00        0.267          3.0 
     1556.00        0.217          2.5 
     1557.00        0.200          3.0 
     1558.00        0.233          3.1 
     1559.00        0.167          3.0 
     1560.00        4.483          4.5 
     1561.00        0.567          4.3 
     1562.00        0.267          3.1 
     1563.00        0.267          3.5 
     1564.00        0.267          3.8 
     1565.00        0.133          3.3 
     1566.00        0.417          4.0 
     1567.00        0.433          3.7 
     1568.00        0.467          4.0 
     1569.00        0.467          3.7 
     1570.00        0.567          3.3 
     1571.00        0.367          3.5 
     1572.00        0.333          3.4 
     1573.00        0.233          3.2 
     1574.00        0.283          3.1 
     1575.00        0.267          3.1 
     1576.00        0.267          3.1 
     1577.00        0.300          3.0 
     1578.00        0.267          2.6 
     1579.00        0.267          3.0 
     1580.00        0.400          3.1 
     1581.00        0.367          3.1 
     1582.00        0.433          3.2 
     1583.00        0.400          3.2 
     1584.00        0.350          3.2 
     1585.00        0.300          3.0 
     1586.00        0.267          2.8 
     1587.00        0.267          3.0 
     1588.00        0.200          2.5 
     1589.00        0.133          2.2 
     1590.00        3.850          3.6 
     1591.00        0.333          4.0 
     1592.00        0.367          4.1 
     1593.00        0.367          4.1 
     1594.00        0.300          3.4 
     1595.00        0.283          3.6 
     1596.00        0.300          3.5 
     1597.00        0.267          3.8 
     1598.00        0.267          3.3 
     1599.00        0.300          3.4 
     1600.00        0.300          2.9 
     1601.00        0.333          3.2 
     1602.00        0.300          2.8 
     1603.00        0.267          2.6 
