~Version Information
VERS.                      2.0: CWLS Log ASCII Standard - VERSION 2.0
WRAP.                       NO: One line per depth step
~Well Information Block
STRT.FT               928.1000: 
STOP.FT              2417.7000: 
STEP.FT                 0.1000: 
NULL.                -999.2500: 
COMP.          Pioneer Natural Resources: COMPANY
WELL.            Chevron 13-13: WELL
FLD.           Purgatoire River: FIELD
LOC.           1560' FSL & 711' FWL--: LOCATION
CNTY.               Las Animas: COUNTY
SRVC.          Superior Well Services: SERVICE COMPANY
DATE.          Mon Feb 12 14:51:53 2007: LOG DATE
UWI.           05 071 08319 00: UNIQUE WELL ID
STAT.                 Colorado: STATE
~Curve Information Block
DEPT.FT            0 000 00 00: Depth
DIR.Ohm-m                     : IEL Induction Resistivity
GR.GAPI                       : Gamma Ray
SN.Ohm-m                      : IEL Short Normal
SP.mV                         : IEL Spontaneous Potential
~Parameter Information Block
~A  Depth       DIR          GR          SN          SP     
# ...
  1825.9000      9.4089     86.4559     10.5987     51.3927
  1826.0000      9.6226     86.0904     10.5321     51.0723
  1826.1000      9.6226     86.1282     10.5321     51.0723
  1826.2000      9.6226     86.5652     10.5321     51.0723
  1826.3000      9.8163     87.3776     10.5472     50.8078
  1826.4000      9.8163     88.5203     10.5472     50.8078
  1826.5000      9.9814     89.9336     10.6108     50.6151
  1826.6000      9.9814     91.5525     10.6108     50.6151
  1826.7000      9.9814     93.3070     10.6108     50.6151
  1826.8000     10.1118     95.1301     10.6487     50.5051
  1826.9000     10.1118     96.9583     10.6487     50.5051
  1827.0000     10.1985     98.7296     10.6487     50.4833
  1827.1000     10.1985    100.3814     10.6487     50.4833
  1827.2000     10.1985    101.8551     10.6487     50.4833
  1827.3000     10.2275    103.0933     10.5840     50.5493
  1827.4000     10.2275    104.0485     10.5840     50.5493
  1827.5000     10.1848    104.6896     10.4433     50.6970
  1827.6000     10.1848    105.0038     10.4433     50.6970
  1827.7000     10.1848    105.0052     10.4433     50.6970
  1827.8000     10.0628    104.7298     10.2087     50.9159
  1827.9000     10.0628    104.2366     10.2087     50.9159
  1828.0000      9.8663    103.6011      9.8689     51.1923
  1828.1000      9.8663    102.9117      9.8689     51.1923
  1828.2000      9.8663    102.2578      9.8689     51.1923
  1828.3000      9.6116    101.7281      9.5014     51.5103
  1828.4000      9.6116    101.3992      9.5014     51.5103
  1828.5000      9.3222    101.3342      9.2488     51.8536
  1828.6000      9.3222    101.5723      9.2488     51.8536
  1828.7000      9.3222    102.1317      9.2488     51.8536
  1828.8000      9.0217    103.0071      9.0929     52.2064
  1828.9000      9.0217    104.1717      9.0929     52.2064
  1829.0000      8.7288    105.5834      8.9537     52.5543
  1829.1000      8.7288    107.1919      8.9537     52.5543
  1829.2000      8.7288    108.9405      8.9537     52.5543
  1829.3000      8.4543    110.7713      8.8185     52.8845
  1829.4000      8.4543    112.6278      8.8185     52.8845
  1829.5000      8.2024    114.4552      8.6613     53.1861
  1829.6000      8.2024    116.2002      8.6613     53.1861
  1829.7000      8.2024    117.8181      8.6613     53.1861
  1829.8000      7.9729    119.2710      8.4852     53.4501
  1829.9000      7.9729    120.5324      8.4852     53.4501
  1830.0000      7.7641    121.5891      8.3169     53.6693
  1830.1000      7.7641    122.4415      8.3169     53.6693
  1830.2000      7.7641    123.0987      8.3169     53.6693
  1830.3000      7.5751    123.5794      8.1717     53.8386
  1830.4000      7.5751    123.9029      8.1717     53.8386
  1830.5000      7.4067    124.0898      8.0269     53.9545
  1830.6000      7.4067    124.1548      8.0269     53.9545
  1830.7000      7.4067    124.1049      8.0269     53.9545
  1830.8000      7.2623    123.9412      7.9044     54.0160
  1830.9000      7.2623    123.6529      7.9044     54.0160
  1831.0000      7.1470    123.2185      7.8154     54.0239
  1831.1000      7.1470    122.6120      7.8154     54.0239
  1831.2000      7.1470    121.8044      7.8154     54.0239
  1831.3000      7.0656    120.7716      7.7626     53.9813
  1831.4000      7.0656    119.5055      7.7626     53.9813
  1831.5000      7.0197    118.0210      7.7588     53.8931
  1831.6000      7.0197    116.3582      7.7588     53.8931
  1831.7000      7.0197    114.5863      7.7588     53.8931
  1831.8000      7.0056    112.7953      7.8244     53.7659
  1831.9000      7.0056    111.0873      7.8244     53.7659
  1832.0000      7.0138    109.5631      7.9088     53.6073
  1832.1000      7.0138    108.3115      7.9088     53.6073
  1832.2000      7.0138    107.3961      7.9088     53.6073
  1832.3000      7.0314    106.8514      7.9594     53.4255
  1832.4000      7.0314    106.6760      7.9594     53.4255
  1832.5000      7.0458    106.8387      7.9414     53.2289
  1832.6000      7.0458    107.2785      7.9414     53.2289
  1832.7000      7.0458    107.9197      7.9414     53.2289
  1832.8000      7.0474    108.6766      7.8519     53.0256
  1832.9000      7.0474    109.4656      7.8519     53.0256
  1833.0000      7.0312    110.2177      7.7658     52.8233
  1833.1000      7.0312    110.8840      7.7658     52.8233
  1833.2000      7.0312    111.4399      7.7658     52.8233
  1833.3000      6.9961    111.8898      7.7055     52.6293
  1833.4000      6.9961    112.2592      7.7055     52.6293
  1833.5000      6.9445    112.5898      7.6046     52.4507
  1833.6000      6.9445    112.9251      7.6046     52.4507
  1833.7000      6.9445    113.3045      7.6046     52.4507
  1833.8000      6.8812    113.7493      7.4616     52.2949
  1833.9000      6.8812    114.2586      7.4616     52.2949
  1834.0000      6.8128    114.8092      7.3660     52.1691
  1834.1000      6.8128    115.3588      7.3660     52.1691
  1834.2000      6.8128    115.8529      7.3660     52.1691
  1834.3000      6.7454    116.2375      7.3323     52.0798
  1834.4000      6.7454    116.4642      7.3323     52.0798
  1834.5000      6.6827    116.4998      7.2923     52.0323
  1834.6000      6.6827    116.3288      7.2923     52.0323
  1834.7000      6.6827    115.9549      7.2923     52.0323
  1834.8000      6.6249    115.4002      7.2222     52.0296
  1834.9000      6.6249    114.7030      7.2222     52.0296
  1835.0000      6.5696    113.9168      7.1274     52.0705
  1835.1000      6.5696    113.1074      7.1274     52.0705
  1835.2000      6.5696    112.3466      7.1274     52.0705
  1835.3000      6.5134    111.7036      6.9930     52.1497
  1835.4000      6.5134    111.2388      6.9930     52.1497
  1835.5000      6.4539    110.9926      6.8051     52.2572
  1835.6000      6.4539    110.9767      6.8051     52.2572
  1835.7000      6.4539    111.1799      6.8051     52.2572
  1835.8000      6.3919    111.5660      6.5783     52.3792
  1835.9000      6.3919    112.0828      6.5783     52.3792
  1836.0000      6.3321    112.6794      6.3331     52.5000
  1836.1000      6.3321    113.3118      6.3331     52.5000
  1836.2000      6.3321    113.9536      6.3331     52.5000
  1836.3000      6.2820    114.5964      6.1214     52.6040
  1836.4000      6.2820    115.2500      6.1214     52.6040
  1836.5000      6.2494    115.9317      6.0363     52.6783
  1836.6000      6.2494    116.6600      6.0363     52.6783
  1836.7000      6.2494    117.4466      6.0363     52.6783
  1836.8000      6.2383    118.2879      6.0334     52.7141
  1836.9000      6.2383    119.1654      6.0334     52.7141
  1837.0000      6.2472    120.0471      6.0178     52.7082
  1837.1000      6.2472    120.8872      6.0178     52.7082
  1837.2000      6.2472    121.6325      6.0178     52.7082
  1837.3000      6.2689    122.2312      6.0263     52.6627
  1837.4000      6.2689    122.6352      6.0263     52.6627
  1837.5000      6.2931    122.8095      6.1092     52.5850
  1837.6000      6.2931    122.7353      6.1092     52.5850
  1837.7000      6.2931    122.4184      6.1092     52.5850
  1837.8000      6.3099    121.8865      6.2531     52.4861
  1837.9000      6.3099    121.1905      6.2531     52.4861
  1838.0000      6.3140    120.4003      6.4036     52.3790
  1838.1000      6.3140    119.5951      6.4036     52.3790
  1838.2000      6.3140    118.8588      6.4036     52.3790
  1838.3000      6.3054    118.2682      6.5157     52.2780
  1838.4000      6.3054    117.8855      6.5157     52.2780
  1838.5000      6.2888    117.7581      6.5262     52.1965
  1838.6000      6.2888    117.9137      6.5262     52.1965
  1838.7000      6.2888    118.3637      6.5262     52.1965
  1838.8000      6.2715    119.1057      6.4518     52.1469
  1838.9000      6.2715    120.1306      6.4518     52.1469
  1839.0000      6.2594    121.4200      6.4708     52.1390
  1839.1000      6.2594    122.9488      6.4708     52.1390
  1839.2000      6.2594    124.6811      6.4708     52.1390
