~Version Information
VERS.                      2.0: CWLS Log ASCII Standard - VERSION 2.0
WRAP.                       NO: One line per depth step
~Well Information Block
STRT.FT               965.2500: 
STOP.FT              2602.5000: 
STEP.FT                 0.2500: 
NULL.                -999.2500: 
COMP.          Petrogulf Corporation: COMPANY
WELL.             Valejo 8-12V: WELL
FLD.           Purgatorie River: FIELD
LOC.           1510' FNL & 1460' FWL: LOCATION
CNTY.               Las Animas: COUNTY
SRVC.                         : SERVICE COMPANY
DATE.          Fri Nov 14 05:32:33 2003: LOG DATE
UWI.                          : UNIQUE WELL ID
STAT.                 Colorado: STATE
~Curve Information Block
DEPT.FT            0 000 00 00: Depth
RILD.Ohm-m                    : DIL Deep Resistivity
RILM.Ohm-m                    : DIL Medium Resistivity
RLL3.Ohm-m                    : DIL Shallow Resistivity
SP.mV                         : DIL Spontaneous Potential
GR.GAPI                       : Gamma Ray
~Parameter Information Block
~A  Depth       RILD        RILM        RLL3         SP          GR     
# ...
  2561.2500     23.7876     29.1343     41.2943      0.5914     96.1593
  2561.5000     23.5334     28.6866     38.3001      1.0366     96.3894
  2561.7500     23.3346     28.1722     36.3290      1.3864     96.1301
  2562.0000     23.2084     27.6829     35.1874      1.6367     95.5841
  2562.2500     23.1712     27.2802     34.6262      1.7983     95.0501
  2562.5000     23.2326     26.9863     34.4471      1.8892     93.5127
  2562.7500     23.3841     26.7998     34.4242      1.9249     92.1176
  2563.0000     23.5979     26.7181     34.3280      1.9120     91.1530
  2563.2500     23.8437     26.7556     34.1511      1.8517     92.5658
  2563.5000     24.1080     26.9519     34.2598      1.7489     98.5870
  2563.7500     24.3996     27.3679     35.1865      1.6212    104.5416
  2564.0000     24.7337     28.0753     37.2472      1.4966    114.5755
  2564.2500     25.1178     29.1442     40.4277      1.4008    121.3115
  2564.5000     25.5511     30.6301     44.6087      1.3459    131.4872
  2564.7500     26.0393     32.5553     49.7648      1.3272    139.0393
  2565.0000     26.6029     34.8838     55.9139      1.3264    153.2113
  2565.2500     27.2714     37.4931     62.9123      1.3145    164.6547
  2565.5000     28.0638     40.1594     70.1497      1.2577    181.4421
  2565.7500     28.9667     42.5803     76.2174      1.1299    188.7786
  2566.0000     29.9239     44.4476     79.1088      0.9255    189.1587
  2566.2500     30.8432     45.5571     77.4148      0.6637    182.5990
  2566.5000     31.6186     45.8912     71.6431      0.3799    168.6488
  2566.7500     32.1502     45.6114     64.1496      0.1099    161.2980
  2567.0000     32.3553     44.9649     57.6581     -0.1244    158.2422
  2567.2500     32.1875     44.1804     53.8041     -0.3203    161.3846
  2567.5000     31.6746     43.4014     52.6417     -0.4875    169.4271
  2567.7500     30.9437     42.6658     53.0123     -0.6385    173.7481
  2568.0000     30.1865     41.9226     53.4473     -0.7803    174.8485
  2568.2500     29.5672     41.0828     53.1214     -0.9104    171.1783
  2568.5000     29.1416     40.0913     52.1105     -1.0166    159.2008
  2568.7500     28.8511     38.9776     50.8328     -1.0814    147.5054
  2569.0000     28.5935     37.8478     49.4902     -1.0954    126.3690
  2569.2500     28.3172     36.8258     48.0594     -1.0682    111.5721
  2569.5000     28.0525     35.9912     46.5018     -1.0239     91.4577
  2569.7500     27.8629     35.3604     44.8190     -0.9863     80.8636
  2570.0000     27.7783     34.9144     43.0430     -0.9672     70.3281
  2570.2500     27.7737     34.6472     41.2825     -0.9717     66.7245
  2570.5000     27.7912     34.5919     39.7536     -1.0046     65.0222
  2570.7500     27.7678     34.7986     38.7463     -1.0687     65.0288
  2571.0000     27.6477     35.2757     38.5386     -1.1615     64.4254
  2571.2500     27.3927     35.9309     39.2453     -1.2797     62.8715
  2571.5000     27.0017     36.5537     40.6669     -1.4256     59.2934
  2571.7500     26.5225     36.8639     42.2948     -1.6040     57.0399
  2572.0000     26.0314     36.6290     43.5153     -1.8116     55.1782
  2572.2500     25.5895     35.7785     43.8659     -2.0307     55.0199
  2572.5000     25.2134     34.4318     43.1837     -2.2344     55.6493
  2572.7500     24.8844     32.8240     41.6117     -2.3974     56.1421
  2573.0000     24.5820     31.2014     39.5035     -2.5081     56.4429
  2573.2500     24.3114     29.7507     37.2662     -2.5743     56.2085
  2573.5000     24.0993     28.5782     35.2055     -2.6191     55.2099
  2573.7500     23.9641     27.7214     33.4614     -2.6700     54.2529
  2574.0000     23.8893     27.1727     32.0602     -2.7476     52.8632
  2574.2500     23.8236     26.8994     31.0149     -2.8580     52.3513
  2574.5000     23.7074     26.8546     30.4045     -2.9916     52.7431
  2574.7500     23.5060     26.9795     30.3987     -3.1285     53.8574
  2575.0000     23.2239     27.2050     31.1801     -3.2475     56.6421
  2575.2500     22.8956     27.4578     32.7610     -3.3354     59.1420
  2575.5000     22.5659     27.6732     34.8255     -3.3934     63.7599
  2575.7500     22.2757     27.8053     36.7852     -3.4351     67.1810
  2576.0000     22.0552     27.8268     38.0672     -3.4802     71.4705
  2576.2500     21.9185     27.7223     38.4134     -3.5475     72.2584
  2576.5000     21.8598     27.4851     37.9499     -3.6522     67.3885
  2576.7500     21.8569     27.1244     36.9914     -3.8025     59.2979
  2577.0000     21.8813     26.6755     35.7799     -3.9939     41.7688
  2577.2500     21.9101     26.1976     34.4067     -4.2061     29.2130
  2577.5000     21.9324     25.7555     32.9549     -4.4089     13.8205
  2577.7500     21.9460     25.3983     31.6305     -4.5742      7.1929
  2578.0000     21.9522     25.1471     30.6921     -4.6856      2.1062
  2578.2500     21.9503     24.9996     30.2937     -4.7415      0.7803
  2578.5000     21.9348     24.9421     30.4553     -4.7512      0.1329
  2578.7500     21.8958     24.9562     31.1400     -4.7306      0.0331
  2579.0000     21.8268     25.0138     32.2489     -4.7003      0.0019
  2579.2500     21.7346     25.0730     33.5207     -4.6828   -999.2500
  2579.5000     21.6408     25.0861     34.5287     -4.6991   -999.2500
  2579.7500     21.5689     25.0230     34.8602     -4.7651   -999.2500
  2580.0000     21.5246     24.8898     34.3302     -4.8888   -999.2500
  2580.2500     21.4903     24.7262     33.0816     -5.0669   -999.2500
  2580.5000     21.4413     24.5843     31.5552     -5.2801   -999.2500
  2580.7500     21.3692     24.5033     30.3309     -5.4913   -999.2500
  2581.0000     21.2846     24.4927     29.8533     -5.6526   -999.2500
  2581.2500     21.1949     24.5228     30.1954     -5.7213   -999.2500
  2581.5000     21.0819     24.5278     31.0516     -5.6783   -999.2500
  2581.7500     20.9071     24.4257     31.9424     -5.5390   -999.2500
  2582.0000     20.6461     24.1545     32.4529     -5.3454   -999.2500
  2582.2500     20.3162     23.7104     32.3869     -5.1465   -999.2500
  2582.5000     19.9697     23.1639     31.8227     -4.9782   -999.2500
  2582.7500     19.6591     22.6382     31.0506     -4.8554   -999.2500
  2583.0000     19.4095     22.2589     30.4062     -4.7737   -999.2500
  2583.2500     19.2167     22.1017     30.0989     -4.7180   -999.2500
  2583.5000     19.0630     22.1603     30.1451     -4.6698   -999.2500
  2583.7500     18.9303     22.3457     30.4133     -4.6122   -999.2500
  2584.0000     18.8038     22.5222     30.7075     -4.5268   -999.2500
  2584.2500     18.6708     22.5708     30.8357     -4.3928   -999.2500
  2584.5000     18.5251     22.4427     30.6599     -4.1970   -999.2500
  2584.7500     18.3290     22.1670     30.1394     -3.9517   -999.2500
  2585.0000     18.1540     21.8159     29.3593     -3.6973   -999.2500
  2585.2500     18.0742     21.4627     28.5045     -3.4771   -999.2500
  2585.5000     18.0628     21.1576     27.7618     -3.3072   -999.2500
  2585.7500     18.1142     20.9259     27.2106     -3.1729   -999.2500
  2586.0000     18.1973     20.7782     26.8267     -3.0520   -999.2500
  2586.2500     18.2666     20.7216     26.6131     -2.9388   -999.2500
  2586.5000     18.2823     20.7644     26.6975     -2.8471   -999.2500
  2586.7500     18.2300     20.9104     27.2414     -2.7936   -999.2500
  2587.0000     18.1353     21.1518     28.2263     -2.7802   -999.2500
  2587.2500     18.0666     21.4648     29.3569     -2.7911   -999.2500
  2587.5000     18.1346     21.8141     30.2292     -2.8025   -999.2500
  2587.7500     18.4995     22.1608     30.6179     -2.7892   -999.2500
  2588.0000     19.3953     22.4736     30.6133     -2.7178   -999.2500
  2588.2500     21.1765     22.7381     30.5184     -2.5363   -999.2500
  2588.5000     24.4990     22.9568     30.6385     -2.1936   -999.2500
  2588.7500     30.1327     23.1416     31.1037     -1.6934   -999.2500
  2589.0000     39.6608     23.3007     31.7859     -1.1269   -999.2500
