~Version Information
VERS.                      2.0: CWLS Log ASCII Standard - VERSION 2.0
WRAP.                       NO: One line per depth step
~Well Information Block
STRT.FT                -3.2500: 
STOP.FT              2202.2500: 
STEP.FT                 0.2500: 
NULL.                -999.2500: 
COMP.          Pioneer Natural Resources: COMPANY
WELL.           Parklane 43-34: WELL
FLD.           Purgatorie River: FIELD
LOC.           1704' FSL & 1119' FEL--: LOCATION
PROV.                       CO: PROVINCE
CNTY.               Las Animas: COUNTRY
SRVC.                         : SERVICE COMPANY
DATE.          Thu Oct 14 14:49:09 2004: LOG DATE
UWI.           005 071 08162  : UNIQUE WELL ID
~Curve Information Block
DEPT.FT            0 000 00 00: Depth
GR.GAPI                       : Gamma Ray
CCL.                          : Casing Collar Locator
TT3.usec                      : CBL 3' Travel Time
AMP3.mV                       : CBL 3' Amplitude
~Parameter Information Block
~A  Depth        GR         CCL         TT3         AMP3    
    -3.2500   -999.2500   -999.2500   -999.2500   -999.2500
    -3.0000   -999.2500   -999.2500   -999.2500   -999.2500
    -2.7500   -999.2500   -999.2500   -999.2500   -999.2500
    -2.5000   -999.2500   -999.2500   -999.2500   -999.2500
    -2.2500   -999.2500   -999.2500   -999.2500   -999.2500
    -2.0000   -999.2500   -999.2500    921.0000     -0.2423
    -1.7500   -999.2500   -999.2500    921.0000     -0.3045
    -1.5000   -999.2500   -999.2500    921.0000     -0.3747
    -1.2500   -999.2500   -999.2500    921.0000     -0.4368
    -1.0000   -999.2500   -999.2500    921.0000     -0.4794
    -0.7500   -999.2500   -999.2500    921.0000     -0.4951
    -0.5000   -999.2500   -999.2500    921.0000     -0.4784
    -0.2500   -999.2500   -999.2500    921.0000     -0.4320
     0.0000   -999.2500   -999.2500    921.0000     -0.3750
     0.2500   -999.2500   -999.2500    921.0000     -0.3372
     0.5000   -999.2500   -999.2500    921.0000     -0.3386
     0.7500   -999.2500   -999.2500    921.0000     -0.3749
     1.0000   -999.2500   -999.2500    921.0000     -0.4213
     1.2500   -999.2500   -999.2500    921.0000     -0.4448
     1.5000   -999.2500   -999.2500    921.0000     -0.4094
     1.7500   -999.2500   -999.2500    921.0000     -0.3608
     2.0000   -999.2500   -999.2500    921.0000     -0.3207
     2.2500   -999.2500   -999.2500    921.0000     -0.3032
     2.5000   -999.2500   -999.2500    921.0000     -0.3101
     2.7500   -999.2500   -999.2500    921.0000     -0.3354
     3.0000   -999.2500   -999.2500    921.0000     -0.3694
     3.2500   -999.2500      0.0000    921.0000     -0.3980
     3.5000   -999.2500      0.0000    921.0000     -0.4064
     3.7500   -999.2500      0.0000    921.0000     -0.3887
     4.0000   -999.2500      0.0000    921.0000     -0.3544
     4.2500   -999.2500      0.0000    921.0000     -0.3198
     4.5000   -999.2500      0.0000    920.9580     -0.2896
     4.7500   -999.2500      0.0000    920.6819     -0.2454
     5.0000   -999.2500      0.0000    919.2762     -0.1244
     5.2500   -999.2500      0.0000    913.6994      0.2738
     5.5000   -999.2500      0.0000    896.4528      1.4961
     5.7500   -999.2500      0.0000    854.8688      4.6146
     6.0000   -999.2500      0.0000    776.6717     10.9696
     6.2500   -999.2500      0.0000    661.9459     21.2112
     6.5000   -999.2500      0.0000    530.5601     34.2459
     6.7500   -999.2500      0.0000    413.0392     47.3428
     7.0000   -999.2500      0.0000    330.8733     57.7157
     7.2500   -999.2500      0.0000    285.9280     64.1726
     7.5000   -999.2500      0.0000    266.6730     67.3283
     7.7500   -999.2500      0.0000    260.2087     68.5686
     8.0000   -999.2500      0.0000    258.5152     69.0300
     8.2500     48.4821      0.0000    258.1848     69.2904
     8.5000     45.1717      0.0000    258.1598     69.5369
     8.7500     43.8708      0.0000    258.1929     69.7894
     9.0000     44.9688      0.0000    258.2230     70.0225
     9.2500     47.3100      0.0000    258.2456     70.2107
     9.5000     49.7457      0.0000    258.2655     70.3355
     9.7500     52.0778      0.0000    258.2872     70.3887
    10.0000     54.3517      0.0000    258.3116     70.3882
    10.2500     55.9088      0.0000    258.3371     70.3791
    10.5000     55.8423      0.0000    258.3614     70.3998
    10.7500     54.3154      0.0000    258.3814     70.4532
    11.0000     52.7422      0.0000    258.3949     70.5218
    11.2500     52.4183      0.0000    258.4023     70.5995
    11.5000     53.2850      0.0000    258.4036     70.6939
    11.7500     54.1481      0.0000    258.3998     70.8059
    12.0000     53.8744      0.0000    258.3952     70.9214
    12.2500     52.2642      0.0000    258.3952     71.0090
    12.5000     49.8982      0.0000    258.4033     70.9952
    12.7500     47.4251      0.0000    258.4279     70.7042
    13.0000     45.2406      0.0000    258.5237     69.7916
    13.2500     43.7096      0.0000    258.8885     67.7750
    13.5000     43.1524      0.0000    260.0394     64.2443
    13.7500     43.4199      0.0000    262.9209     59.1491
    14.0000     43.9532      0.0000    268.9343     52.8933
    14.2500     44.5955      0.0000    280.2043     46.1383
    14.5000     46.0223      0.0000    300.7474     39.5075
    14.7500     49.0720      0.0000    337.4693     33.4007
    15.0000     53.7716      0.0000    397.3756     27.9643
    15.2500     59.0574      0.0000    480.1036     23.1728
    15.5000     63.2908      0.0000    573.2275     18.9613
    15.7500     65.2698      0.0000    658.7693     15.3150
    16.0000     65.0091      0.0000    726.1073     12.2587
    16.2500     63.4022      0.0000    777.0838      9.7970
    16.5000     61.2303      0.0000    818.9218      7.8954
    16.7500     58.9873      0.0000    855.0595      6.5093
    17.0000     57.4698      0.0000    883.4867      5.5912
    17.2500     57.5750      0.0000    901.0554      5.0632
    17.5000     59.1193      0.0000    906.6903      4.8066
    17.7500     60.5088      0.0000    901.1387      4.6996
    18.0000     60.1911      0.0000    886.2629      4.6556
    18.2500     58.2749      0.0000    865.5364      4.6257
    18.5000     56.4035      0.0000    844.0552      4.5797
    18.7500     56.1605      0.0000    826.8185      4.5029
    19.0000     57.6931      0.0000    816.5365      4.4073
    19.2500     59.6938      0.0000    812.2693      4.3284
    19.5000     60.5818      0.0000    809.8510      4.2986
    19.7500     59.7376      0.0000    805.2374      4.3231
    20.0000     57.6133      0.0000    798.4626      4.3774
    20.2500     54.8447      0.0000    793.3730      4.4269
    20.5000     51.6586      0.0000    792.9903      4.4486
    20.7500     48.3202      0.0000    796.0779      4.4405
    21.0000     45.7334      0.0000    798.5195      4.4187
    21.2500     44.9385      0.0000    797.6392      4.4035
    21.5000     45.9032      0.0000    795.0834      4.4049
    21.7500     47.3308      0.0000    795.2162      4.4152
    22.0000     47.8821      0.0000    800.5825      4.4184
    22.2500     47.1874      0.0000    810.0954      4.4064
    22.5000     45.6689      0.0000    821.7532      4.3877
    22.7500     44.0746      0.0000    834.3061      4.3793
    23.0000     43.4099      0.0000    845.2163      4.3937
    23.2500     44.6470      0.0000    850.3201      4.4315
    23.5000     48.0196      0.0000    847.7925      4.4801
    23.7500     52.9668      0.0000    840.1375      4.5238
    24.0000     59.0638      0.0000    830.2154      4.5595
    24.2500     66.4705      0.0000    816.3523      4.6035
    24.5000     75.0346      0.0000    793.1428      4.6751
    24.7500     83.6193      0.0000    757.6477      4.7765
    25.0000     91.0170      0.0000    715.4466      4.8897
    25.2500     97.1131      0.0000    680.7243      4.9909
    25.5000    102.4272      0.0000    667.9629      5.0598
    25.7500    106.6900      0.0000    680.7808      5.0774
    26.0000    108.7499      0.0000    708.9998      5.0286
    26.2500    108.1426      0.0000    737.8612      4.9175
    26.5000    105.8745      0.0000    758.5627      4.7749
    26.7500    102.9998      0.0000    767.6243      4.6413
    27.0000     99.2554      0.0000    759.8754      4.5430
    27.2500     94.2225      0.0000    729.7169      4.4892
    27.5000     89.3576      0.0000    680.8224      4.4824
    27.7500     87.4185      0.0000    629.0421      4.5258
    28.0000     89.5587      0.0000    591.5319      4.6238
    28.2500     93.7742      0.0000    573.5645      4.7788
    28.5000     96.6652      0.0000    566.6197      4.9819
    28.7500     96.3465      0.0000    556.1818      5.2053
    29.0000     93.4530      0.0000    531.2952      5.4097
    29.2500     89.9152      0.0000    491.7393      5.5648
    29.5000     87.3098      0.0000    448.1572      5.6637
    29.7500     86.1342      0.0000    413.2032      5.7200
    30.0000     86.0716      0.0000    392.2643      5.7541
