~Version Information
VERS.                      2.0: CWLS Log ASCII Standard - VERSION 2.0
WRAP.                       NO: One line per depth step
~Well Information Block
STRT.FT                -9.0000: 
STOP.FT              2130.0000: 
STEP.FT                 0.2500: 
NULL.                -999.2500: 
COMP.          Pioneer Natural Resources: COMPANY
WELL.               King 22-13: WELL
FLD.           Purgatorie River: FIELD
LOC.           2419' FNL & 1806' FWL: LOCATION
PROV.                 Colorado: PROVINCE
CNTY.               Las Animas: COUNTRY
SRVC.                Patterson: SERVICE COMPANY
DATE.          Wed Apr 20 09:20:28 2005: LOG DATE
UWI.           05-071-08318-00: UNIQUE WELL ID
~Curve Information Block
DEPT.FT            0 000 00 00: Depth
CCL.                          : Casing Collar Locator
TT3.usec                      : CBL 3' Travel Time
AMP3.mV                       : CBL 3' Amplitude
GR.GAPI                       : Gamma Ray
~Parameter Information Block
~A  Depth       CCL         TT3         AMP3         GR     
# ...
   560.5000      0.0000    838.5315      5.3538     51.5954
   560.7500      0.0000    850.1630      5.4416     47.9321
   561.0000      0.0000    858.0686      5.5383     44.6361
   561.2500      0.0000    855.6617      5.6277     41.1991
   561.5000      0.0000    843.7097      5.7002     37.9607
   561.7500      0.0000    826.8065      5.7621     36.0985
   562.0000      0.0000    809.4722      5.8289     36.5280
   562.2500      0.0000    796.9173      5.9097     38.8994
   562.5000      0.0000    795.6029      6.0005     41.7556
   562.7500      0.0000    810.2264      6.0934     43.6845
   563.0000      0.0000    839.4011      6.1848     44.3312
   563.2500      0.0000    873.4245      6.2730     44.3310
   563.5000      0.0000    898.0253      6.3513     44.5501
   563.7500      0.0000    904.7839      6.4149     45.6534
   564.0000      0.0000    899.4233      6.4770     48.0810
   564.2500      0.0000    895.9802      6.5724     51.8906
   564.5000      0.0000    900.3160      6.7376     56.5554
   564.7500      0.0000    902.1735      6.9858     61.2069
   565.0000      0.0000    886.8616      7.2984     65.1943
   565.2500      0.0000    852.8973      7.6328     68.3776
   565.5000      0.0000    813.5233      7.9318     70.9492
   565.7500      0.0000    782.0625      8.1305     73.0283
   566.0000      0.0000    761.6065      8.1747     74.3583
   566.2500      0.0000    749.1049      8.0479     74.3249
   566.5000      0.0000    743.0340      7.7772     72.3492
   566.7500      0.0000    743.6655      7.4084     68.4577
   567.0000      0.0000    749.3113      6.9792     63.5270
   567.2500      0.0000    756.3376      6.5204     58.7829
   567.5000      0.0000    762.2419      6.0692     54.9020
   567.7500      0.0000    766.7161      5.6710     51.7403
   568.0000      0.0000    770.5143      5.3643     48.9965
   568.2500      0.0000    774.3874      5.1634     46.8535
   568.5000      0.0000    778.2906      5.0578     45.8233
   568.7500      0.0000    780.8444      5.0248     46.1680
   569.0000      0.0000    780.3430      5.0400     47.5982
   569.2500      0.0000    776.7371      5.0833     49.5233
   569.5000      0.0000    772.0764      5.1414     51.6273
   569.7500      0.0000    768.9811      5.2070     54.1863
   570.0000      0.0000    769.0848      5.2728     57.7171
   570.2500      0.0000    772.4971      5.3336     62.2445
   570.5000      0.0000    777.7772      5.3978     66.9636
   570.7500      0.0000    782.4923      5.4927     70.6887
   571.0000      0.0000    784.7511      5.6453     72.7064
   571.2500      0.0000    784.5432      5.8551     73.1883
   571.5000      0.0000    783.2432      6.0910     72.7896
   571.7500      0.0000    782.0177      6.3154     72.0020
   572.0000      0.0000    781.1484      6.5001     71.0082
   572.2500      0.0000    780.4443      6.6174     70.0549
   572.5000      0.0000    779.7914      6.6355     69.6910
   572.7500      0.0000    779.5917      6.5394     70.3478
   573.0000      0.0000    780.6288      6.3501     71.8067
   573.2500      0.0000    782.8701      6.1143     73.5088
   573.5000      0.0000    784.5960      5.8788     75.4086
   573.7500      0.0000    783.6463      5.6751     77.9688
   574.0000      0.0000    779.6495      5.5158     81.1128
   574.2500      0.0000    774.5231      5.3972     83.6568
   574.5000      0.0000    770.9910      5.3055     84.1096
   574.7500      0.0000    771.3263      5.2257     81.9085
   575.0000      0.0000    777.1179      5.1482     77.7938
   575.2500      0.0000    788.4216      5.0703     73.1570
   575.5000      0.0000    801.6433      4.9953     69.0990
   575.7500      0.0000    809.1834      4.9297     65.8886
   576.0000      0.0000    804.2065      4.8859     63.0377
   576.2500      0.0000    787.3513      4.8895     59.8815
   576.5000      0.0000    767.2935      4.9636     56.3181
   576.7500      0.0000    753.6262      5.0861     53.1176
   577.0000      0.0000    750.7059      5.1752     51.3988
   577.2500      0.0000    759.0594      5.1570     51.6416
   577.5000      0.0000    779.5203      5.0415     53.1771
   577.7500      0.0000    812.2062      4.9053     54.7106
   578.0000     -5.0000    851.4402      4.8115     55.5212
   578.2500      5.0000    885.8246      4.7737     56.3131
   578.5000      0.0000    907.1505      4.7849     58.7665
   578.7500      0.0000    917.6813      4.8583     64.0171
   579.0000      0.0000    924.2546      5.0313     71.5333
   579.2500      0.0000    926.8834      5.3157     79.4822
   579.5000      0.0000    918.8433      5.6314     85.9493
   579.7500      0.0000    897.3905      5.8259     89.7475
   580.0000      0.0000    869.2313      5.8015     90.5337
   580.2500      0.0000    844.9816      5.6069     88.6980
   580.5000      0.0000    831.2277      5.3749     85.0592
   580.7500      0.0000    827.7509      5.1960     80.3490
   581.0000      0.0000    829.7636      5.0778     75.0550
   581.2500      0.0000    831.6531      4.9931     69.8641
   581.5000      0.0000    829.4446      4.9282     65.8737
   581.7500      0.0000    821.4891      4.8882     64.0233
   582.0000      0.0000    808.5303      4.8775     64.4497
   582.2500      0.0000    793.5249      4.8876     66.4280
   582.5000      0.0000    780.2954      4.8993     68.7179
   582.7500      0.0000    771.4407      4.8945     70.2584
   583.0000      0.0000    767.3677      4.8655     70.9965
   583.2500      0.0000    767.0377      4.8182     71.8393
   583.5000      0.0000    768.9346      4.7683     73.4112
   583.7500      0.0000    771.2967      4.7332     75.0831
   584.0000      0.0000    772.3732      4.7227     75.5063
   584.2500      0.0000    771.3231      4.7347     73.9384
   584.5000      0.0000    768.7723      4.7593     70.9091
   584.7500      0.0000    766.0842      4.7863     67.8415
   585.0000      0.0000    764.1732      4.8116     66.2412
   585.2500      0.0000    763.1335      4.8362     67.0813
   585.5000      0.0000    762.6744      4.8612     70.4880
   585.7500      0.0000    762.5455      4.8847     75.6317
   586.0000      0.0000    762.6106      4.9046     80.8999
   586.2500      0.0000    762.8059      4.9205     84.5086
   586.5000      0.0000    763.2009      4.9322     85.5175
   586.7500      0.0000    764.0797      4.9407     84.5844
   587.0000      0.0000    765.7925      4.9506     83.4631
   587.2500      0.0000    768.2585      4.9680     83.4298
   587.5000      0.0000    770.5502      4.9948     84.2899
   587.7500      0.0000    771.3033      5.0263     84.9404
   588.0000      0.0000    769.8864      5.0558     84.5293
   588.2500      0.0000    767.0369      5.0782     82.9637
   588.5000      0.0000    764.1351      5.0919     80.6735
   588.7500      0.0000    762.0487      5.0968     78.3027
   589.0000      0.0000    760.8083      5.0939     76.6540
   589.2500      0.0000    760.0649      5.0863     76.4879
   589.5000      0.0000    759.5530      5.0805     77.9182
   589.7500      0.0000    759.2017      5.0839     80.0829
   590.0000      0.0000    759.0259      5.1027     81.7927
   590.2500      0.0000    759.0112      5.1400     82.6091
   590.5000      0.0000    759.0865      5.1947     83.0240
   590.7500      0.0000    759.1768      5.2574     83.4852
   591.0000      0.0000    759.2466      5.3126     83.6894
   591.2500      0.0000    759.2955      5.3467     83.0808
   591.5000      0.0000    759.3330      5.3553     81.6283
   591.7500      0.0000    759.3675      5.3425     79.9622
   592.0000      0.0000    759.4069      5.3179     79.1830
   592.2500      0.0000    759.4601      5.2930     80.4500
   592.5000      0.0000    759.5342      5.2790     83.9982
   592.7500      0.0000    759.6301      5.2813     88.3896
   593.0000      0.0000    759.7413      5.2955     91.2322
   593.2500      0.0000    759.8571      5.3100     90.7442
   593.5000      0.0000    759.9663      5.3149     86.6496
   593.7500      0.0000    760.0638      5.3100     80.1447
