~Version Information
VERS.                      2.0: CWLS Log ASCII Standard - VERSION 2.0
WRAP.                       NO: One line per depth step
~Well Information Block
STRT.FT               238.0000: 
STOP.FT              1377.0000: 
STEP.FT                 0.1000: 
NULL.                -999.2500: 
COMP.          Pioneer Natural Resources: COMPANY
WELL.             Raptor 44-26: WELL
FLD.           Purgatoire River: FIELD
LOC.           180' FSL & 812' FEL: LOCATION
PROV.                 Colorado: PROVINCE
CNTY.               Las Animas: COUNTRY
SRVC.                Patterson: SERVICE COMPANY
DATE.          Tue Mar 22 15:28:33 2005: LOG DATE
UWI.           05 071 08187 00: UNIQUE WELL ID
~Curve Information Block
DEPT.FT            0 000 00 00: Depth
DCAL.in                       : CDL Caliper
RHOB.g/cc                     : CDL Bulk Density
RHOC.g/cc                     : CDL Density Correction
DPOR.pu                       : CDL Density Porosity
GR.GAPI                       : Gamma Ray
NPOR.pu                       : Neutron Porosity
~Parameter Information Block
~A  Depth       DCAL        RHOB        RHOC        DPOR         GR         NPOR    
# ...
  1063.6000      7.9456      2.5153      0.0821      8.1649     86.9745     23.3888
  1063.7000      7.9456      2.5180      0.0682      8.0019     85.0149     22.5491
  1063.8000      7.9430      2.5264      0.0771      7.4900     85.8914     21.8452
  1063.9000      7.9430      2.5304      0.0768      7.2506     93.0603     21.9934
  1064.0000      7.9255      2.5280     -0.0004      7.3937    104.8814     22.2482
  1064.1000      7.9255      2.5168      0.0575      8.0729    113.1794     22.7459
  1064.2000      7.9255      2.4908      0.0216      9.6493    114.4673     24.7157
  1064.3000      7.8875      2.4697     -0.0223     10.9245    114.7093     27.4500
  1064.4000      7.8875      2.4723      0.0458     10.7703    116.9172     29.0580
  1064.5000      7.8515      2.4814      0.0432     10.2174    115.9837     29.1239
  1064.6000      7.8515      2.4748      0.0914     10.6183    108.1118     28.7265
  1064.7000      7.8515      2.4565      0.0237     11.7262     98.8686     28.0381
  1064.8000      7.8550      2.4543     -0.0290     11.8625     93.3861     26.7048
  1064.9000      7.8550      2.4795      0.0824     10.3355     90.5800     25.4843
  1065.0000      7.8351      2.5056      0.1065      8.7525     91.6852     24.7354
  1065.1000      7.8351      2.5128      0.0851      8.3142     96.8519     24.2577
  1065.2000      7.8351      2.5120      0.0746      8.3659     99.5684     24.0552
  1065.3000      7.8412      2.5135      0.0662      8.2719     97.6284     24.6125
  1065.4000      7.8412      2.5143      0.0766      8.2272     96.5977     26.0137
  1065.5000      7.8439      2.5069      0.0957      8.6713     99.0667     27.1354
  1065.6000      7.8439      2.4920      0.0217      9.5730    101.0386     26.8696
  1065.7000      7.8439      2.4883     -0.0309      9.8006     99.3083     25.1105
  1065.8000      7.8516      2.5121      0.0322      8.3582     94.2521     23.1482
  1065.9000      7.8516      2.5487      0.1222      6.1388     87.9572     22.5383
  1066.0000      7.8544      2.5690      0.0817      4.9103     82.8166     23.6946
  1066.1000      7.8544      2.5714      0.0534      4.7650     79.9972     25.5806
  1066.2000      7.8544      2.5763      0.0682      4.4691     79.6772     25.2388
  1066.3000      7.8454      2.5878      0.0344      3.7726     81.3960     21.6732
  1066.4000      7.8454      2.5851      0.0706      3.9320     82.3463     19.0094
  1066.5000      7.8352      2.5574      0.0541      5.6129     80.2169     19.8943
  1066.6000      7.8352      2.5291     -0.0167      7.3252     79.2147     22.6832
  1066.7000      7.8352      2.5181      0.0665      7.9952     81.3722     23.6905
  1066.8000      7.8321      2.5204     -0.0119      7.8564     81.7958     22.8832
  1066.9000      7.8321      2.5370      0.0439      6.8491     79.1710     22.2247
  1067.0000      7.8375      2.5550      0.1118      5.7567     77.7505     21.1976
  1067.1000      7.8375      2.5590      0.0662      5.5178     79.4623     19.1893
  1067.2000      7.8375      2.5568      0.0407      5.6496     82.0872     17.6687
  1067.3000      7.8268      2.5545      0.0299      5.7884     82.7146     17.6885
  1067.4000      7.8268      2.5538      0.0281      5.8279     80.8858     18.6220
  1067.5000      7.8225      2.5635      0.0339      5.2423     78.8995     19.6267
  1067.6000      7.8225      2.5789      0.0869      4.3068     77.4765     21.2707
  1067.7000      7.8225      2.5869      0.0581      3.8267     76.7440     23.1911
  1067.8000      7.8339      2.5853      0.0523      3.9198     78.6795     23.6048
  1067.9000      7.8339      2.5753      0.0510      4.5275     80.9881     22.6590
  1068.0000      7.8432      2.5579     -0.0015      5.5791     79.5074     21.4491
  1068.1000      7.8432      2.5411      0.0179      6.5974     75.2376     20.3812
  1068.2000      7.8432      2.5310      0.0306      7.2103     72.4839     20.4386
  1068.3000      7.8485      2.5286      0.0158      7.3594     73.4779     21.8690
  1068.4000      7.8485      2.5399      0.0041      6.6750     75.7667     22.7486
  1068.5000      7.8522      2.5598      0.0772      5.4694     77.2846     22.4342
  1068.6000      7.8522      2.5614      0.0523      5.3676     78.2187     22.5786
  1068.7000      7.8522      2.5379      0.0123      6.7951     79.7526     23.5055
  1068.8000      7.8519      2.5106      0.0115      8.4515     83.1262     23.5055
  1068.9000      7.8519      2.4993     -0.0447      9.1362     86.5930     21.8276
  1069.0000      7.8573      2.5075      0.0232      8.6351     86.8875     20.5764
  1069.1000      7.8573      2.5233      0.0537      7.6775     84.2075     20.9522
  1069.2000      7.8573      2.5449     -0.0021      6.3720     80.6505     22.2863
  1069.3000      7.8577      2.5737      0.0531      4.6248     79.7683     23.9213
  1069.4000      7.8577      2.5850      0.0551      3.9418     83.5953     25.0881
  1069.5000      7.8648      2.5625      0.0646      5.3021     87.8228     25.2622
  1069.6000      7.8648      2.5267      0.0592      7.4703     89.3265     25.3540
  1069.7000      7.8648      2.5032      0.0314      8.8980     89.3782     26.1355
  1069.8000      7.8684      2.4947     -0.0031      9.4116     88.7601     26.3231
  1069.9000      7.8684      2.4924     -0.0243      9.5527     88.9401     24.2656
  1070.0000      7.8800      2.4927      0.0296      9.5352     92.0740     21.8257
  1070.1000      7.8800      2.4994      0.0110      9.1262     96.6752     21.5838
  1070.2000      7.8800      2.5141      0.0591      8.2345     98.2033     22.9500
  1070.3000      7.8765      2.5261      0.0440      7.5078     94.8170     23.3276
  1070.4000      7.8765      2.5285      0.0290      7.3667     90.4510     22.3703
  1070.5000      7.8712      2.5320      0.0112      7.1502     89.9493     21.7178
  1070.6000      7.8712      2.5477      0.0639      6.1997     92.7044     21.5408
  1070.7000      7.8712      2.5637      0.0780      5.2295     96.7260     21.2266
  1070.8000      7.8766      2.5633      0.0348      5.2552     99.5266     21.3272
  1070.9000      7.8766      2.5424      0.0458      6.5201     97.0294     22.3322
  1071.0000      7.8632      2.5069      0.0211      8.6735     92.4642     23.4174
  1071.1000      7.8632      2.4763     -0.0366     10.5243     91.9051     23.9641
  1071.2000      7.8632      2.4626      0.0236     11.3601     94.2024     23.6606
  1071.3000      7.8613      2.4572     -0.0222     11.6869     94.0818     22.0702
  1071.4000      7.8613      2.4568      0.0296     11.7102     89.6639     20.7713
  1071.5000      7.8399      2.4643      0.0346     11.2572     86.3034     21.2728
  1071.6000      7.8399      2.4786      0.0557     10.3855     90.3137     22.9901
  1071.7000      7.8399      2.4954      0.0458      9.3671     98.1777     24.5801
  1071.8000      7.8257      2.5116      0.0597      8.3882    101.5145     24.7901
  1071.9000      7.8257      2.5220      0.0642      7.7575    100.3665     24.3131
  1072.0000      7.8269      2.5203      0.0778      7.8628     97.9309     24.7076
  1072.1000      7.8269      2.5190      0.0321      7.9369     96.3031     25.5296
  1072.2000      7.8269      2.5364      0.0573      6.8866     97.3431     25.4169
  1072.3000      7.8410      2.5621      0.0955      5.3299     97.8784     24.3182
  1072.4000      7.8410      2.5741      0.0779      4.6017     94.0493     22.7646
  1072.5000      7.8214      2.5710      0.0472      4.7886     87.5043     20.5188
  1072.6000      7.8214      2.5655      0.0246      5.1207     83.1222     18.5541
  1072.7000      7.8214      2.5493      0.0839      6.1005     83.9204     19.0783
  1072.8000      7.8353      2.5044      0.0531      8.8260     88.7994     22.7110
  1072.9000      7.8353      2.4409      0.0106     12.6707     93.4726     26.8110
  1073.0000      7.8229      2.3790     -0.0054     16.4215     95.1946     28.1885
  1073.1000      7.8229      2.3242     -0.0084     19.7430     94.3594     27.9701
