~Version Information
VERS.                      2.0: CWLS Log ASCII Standard - VERSION 2.0
WRAP.                       NO: One line per depth step
~Well Information Block
STRT.FT              1882.7500: 
STOP.FT              2400.5000: 
STEP.FT                 0.2500: 
NULL.                -999.2500: 
COMP.          Pioneer Natural Resources: COMPANY
WELL.          Flying Horse 12-11: WELL
FLD.           Purgatoire River: FIELD
LOC.           2,428' FNL & 308' FWL------: LOCATION
PROV.                 Colorado: PROVINCE
CNTY.               Las Animas: COUNTRY
SRVC.                         : SERVICE COMPANY
DATE.          Fri Jun 10 06:52:30 2005: LOG DATE
UWI.                          : UNIQUE WELL ID
~Curve Information Block
DEPT.FT            0 000 00 00: Depth
CCL.                          : Casing Collar Locator
TT3.usec                      : CBL 3' Travel Time
AMP3.mV                       : CBL 3' Amplitude
AMP5.mV                       : CBL 5' Amplitude
GR.GAPI                       : Gamma Ray
~Parameter Information Block
~A  Depth       CCL         TT3         AMP3        AMP5         GR     
# ...
  2106.7500      0.0000    679.5853      5.8966      0.3870     46.7121
  2107.0000      0.0000    674.9715      6.3024      1.9539     47.2683
  2107.2500      0.0000    671.5014      6.5859      0.2129     48.4837
  2107.5000      0.0000    669.3286      6.7227      0.3000     50.3229
  2107.7500      0.0000    667.8685      6.7203      0.6482     53.2901
  2108.0000      0.0000    666.6094      6.5963      0.7352     57.8320
  2108.2500      0.0000    665.2708      6.3723      0.4741     63.6156
  2108.5000      0.0000    663.5428      6.0767      0.5611     69.7512
  2108.7500      0.0000    660.6705      5.7497      0.4741     75.6904
  2109.0000      0.0000    655.0056      5.4396      0.3870     81.6386
  2109.2500      0.0000    644.4490      5.1855      0.4741     87.9629
  2109.5000      0.0000    628.6458      5.0013      0.4741     94.1365
  2109.7500      0.0000    611.5423      4.8786      0.4741     98.3695
  2110.0000      0.0000    600.5079      4.8056      0.0389     98.7511
  2110.2500      0.0000    601.1108      4.7759      0.3000     94.9762
  2110.5000      0.0000    612.6866      4.7831      0.3000     88.5621
  2110.7500      0.0000    629.4282      4.8152      0.2129     81.3895
  2111.0000      0.0000    645.0339      4.8597      0.2129     74.6361
  2111.2500      0.0000    656.0897      4.9079      0.4741     69.0478
  2111.5000      0.0000    662.3729      4.9503      0.2129     65.3143
  2111.7500      0.0000    665.3207      4.9733      0.2129     63.7471
  2112.0000      0.0000    666.4766      4.9636      0.2129     63.9598
  2112.2500      0.0000    666.8250      4.9166      0.4741     65.1311
  2112.5000      0.0000    666.8342      4.8422      0.3870     66.5805
  2112.7500      0.0000    666.7243      4.7634      0.1259     68.1873
  2113.0000      0.0000    666.6129      4.7092      0.5611     70.2614
  2113.2500      0.0000    666.5869      4.7010      0.3870     72.8633
  2113.5000      0.0000    666.6840      4.7395      0.0389     75.3444
  2113.7500      0.0000    666.8802      4.7995     -0.0482     76.8430
  2114.0000      0.0000    667.1136      4.8417      0.2129     77.1668
  2114.2500      0.0000    667.3243      4.8380      0.3000     76.7917
  2114.5000      0.0000    667.4562      4.7898      0.2129     76.0009
  2114.7500      0.0000    667.4274      4.7266     -0.0482     74.5356
  2115.0000      0.0000    667.0308      4.6827      0.1259     72.3423
  2115.2500      0.0000    665.6667      4.6717      0.4741     70.3390
  2115.5000      0.0000    661.9575      4.6800      0.3000     70.0900
  2115.7500      0.0000    653.7665      4.6845      0.3870     72.6726
  2116.0000      0.0000    639.5298      4.6741      0.2129     77.7853
  2116.2500      0.0000    620.4141      4.6559      0.3000     83.6605
  2116.5000      0.0000    600.5057      4.6467      0.2129     87.8994
  2116.7500      0.0000    583.6108      4.6633      0.1259     88.9777
  2117.0000      0.0000    570.3913      4.7140      0.0389     87.1768
  2117.2500      0.0000    560.0046      4.7948      0.5611     83.8707
  2117.5000      0.0000    553.2686      4.8890      0.3870     80.1879
  2117.7500      0.0000    551.6863      4.9702      0.2129     76.7546
  2118.0000      0.0000    553.8447      5.0115      0.3000     74.2720
  2118.2500      0.0000    555.6132      4.9990      0.3870     73.4941
  2118.5000      0.0000    555.1240      4.9393      0.3870     74.4475
  2118.7500      0.0000    556.1383      4.8502      0.3000     76.0548
  2119.0000      0.0000    564.9528      4.7485      0.5611     76.8353
  2119.2500      0.0000    584.0201      4.6510      0.3870     76.0300
  2119.5000      0.0000    609.1355      4.5830      0.3000     74.1284
  2119.7500      0.0000    632.6668      4.5765      0.2129     72.4452
  2120.0000      0.0000    648.9059      4.6522      0.3000     72.1882
  2120.2500      0.0000    656.1920      4.8047      0.5611     73.7639
  2120.5000      0.0000    655.1348      5.0004      0.5611     76.9415
  2120.7500      0.0000    646.5865      5.1910      0.2129     81.6756
  2121.0000      0.0000    631.8331      5.3366      0.3000     88.6563
  2121.2500      0.0000    613.6069      5.4235      0.3870     98.9205
  2121.5000      0.0000    595.5144      5.4640      0.6482    112.7420
  2121.7500      0.0000    580.3121      5.4815      0.3870    128.8007
  2122.0000      0.0000    569.1194      5.4939      0.3870    144.5904
  2122.2500      0.0000    561.9112      5.5087      0.5611    157.9305
  2122.5000      0.0000    558.0894      5.5238      0.3870    168.1156
  2122.7500      0.0000    556.6663      5.5319      0.5611    175.5533
  2123.0000      0.0000    556.4696      5.5226      0.5611    180.5789
  2123.2500      0.0000    556.4760      5.4844      0.1259    182.9352
  2123.5000      0.0000    556.0463      5.4110      0.2129    182.2798
  2123.7500      0.0000    554.9828      5.3091      0.3000    178.9250
  2124.0000      0.0000    553.5151      5.1978      0.4741    173.9334
  2124.2500      0.0000    552.3448      5.1000      0.4741    168.4108
  2124.5000      0.0000    552.7092      5.0316      0.3000    162.7680
  2124.7500      0.0000    556.1202      4.9910      0.2129    156.6911
  2125.0000      0.0000    563.4639      4.9589      0.2129    149.4425
  2125.2500      0.0000    573.8927      4.9107      0.2129    140.1025
  2125.5000      0.0000    584.6354      4.8339      0.2129    128.2797
  2125.7500      0.0000    592.6605      4.7324      0.2129    114.8967
  2126.0000      0.0000    597.3981      4.6200      0.4741    101.7042
  2126.2500      0.0000    601.5781      4.5108      0.1259     90.0296
  2126.5000      0.0000    607.8926      4.4152      0.3000     80.4456
  2126.7500      0.0000    614.3879      4.3359      0.2129     73.1798
  2127.0000      0.0000    614.9069      4.2707      0.3870     68.0604
  2127.2500      0.0000    605.5139      4.2223      0.0389     64.4345
  2127.5000      0.0000    589.6038      4.2027      0.1259     61.8381
  2127.7500      0.0000    575.4422      4.2252      0.1259     60.4845
  2128.0000      0.0000    569.2247      4.2907      0.3000     60.6391
  2128.2500      0.0000    571.4243      4.3841      0.3870     61.9160
  2128.5000      0.0000    579.1102      4.4808      0.2129     63.5142
  2128.7500      0.0000    589.9450      4.5596      0.0389     64.7577
  2129.0000      0.0000    603.0949      4.6101      0.3870     65.1823
  2129.2500      0.0000    617.6196      4.6299      0.1259     64.6094
  2129.5000      0.0000    632.3696      4.6174      0.1259     63.4120
  2129.7500      0.0000    647.9440      4.5742      0.3000     62.2825
  2130.0000      0.0000    666.3128      4.5143      0.4741     61.5131
  2130.2500      0.0000    686.9972      4.4641      0.2129     60.8532
  2130.5000      0.0000    705.3733      4.4462      0.1259     60.1660
  2130.7500      0.0000    716.2874      4.4650      0.3870     59.7139
  2131.0000      0.0000    718.4384      4.5090      0.2129     59.5769
  2131.2500      0.0000    714.7019      4.5672      0.1259     59.2635
  2131.5000      0.0000    709.2425      4.6406      0.4741     58.2824
  2131.7500      0.0000    704.9078      4.7423      0.3870     56.9317
  2132.0000      0.0000    702.6785      4.8869      0.6482     56.3484
  2132.2500      0.0000    702.5871      5.0743      0.4741     57.8596
  2132.5000      0.0000    704.6988      5.2795      0.5611     62.0581
  2132.7500      0.0000    709.0695      5.4595      0.3870     68.0121
  2133.0000      0.0000    714.6973      5.5752      0.5611     73.3062
  2133.2500      0.0000    718.4830      5.6081      0.5611     75.4210
  2133.5000      0.0000    715.6436      5.5662      0.4741     73.5720
  2133.7500      0.0000    702.2990      5.4785      0.2129     69.2485
  2134.0000      0.0000    679.0521      5.3787      0.4741     64.9913
  2134.2500      0.0000    652.3984      5.2822      0.4741     62.8738
  2134.5000      0.0000    631.5634      5.1738      0.3000     63.8903
