~Version Information
 VERS.                      2.0: CWLS Log ASCII Standard - VERSION 2.0
 WRAP.                       NO: One line per depth step
 ~Well Information Block
 STRT.FT               130.0000: 
 STOP.FT              1766.9000: 
 STEP.FT                 0.1000: 
 NULL.                -999.2500: 
 COMP.          Petrogulf Corporation: COMPANY
 WELL.           Parsons 23-15V: WELL
 FLD.           Purgatorie River: FIELD
 LOC.           2095' FSL & 1817' FWL--API 05 071 07556 00----: LOCATION
 CNTY.               Las Animas: COUNTY
 SRVC.                         : SERVICE COMPANY
 DATE.          Fri Apr 19 17:40:55 2002: LOG DATE
 UWI.                          : UNIQUE WELL ID
 STAT.                       CO: STATE
 PROV.                         :Province
 ~Curve Information Block
 DEPT.FT            0 000 00 00: Depth
 DCAL.in                       : CDL Caliper
 RHOB.g/cc                     : CDL Bulk Density
 RHOC.g/cc                     : CDL Density Correction
 DPOR.pu                       : CDL Density Porosity
 GR.GAPI                       : Gamma Ray
 NPOR.pu                       : Neutron Porosity
 ~Parameter Information Block
 ~A  Depth       DCAL        RHOB        RHOC        DPOR         GR         NPOR    
# ...
   571.6000      8.3649      2.0110      0.1222     38.7274    120.5691     33.3417
   571.7000      8.3649      2.0498      0.1292     36.3759    123.9192     33.1776
   571.8000      8.5862      2.0919      0.1338     33.8228    127.7146     32.9634
   571.9000      8.5862      2.1364      0.1358     31.1244    131.7685     32.7002
   572.0000      8.6207      2.1824      0.1355     28.3405    135.8851     32.3896
   572.1000      8.6207      2.2287      0.1333     25.5323    139.8870     32.0340
   572.2000      8.6207      2.2745      0.1295     22.7602    143.6234     31.6349
   572.3000      8.3742      2.3187      0.1246     20.0809    146.9915     31.1937
   572.4000      8.3742      2.3605      0.1189     17.5451    149.9391     30.7134
   572.5000      8.1074      2.3993      0.1127     15.1954    152.4641     30.1984
   572.6000      8.1074      2.4344      0.1061     13.0642    154.6048     29.6574
   572.7000      8.1074      2.4657      0.0993     11.1726    156.4287     29.1037
   572.8000      7.9979      2.4927      0.0923      9.5303    158.0159     28.5543
   572.9000      7.9979      2.5158      0.0855      8.1360    159.4444     28.0301
   573.0000      7.9830      2.5349      0.0789      6.9784    160.7742     27.5526
   573.1000      7.9830      2.5504      0.0728      6.0384    162.0446     27.1426
   573.2000      7.9830      2.5627      0.0671      5.2911    163.2725     26.8173
   573.3000      7.9879      2.5723      0.0620      4.7082    164.4549     26.5877
   573.4000      7.9879      2.5797      0.0575      4.2600    165.5758     26.4562
   573.5000      7.9918      2.5854      0.0534      3.9174    166.6148     26.4171
   573.6000      7.9918      2.5897      0.0499      3.6537    167.5486     26.4554
   573.7000      7.9918      2.5932      0.0468      3.4448    168.3614     26.5495
   573.8000      7.9941      2.5960      0.0442      3.2704    169.0422     26.6747
   573.9000      7.9941      2.5986      0.0420      3.1137    169.5831     26.8063
   574.0000      7.9987      2.6011      0.0403      2.9615    169.9789     26.9237
   574.1000      7.9987      2.6037      0.0390      2.8040    170.2223     27.0142
   574.2000      7.9987      2.6065      0.0383      2.6341    170.3003     27.0735
   574.3000      8.0045      2.6096      0.0381      2.4478    170.1916     27.1059
   574.4000      8.0045      2.6130      0.0383      2.2432    169.8719     27.1209
   574.5000      8.0020      2.6167      0.0388      2.0209    169.3053     27.1299
   574.6000      8.0020      2.6206      0.0395      1.7835    168.4589     27.1421
   574.7000      8.0020      2.6247      0.0402      1.5352    167.3042     27.1616
   574.8000      7.9900      2.6288      0.0407      1.2820    165.8239     27.1860
   574.9000      7.9900      2.6330      0.0408      1.0306    164.0183     27.2071
   575.0000      7.9821      2.6370      0.0405      0.7883    161.9025     27.2126
   575.1000      7.9821      2.6407      0.0397      0.5621    159.5066     27.1888
   575.2000      7.9821      2.6441      0.0383      0.3583    156.8630     27.1235
   575.3000      7.9826      2.6470      0.0363      0.1813    154.0022     27.0068
   575.4000      7.9826      2.6494      0.0338      0.0341    150.9417     26.8326
   575.5000      7.9807      2.6514      0.0310     -0.0832    147.6833     26.5955
   575.6000      7.9807      2.6528      0.0280     -0.1721    144.2181     26.2926
   575.7000      7.9807      2.6539      0.0251     -0.2367    140.5299     25.9193
   575.8000      7.9756      2.6547      0.0226     -0.2823    136.6063     25.4709
   575.9000      7.9756      2.6552      0.0205     -0.3149    132.4473     24.9423
   576.0000      7.9702      2.6556      0.0192     -0.3406    128.0726     24.3306
   576.1000      7.9702      2.6560      0.0187     -0.3647    123.5229     23.6364
   576.2000      7.9702      2.6564      0.0189     -0.3908    118.8557     22.8664
   576.3000      7.9621      2.6569      0.0198     -0.4204    114.1509     22.0343
   576.4000      7.9621      2.6575      0.0211     -0.4527    109.5019     21.1603
   576.5000      7.9519      2.6580      0.0227     -0.4848    105.0091     20.2697
   576.6000      7.9519      2.6584      0.0242     -0.5116    100.7811     19.3904
   576.7000      7.9519      2.6587      0.0256     -0.5268     96.9278     18.5495
   576.8000      7.9402      2.6586      0.0265     -0.5239     93.5541     17.7707
   576.9000      7.9402      2.6582      0.0270     -0.4961     90.7542     17.0732
   577.0000      7.9311      2.6572      0.0271     -0.4383     88.6144     16.4700
   577.1000      7.9311      2.6557      0.0268     -0.3467     87.2074     15.9690
   577.2000      7.9311      2.6536      0.0265     -0.2201     86.5891     15.5734
   577.3000      7.9274      2.6510      0.0262     -0.0596     86.8035     15.2826
   577.4000      7.9274      2.6478      0.0263      0.1311     87.8815     15.0933
   577.5000      7.9275      2.6443      0.0270      0.3462     89.8365     15.0013
   577.6000      7.9275      2.6405      0.0282      0.5781     92.6623     15.0014
   577.7000      7.9275      2.6365      0.0301      0.8183     96.3271     15.0886
   577.8000      7.9260      2.6326      0.0327      1.0576    100.7639     15.2582
   577.9000      7.9260      2.6288      0.0358      1.2871    105.8716     15.5068
   578.0000      7.9252      2.6253      0.0393      1.4988    111.5086     15.8320
   578.1000      7.9252      2.6222      0.0430      1.6858    117.5012     16.2325
   578.2000      7.9252      2.6196      0.0466      1.8427    123.6490     16.7063
   578.3000      7.9260      2.6176      0.0500      1.9658    129.7417     17.2510
   578.4000      7.9260      2.6161      0.0529      2.0527    135.5726     17.8609
   578.5000      7.9252      2.6153      0.0552      2.1029    140.9547     18.5265
   578.6000      7.9252      2.6151      0.0568      2.1168    145.7344     19.2335
   578.7000      7.9252      2.6154      0.0577      2.0960    149.7998     19.9627
   578.8000      7.9259      2.6163      0.0580      2.0428    153.0887     20.6914
   578.9000      7.9259      2.6177      0.0578      1.9604    155.5860     21.3955
   579.0000      7.9296      2.6194      0.0572      1.8525    157.3229     22.0522
   579.1000      7.9296      2.6216      0.0565      1.7232    158.3654     22.6427
   579.2000      7.9296      2.6240      0.0558      1.5771    158.8046     23.1541
   579.3000      7.9331      2.6266      0.0552      1.4193    158.7468     23.5802
   579.4000      7.9331      2.6293      0.0548      1.2551    158.3055     23.9225
   579.5000      7.9345      2.6320      0.0546      1.0902    157.5869     24.1878
   579.6000      7.9345      2.6347      0.0545      0.9300    156.6897     24.3872
   579.7000      7.9345      2.6371      0.0544      0.7799    155.7007     24.5336
   579.8000      7.9343      2.6394      0.0541      0.6449    154.6933     24.6400
   579.9000      7.9343      2.6413      0.0537      0.5293    153.7276     24.7170
   580.0000      7.9337      2.6428      0.0529      0.4362    152.8457     24.7717
   580.1000      7.9337      2.6439      0.0519      0.3682    152.0744     24.8078
   580.2000      7.9337      2.6446      0.0505      0.3263    151.4262     24.8257
   580.3000      7.9337      2.6449      0.0489      0.3107    150.8934     24.8233
   580.4000      7.9337      2.6447      0.0471      0.3203    150.4533     24.7981
   580.5000      7.9350      2.6442      0.0451      0.3534    150.0687     24.7478
   580.6000      7.9350      2.6433      0.0429      0.4075    149.6957     24.6717
   580.7000      7.9350      2.6421      0.0406      0.4797    149.2828     24.5701
   580.8000      7.9382      2.6406      0.0382      0.5668    148.7805     24.4445
   580.9000      7.9382      2.6390      0.0357      0.6660    148.1470     24.2962
   581.0000      7.9447      2.6372      0.0333      0.7743    147.3478     24.1255
   581.1000      7.9447      2.6353      0.0309      0.8890    146.3591     23.9319
