~Version Information
VERS.                      2.0: CWLS Log ASCII Standard - VERSION 2.0
WRAP.                       NO: One line per depth step
~Well Information Block
STRT.FT               845.0000: 
STOP.FT              2308.2500: 
STEP.FT                 0.2500: 
NULL.                -999.2500: 
COMP.          Pioneer Natural Resources: COMPANY
WELL.             Vector 33-23: WELL
FLD.           Purgatoire River: FIELD
LOC.           1560' FEL & 1988' FSL----: LOCATION
PROV.                 Colorado: PROVINCE
CNTY.               Las Animas: COUNTRY
SRVC.                Patterson: SERVICE COMPANY
DATE.          Sat Mar 26 12:39:07 2005: LOG DATE
UWI.           05 071 08336 00: UNIQUE WELL ID
~Curve Information Block
DEPT.FT            0 000 00 00: Depth
SN.Ohm-m                      : IEL Short Normal
SP.mV                         : IEL Spontaneous Potential
DIR.Ohm-m                     : IEL Induction Resistivity
GR.GAPI                       : Gamma Ray
~Parameter Information Block
~A  Depth        SN          SP         DIR          GR     
# ...
  1816.5000      9.0933    -82.0446     10.1652    107.6113
  1816.7500      9.0792    -81.6121     10.1359    108.4271
  1817.0000      9.0909    -81.2030     10.1064    109.0783
  1817.2500      9.1163    -80.8430     10.0794    108.9582
  1817.5000      9.1381    -80.5509     10.0552    108.1502
  1817.7500      9.1413    -80.3358     10.0305    107.4960
  1818.0000      9.1209    -80.1971     10.0009    106.9253
  1818.2500      9.0835    -80.1260      9.9648    124.8761
  1818.5000      9.0436    -80.1092      9.9258    125.8481
  1818.7500      9.0167    -80.1332      9.8925    126.7644
  1819.0000      9.0126    -80.1866      9.8741    128.2659
  1819.2500      9.0327    -80.2624      9.8764    147.7162
  1819.5000      9.0721    -80.3574      9.8999    148.6927
  1819.7500      9.1239    -80.4713      9.9400    148.2961
  1820.0000      9.1823    -80.6043      9.9881    146.1466
  1820.2500      9.2416    -80.7562     10.0328    144.3776
  1820.5000      9.2959    -80.9253     10.0614    141.9754
  1820.7500      9.3407    -81.1088     10.0646    140.2502
  1821.0000      9.3742    -81.3036     10.0394    137.0631
  1821.2500      9.3951    -81.5081      9.9907    135.0703
  1821.5000      9.4013    -81.7222      9.9288    133.8626
  1821.7500      9.3904    -81.9485      9.8649    134.8080
  1822.0000      9.3616    -82.1913      9.8074    138.7031
  1822.2500      9.3165    -82.4560      9.7611    142.3303
  1822.5000      9.2613    -82.7476      9.7268    148.0038
  1822.7500      9.2071    -83.0692      9.7020    151.5326
  1823.0000      9.1658    -83.4218      9.6810    156.7490
  1823.2500      9.1434    -83.8042      9.6561    160.5631
  1823.5000      9.1381    -84.2136      9.6194    166.8655
  1823.7500      9.1439    -84.6469      9.5652    171.1189
  1824.0000      9.1536    -85.1015      9.4912    176.8169
  1824.2500      9.1595    -85.5757      9.3995    179.6898
  1824.5000      9.1555    -86.0668      9.2961    181.9088
  1824.7500      9.1390    -86.5689      9.1893    182.0298
  1825.0000      9.1135    -87.0684      9.0889    181.3505
  1825.2500      9.0856    -87.5391      9.0049    181.1051
  1825.5000      9.0578    -87.9393      8.9470    181.5111
  1825.7500      9.0191    -88.2093      8.9215    182.2004
  1826.0000      8.9416    -88.2741      8.9296    183.4468
  1826.2500      8.7886    -88.0486      8.9653    183.8203
  1826.5000      8.5337    -87.4470      9.0161    182.1666
  1826.7500      8.1806    -86.3954      9.0675    179.0167
  1827.0000      7.7728    -84.8444      9.1089    171.6825
  1827.2500      7.3905    -82.7819      9.1384    166.2062
  1827.5000      7.1330    -80.2408      9.1625    160.0521
  1827.7500      7.0910    -77.3015      9.1894    158.7442
  1828.0000      7.3127    -74.0855      9.2212    160.9514
  1828.2500      7.7774    -70.7419      9.2497    163.6494
  1828.5000      8.3953    -67.4284      9.2585    166.4569
  1828.7500      9.0390    -64.2907      9.2314    166.8596
  1829.0000      9.5930    -61.4447      9.1615    166.5222
  1829.2500      9.9903    -58.9662      9.0553    166.7655
  1829.5000     10.2201    -56.8880      8.9315    168.5095
  1829.7500     10.3088    -55.2050      8.8131    170.2639
  1830.0000     10.2953    -53.8842      8.7202    172.9778
  1830.2500     10.2155    -52.8760      8.6642    174.4229
  1830.5000     10.0980    -52.1246      8.6469    175.1407
  1830.7500      9.9652    -51.5750      8.6625    174.1076
  1831.0000      9.8362    -51.1774      8.7018    170.2397
  1831.2500      9.7300    -50.8893      8.7558    166.9851
  1831.5000      9.6662    -50.6763      8.8176    163.4849
  1831.7500      9.6602    -50.5120      8.8830    163.0808
  1832.0000      9.7151    -50.3791      8.9496    165.3570
  1832.2500      9.8165    -50.2688      9.0153    168.0442
  1832.5000      9.9378    -50.1808      9.0778    172.4552
  1832.7500     10.0539    -50.1223      9.1365    175.0627
  1833.0000     10.1556    -50.1059      9.1945    177.6711
  1833.2500     10.2509    -50.1479      9.2593    178.2231
  1833.5000     10.3545    -50.2656      9.3404    177.4205
  1833.7500     10.4755    -50.4755      9.4447    176.3313
  1834.0000     10.6154    -50.7923      9.5736    174.9413
  1834.2500     10.7736    -51.2287      9.7239    174.4541
  1834.5000     10.9502    -51.7970      9.8917    173.9173
  1834.7500     11.1443    -52.5110     10.0760    173.1018
  1835.0000     11.3537    -53.3883     10.2794    170.5161
  1835.2500     11.5763    -54.4523     10.5055    167.9348
  1835.5000     11.8106    -55.7312     10.7552    163.2162
  1835.7500     12.0548    -57.2555     11.0253    159.6629
  1836.0000     12.3093    -59.0523     11.3098    154.0987
  1836.2500     12.5789    -61.1387     11.6041    150.8579
  1836.5000     12.8706    -63.5157     11.9085    148.1955
  1836.7500     13.1882    -66.1650     12.2279    148.4858
  1837.0000     13.5295    -69.0479     12.5677    151.8370
  1837.2500     13.8889    -72.1106     12.9303    155.0494
  1837.5000     14.2655    -75.2896     13.3137    158.6184
  1837.7500     14.6677    -78.5200     13.7147    158.7942
  1838.0000     15.1124    -81.7412     14.1347    155.4344
  1838.2500     15.6180    -84.9012     14.5840    151.7943
  1838.5000     16.1976    -87.9570     15.0797    146.2744
  1838.7500     16.8521    -90.8731     15.6395    142.9438
  1839.0000     17.5653    -93.6171     16.2730    137.3752
  1839.2500     18.3096    -96.1561     16.9777    132.2071
  1839.5000     19.0622    -98.4545     17.7393    121.4217
  1839.7500     19.8191   -100.4743     18.5374    112.8219
  1840.0000     20.5956   -102.1815     19.3518    100.0526
  1840.2500     21.4110   -103.5531     20.1675     92.6574
  1840.5000     22.2719   -104.5869     20.9754     83.4273
  1840.7500     23.1606   -105.3066     21.7687     77.9828
  1841.0000     24.0353   -105.7613     22.5353     70.1920
  1841.2500     24.8438   -106.0177     23.2542     65.4316
  1841.5000     25.5477   -106.1460     23.8996     59.9163
  1841.7500     26.1440   -106.2056     24.4548     57.7091
  1842.0000     26.6673   -106.2326     24.9258     56.2698
  1842.2500     27.1692   -106.2347     25.3426     55.9674
  1842.5000     27.6847   -106.1930     25.7471     55.4979
  1842.7500     28.2060   -106.0699     26.1738     54.7173
  1843.0000     28.6806   -105.8193     26.6341     52.2645
  1843.2500     29.0386   -105.3971     27.1087     49.7594
  1843.5000     29.2323   -104.7699     27.5482     45.5215
  1843.7500     29.2637   -103.9199     27.8871     43.1309
  1844.0000     29.1805   -102.8479     28.0681     41.3259
  1844.2500     29.0439   -101.5724     28.0670     41.7756
  1844.5000     28.8900   -100.1273     27.9017     45.3216
  1844.7500     28.7118    -98.5571     27.6154     49.3437
  1845.0000     28.4681    -96.9116     27.2476     56.3118
  1845.2500     28.1086    -95.2404     26.8122     60.4264
  1845.5000     27.6011    -93.5881     26.2985     64.7969
  1845.7500     26.9467    -91.9906     25.6902     66.8287
  1846.0000     26.1806    -90.4728     24.9900     69.7932
  1846.2500     25.3618    -89.0484     24.2323     72.0766
  1846.5000     24.5594    -87.7198     23.4770     75.2452
  1846.7500     23.8408    -86.4816     22.7886     76.1737
  1847.0000     23.2607    -85.3229     22.2128     74.3008
  1847.2500     22.8481    -84.2322     21.7644     70.9234
  1847.5000     22.5974    -83.2008     21.4273     64.5769
  1847.7500     22.4693    -82.2254     21.1644     60.9527
  1848.0000     22.4058    -81.3090     20.9310     57.9009
  1848.2500     22.3511    -80.4604     20.6907     57.4236
  1848.5000     22.2679    -79.6915     20.4261     57.9931
  1848.7500     22.1441    -79.0152     20.1406     58.5241
  1849.0000     21.9881    -78.4423     19.8505     58.8544
  1849.2500     21.8187    -77.9795     19.5748     58.7406
  1849.5000     21.6569    -77.6276     19.3314     58.3538
  1849.7500     21.5195    -77.3814     19.1370     58.1579
