~Version Information
VERS.                      2.0: CWLS Log ASCII Standard - VERSION 2.0
WRAP.                       NO: One line per depth step
~Well Information Block
STRT.FT                -2.7500: 
STOP.FT              2139.2500: 
STEP.FT                 0.2500: 
NULL.                -999.2500: 
COMP.          Petrogulf Corporation: COMPANY
WELL.             State 16-34V: WELL
FLD.           Purgatorie River: FIELD
LOC.           1146' FSL & 1393' FEL: LOCATION
PROV.                 Colorado: PROVINCE
CNTY.               Las Animas: COUNTRY
SRVC.          Patterson Wireline: SERVICE COMPANY
DATE.          Wed Jun 25 13:16:42 2003: LOG DATE
UWI.           05 071 07724 00: UNIQUE WELL ID
~Curve Information Block
DEPT.FT            0 000 00 00: Depth
CCL.                          : Casing Collar Locator
TT3.usec                      : CBL 3' Travel Time
AMP3.mV                       : CBL 3' Amplitude
GR.GAPI                       : Gamma Ray
~Parameter Information Block
~A  Depth       CCL         TT3         AMP3         GR     
# ...
   700.7500      0.0000    313.0689     21.3893     44.7022
   701.0000      0.0000    307.1324     23.2504     44.3058
   701.2500      0.0000    303.1507     24.8496     44.2823
   701.5000      0.0000    301.2164     26.0655     44.9790
   701.7500      0.0000    300.6402     26.9037     46.4565
   702.0000      0.0000    300.4996     27.4534     48.1065
   702.2500      0.0000    299.9308     27.8428     48.8300
   702.5000      0.0000    298.1788     28.2137     47.9402
   702.7500      0.0000    294.7353     28.6962     45.9459
   703.0000      0.0000    289.5989     29.3723     44.1440
   703.2500      0.0000    283.2917     30.2551     43.3019
   703.5000      0.0000    276.5506     31.2965     43.0230
   703.7500      0.0000    270.1179     32.4129     42.6204
   704.0000      0.0000    264.7229     33.5314     42.1785
   704.2500      0.0000    260.8810     34.6303     42.3134
   704.5000      0.0000    258.6031     35.7067     43.2181
   704.7500      0.0000    257.4739     36.6772     44.4824
   705.0000      0.0000    257.0750     37.3302     45.6809
   705.2500      0.0000    257.3781     37.3996     46.6812
   705.5000      0.0000    259.0210     36.6888     47.4297
   705.7500      0.0000    263.5565     35.1320     47.8060
   706.0000      0.0000    273.5819     32.7653     47.8570
   706.2500      0.0000    292.4864     29.6603     48.0656
   706.5000      0.0000    323.8547     25.9098     49.0905
   706.7500      0.0000    370.6873     21.7084     51.0106
   707.0000      0.0000    433.9970     17.4293     52.9643
   707.2500      0.0000    510.4271     13.5477     53.8096
   707.5000      0.0000    590.6898     10.4294     53.2183
   707.7500      0.0000    661.7939      8.1797     52.1480
   708.0000      0.0000    712.9253      6.6765     52.4214
   708.2500      0.0000    740.6246      5.7233     55.8414
   708.5000      0.0000    749.2374      5.1768     63.1905
   708.7500      0.0000    746.3724      4.9570     73.5326
   709.0000      0.0000    737.2028      4.9760     84.4708
   709.2500      0.0000    722.8220      5.1065     93.5199
   709.5000      0.0000    703.7347      5.2405     99.5219
   709.7500      0.0000    683.4519      5.3376    102.8198
   710.0000      0.0000    667.9584      5.3985    104.2272
   710.2500      0.0000    662.6041      5.4260    104.0307
   710.5000      0.0000    669.6664      5.4289    101.8795
   710.7500      0.0000    687.2811      5.4189     97.4166
   711.0000      0.0000    709.6475      5.3778     91.0472
   711.2500      2.0000    729.4539      5.2519     84.3126
   711.5000      0.0000    742.5210      4.9982     79.6319
   711.7500      0.0000    750.8503      4.6294     79.5509
   712.0000     -2.0000    759.6967      4.2140     85.7305
   712.2500      0.0000    770.9928      3.8481     97.9774
   712.5000      0.0000    781.2742      3.6038    113.8798
   712.7500      0.0000    786.6217      3.4722    129.5921
   713.0000      0.0000    787.6820      3.3649    141.5677
   713.2500      0.0000    788.3022      3.2086    148.2202
   713.5000      0.0000    790.6014      3.0404    150.3949
   713.7500      0.0000    793.4442      2.9780    150.2938
   714.0000      0.0000    795.4461      3.0942    149.7518
   714.2500      0.0000    796.9656      3.3540    149.4740
   714.5000      0.0000    797.8098      3.6784    149.5645
   714.7500      0.0000    794.6237      4.0182    150.0979
   715.0000      0.0000    783.0372      4.3402    151.0343
   715.2500      0.0000    762.7616      4.5941    152.1152
   715.5000      0.0000    739.1903      4.7408    153.2911
   715.7500      0.0000    719.1719      4.7858    154.9608
   716.0000      0.0000    706.6170      4.7476    157.2478
   716.2500      0.0000    703.1525      4.6227    159.1667
   716.5000      0.0000    710.3156      4.4192    159.1213
   716.7500      0.0000    727.3937      4.2080    156.3744
   717.0000      0.0000    748.2469      4.0934    151.6769
   717.2500      0.0000    764.5481      4.1215    146.4186
   717.5000      0.0000    773.4280      4.2423    141.7459
   717.7500      0.0000    779.4783      4.3719    138.5851
   718.0000      0.0000    788.2352      4.4764    137.6157
   718.2500      0.0000    799.9418      4.5773    138.5995
   718.5000      0.0000    810.7171      4.6805    140.1804
   718.7500      0.0000    817.3437      4.7316    141.0014
   719.0000      0.0000    818.9231      4.6701    141.0407
   719.2500      0.0000    815.0380      4.5204    141.5309
   719.5000      0.0000    804.5446      4.3976    143.5014
   719.7500      0.0000    787.4542      4.4099    146.5399
   720.0000      0.0000    768.1813      4.5683    149.1403
   720.2500      0.0000    755.3256      4.7893    150.1346
   720.5000      0.0000    755.7934      4.9705    149.4631
   720.7500      0.0000    768.6036      5.0641    147.5489
   721.0000      0.0000    785.8559      5.0879    144.5872
   721.2500      0.0000    799.6495      5.0677    140.7455
   721.5000      0.0000    807.0292      4.9875    136.3760
   721.7500      0.0000    809.5201      4.8158    131.5808
   722.0000      0.0000    810.2991      4.5710    126.2223
   722.2500      0.0000    811.8741      4.3403    120.7990
   722.5000      0.0000    814.8910      4.2213    116.6773
   722.7500      0.0000    818.3752      4.2425    114.8861
   723.0000      0.0000    821.0858      4.3420    114.9601
   723.2500      0.0000    822.5535      4.4318    115.5328
   723.5000      0.0000    823.0041      4.4801    115.9436
   723.7500      0.0000    822.6573      4.5292    116.6583
   724.0000      0.0000    821.0361      4.6420    118.1375
   724.2500      0.0000    816.3946      4.8380    120.1182
   724.5000      0.0000    805.7830      5.0786    122.3101
   724.7500      0.0000    786.8914      5.3101    125.0588
   725.0000      0.0000    761.5475      5.5072    128.7554
   725.2500      0.0000    737.2603      5.6774    132.8918
   725.5000      0.0000    722.8138      5.8446    136.1702
   725.7500      0.0000    720.4310      6.0390    137.5472
   726.0000      0.0000    723.4418      6.2815    136.9409
   726.2500      0.0000    723.1479      6.5525    134.9669
   726.5000      0.0000    716.4376      6.7771    132.2441
   726.7500      0.0000    704.9353      6.8703    129.0668
   727.0000      0.0000    689.5102      6.8158    125.6715
   727.2500      0.0000    669.9685      6.6893    122.6717
   727.5000      0.0000    649.5483      6.5904    120.9127
   727.7500      0.0000    636.0302      6.5584    120.6213
   728.0000      0.0000    637.2585      6.5600    120.7976
   728.2500      0.0000    655.6241      6.5352    119.7918
   728.5000      0.0000    685.7677      6.4377    116.5922
   728.7500      0.0000    717.2580      6.2495    111.4964
   729.0000      0.0000    740.8072      5.9932    105.5818
   729.2500      0.0000    752.5488      5.7386     99.6364
   729.5000      0.0000    753.1327      5.5780     93.5485
   729.7500      0.0000    745.2463      5.5758     86.5689
   730.0000      0.0000    732.7872      5.7296     78.2042
   730.2500      0.0000    719.3314      5.9709     69.1162
   730.5000      0.0000    705.8301      6.1920     61.1425
   730.7500      0.0000    691.7465      6.2878     56.1127
   731.0000      0.0000    678.6382      6.2096     54.7051
   731.2500      0.0000    670.4786      6.0021     56.7469
   731.5000      0.0000    670.4024      5.7709     62.1878
   731.7500      0.0000    678.5898      5.5963     70.9816
   732.0000      0.0000    692.5881      5.4922     82.0637
   732.2500      0.0000    707.5230      5.4482     93.0078
   732.5000      0.0000    716.6120      5.4695    100.9269
   732.7500      0.0000    715.0499      5.5476    103.9780
   733.0000      0.0000    705.1368      5.6144    102.5820
   733.2500      0.0000    695.8392      5.5622     99.4008
   733.5000      0.0000    695.6820      5.3125     97.6053
   733.7500      0.0000    706.2396      4.8696     98.7708
   734.0000      0.0000    722.7474      4.3234    102.4479
