~Version Information
VERS.                      2.0: CWLS Log ASCII Standard - VERSION 2.0
WRAP.                       NO: One line per depth step
~Well Information Block
STRT.FT              2983.0000: 
STOP.FT              3214.7500: 
STEP.FT                 0.0500: 
NULL.                -999.2500: 
COMP.          Pioner Natural Resources: COMPANY
WELL.              Vespar 43-7: WELL
FLD.           Purgatoire River: FIELD
LOC.           2338' FSL & 1141' FEL------: LOCATION
PROV.                 Colorado: PROVINCE
CNTY.               Las Animas: COUNTRY
SRVC.                         : SERVICE COMPANY
DATE.          Fri Apr 15 15:31:19 2005: LOG DATE
UWI.                          : UNIQUE WELL ID
~Curve Information Block
DEPT.FT            0 000 00 00: Depth
GR.GAPI                       : Gamma Ray
CCL.                          : Casing Collar Locator
TT3.usec                      : CBL 3' Travel Time
AMP3.mV                       : CBL 3' Amplitude
AMP5.mV                       : CBL 5' Amplitude
~Parameter Information Block
~A  Depth        GR         CCL         TT3         AMP3        AMP5    
# ...
  3083.8000     79.9998      0.0000    286.8644     31.3245     62.3307
  3083.8500     79.9998      0.0000    286.8644     31.3245     62.3307
  3083.9000     79.9998      0.0000    286.8644     31.3245     62.3307
  3083.9500     79.9998      0.0000    286.8644     31.3245     62.3307
  3084.0000     76.9695      0.0000    279.1790     30.5853     66.4107
  3084.0500     76.9695      0.0000    279.1790     30.5853     66.4107
  3084.1000     76.9695      0.0000    279.1790     30.5853     66.4107
  3084.1500     76.9695      0.0000    279.1790     30.5853     66.4107
  3084.2000     76.9695      0.0000    279.1790     30.5853     66.4107
  3084.2500     75.1693      0.0000    273.7313     31.5163     69.8791
  3084.3000     75.1693      0.0000    273.7313     31.5163     69.8791
  3084.3500     75.1693      0.0000    273.7313     31.5163     69.8791
  3084.4000     75.1693     -1.5479    273.7313     31.5163     69.8791
  3084.4500     75.1693     -2.0000    273.7313     31.5163     69.8791
  3084.5000     75.2162     -1.9653    271.1399     32.7794     72.8468
  3084.5500     75.2162      1.9067    271.1399     32.7794     72.8468
  3084.6000     75.2162      2.0000    271.1399     32.7794     72.8468
  3084.6500     75.2162      1.7480    271.1399     32.7794     72.8468
  3084.7000     75.2162      0.0000    271.1399     32.7794     72.8468
  3084.7500     77.5011      0.0000    270.7538     33.6656     75.3419
  3084.8000     77.5011      0.0000    270.7538     33.6656     75.3419
  3084.8500     77.5011      0.0000    270.7538     33.6656     75.3419
  3084.9000     77.5011      0.0000    270.7538     33.6656     75.3419
  3084.9500     77.5011      0.0000    270.7538     33.6656     75.3419
  3085.0000     81.6619      0.0000    271.9748     33.8644     77.4107
  3085.0500     81.6619      0.0000    271.9748     33.8644     77.4107
  3085.1000     81.6619      0.0000    271.9748     33.8644     77.4107
  3085.1500     81.6619      1.4673    271.9748     33.8644     77.4107
  3085.2000     81.6619      0.0000    271.9748     33.8644     77.4107
  3085.2500     86.7538     -1.2402    274.2711     33.2993     79.1924
  3085.3000     86.7538      0.0000    274.2711     33.2993     79.1924
  3085.3500     86.7538      0.0000    274.2711     33.2993     79.1924
  3085.4000     86.7538      0.0000    274.2711     33.2993     79.1924
  3085.4500     86.7538      0.0000    274.2711     33.2993     79.1924
  3085.5000     91.8273      0.0000    276.5366     32.6548     80.8086
  3085.5500     91.8273      0.0000    276.5366     32.6548     80.8086
  3085.6000     91.8273      0.0000    276.5366     32.6548     80.8086
  3085.6500     91.8273      0.0000    276.5366     32.6548     80.8086
  3085.7000     91.8273      0.0000    276.5366     32.6548     80.8086
  3085.7500     95.9876      0.0000    277.1731     33.8101     82.2148
  3085.8000     95.9876      0.0000    277.1731     33.8101     82.2148
  3085.8500     95.9876      0.0000    277.1731     33.8101     82.2148
  3085.9000     95.9876      0.0000    277.1731     33.8101     82.2148
  3085.9500     95.9876      0.0000    277.1731     33.8101     82.2148
  3086.0000     97.8672      0.0000    275.2248     38.7721     83.3174
  3086.0500     97.8672      0.0000    275.2248     38.7721     83.3174
  3086.1000     97.8672      0.0000    275.2248     38.7721     83.3174
  3086.1500     97.8672      0.0000    275.2248     38.7721     83.3174
  3086.2000     97.8672      0.0000    275.2248     38.7721     83.3174
  3086.2500     95.7921      0.0000    271.2992     47.5248     84.4840
  3086.3000     95.7921      0.0000    271.2992     47.5248     84.4840
  3086.3500     95.7921      0.0000    271.2992     47.5248     84.4840
  3086.4000     95.7921      0.0000    271.2992     47.5248     84.4840
  3086.4500     95.7921      0.0000    271.2992     47.5248     84.4840
  3086.5000     89.4029      0.0000    267.0273     57.3823     86.9683
  3086.5500     89.4029      0.0000    267.0273     57.3823     86.9683
  3086.6000     89.4029      0.0000    267.0273     57.3823     86.9683
  3086.6500     89.4029      0.0000    267.0273     57.3823     86.9683
  3086.7000     89.4029      0.0000    267.0273     57.3823     86.9683
  3086.7500     81.1185      0.0000    263.7428     65.0486     92.3702
  3086.8000     81.1185      0.0000    263.7428     65.0486     92.3702
  3086.8500     81.1185      0.0000    263.7428     65.0486     92.3702
  3086.9000     81.1185      0.0000    263.7428     65.0486     92.3702
  3086.9500     81.1185      0.0000    263.7428     65.0486     92.3702
  3087.0000     75.0800      0.0000    261.8150     69.0839    101.1535
  3087.0500     75.0800      0.0000    261.8150     69.0839    101.1535
  3087.1000     75.0800      0.0000    261.8150     69.0839    101.1535
  3087.1500     75.0800      0.0000    261.8150     69.0839    101.1535
  3087.2000     75.0800      0.0000    261.8150     69.0839    101.1535
  3087.2500     74.0056      0.0000    260.9267     70.2174    111.7908
  3087.3000     74.0056      0.0000    260.9267     70.2174    111.7908
  3087.3500     74.0056      0.0000    260.9267     70.2174    111.7908
  3087.4000     74.0056      0.0000    260.9267     70.2174    111.7908
  3087.4500     74.0056      0.0000    260.9267     70.2174    111.7908
  3087.5000     77.2768      0.0000    260.6091     69.9538    121.7281
  3087.5500     77.2768      0.0000    260.6091     69.9538    121.7281
  3087.6000     77.2768      0.0000    260.6091     69.9538    121.7281
  3087.6500     77.2768      0.0000    260.6091     69.9538    121.7281
  3087.7000     77.2768      0.0000    260.6091     69.9538    121.7281
  3087.7500     82.2330      0.0000    260.5261     69.3955    129.1270
  3087.8000     82.2330      0.0000    260.5261     69.3955    129.1270
  3087.8500     82.2330      0.0000    260.5261     69.3955    129.1270
  3087.9000     82.2330      0.0000    260.5261     69.3955    129.1270
  3087.9500     82.2330      0.0000    260.5261     69.3955    129.1270
  3088.0000     86.6895      0.0000    260.5099     68.9967    133.6169
  3088.0500     86.6895      0.0000    260.5099     68.9967    133.6169
  3088.1000     86.6895      0.0000    260.5099     68.9967    133.6169
  3088.1500     86.6895      0.0000    260.5099     68.9967    133.6169
  3088.2000     86.6895      0.0000    260.5099     68.9967    133.6169
  3088.2500     89.8197      0.0000    260.5047     68.7984    135.8404
  3088.3000     89.8197      0.0000    260.5047     68.7984    135.8404
  3088.3500     89.8197      0.0000    260.5047     68.7984    135.8404
  3088.4000     89.8197      0.0000    260.5047     68.7984    135.8404
  3088.4500     89.8197      0.0000    260.5047     68.7984    135.8404
  3088.5000     91.3642      0.0000    260.5021     68.7036    136.6985
  3088.5500     91.3642      0.0000    260.5021     68.7036    136.6985
  3088.6000     91.3642      0.0000    260.5021     68.7036    136.6985
  3088.6500     91.3642      0.0000    260.5021     68.7036    136.6985
  3088.7000     91.3642      0.0000    260.5021     68.7036    136.6985
  3088.7500     90.9873      0.0000    260.5049     68.6584    136.8780
  3088.8000     90.9873      0.0000    260.5049     68.6584    136.8780
  3088.8500     90.9873      0.0000    260.5049     68.6584    136.8780
  3088.9000     90.9873      0.0000    260.5049     68.6584    136.8780
  3088.9500     90.9873      0.0000    260.5049     68.6584    136.8780
  3089.0000     88.5267      0.0000    260.5098     68.7011    136.7230
  3089.0500     88.5267      0.0000    260.5098     68.7011    136.7230
  3089.1000     88.5267      0.0000    260.5098     68.7011    136.7230
  3089.1500     88.5267      0.0000    260.5098     68.7011    136.7230
  3089.2000     88.5267      0.0000    260.5098     68.7011    136.7230
  3089.2500     84.4349      0.0000    260.5093     68.9005    136.3377
  3089.3000     84.4349      0.0000    260.5093     68.9005    136.3377
  3089.3500     84.4349      0.0000    260.5093     68.9005    136.3377
