~Version Information
VERS.                      2.0: CWLS Log ASCII Standard - VERSION 2.0
WRAP.                       NO: One line per depth step
~Well Information Block
STRT.FT               375.0000: 
STOP.FT              1727.7000: 
STEP.FT                 0.1000: 
NULL.                -999.2500: 
COMP.          Pioneer Natural Resources: COMPANY
WELL.          Warrior 33-1 Tr: WELL
FLD.           Purgatoire River: FIELD
LOC.           2648' FSL & 2341' FEL--: LOCATION
PROV.                 Colorado: PROVINCE
CNTY.               Las Animas: COUNTRY
SRVC.                Patterson: SERVICE COMPANY
DATE.          Sat Jun 18 07:53:12 2005: LOG DATE
UWI.           05 071 08412 00: UNIQUE WELL ID
~Curve Information Block
DEPT.FT            0 000 00 00: Depth
DCAL.in                       : CDL Caliper
RHOB.g/cc                     : CDL Bulk Density
RHOC.g/cc                     : CDL Density Correction
DPOR.pu                       : CDL Density Porosity
NPOR.pu                       : Neutron Porosity
GR.GAPI                       : Gamma Ray
~Parameter Information Block
~A  Depth       DCAL        RHOB        RHOC        DPOR        NPOR         GR     
   375.0000      8.1616      2.2356     -0.2932     25.1128     44.5179     91.3838
   375.1000      8.1616      2.1965     -0.3426     27.4858     44.4500     89.4027
   375.2000      8.1616      2.1840     -0.2503     28.2405     44.3626     86.2168
   375.3000      8.1642      2.1860     -0.3011     28.1212     44.1937     83.3436
   375.4000      8.1642      2.2003     -0.2544     27.2565     44.0538     83.2502
   375.5000      8.1662      2.2226     -0.2265     25.9004     44.0460     86.3628
   375.6000      8.1662      2.2355     -0.2110     25.1214     43.9370     89.1852
   375.7000      8.1662      2.2248     -0.1986     25.7701     43.5599     88.4966
   375.8000      8.1669      2.1972     -0.3102     27.4447     43.1200     86.9513
   375.9000      8.1669      2.1679     -0.3041     29.2193     42.9575     87.9685
   376.0000      8.1657      2.1270     -0.2878     31.6993     43.2113     88.4885
   376.1000      8.1657      2.0580     -0.3008     35.8760     43.6894     82.4958
   376.2000      8.1657      1.9706     -0.3830     41.1729     44.0321     73.4247
   376.3000      8.1625      1.8888     -0.4317     46.1320     44.0607     72.8641
   376.4000      8.1625      1.8290     -0.4034     49.7580     43.8693     80.9093
   376.5000      8.1602      1.8024     -0.4935     51.3692     43.6523     86.4004
   376.6000      8.1602      1.8235     -0.4324     50.0912     43.5491     85.9603
   376.7000      8.1602      1.8933     -0.3432     45.8631     43.3742     83.8703
   376.8000      8.1607      1.9985     -0.2670     39.4868     43.0684     82.9031
   376.9000      8.1607      2.1253     -0.2147     31.7973     42.8274     85.6972
   377.0000      8.1643      2.2586     -0.1647     23.7233     42.7737     90.8780
   377.1000      8.1643      2.3744     -0.0914     16.7024     43.0070     93.9772
   377.2000      8.1643      2.4507     -0.1006     12.0789     43.4272     95.4629
   377.3000      8.1657      2.4919     -0.1337      9.5848     43.6400     97.2207
   377.4000      8.1657      2.5161     -0.1627      8.1173     43.4769    100.7397
   377.5000      8.1627      2.5161     -0.1379      8.1172     43.2340    104.4559
   377.6000      8.1627      2.4724     -0.2405     10.7632     43.1839    104.5766
   377.7000      8.1627      2.3960     -0.3755     15.3933     43.1366    104.3370
   377.8000      8.1583      2.3101     -0.3524     20.6015     42.7869    111.1734
   377.9000      8.1583      2.2260     -0.3638     25.6984     42.0172    125.7622
   378.0000      8.1261      2.1594     -0.3865     29.7329     40.7696    139.4291
   378.1000      8.1261      2.1250     -0.3991     31.8183     39.1071    144.3911
   378.2000      8.1261      2.1153     -0.3745     32.4033     37.1141    143.3670
   378.3000      7.9699      2.1036     -0.3900     33.1135     34.7877    143.3748
   378.4000      7.9699      2.0482     -0.3141     36.4706     32.0344    145.8310
   378.5000      7.7241      1.9206     -0.2177     44.2033     28.8575    146.5988
   378.6000      7.7241      1.7915     -0.3891     52.0326     25.8824    145.2319
   378.7000      7.7241      1.7671     -0.2148     53.5062     23.7617    149.0095
   378.8000      7.7961      1.8283     -0.1601     49.8010     22.3802    159.2303
   378.9000      7.7961      1.9197     -0.2292     44.2628     21.4630    164.7739
   379.0000      8.3716      2.0629     -0.1858     35.5846     21.0112    160.6737
   379.1000      8.3716      2.2559      0.1650     23.8859     20.8537    156.1227
   379.2000      8.3716      2.4107      0.3879     14.5039     20.5476    156.8116
   379.3000      9.0727      2.4653      0.2782     11.1912     20.1439    158.9906
   379.4000      9.0727      2.4610      0.1931     11.4522     20.0259    157.7017
   379.5000      9.6433      2.4662      0.1904     11.1420     20.2221    153.6307
   379.6000      9.6433      2.4948      0.2279      9.4035     20.6929    151.6290
   379.7000      9.6433      2.5246      0.2478      7.6014     21.4304    152.7663
   379.8000      9.9970      2.5467      0.2023      6.2582     22.1202    153.7313
   379.9000      9.9970      2.5761      0.1776      4.4769     22.4768    152.6210
   380.0000     10.2258      2.6129      0.2328      2.2471     22.7972    147.8926
   380.1000     10.2258      2.6327      0.1588      1.0457     23.4192    139.4392
   380.2000     10.2258      2.6302      0.1319      1.1986     24.0751    132.4324
   380.3000     10.5388      2.6200      0.1212      1.8204     24.5655    129.2607
   380.4000     10.5388      2.6083      0.0355      2.5266     25.1965    125.6053
   380.5000     10.8745      2.5883      0.0901      3.7385     26.0071    120.8863
   380.6000     10.8745      2.5621      0.0008      5.3266     26.6430    120.2297
   380.7000     10.8745      2.5558      0.1038      5.7063     26.9591    124.2783
   380.8000     11.0728      2.5737      0.1341      4.6264     27.1031    129.2246
   380.9000     11.0728      2.5823      0.1118      4.1006     27.2846    133.5205
   381.0000     11.1581      2.5554      0.0733      5.7323     27.6449    138.4580
   381.1000     11.1581      2.5107     -0.0126      8.4428     28.1044    145.3535
   381.2000     11.1581      2.4889      0.0118      9.7657     28.3689    151.6968
   381.3000     11.2002      2.4934      0.0295      9.4921     28.2461    153.4629
   381.4000     11.2002      2.4995      0.0404      9.1197     27.9030    148.9272
   381.5000     11.2238      2.4995      0.0005      9.1194     27.2631    140.5914
   381.6000     11.2238      2.4978      0.0354      9.2228     26.1550    133.6615
   381.7000     11.2238      2.4940      0.0354      9.4566     25.2309    133.0043
   381.8000     11.2391      2.4869      0.0643      9.8839     24.9827    140.7089
   381.9000     11.2391      2.4731      0.0612     10.7204     24.9382    149.9653
   382.0000     11.2472      2.4578      0.0390     11.6485     24.5943    151.7583
   382.1000     11.2472      2.4549      0.0685     11.8272     23.9583    146.6950
   382.2000     11.2472      2.4673      0.0508     11.0721     23.2972    142.2251
   382.3000     11.2581      2.4866      0.0976      9.9022     22.8061    141.0617
   382.4000     11.2581      2.4975      0.0956      9.2418     22.5557    139.2277
   382.5000     11.2869      2.4890      0.0631      9.7579     22.4290    135.1830
   382.6000     11.2869      2.4558      0.0781     11.7668     22.4019    131.7292
   382.7000     11.2869      2.4074     -0.0068     14.7034     22.7089    133.0674
   382.8000     11.3331      2.3772      0.0046     16.5308     23.2820    138.3965
   382.9000     11.3331      2.3806      0.0403     16.3261     23.8092    140.5976
   383.0000     11.3820      2.3973      0.0385     15.3177     24.1961    136.1989
   383.1000     11.3820      2.4094      0.0603     14.5816     24.3274    128.7538
   383.2000     11.3820      2.4120      0.0759     14.4264     24.2162    123.9075
   383.3000     11.4074      2.4002      0.1151     15.1417     24.2189    126.5811
   383.4000     11.4074      2.3782      0.0260     16.4716     24.3618    136.3241
   383.5000     11.4070      2.3602      0.0401     17.5647     24.5310    144.5393
   383.6000     11.4070      2.3524      0.0478     18.0381     24.7265    144.5750
   383.7000     11.4070      2.3563      0.0851     17.8000     24.6843    138.1978
   383.8000     11.4103      2.3631      0.1589     17.3902     24.2947    130.6871
   383.9000     11.4103      2.3512      0.1228     18.1108     23.7568    126.9156
   384.0000     11.4180      2.3173      0.1360     20.1657     23.1648    127.9638
   384.1000     11.4180      2.2793      0.1241     22.4666     22.3428    128.3129
   384.2000     11.4180      2.2445      0.1286     24.5772     21.2850    127.2060
   384.3000     11.3927      2.1995      0.1349     27.3036     20.1203    130.0014
   384.4000     11.3927      2.1492      0.0402     30.3487     18.9143    133.9003
   384.5000     11.3150      2.1338      0.0141     31.2847     17.9346    134.8074
