~Version Information
 VERS.                      2.0: CWLS Log ASCII Standard - VERSION 2.0
 WRAP.                       NO: One line per depth step
 ~Well Information Block
 STRT.FT              1969.0000: 
 STOP.FT              2129.7500: 
 STEP.FT                 0.2500: 
 NULL.                -999.2500: 
 COMP.          Petrogulf Corporation: COMPANY
 WELL.             State 16-43V: WELL
 FLD.           Purgatorie River: FIELD
 LOC.           2437' FSL & 734' FEL----: LOCATION
 CNTY.               Las Animas: COUNTY
 SRVC.                         : SERVICE COMPANY
 DATE.          Thu Dec 09 15:38:16 2004: LOG DATE
 UWI.                          : UNIQUE WELL ID
 STAT.                       CO: STATE
 PROV.                         :Province
 ~Curve Information Block
 DEPT.FT            0 000 00 00: Depth
 GR.GAPI                       : Gamma Ray
 CCL.                          : Casing Collar Locator
 TT3.usec                      : CBL 3' Travel Time
 AMP3.mV                       : CBL 3' Amplitude
 ~Parameter Information Block
 ~A  Depth        GR         CCL         TT3         AMP3    
# ...
  2069.5000     99.2637      0.0000    795.2800      3.8147
  2069.7500    101.5624      0.0000    777.7748      3.6818
  2070.0000    101.2645      0.0000    769.6447      3.6296
  2070.2500     99.5302      0.0000    772.6475      3.6116
  2070.5000     98.0101      0.0000    781.7165      3.5793
  2070.7500     97.7097      0.0000    786.8164      3.5208
  2071.0000     98.7783      0.0000    779.9564      3.4651
  2071.2500    100.8894      0.0000    762.3571      3.4474
  2071.5000    103.7267      0.0000    743.5295      3.4725
  2071.7500    107.2126      0.0000    731.8736      3.5098
  2072.0000    111.2819      0.0000    726.9504      3.5209
  2072.2500    115.3360      0.0000    722.3111      3.4901
  2072.5000    118.0389      0.0000    714.7784      3.4325
  2072.7500    118.0685      0.0000    708.0940      3.3732
  2073.0000    115.2438      0.0000    706.8307      3.3233
  2073.2500    110.7381      0.0000    709.9347      3.2774
  2073.5000    106.1479      0.0000    712.6573      3.2305
  2073.7500    102.3886      0.0000    712.7480      3.1899
  2074.0000     99.3326      0.0000    712.0481      3.1718
  2074.2500     96.3812      0.0000    712.6131      3.1914
  2074.5000     93.3967      0.0000    713.2994      3.2587
  2074.7500     91.1645      0.0000    710.6110      3.3776
  2075.0000     90.9850      0.0000    702.3414      3.5437
  2075.2500     93.5833      0.0000    690.1348      3.7444
  2075.5000     98.1619      0.0000    678.1778      3.9601
  2075.7500    102.5295      0.0000    669.5270      4.1747
  2076.0000    104.3712      0.0000    664.3804      4.3894
  2076.2500    102.8887      0.0000    661.9992      4.6235
  2076.5000     99.5286      0.0000    663.5400      4.8928
  2076.7500     96.8042      0.0000    672.1517      5.1837
  2077.0000     95.9303      0.0000    689.4828      5.4529
  2077.2500     95.6863      0.0000    711.7280      5.6457
  2077.5000     93.8552      0.0000    730.1123      5.7186
  2077.7500     89.6662      0.0000    736.7967      5.6509
  2078.0000     84.6284      0.0000    730.7982      5.4458
  2078.2500     81.1887      0.0000    718.2045      5.1258
  2078.5000     80.6894      0.0000    707.3177      4.7330
  2078.7500     82.4935      0.0000    703.5880      4.3274
  2079.0000     85.0261      0.0000    707.3735      3.9710
  2079.2500     87.4939      0.0000    714.9799      3.7014
  2079.5000     90.1743      0.0000    722.4017      3.5179
  2079.7500     93.2569      0.0000    729.5595      3.3919
  2080.0000     96.1815      0.0000    741.0129      3.2870
  2080.2500     98.1489      0.0000    761.5338      3.1742
  2080.5000     98.6297      0.0000    790.2590      3.0415
  2080.7500     97.5038      0.0000    818.9889      2.9005
  2081.0000     95.2459      0.0000    836.8370      2.7757
  2081.2500     92.6695      0.0000    837.7178      2.6815
  2081.5000     90.1109      0.0000    824.7271      2.6120
  2081.7500     87.3192      0.0000    808.2369      2.5521
  2082.0000     84.4027      0.0000    799.3981      2.4940
  2082.2500     82.4206      0.0000    803.1440      2.4437
  2082.5000     82.8056      0.0000    815.0490      2.4156
  2082.7500     86.3672      0.0000    825.0004      2.4191
  2083.0000     92.6403      0.0000    824.6046      2.4466
  2083.2500     99.7537      0.0000    810.9427      2.4737
  2083.5000    104.9672      0.0000    785.0297      2.4753
  2083.7500    106.0008      0.0000    750.4924      2.4487
  2084.0000    102.5437      0.0000    714.3339      2.4183
  2084.2500     96.6507      0.0000    685.7971      2.4146
  2084.5000     91.3850      0.0000    672.0524      2.4475
  2084.7500     88.8243      0.0000    674.6754      2.5016
  2085.0000     89.1632      0.0000    689.7560      2.5546
  2085.2500     91.2373      0.0000    710.9644      2.5950
  2085.5000     93.4001      0.0000    733.0342      2.6247
  2085.7500     94.0420      0.0000    752.6206      2.6501
  2086.0000     92.1544      0.0000    766.7780      2.6713
  2086.2500     88.1072      0.0000    773.2502      2.6822
  2086.5000     83.7904      0.0000    773.0015      2.6827
  2086.7500     81.6064      0.0000    769.9332      2.6895
  2087.0000     83.0837      0.0000    766.7742      2.7267
  2087.2500     88.1441      0.0000    762.9944      2.7998
  2087.5000     95.1962      0.0000    757.5792      2.8834
  2087.7500    101.7416      0.0000    752.8824      2.9395
  2088.0000    105.3360      0.0000    754.2411      2.9497
  2088.2500    104.7435      0.0000    764.4520      2.9316
  2088.5000    100.8022      0.0000    778.7150      2.9316
  2088.7500     96.1929      0.0000    786.7354      2.9892
  2089.0000     93.7905      0.0000    781.0760      3.0984
  2089.2500     94.6828      0.0000    763.4755      3.2034
  2089.5000     97.5702      0.0000    742.7636      3.2451
  2089.7500    100.1441      0.0000    726.9701      3.2109
  2090.0000    101.2179      0.0000    717.9429      3.1392
  2090.2500    101.5885      0.0000    712.9163      3.0798
  2090.5000    102.7164      0.0000    709.0696      3.0601
  2090.7500    104.7752      0.0000    705.3350      3.0874
  2091.0000    106.3210      0.0000    701.3203      3.1570
  2091.2500    105.7431      0.0000    696.8925      3.2464
  2091.5000    102.7287      0.0000    693.6142      3.3257
  2091.7500     98.4930      0.0000    695.8215      3.3966
  2092.0000     94.8147      0.0000    708.2487      3.4975
  2092.2500     92.6987      0.0000    730.6674      3.6439
  2092.5000     91.8117      0.0000    755.1066      3.7810
  2092.7500     91.1308      0.0000    770.2901      3.8168
  2093.0000     90.0908      0.0000    769.4807      3.7010
  2093.2500     89.2088      0.0000    753.4491      3.4658
  2093.5000     89.7145      0.0000    727.5208      3.1992
  2093.7500     92.5245      0.0000    698.5819      2.9822
  2094.0000     97.4851      0.0000    673.9510      2.8396
  2094.2500    103.4330      0.0000    659.0314      2.7431
  2094.5000    108.7281      0.0000    654.0173      2.6550
  2094.7500    111.9486      0.0000    653.9821      2.5645
  2095.0000    112.6389      0.0000    653.3951      2.4843
  2095.2500    111.5854      0.0000    650.3309      2.4272
  2095.5000    110.1053      0.0000    646.2371      2.3961
  2095.7500    109.0157      0.0000    642.9189      2.3893
  2096.0000    108.3714      0.0000    640.8016      2.4048
  2096.2500    107.8336      0.0000    639.6367      2.4372
  2096.5000    106.9473      0.0000    640.3112      2.4763
  2096.7500    105.3048      0.0000    646.0607      2.5090
  2097.0000    102.9080      0.0000    661.4102      2.5254
  2097.2500    100.2575      0.0000    688.4944      2.5229
  2097.5000     97.7882      0.0000    723.8107      2.5053
  2097.7500     95.4393      0.0000    759.1709      2.4781
  2098.0000     93.0369      0.0000    786.1182      2.4463
  2098.2500     90.8219      0.0000    800.2501      2.4153
  2098.5000     89.4703      0.0000    803.4269      2.3884
  2098.7500     89.8577      0.0000    802.3530      2.3639
  2099.0000     92.6414      0.0000    802.9316      2.3376
  2099.2500     97.5011      0.0000    805.0085      2.3127
  2099.5000    102.7646      0.0000    803.9462      2.3071
  2099.7500    106.3687      0.0000    797.0419      2.3438
  2100.0000    107.3963      0.0000    786.7042      2.4262
  2100.2500    106.3700      0.0000    777.3787      2.5262
  2100.5000    104.1546      0.0000    770.8057      2.6046
  2100.7500    101.0448      0.0000    764.4045      2.6435
  2101.0000     97.0326      0.0000    753.6870      2.6528
  2101.2500     92.6179      0.0000    736.4673      2.6484
  2101.5000     88.9978      0.0000    715.0748      2.6338
  2101.7500     87.2013      0.0000    694.5403      2.6070
  2102.0000     87.0625      0.0000    678.9547      2.5719
  2102.2500     87.3573      0.0000    669.5684      2.5338
  2102.5000     87.1897      0.0000    665.4598      2.4895
  2102.7500     87.0123      0.0000    665.2839      2.4336
