~Version Information
VERS.                      2.0: CWLS Log ASCII Standard - VERSION 2.0
WRAP.                       NO: One line per depth step
~Well Information Block
STRT.FT               340.0000: 
STOP.FT              1542.5000: 
STEP.FT                 0.1000: 
NULL.                -999.2500: 
COMP.          Petrogulf Corporation: COMPANY
WELL.            Montoya 7-21R: WELL
FLD.           Purgatorie River: FIELD
LOC.           445' FNL & 1942' FWL: LOCATION
PROV.                 Colorado: PROVINCE
CNTY.               Las Animas: COUNTRY
SRVC.                Patterson: SERVICE COMPANY
DATE.          Thu Sep 15 10:33:27 2005: LOG DATE
UWI.                          : UNIQUE WELL ID
~Curve Information Block
DEPT.FT            0 000 00 00: Depth
DCAL.in                       : CDL Caliper
RHOB.g/cc                     : CDL Bulk Density
RHOC.g/cc                     : CDL Density Correction
DPOR.pu                       : CDL Density Porosity
GR.GAPI                       : Gamma Ray
NPOR.pu                       : Neutron Porosity
~Parameter Information Block
~A  Depth       DCAL        RHOB        RHOC        DPOR         GR         NPOR    
# ...
  1213.6000      8.0127      2.6016      0.0459      2.9341    147.2452     23.9200
  1213.7000      8.0127      2.6086      0.0202      2.5080    147.3382     23.3935
  1213.8000      8.0058      2.6367      0.0201      0.8032    149.0079     23.2339
  1213.9000      8.0058      2.6745      0.1063     -1.4876    150.5975     23.9734
  1214.0000      7.9918      2.6934      0.0990     -2.6326    152.4994     25.0692
  1214.1000      7.9918      2.6782      0.1079     -1.7106    154.4282     25.7306
  1214.2000      7.9918      2.6389      0.0254      0.6713    155.6703     25.9407
  1214.3000      7.9793      2.6004     -0.0217      3.0059    156.5329     26.0022
  1214.4000      7.9793      2.5815      0.0137      4.1529    158.2698     25.7126
  1214.5000      7.9815      2.5801      0.0293      4.2380    161.7134     24.8881
  1214.6000      7.9815      2.5774      0.0625      4.4022    165.8424     23.8603
  1214.7000      7.9815      2.5606      0.0264      5.4199    169.6885     23.2524
  1214.8000      7.9868      2.5362     -0.0035      6.8956    171.9625     23.4295
  1214.9000      7.9868      2.5136     -0.0280      8.2669    171.7024     24.0737
  1215.0000      7.9850      2.4957      0.0055      9.3541    168.4895     24.5126
  1215.1000      7.9850      2.4852      0.0000      9.9862    161.4597     24.3978
  1215.2000      7.9850      2.4883      0.0227      9.8021    152.8095     23.8168
  1215.3000      7.9811      2.5011      0.0700      9.0250    146.2607     23.3518
  1215.4000      7.9811      2.5111      0.0711      8.4211    142.3463     23.3079
  1215.5000      7.9736      2.5187      0.0974      7.9578    139.0245     23.1780
  1215.6000      7.9736      2.5285      0.0943      7.3613    133.3044     22.5404
  1215.7000      7.9736      2.5347      0.0892      6.9905    126.6093     21.6313
  1215.8000      7.9464      2.5410      0.0613      6.6050    124.0019     21.0116
  1215.9000      7.9464      2.5599      0.0948      5.4581    123.3021     21.0950
  1216.0000      7.9044      2.5870      0.1669      3.8190    118.7327     21.7662
  1216.1000      7.9044      2.6165      0.1542      2.0306    112.1982     22.3657
  1216.2000      7.9044      2.6551      0.2239     -0.3116    109.8657     22.5112
  1216.3000      7.8804      2.6971      0.2417     -2.8549    111.7031     22.5327
  1216.4000      7.8804      2.7227      0.2827     -4.4066    112.8999     22.7028
  1216.5000      7.8916      2.7225      0.2281     -4.3969    112.0783     22.6697
  1216.6000      7.8916      2.7137      0.1653     -3.8615    111.2715     21.8562
  1216.7000      7.8916      2.7109      0.2287     -3.6919    110.1263     20.4681
  1216.8000      7.9060      2.7033      0.1355     -3.2313    106.7875     19.5099
  1216.9000      7.9060      2.6830      0.1256     -1.9971    104.1803     19.6327
  1217.0000      7.8708      2.6517      0.1060     -0.1024    105.4907     20.5039
  1217.1000      7.8708      2.6157      0.0501      2.0814    106.7320     21.3263
  1217.2000      7.8708      2.5791      0.0414      4.2996    104.5350     21.4973
  1217.3000      7.9626      2.5374      0.0131      6.8226    100.9252     20.8082
  1217.4000      7.9626      2.4866     -0.0244      9.9056     98.3957     19.8561
  1217.5000      8.0004      2.4154      0.0333     14.2158     98.1188     19.4677
  1217.6000      8.0004      2.3049     -0.0399     20.9145     97.7051     19.7450
  1217.7000      8.0004      2.1645     -0.1101     29.4229     95.7514     20.4777
  1217.8000      7.9966      2.0291     -0.1280     37.6308     94.4920     21.5993
  1217.9000      7.9966      1.9080     -0.0876     44.9719     93.1753     22.8316
  1218.0000      8.0059      1.7759     -0.0740     52.9744     89.5152     24.0209
  1218.1000      8.0059      1.6282     -0.0713     61.9300     85.4948     25.3013
  1218.2000      8.0059      1.5047     -0.0827     69.4137     82.1507     26.8270
  1218.3000      8.1014      1.4309      0.0082     73.8868     77.1936     28.6221
  1218.4000      8.1014      1.3876      0.0029     76.5073     69.8677     30.1693
  1218.5000      8.1918      1.3518     -0.0025     78.6800     62.1577     31.0776
  1218.6000      8.1918      1.3181      0.0249     80.7206     56.1356     31.7264
  1218.7000      8.1918      1.2976     -0.0574     81.9661     53.4884     32.3793
  1218.8000      8.1418      1.2987      0.0109     81.8963     53.8821     32.7835
  1218.9000      8.1418      1.3049      0.0314     81.5209     54.7928     33.0608
  1219.0000      8.1671      1.2990      0.0095     81.8769     55.1034     33.5811
  1219.1000      8.1671      1.2870      0.0070     82.6034     54.3228     34.1190
  1219.2000      8.1671      1.2794     -0.0018     83.0668     51.3776     34.1836
  1219.3000      8.1831      1.2768      0.0242     83.2221     48.0646     33.8485
  1219.4000      8.1831      1.2808      0.0194     82.9810     48.3932     33.6398
  1219.5000      8.1617      1.3007      0.0452     81.7767     52.4329     33.6583
  1219.6000      8.1617      1.3447      0.0664     79.1068     57.2106     33.6335
  1219.7000      8.1617      1.4125      0.0738     75.0017     60.8476     33.6058
  1219.8000      8.1976      1.4904      0.1049     70.2790     63.8520     33.7216
  1219.9000      8.1976      1.5670      0.0853     65.6361     67.9872     33.8735
  1220.0000      8.2777      1.6535      0.1100     60.3955     73.5397     34.1156
  1220.1000      8.2777      1.7593      0.1555     53.9821     80.8434     34.4956
  1220.2000      8.2777      1.8670      0.2053     47.4530     90.5830     34.6393
  1220.3000      8.4203      1.9605      0.1905     41.7895     99.6438     34.3564
  1220.4000      8.4203      2.0464      0.1882     36.5814    105.1917     33.8726
  1220.5000      8.3240      2.1258      0.2292     31.7690    110.9732     33.3577
  1220.6000      8.3240      2.1889      0.1656     27.9439    118.6250     32.7983
  1220.7000      8.3240      2.2429      0.1447     24.6745    124.8213     32.1368
  1220.8000      8.1516      2.2989      0.1449     21.2786    131.5707     31.6428
  1220.9000      8.1516      2.3498      0.1614     18.1959    141.1352     31.4782
  1221.0000      8.1038      2.3885      0.1323     15.8507    150.2089     31.3033
  1221.1000      8.1038      2.4299      0.0930     13.3400    154.9634     31.0161
  1221.2000      8.1038      2.4816      0.1472     10.2071    152.4787     30.6186
  1221.3000      8.0938      2.5280      0.1545      7.3927    144.8020     29.9085
  1221.4000      8.0938      2.5627      0.1579      5.2920    138.8492     28.9483
  1221.5000      8.1307      2.5857      0.1947      3.8946    136.8535     27.9087
  1221.6000      8.1307      2.5951      0.1272      3.3290    137.0782     26.8606
  1221.7000      8.1307      2.5962      0.1126      3.2623    138.6262     25.9073
  1221.8000      8.0417      2.5887      0.1110      3.7147    139.1698     25.0755
  1221.9000      8.0417      2.5695      0.0764      4.8758    138.6335     24.2887
  1222.0000      7.9704      2.5545      0.0375      5.7859    139.5533     23.6734
  1222.1000      7.9704      2.5611      0.0781      5.3875    140.0636     23.4644
  1222.2000      7.9704      2.5834      0.0547      4.0366    135.8437     23.4534
  1222.3000      7.9582      2.6048      0.0409      2.7411    129.7089     23.3645
  1222.4000      7.9582      2.6092      0.0728      2.4708    127.5413     23.3181
  1222.5000      7.9491      2.5926      0.0421      3.4781    129.0727     23.3927
  1222.6000      7.9491      2.5698      0.0888      4.8597    131.0450     23.5362
  1222.7000      7.9491      2.5565      0.0297      5.6643    133.4768     23.7039
  1222.8000      7.9462      2.5523      0.0797      5.9191    137.6558     23.9046
  1222.9000      7.9462      2.5479      0.0452      6.1891    141.3825     24.0966
  1223.0000      7.9557      2.5418      0.0470      6.5602    141.9600     24.1127
  1223.1000      7.9557      2.5326      0.0626      7.1144    141.3100     23.8572
