~Version Information
VERS.                      2.0: CWLS Log ASCII Standard - VERSION 2.0
WRAP.                       NO: One line per depth step
~Well Information Block
STRT.FT               250.0000: 
STOP.FT              1687.7000: 
STEP.FT                 0.1000: 
NULL.                -999.2500: 
COMP.          Pioneer Natural Resources: COMPANY
WELL.          Moneypenny 31-36: WELL
FLD.           Purgatoire River: FIELD
LOC.           280' FNL & 1976' FEL: LOCATION
PROV.                 Colorado: PROVINCE
CNTY.               Las Animas: COUNTRY
SRVC.                Patterson: SERVICE COMPANY
DATE.          Fri Oct 01 13:54:40 2004: LOG DATE
UWI.           05 071 08183 00: UNIQUE WELL ID
~Curve Information Block
DEPT.FT            0 000 00 00: Depth
DCAL.in                       : CDL Caliper
RHOB.g/cc                     : CDL Bulk Density
RHOC.g/cc                     : CDL Density Correction
DPOR.pu                       : CDL Density Porosity
NPOR.pu                       : Neutron Porosity
GR.GAPI                       : Gamma Ray
~Parameter Information Block
~A  Depth       DCAL        RHOB        RHOC        DPOR        NPOR         GR     
# ...
   528.4000      8.0888      2.5091      0.0634      8.5374     19.5650     91.8206
   528.5000      8.0895      2.5040      0.0369      8.8486     19.5069     92.3799
   528.6000      8.0895      2.4925      0.0350      9.5470     19.9696     89.7007
   528.7000      8.0895      2.4803      0.0225     10.2857     20.7071     88.3997
   528.8000      8.0904      2.4715      0.0259     10.8170     21.3498     89.2850
   528.9000      8.0904      2.4703      0.0418     10.8896     21.5245     89.4335
   529.0000      8.0911      2.4781      0.0293     10.4160     21.3921     88.1685
   529.1000      8.0911      2.4955      0.0167      9.3637     21.4149     87.9154
   529.2000      8.0911      2.5166      0.0476      8.0841     21.6929     89.6358
   529.3000      8.0909      2.5311      0.0241      7.2041     22.0064     90.7365
   529.4000      8.0909      2.5346      0.0241      6.9931     22.3800     92.9314
   529.5000      8.0911      2.5339      0.0109      7.0345     22.8743     99.8844
   529.6000      8.0911      2.5439      0.0151      6.4276     23.0495    107.0164
   529.7000      8.0911      2.5655      0.0605      5.1233     22.5951    110.3303
   529.8000      8.0927      2.5750      0.0815      4.5464     22.0797    112.1724
   529.9000      8.0927      2.5612      0.0369      5.3835     21.8778    112.9646
   530.0000      8.0933      2.5411      0.0216      6.6002     21.7539    111.5807
   530.1000      8.0933      2.5320     -0.0119      7.1531     21.7252    107.7014
   530.2000      8.0933      2.5403     -0.0338      6.6500     21.9980    101.3326
   530.3000      8.0908      2.5533      0.0319      5.8578     22.6345     93.8320
   530.4000      8.0908      2.5487     -0.0107      6.1368     23.3818     87.0598
   530.5000      8.0875      2.5280     -0.0252      7.3922     23.8297     83.0135
   530.6000      8.0875      2.5036     -0.0010      8.8738     23.9775     82.1296
   530.7000      8.0875      2.4801     -0.0617     10.2945     24.0431     83.2940
   530.8000      8.0798      2.4680     -0.0486     11.0322     23.9482     85.5920
   530.9000      8.0798      2.4719     -0.0292     10.7918     23.8316     86.2941
   531.0000      8.0642      2.4815      0.0067     10.2103     24.0918     83.4667
   531.1000      8.0642      2.4833      0.0510     10.1022     24.5390     81.0248
   531.2000      8.0642      2.4779     -0.0078     10.4283     24.9005     82.9790
   531.3000      8.0488      2.4801      0.0166     10.2964     25.2015     85.7822
   531.4000      8.0488      2.4917      0.0469      9.5941     25.2598     85.9257
   531.5000      8.0426      2.4981      0.0854      9.2049     25.1862     84.1290
   531.6000      8.0426      2.4915      0.0542      9.6072     25.3998     81.2975
   531.7000      8.0426      2.4839      0.0098     10.0691     25.9583     79.3561
   531.8000      8.0431      2.4931      0.0366      9.5066     26.5285     79.5774
   531.9000      8.0431      2.5177      0.1176      8.0190     26.9206     79.6106
   532.0000      8.0446      2.5451      0.1173      6.3558     27.2096     76.6086
   532.1000      8.0446      2.5764      0.1339      4.4584     27.4286     71.9194
   532.2000      8.0446      2.6117      0.2037      2.3217     27.5322     69.2442
   532.3000      8.0447      2.6332      0.2102      1.0211     27.6431     70.4978
   532.4000      8.0447      2.6269      0.1242      1.3973     27.8599     72.8538
   532.5000      8.0447      2.5983      0.0874      3.1359     28.0163     74.1968
   532.6000      8.0447      2.5641      0.0317      5.2091     27.9659     75.8230
   532.7000      8.0447      2.5358      0.0399      6.9239     27.6324     77.6798
   532.8000      8.0449      2.4982      0.0609      9.1995     27.1796     78.5380
   532.9000      8.0449      2.4366     -0.0384     12.9336     26.9178     80.2134
   533.0000      8.0440      2.3698     -0.0584     16.9835     26.8734     85.3743
   533.1000      8.0440      2.3187     -0.0251     20.0803     26.8466     91.4573
   533.2000      8.0440      2.2949     -0.0913     21.5196     26.6280     94.8889
   533.3000      8.0447      2.3133     -0.0322     20.4053     26.0356     96.6453
   533.4000      8.0447      2.3748      0.0402     16.6769     25.1519     97.1139
   533.5000      8.0534      2.4590      0.1114     11.5786     24.3879     95.9495
   533.6000      8.0534      2.5291      0.2414      7.3252     23.8245     95.4406
   533.7000      8.0534      2.5621      0.1869      5.3300     23.3055     98.4747
   533.8000      8.0613      2.5688      0.2139      4.9232     22.9126    104.2218
   533.9000      8.0613      2.5671      0.1702      5.0215     22.3383    108.7911
   534.0000      8.0648      2.5653      0.1702      5.1355     21.2961    110.3959
   534.1000      8.0648      2.5645      0.1325      5.1844     20.3569    110.1321
   534.2000      8.0648      2.5591      0.1463      5.5106     20.2191    108.7297
   534.3000      8.0873      2.5422      0.1024      6.5361     20.5594    106.9988
   534.4000      8.0873      2.5263      0.0195      7.4977     20.5226    108.2137
   534.5000      8.1163      2.5218      0.0473      7.7676     20.2137    112.8209
   534.6000      8.1163      2.5132      0.0832      8.2904     20.2969    115.8040
   534.7000      8.1163      2.4996      0.0108      9.1173     20.8174    114.0656
   534.8000      8.1293      2.4979      0.0343      9.2165     21.3990    110.1255
   534.9000      8.1293      2.5059      0.0211      8.7346     21.7804    107.8596
   535.0000      8.1303      2.5114      0.0334      8.4010     21.9955    105.4779
   535.1000      8.1303      2.5105      0.0201      8.4563     21.9266     98.9840
   535.2000      8.1303      2.5055      0.0049      8.7603     21.5973     91.0376
   535.3000      8.1306      2.5025      0.0022      8.9387     21.5450     86.9005
   535.4000      8.1306      2.5068      0.0008      8.6769     22.0988     85.2108
   535.5000      8.1342      2.5172      0.0428      8.0500     22.9510     82.7732
   535.6000      8.1342      2.5308      0.0074      7.2258     23.6133     79.5735
   535.7000      8.1342      2.5411      0.0688      6.5970     23.6342     79.5596
   535.8000      8.1384      2.5335      0.0287      7.0579     22.8770     85.4449
   535.9000      8.1384      2.5091      0.0107      8.5404     21.8612     91.2784
   536.0000      8.1375      2.4827     -0.0188     10.1388     21.2112     91.6251
   536.1000      8.1375      2.4679     -0.0018     11.0380     20.8152     90.4980
   536.2000      8.1375      2.4731      0.0183     10.7215     20.3177     89.4902
   536.3000      8.1247      2.4905      0.0237      9.6653     19.9420     84.7482
   536.4000      8.1247      2.4998      0.0304      9.1049     19.9540     79.0922
   536.5000      8.1146      2.4967     -0.0131      9.2886     20.0580     79.2402
   536.6000      8.1146      2.4916     -0.0026      9.6014     20.0302     84.7502
   536.7000      8.1146      2.4835      0.0251     10.0895     20.1844     89.5943
   536.8000      8.1273      2.4683      0.0272     11.0108     20.4074     90.4851
   536.9000      8.1273      2.4518     -0.0147     12.0096     20.0979     87.7464
   537.0000      8.1407      2.4436     -0.0214     12.5077     19.2663     84.3851
   537.1000      8.1407      2.4467      0.0009     12.3210     18.5422     84.3883
   537.2000      8.1407      2.4555      0.0013     11.7866     18.2649     86.9514
   537.3000      8.1448      2.4585      0.0342     11.6079     18.2706     87.6138
   537.4000      8.1448      2.4506     -0.0434     12.0850     18.3527     85.0341
   537.5000      8.1453      2.4453     -0.0343     12.4034     18.5650     82.3409
   537.6000      8.1453      2.4478      0.0332     12.2574     18.9565     81.2800
   537.7000      8.1453      2.4542      0.0013     11.8652     19.2484     80.2098
   537.8000      8.1434      2.4695      0.0336     10.9384     19.1477     78.9242
   537.9000      8.1434      2.4855      0.0502      9.9697     18.7955     80.7924
