~Version Information
VERS.                      2.0: CWLS Log ASCII Standard - VERSION 2.0
WRAP.                       NO: One line per depth step
~Well Information Block
STRT.FT                 0.0000: 
STOP.FT              2025.0000: 
STEP.FT                 0.2500: 
NULL.                -999.2500: 
COMP.          Petrogulf Corporation: COMPANY
WELL.          Robinson 15-12V: WELL
FLD.           Purgatorie River: FIELD
LOC.           1788' FNL & 466' FWL: LOCATION
PROV.                 Colorado: PROVINCE
CNTY.               Las Animas: COUNTRY
SRVC.                Patterson: SERVICE COMPANY
DATE.          Tue Oct 04 11:57:31 2005: LOG DATE
UWI.                          : UNIQUE WELL ID
~Curve Information Block
DEPT.FT            0 000 00 00: Depth
GR.GAPI                       : Gamma Ray
CCL.                          : Casing Collar Locator
TT3.usec                      : CBL 3' Travel Time
AMP3.mV                       : CBL 3' Amplitude
~Parameter Information Block
~A  Depth        GR         CCL         TT3         AMP3    
# ...
   536.0000    104.4074      0.0000    264.5808     80.6085
   536.2500    106.8366      0.0000    264.5775     80.5563
   536.5000    107.8803      0.0000    264.5780     80.5391
   536.7500    107.5721      0.0000    264.5834     80.5675
   537.0000    106.7713      0.0000    264.6014     80.6487
   537.2500    106.2611      0.0000    264.6250     80.7255
   537.5000    106.1039      0.0000    264.6371     80.7422
   537.7500    105.7583      0.0000    264.6338     80.7311
   538.0000    104.6958      0.0000    264.6267     80.7506
   538.2500    103.0427      0.0000    264.6268     80.8051
   538.5000    101.6827      0.0000    264.6351     80.8788
   538.7500    101.5704      0.0000    264.6459     80.9795
   539.0000    102.9002      0.0000    264.6494     81.0896
   539.2500    104.9327      0.0000    264.6391     81.1495
   539.5000    106.4434      0.0000    264.6221     81.1312
   539.7500    106.3597      0.0000    264.6116     81.0550
   540.0000    104.4572      0.0000    264.6143     80.9476
   540.2500    101.7982      0.0000    264.6292     80.8442
   540.5000    100.2366      0.0000    264.6456     80.7835
   540.7500    101.0387      0.0000    264.6376     80.7530
   541.0000    103.9301      0.0000    264.5974     80.7045
   541.2500    107.6654      0.0000    264.5677     80.6589
   541.5000    111.3282      0.0000    264.5872     80.6802
   541.7500    114.7185      0.0000    264.6322     80.7514
   542.0000    117.6669      0.0000    264.6597     80.8147
   542.2500    119.5404      0.0000    264.6625     80.8750
   542.5000    119.6085      0.0000    264.6589     80.9545
   542.7500    117.6979      0.0000    264.6637     81.0338
   543.0000    114.3132      0.0000    264.6773     81.0935
   543.2500    110.1518      0.0000    264.6833     81.1295
   543.5000    105.7656      0.0000    264.6634     81.1219
   543.7500    101.6975      0.0000    264.6225     81.0575
   544.0000     98.4445      0.0000    264.5833     80.9644
   544.2500     96.0768      0.0000    264.5583     80.8906
   544.5000     94.3181      0.0000    264.5444     80.8599
   544.7500     93.1043      0.0000    264.5428     80.8590
   545.0000     92.6207      0.0000    264.5594     80.8595
   545.2500     92.7557      0.0000    264.5852     80.8234
   545.5000     92.9330      0.0000    264.5971     80.7373
   545.7500     92.5814      0.0000    264.5844     80.6543
   546.0000     91.5395      0.0000    264.5563     80.6113
   546.2500     90.1365      0.0000    264.5299     80.5759
   546.5000     89.1229      0.0000    264.5219     80.5440
   546.7500     89.1463      0.0000    264.5385     80.5541
   547.0000     89.9300      0.0000    264.5659     80.5904
   547.2500     90.3067      0.0000    264.5821     80.5806
   547.5000     89.3422      0.0000    264.5789     80.4929
   547.7500     87.1813      0.0000    264.5663     80.3806
   548.0000     84.8203      0.0000    264.5565     80.3069
   548.2500     83.4247      0.0000    264.5553     80.2697
   548.5000     83.7441      0.0000    264.5657     80.2482
   548.7500     85.6364      0.0000    264.5862     80.2474
   549.0000     88.0256      0.0000    264.6042     80.2670
   549.2500     89.6043      0.0000    264.6141     80.3128
   549.5000     89.7344      0.0000    264.6259     80.4206
   549.7500     88.7042      0.0000    264.6429     80.5819
   550.0000     87.2367      0.0000    264.6627     80.7183
   550.2500     85.9780      0.0000    264.6907     80.7944
   550.5000     85.4232      0.0000    264.7236     80.8456
   550.7500     85.9111      0.0000    264.7445     80.8947
   551.0000     87.4975      0.0000    264.7421     80.9290
   551.2500     90.0845      0.0000    264.7204     80.9219
   551.5000     93.6856      0.0000    264.7016     80.8700
   551.7500     98.0773      0.0000    264.7084     80.8190
   552.0000    102.1818      0.0000    264.7307     80.8023
   552.2500    104.5160      0.0000    264.7384     80.7840
   552.5000    104.7219      0.0000    264.7263     80.7379
   552.7500    104.3449      0.0000    264.7202     80.7296
   553.0000    105.6097      0.0000    264.7379     80.8113
   553.2500    109.2450      0.0000    264.7646     80.9018
   553.5000    113.6252      0.0000    264.7744     80.8725
   553.7500    116.0963      0.0000    264.7649     80.7125
   554.0000    115.0268      0.0000    264.7516     80.5415
   554.2500    110.7912      0.0000    264.7415     80.4693
   554.5000    105.4022      0.0000    264.7318     80.4863
   554.7500    101.3534      0.0000    264.7225     80.4959
   555.0000    100.1595      0.0000    264.7169     80.4337
   555.2500    101.5066      0.0000    264.7189     80.3525
   555.5000    103.8647      0.0000    264.7301     80.3593
   555.7500    105.8974      0.0000    264.7457     80.4635
   556.0000    107.1916      0.0000    264.7603     80.5805
   556.2500    107.8423      0.0000    264.7728     80.6621
   556.5000    107.6866      0.0000    264.7768     80.7029
   556.7500    106.2501      0.0000    264.7629     80.6856
   557.0000    103.6153      0.0000    264.7318     80.6010
   557.2500    101.0758      0.0000    264.6953     80.4829
   557.5000    100.4372      0.0000    264.6712     80.4027
   557.7500    102.5009      0.0000    264.6729     80.3952
   558.0000    106.3231      0.0000    264.7004     80.4330
   558.2500    109.9625      0.0000    264.7445     80.5239
   558.5000    111.9599      0.0000    264.7896     80.6860
   558.7500    112.2552      0.0000    264.8177     80.8261
   559.0000    111.8982      0.0000    264.8197     80.7886
   559.2500    112.0229      0.0000    264.8131     80.5046
   559.5000    112.9758      0.0000    264.8724     79.9809
   559.7500    114.0969      0.0000    265.1870     79.0879
   560.0000    114.1397      0.0000    266.1566     77.4493
   560.2500    111.9352      0.0000    268.4647     74.7424
   560.5000    106.8927      0.0000    272.7237     71.0740
   560.7500     99.2838      0.0000    277.9938     67.1070
   561.0000     90.3651      0.0000    281.0555     63.9208
   561.2500     82.1088      0.0000    279.8276     62.2642
   561.5000     76.4879      0.0000    276.3935     61.8833
   561.7500     74.7267      2.0000    273.8643     61.9963
   562.0000     76.7699      0.0000    273.0918     62.0561
   562.2500     81.0607      0.0000    273.8933     61.8799
   562.5000     85.0586      0.0000    276.4736     61.6103
   562.7500     86.7110      0.0000    279.9765     61.7713
   563.0000     85.9435      0.0000    281.2717     62.8623
   563.2500     84.7733      0.0000    278.2843     64.7550
   563.5000     85.7666      0.0000    273.1064     67.2527
   563.7500     89.9924      0.0000    268.8716     70.6299
   564.0000     96.1531      0.0000    266.4258     74.4939
   564.2500    101.6577      0.0000    265.2534     77.5851
   564.5000    104.6945      0.0000    264.8377     79.2901
   564.7500    105.5158      0.0000    264.7852     79.9719
   565.0000    106.1623      0.0000    264.8128     80.1142
   565.2500    108.9458      0.0000    264.8102     79.9919
   565.5000    114.4254      0.0000    264.7884     79.7987
   565.7500    120.4107      0.0000    264.7766     79.6526
   566.0000    123.4171      0.0000    264.7781     79.5280
   566.2500    121.3623      0.0000    264.7859     79.3440
   566.5000    114.7012      0.0000    264.8007     79.1231
   566.7500    105.4052      0.0000    264.8225     78.9574
   567.0000     95.7332      0.0000    264.8406     78.8586
   567.2500     87.9582      0.0000    264.8514     78.7682
   567.5000     84.0912      0.0000    264.8677     78.6544
   567.7500     84.8229      0.0000    264.8991     78.5172
   568.0000     88.8024      0.0000    264.9404     78.3679
   568.2500     93.4626      0.0000    264.9756     78.2317
   568.5000     96.7098      0.0000    264.9939     78.1390
   568.7500     97.8737      0.0000    264.9954     78.0923
   569.0000     97.4436      0.0000    264.9774     78.0518
   569.2500     96.3350      0.0000    264.9414     78.0055
