~Version Information
VERS.                      2.0: CWLS Log ASCII Standard - VERSION 2.0
WRAP.                       NO: One line per depth step
~Well Information Block
STRT.FT               664.0000: 
STOP.FT              1615.5000: 
STEP.FT                 0.2500: 
NULL.                -999.2500: 
COMP.          Petrogulf Corporation: COMPANY
WELL.          Great Plains 22-21R: WELL
FLD.           Purgatorie River: FIELD
LOC.           73' FNL & 1992' FWL: LOCATION
PROV.                 Colorado: PROVINCE
CNTY.               Las Animas: COUNTRY
SRVC.                Patterson: SERVICE COMPANY
DATE.          Thu Sep 08 08:05:26 2005: LOG DATE
UWI.                          : UNIQUE WELL ID
~Curve Information Block
DEPT.FT            0 000 00 00: Depth
SP.mV                         : DIL Spontaneous Potential
RILD.Ohm-m                    : DIL Deep Resistivity
RILM.Ohm-m                    : DIL Medium Resistivity
RLL3.Ohm-m                    : DIL Shallow Resistivity
GR.GAPI                       : Gamma Ray
~Parameter Information Block
~A  Depth        SP         RILD        RILM        RLL3         GR     
# ...
  1084.0000    149.4387      7.8199      7.4867      7.2492    183.4865
  1084.2500    148.9181      7.7624      7.6350      7.6869    176.7762
  1084.5000    148.3586      7.6418      7.8396      8.4388    178.6692
  1084.7500    147.9686      7.6578      7.9704      9.5226    167.3786
  1085.0000    147.5694      7.6915      7.8477     11.3455    159.3929
  1085.2500    147.1960      7.6311      7.7691     11.8651    155.4131
  1085.5000    146.8184      7.6253      7.6550      9.6001    166.9762
  1085.7500    146.5124      7.7157      7.6005      8.2223    176.1018
  1086.0000    146.2100      7.8480      7.5451      8.3460    181.8731
  1086.2500    145.9923      8.0192      7.5711      8.4773    185.4061
  1086.5000    145.7595      8.3270      7.7548      8.3557    176.2558
  1086.7500    145.5356      8.6151      7.9844      8.1496    175.9132
  1087.0000    145.3187      8.8411      8.2380      8.1127    185.8692
  1087.2500    144.9695      8.9150      8.7462      8.4101    167.6776
  1087.5000    144.5918      8.9731      9.4231      9.5486    172.1591
  1087.7500    144.2177      8.8126     10.0786     11.8851    157.5011
  1088.0000    143.9234      8.8222     10.5062     14.8511    154.2322
  1088.2500    143.6922      8.6126     10.8250     17.7688    157.8349
  1088.5000    143.4041      8.3536     10.9697     19.4645    151.4088
  1088.7500    143.1267      8.0913     10.5983     20.0846    149.0063
  1089.0000    142.9046      7.9714      9.9970     19.6801    156.7012
  1089.2500    142.8195      7.8107      9.0616     17.7696    166.8936
  1089.5000    142.9151      7.7212      8.3295     12.6699    166.9323
  1089.7500    143.0927      7.6570      7.6090      8.5164    174.6707
  1090.0000    143.3423      7.6654      7.0991      7.1264    185.8376
  1090.2500    143.6629      7.6385      6.8075      7.0214    190.3266
  1090.5000    144.0845      7.5943      6.6056      6.8842    204.9117
  1090.7500    144.6432      7.6635      6.4905      6.6107    195.6238
  1091.0000    145.2228      7.7344      6.4496      6.3403    191.4130
  1091.2500    145.7237      7.8018      6.4842      6.5042    194.4377
  1091.5000    146.1684      7.8110      6.7018      6.9218    195.6748
  1091.7500    146.4857      7.8531      7.1188      7.2955    194.5533
  1092.0000    146.7892      7.9976      7.7937      8.8580    200.5922
  1092.2500    147.0447      8.1166      8.5679     14.4846    177.2820
  1092.5000    147.2893      8.3458      9.5500     29.8194    138.3950
  1092.7500    147.5709      8.6107     10.5704     57.8813    120.8226
  1093.0000    147.8643      8.9726     11.4831     84.9244    104.1911
  1093.2500    148.2233      9.3984     12.0917     86.7473    110.1611
  1093.5000    148.7223      9.9919     12.7847     57.5607    133.7743
  1093.7500    149.2624     10.6309     13.0367     33.5229    162.0977
  1094.0000    149.7453     11.5923     13.2023     21.6522    214.1218
  1094.2500    150.0354     12.5548     13.2667     17.2772    255.0092
  1094.5000    150.1411     13.6748     13.6217     15.5769    333.2679
  1094.7500    150.0906     14.3900     14.1366     14.3804    359.0429
  1095.0000    149.9780     14.8801     15.2404     14.1505    402.6223
  1095.2500    149.9136     15.1707     16.1100     15.6356    352.7410
  1095.5000    149.7976     15.7083     16.7773     18.2977    295.9443
  1095.7500    149.6249     15.7835     17.6389     21.3401    284.1037
  1096.0000    149.4632     15.7939     18.4938     23.6819    272.8281
  1096.2500    149.2517     15.9430     18.8748     24.8974    307.8851
  1096.5000    148.9514     16.5113     19.6732     26.4225    365.7497
  1096.7500    148.5564     16.5761     20.8054     27.7539    359.3681
  1097.0000    148.1224     16.9847     21.5223     30.8772    344.8750
  1097.2500    147.6570     17.9014     22.3697     37.6481    323.5984
  1097.5000    147.1788     18.5148     24.4999     41.9658    256.3120
  1097.7500    146.6155     19.2336     26.0266     41.9585    225.4965
  1098.0000    146.1757     19.7635     27.8133     42.2081    170.3712
  1098.2500    145.9781     20.2517     29.8298     45.3212    139.2689
  1098.5000    146.0342     20.4617     31.9274     48.2332    129.7739
  1098.7500    146.1286     20.1177     32.6004     54.0996    122.7332
  1099.0000    146.2333     19.6049     34.1795     63.2696    104.9191
  1099.2500    146.5135     18.8987     34.8062     73.9144    106.0780
  1099.5000    146.8324     18.0890     33.0194     78.0931    105.1229
  1099.7500    147.0170     17.0212     30.7534     61.1576    101.9545
  1100.0000    147.1641     15.9705     26.6097     44.3843    107.2685
  1100.2500    147.4169     14.9524     23.5190     36.2995    113.5723
  1100.5000    147.7337     13.8876     20.3593     27.0012    115.9722
  1100.7500    148.1627     13.1264     17.2538     21.5108    118.2233
  1101.0000    148.4810     12.2674     14.9655     17.0127    112.9875
  1101.2500    148.5184     11.4808     13.2905     13.8357     43.8302
  1101.5000    148.4923     10.9275     11.8754     13.0358      0.2602
  1101.7500    148.5047     10.4634     10.6551     11.9864      0.0000
  1102.0000    148.5139     10.0999      9.7664     10.0871   -999.2500
  1102.2500    148.4415      9.7893      9.0148      8.6212   -999.2500
  1102.5000    148.2591      9.5638      8.5005      7.7899   -999.2500
  1102.7500    148.1245      9.3806      8.3443      7.7122   -999.2500
  1103.0000    148.2038      9.2814      8.3240      8.1448   -999.2500
  1103.2500    148.2887      9.1200      8.2783      8.7897   -999.2500
  1103.5000    148.3094      9.1013      8.3903      9.7090   -999.2500
  1103.7500    148.3184      9.2552      8.5361     10.0754   -999.2500
  1104.0000    148.3249      9.3954      8.8579     10.0891   -999.2500
  1104.2500    148.5054      9.5316      9.1050     10.2969   -999.2500
  1104.5000    148.8465      9.7414      9.4875     11.2277   -999.2500
  1104.7500    149.1832     10.2373     10.1439     12.7345   -999.2500
  1105.0000    149.3640     10.7932     10.7875     13.9581   -999.2500
  1105.2500    149.6533     11.2071     11.7542     14.3008   -999.2500
  1105.5000    149.9985     11.6635     12.6226     15.6564   -999.2500
  1105.7500    150.2065     12.2374     13.7798     19.6796   -999.2500
  1106.0000    150.0585     12.5971     14.6311     26.5235   -999.2500
  1106.2500    149.7133     12.6099     15.2713     28.1701   -999.2500
  1106.5000    149.3816     12.6821     16.0095     23.9745   -999.2500
  1106.7500    149.2965     12.4988     16.3093     20.4470   -999.2500
  1107.0000    149.1648     12.0023     15.9590     19.8971   -999.2500
  1107.2500    148.8428     11.1546     15.0949     21.3758   -999.2500
  1107.5000    148.4110     10.5170     13.7713     20.2968   -999.2500
  1107.7500    147.8549      9.9674     12.3645     16.1575   -999.2500
  1108.0000    147.2868      9.5706     10.8316     14.0086   -999.2500
  1108.2500    147.2303      9.1248      9.2942     12.4512   -999.2500
  1108.5000    147.2596      8.7716      7.9306      9.7105   -999.2500
  1108.7500    146.9859      8.3918      7.0290      7.0838   -999.2500
  1109.0000    146.3920      8.0231      6.4043      5.6175   -999.2500
  1109.2500    145.9820      7.8294      5.9979      5.3521   -999.2500
  1109.5000    145.9847      7.6070      5.7021      5.6142   -999.2500
  1109.7500    146.0188      7.3112      5.5675      5.5580   -999.2500
  1110.0000    145.8116      6.9788      5.4691      5.6999   -999.2500
  1110.2500    145.2200      6.7711      5.3853      6.0498   -999.2500
  1110.5000    144.7301      6.6670      5.2903      6.0700   -999.2500
  1110.7500    144.8027      6.6272      5.2251      5.8740   -999.2500
  1111.0000    145.1441      6.6478      5.2182      5.7996   -999.2500
  1111.2500    145.0980      6.7676      5.2263      5.9655   -999.2500
  1111.5000    144.4525      6.9774      5.3266      5.9313   -999.2500
  1111.7500    144.0586      7.1168      5.4649      6.0329   -999.2500
