~Version Information
 VERS.                                  2.0 : CWLS LAS VERSION
 WRAP.                                   NO : WRAPING MODE
 SWARE .                 MController 2.5.0E : SOFTWARE VERSION
~Well Information
 WELL.                          Nomad 32-10 : WELL
 COMP.            EVERGREEN OPERATING CORP. : COMPANY
 FLD.                      PURGATOIRE RIVER : FIELD
 LOC.                    SW/NE 26 T32S R66W : LOCATION
 DATE.                              6/11/04 : DATE(S) LOGGED
 SRVC.       BLANCO GEOLOGICAL SERVICES LLC : SERVICE COMPANY
 STAT.                             COLORADO : STATE
 CNTY.                           LAS ANIMAS : COUNTY
 CTRY.                                  USA : COUNTRY
 API.                       05-071-08127-00 : API NUMBER
 STRT.FT                             446.00 : START DEPTH
 STOP.FT                            2455.00 : STOP DEPTH
 STEP.FT                               1.00 : DEPTH INCREMENT
 NULL.                                -9999 : NULL VALUE
~Curve information
 DEPTH.FT                                   :
 ROP.MIN/FT                                 :
 GAS.UNITS                                  :
~ASCII Log data
# ...
     1246.00        0.233        116.1 
     1247.00        0.200        101.8 
     1248.00        0.267        103.7 
     1249.00        0.300        104.3 
     1250.00        0.250         98.6 
     1251.00        0.200         98.6 
     1252.00        0.200         92.4 
     1253.00        0.200         91.1 
     1254.00        0.200         89.5 
     1255.00        0.200         97.0 
     1256.00        4.850        319.4 
     1257.00        0.100        211.8 
     1258.00        0.200        205.8 
     1259.00        0.233        198.7 
     1260.00        0.217        186.3 
     1261.00        0.333        172.5 
     1262.00        0.200        155.0 
     1263.00        0.167        146.1 
     1264.00        0.133        138.4 
     1265.00        0.133        136.9 
     1266.00        0.300        130.6 
     1267.00        0.233        141.1 
     1268.00        0.233        152.5 
     1269.00        0.200        166.1 
     1270.00        0.200        168.8 
     1271.00        0.133        181.0 
     1272.00        0.200        188.2 
     1273.00        0.200        212.8 
     1274.00        0.167        206.7 
     1275.00        0.233        206.7 
     1276.00        0.133        189.6 
     1277.00        0.217        140.1 
     1278.00        0.200        105.2 
     1279.00        0.167         86.0 
     1280.00        0.233         75.3 
     1281.00        0.267         72.6 
     1282.00        0.200         72.6 
     1283.00        0.233         75.3 
     1284.00        0.200         83.0 
     1285.00        0.267        101.0 
     1286.00        4.517        288.6 
     1287.00        0.317        188.4 
     1288.00        0.333        172.3 
     1289.00        0.233        154.2 
     1290.00        0.267        149.4 
     1291.00        0.167        149.5 
     1292.00        0.267        142.4 
     1293.00        0.300        141.3 
     1294.00        0.167        131.5 
     1295.00        0.333        134.4 
     1296.00        0.167        133.1 
     1297.00        0.233        126.8 
     1298.00        0.233        125.1 
     1299.00        0.167        128.5 
     1300.00        0.233        128.5 
     1301.00        0.350        152.4 
     1302.00        0.200        186.7 
     1303.00        0.167        188.7 
     1304.00        0.133        188.7 
     1305.00        0.100        188.7 
     1306.00        0.167        165.7 
     1307.00        0.200        157.2 
     1308.00        0.167         96.9 
     1309.00        0.167         96.9 
     1310.00        0.133         86.8 
     1311.00        0.200         86.8 
     1312.00        0.300         86.0 
     1313.00        1.717        149.7 
     1314.00        1.267        160.0 
     1315.00        2.550        126.2 
     1316.00        8.867       3096.4 
     1317.00        0.350        132.5 
     1318.00        0.400        130.0 
     1319.00        0.367        128.6 
     1320.00        0.200        122.1 
     1321.00        0.267        118.5 
     1322.00        0.233        109.1 
     1323.00        0.267        106.1 
     1324.00        0.267        115.6 
     1325.00        0.267        118.8 
     1326.00        0.167        113.4 
     1327.00        0.200        108.4 
     1328.00        0.233        107.9 
     1329.00        0.200        107.8 
     1330.00        0.250        114.6 
     1331.00        0.233        104.7 
     1332.00        0.167        104.7 
     1333.00        0.133         91.5 
     1334.00        0.133         48.5 
     1335.00        0.100         42.8 
     1336.00        0.167         42.8 
     1337.00        0.267         55.5 
     1338.00        0.200         73.6 
     1339.00        0.233         85.1 
     1340.00        0.233         82.5 
     1341.00        0.233         76.4 
     1342.00        0.267         70.3 
     1343.00        0.200         72.7 
     1344.00        0.233         72.7 
     1345.00        0.200         84.8 
     1346.00        4.833       1692.1 
     1347.00        0.200        106.6 
     1348.00        0.333        107.3 
     1349.00        0.433        106.6 
     1350.00        0.500        100.0 
     1351.00        0.100        100.0 
     1352.00        0.433         99.3 
     1353.00        0.350         93.7 
     1354.00        0.267         97.3 
     1355.00        0.200        102.2 
     1356.00        0.233         95.8 
     1357.00        0.200         95.8 
     1358.00        0.167         93.3 
     1359.00        0.200         99.9 
     1360.00        0.167         98.7 
     1361.00        0.200         98.7 
     1362.00        0.267         99.9 
     1363.00        0.167        102.4 
     1364.00        0.200        104.9 
     1365.00        0.167        104.9 
     1366.00        0.167         87.1 
     1367.00        0.167         54.7 
     1368.00        0.167         54.7 
     1369.00        0.167         49.1 
     1370.00        0.217         64.4 
     1371.00        0.167         64.4 
     1372.00        0.167         82.6 
     1373.00        0.167         84.5 
     1374.00        0.333         75.8 
     1375.00        0.500         74.2 
     1376.00        5.633       1682.4 
     1377.00        0.333        107.2 
     1378.00        0.267        100.6 
     1379.00        0.267         98.0 
     1380.00        0.233         94.9 
     1381.00        0.267         93.5 
     1382.00        0.200         93.5 
     1383.00        0.200         91.4 
     1384.00        0.200         90.2 
     1385.00        0.200         86.6 
     1386.00        0.167         86.6 
     1387.00        0.233         86.2 
     1388.00        0.167         85.3 
     1389.00        0.217         85.3 
     1390.00        0.300         87.7 
     1391.00        0.300         87.9 
     1392.00        0.267         84.0 
     1393.00        0.300        101.0 
     1394.00        0.267        105.6 
     1395.00        0.233         87.6 
     1396.00        0.233         54.7 
     1397.00        0.233         47.9 
     1398.00        0.267         51.2 
     1399.00        0.267         50.2 
     1400.00        0.233         47.6 
     1401.00        0.267         48.6 
     1402.00        0.250         53.4 
     1403.00        0.200         64.6 
     1404.00        0.233         80.7 
     1405.00        0.233         80.7 
     1406.00        5.517       2886.8 
     1407.00        0.067         94.8 
     1408.00        0.483        103.7 
     1409.00        0.300        100.3 
     1410.00        0.267         87.2 
     1411.00        0.367         82.8 
     1412.00        0.333         87.1 
     1413.00        0.200         97.3 
     1414.00        0.233        105.8 
     1415.00        0.233        106.2 
     1416.00        0.200        104.4 
     1417.00        0.200        104.4 
     1418.00        0.200         99.5 
     1419.00        0.133         97.3 
     1420.00        0.167         97.3 
     1421.00        0.133        107.3 
     1422.00        0.133        107.3 
     1423.00        0.150        142.7 
     1424.00        0.167        129.7 
     1425.00        0.133        129.7 
     1426.00        0.133        124.3 
     1427.00        0.167         84.7 
     1428.00        0.200         72.3 
     1429.00        0.233         74.8 
     1430.00        0.233         80.5 
     1431.00        0.267         92.6 
     1432.00        0.233        101.4 
     1433.00        0.267        107.3 
     1434.00        0.267        107.7 
     1435.00        0.300        105.9 
     1436.00        7.033       2429.6 
     1437.00        0.200        100.1 
     1438.00        0.450        101.0 
     1439.00        0.300         99.5 
     1440.00        0.267         96.7 
     1441.00        0.267         98.1 
     1442.00        0.167         99.3 
     1443.00        0.133         98.7 
     1444.00        0.100         98.7 
     1445.00        0.133         98.7 
