~Version Information
VERS.                      2.0: CWLS Log ASCII Standard - VERSION 2.0
WRAP.                       NO: One line per depth step
~Well Information Block
STRT.FT                -2.7500: 
STOP.FT              2141.2500: 
STEP.FT                 0.2500: 
NULL.                -999.2500: 
COMP.          Pioneer Nautural Resources: COMPANY
WELL.             Enzo 43-8 Tr: WELL
FLD.           Purgatorie River: FIELD
LOC.           2303' FSL & 604' FEL--: LOCATION
PROV.                       CO: PROVINCE
CNTY.               Las Animas: COUNTRY
SRVC.                         : SERVICE COMPANY
DATE.          Thu Nov 04 09:01:55 2004: LOG DATE
UWI.            05-071-08213  : UNIQUE WELL ID
~Curve Information Block
DEPT.FT            0 000 00 00: Depth
GR.GAPI                       : Gamma Ray
CCL.                          : Casing Collar Locator
TT3.usec                      : CBL 3' Travel Time
AMP3.mV                       : CBL 3' Amplitude
~Parameter Information Block
~A  Depth        GR         CCL         TT3         AMP3    
# ...
   566.7500    122.7400      0.0000    758.3263      6.1530
   567.0000    114.0895      0.0000    755.9590      6.2240
   567.2500    110.3195      0.0000    754.2112      6.3124
   567.5000    111.6767      0.0000    753.4816      6.3916
   567.7500    116.2966      0.0000    752.9969      6.4456
   568.0000    121.1990      0.0000    751.8713      6.4708
   568.2500    123.8123      0.0000    749.9639      6.4699
   568.5000    123.5029      0.0000    747.6463      6.4486
   568.7500    121.5796      0.0000    745.5443      6.4134
   569.0000    119.4966      0.0000    744.8068      6.3743
   569.2500    117.4994      0.0000    746.6741      6.3472
   569.5000    115.4505      0.0000    751.1524      6.3498
   569.7500    114.3149      0.0000    756.6489      6.3885
   570.0000    115.8820      0.0000    761.2948      6.4510
   570.2500    121.1205      0.0000    764.2802      6.5144
   570.5000    129.1630      0.0000    765.8580      6.5621
   570.7500    137.7295      0.0000    766.5620      6.5899
   571.0000    144.4626      0.0000    766.7314      6.6016
   571.2500    148.1400      0.0000    766.5519      6.6043
   571.5000    148.7857      0.0000    766.1969      6.6039
   571.7500    146.9009      0.0000    765.7725      6.6028
   572.0000    143.0919      0.0000    765.1837      6.6014
   572.2500    138.4696      0.0000    764.1113      6.6006
   572.5000    134.7143      0.0000    762.2115      6.5995
   572.7500    133.0966      0.0000    759.5639      6.5899
   573.0000    133.4681      0.0000    757.0607      6.5593
   573.2500    134.5937      0.0000    756.0476      6.5027
   573.5000    135.4666      0.0000    757.1908      6.4310
   573.7500    136.0041      0.0000    759.8056      6.3636
   574.0000    136.5617      0.0000    762.5380      6.3106
   574.2500    137.2372      0.0000    764.5245      6.2643
   574.5000    137.7094      0.0000    765.7351      6.2100
   574.7500    137.5512      0.0000    766.5150      6.1422
   575.0000    136.8238      0.0000    767.1262      6.0703
   575.2500    136.5123      0.0000    767.6580      6.0096
   575.5000    137.8462      0.0000    768.1226      5.9653
   575.7500    140.7890      0.0000    768.5170      5.9251
   576.0000    143.7326      0.0000    768.8293      5.8714
   576.2500    145.0899      0.0000    769.0471      5.8011
   576.5000    144.6405      0.0000    769.1866      5.7303
   576.7500    143.0413      0.0000    769.2925      5.6793
   577.0000    140.6584      0.0000    769.3989      5.6573
   577.2500    137.2675      0.0000    769.4976      5.6620
   577.5000    132.6564      0.0000    769.5469      5.6862
   577.7500    127.4444      0.0000    769.5136      5.7186
   578.0000    123.2812      0.0000    769.4014      5.7431
   578.2500    121.8213      0.0000    769.2306      5.7469
   578.5000    123.4044      0.0000    769.0006      5.7302
   578.7500    127.0647      0.0000    768.6971      5.7068
   579.0000    131.7115      0.0000    768.3423      5.6943
   579.2500    136.6809      0.0000    768.0118      5.7020
   579.5000    141.2628      0.0000    767.7797      5.7260
   579.7500    144.5828      0.0000    767.6517      5.7536
   580.0000    146.2223      0.0000    767.5258      5.7724
   580.2500    146.4305      0.0000    767.1403      5.7779
   580.5000    145.6302      0.0000    765.9618      5.7719
   580.7500    144.0354      0.0000    763.1651      5.7522
   581.0000    141.7855      0.0000    758.0753      5.7053
   581.2500    139.1653      0.0000    751.2045      5.6147
   581.5000    136.5731      0.0000    745.1248      5.4755
   581.7500    134.4592      0.0000    743.8487      5.2984
   582.0000    133.2093      0.0000    750.2028      5.1056
   582.2500    132.6071      0.0000    762.8239      4.9250
   582.5000    131.4986      0.0000    776.3239      4.7717
   582.7500    128.5671      0.0000    786.3070      4.6239
   583.0000    123.5166      0.0000    794.0922      4.4413
   583.2500    117.1945      0.0000    804.0712      4.2225
   583.5000    110.8097      0.0000    816.7331      4.0166
   583.7500    105.3064      0.0000    827.8770      3.8634
   584.0000    101.3092     -2.0000    834.8019      3.7531
   584.2500     99.2989     -2.0000    839.5178      3.6503
   584.5000     99.5941      0.0000    845.3792      3.5258
   584.7500    102.0682      0.0000    853.0120      3.3670
   585.0000    105.9651      0.0000    859.4706      3.1952
   585.2500    109.9066      0.0000    859.8382      3.0828
   585.5000    112.1477      0.0000    850.2655      3.1214
   585.7500    111.4171      0.0000    831.0808      3.3550
   586.0000    108.0382      0.0000    807.3500      3.7470
   586.2500    103.9208      0.0000    785.8326      4.2036
   586.5000    100.9879      0.0000    770.6909      4.6233
   586.7500     99.8705      0.0000    761.5958      4.9413
   587.0000    100.5749      0.0000    755.5826      5.1445
   587.2500    103.7311      0.0000    750.5117      5.2489
   587.5000    109.9876      0.0000    746.6122      5.2745
   587.7500    118.0260      0.0000    745.0773      5.2470
   588.0000    124.2775      0.0000    746.1078      5.2107
   588.2500    125.4269      0.0000    748.9780      5.2155
   588.5000    121.0628      0.0000    753.4515      5.2864
   588.7500    113.7130      0.0000    759.9998      5.4117
   589.0000    106.8247      0.0000    768.4698      5.5580
   589.2500    103.0398      0.0000    777.0009      5.6930
   589.5000    103.6244      0.0000    782.5439      5.7986
   589.7500    108.2217      0.0000    782.7405      5.8716
   590.0000    114.7914      0.0000    777.6953      5.9109
   590.2500    120.7650      0.0000    770.0172      5.9033
   590.5000    125.0938      0.0000    763.1437      5.8337
   590.7500    128.6835      0.0000    759.4482      5.7117
   591.0000    132.2367      0.0000    759.2753      5.5787
   591.2500    134.2281      0.0000    761.2415      5.4797
   591.5000    131.9669      0.0000    763.5205      5.4305
   591.7500    124.4337      0.0000    765.0674      5.4145
   592.0000    113.1727      0.0000    765.8409      5.4087
   592.2500    100.5807      0.0000    766.2856      5.4081
   592.5000     88.4208      0.0000    766.9172      5.4261
   592.7500     78.0478      0.0000    768.3162      5.4739
   593.0000     70.9386      0.0000    771.1469      5.5436
   593.2500     68.4563      0.0000    775.6757      5.6076
   593.5000     71.4244      0.0000    780.9295      5.6338
   593.7500     79.8876      0.0000    784.6225      5.6032
   594.0000     92.6240      0.0000    784.7318      5.5184
   594.2500    106.7975      0.0000    781.4821      5.3979
   594.5000    118.9002      0.0000    777.4860      5.2646
   594.7500    126.6896      0.0000    775.8368      5.1402
   595.0000    130.1088      0.0000    778.0771      5.0447
   595.2500    130.4380      0.0000    783.5124      4.9926
   595.5000    129.1865      0.0000    790.0315      4.9865
   595.7500    127.7227      0.0000    795.8243      5.0163
   596.0000    126.9518      0.0000    800.5337      5.0628
   596.2500    126.8525      0.0000    804.6995      5.1022
   596.5000    126.7079      0.0000    808.4826      5.1133
   596.7500    126.2597      0.0000    811.4356      5.0918
   597.0000    126.4874      0.0000    813.2155      5.0567
   597.2500    128.8008      0.0000    813.9695      5.0389
   597.5000    133.4212      0.0000    814.0922      5.0540
   597.7500    138.9674      0.0000    813.9205      5.0864
   598.0000    143.7511      0.0000    813.6704      5.1067
   598.2500    147.2125      0.0000    813.4730      5.1037
   598.5000    150.0615      0.0000    813.3754      5.0920
   598.7500    153.3279      0.0000    813.2952      5.0883
   599.0000    157.2976      0.0000    812.9512      5.0915
   599.2500    161.0183      0.0000    811.7999      5.0932
   599.5000    162.6748      0.0000    809.1195      5.0990
   599.7500    160.8805      0.0000    804.4985      5.1272
   600.0000    156.1570      0.0000    798.5085      5.1862
