~Version Information
VERS.                      2.0: CWLS Log ASCII Standard - VERSION 2.0
WRAP.                       NO: One line per depth step
~Well Information Block
STRT.FT                -7.5000: 
STOP.FT              1129.7500: 
STEP.FT                 0.2500: 
NULL.                -999.2500: 
COMP.          Pioneer Natural Resources: COMPANY
WELL.          Drewmeister 34-34: WELL
FLD.           Purgatorie River: FIELD
LOC.           958' FSL & 1857' FEL: LOCATION
STAT.                       CO: State
CNTY.               Las Animas: COUNTRY
CTRY. USA : Country
SECT. 34 : Section
TOWN. 32S : Township
RANG. 65W : Range
SRVC.          Patterson Wireline: SERVICE COMPANY
DATE.          Fri Oct 14 14:02:00 2005: LOG DATE
API.           05 071 08131 00: UNIQUE WELL ID
~Curve Information Block
DEPT.FT            0 000 00 00: Depth
CCL.                          : Casing Collar Locator
TT3.usec                      : CBL 3' Travel Time
AMP3.mV                       : CBL 3' Amplitude
GR.GAPI                       : Gamma Ray
~Parameter Information Block
~A  Depth       CCL         TT3         AMP3         GR     
# ...
   428.0000      0.0000    737.9479      1.6356    104.2181
   428.2500      0.0000    738.0090      1.6557    102.8924
   428.5000      0.0000    738.1943      1.6477    101.9761
   428.7500      0.0000    738.7746      1.6002    102.3273
   429.0000      0.0000    740.1526      1.5209    103.7524
   429.2500      0.0000    742.5989      1.4297    106.1362
   429.5000      0.0000    745.8186      1.3499    109.6450
   429.7500      0.0000    748.7053      1.3093    114.0130
   430.0000      0.0000    749.8569      1.3480    118.2840
   430.2500      0.0000    748.7159      1.5150    121.5271
   430.5000      0.0000    746.1127      1.8485    123.7124
   430.7500      0.0000    743.4792      2.3449    125.7594
   431.0000      0.0000    741.7031      2.9370    128.4065
   431.2500      0.0000    740.8373      3.5118    130.7806
   431.5000      0.0000    740.5341      3.9694    130.5172
   431.7500      0.0000    740.3918      4.2802    126.0106
   432.0000      0.0000    740.1400      4.4854    118.3768
   432.2500      0.0000    740.0618      4.6426    110.3885
   432.5000      0.0000    741.9103      4.7711    103.6422
   432.7500      0.0000    749.3789      4.8500     97.5253
   433.0000      0.0000    766.5424      4.8648     90.6091
   433.2500      0.0000    794.4420      4.8444     82.0682
   433.5000      0.0000    829.5133      4.8454     72.0084
   433.7500      0.0000    865.8886      4.9076     61.4876
   434.0000      0.0000    897.4709      5.0281     52.3436
   434.2500      0.0000    917.1772      5.1634     46.3288
   434.5000      2.0000    918.2106      5.2528     43.9140
   434.7500     -2.0000    900.4250      5.2532     43.8849
   435.0000      0.0000    874.2694      5.1610     44.2143
   435.2500      0.0000    854.7823      5.0104     43.5195
   435.5000      0.0000    849.6599      4.8503     41.8630
   435.7500      0.0000    852.9674      4.7068     40.4370
   436.0000      0.0000    851.3370      4.5545     40.6428
   436.2500      0.0000    836.6453      4.3428     43.1247
   436.5000      0.0000    812.1171      4.0560     47.2110
   436.7500      0.0000    787.0226      3.7365     51.3040
   437.0000      0.0000    768.1146      3.4549     54.3272
   437.2500      0.0000    756.7102      3.2703     57.0399
   437.5000      0.0000    751.2487      3.2096     61.4396
   437.7500      0.0000    749.7914      3.2687     68.4858
   438.0000      0.0000    750.2776      3.4237     77.0098
   438.2500      0.0000    750.5432      3.6354     85.2184
   438.5000      0.0000    749.3245      3.8533     92.2807
   438.7500      0.0000    747.1274      4.0276     97.7177
   439.0000      0.0000    745.6681      4.1242    100.2956
   439.2500      0.0000    746.6937      4.1249     98.8276
   439.5000      0.0000    751.1626      4.0215     93.9192
   439.7500      0.0000    758.7670      3.8218     88.1183
   440.0000      0.0000    767.7984      3.5631     84.1513
   440.2500      0.0000    775.8892      3.3148     83.1812
   440.5000      0.0000    781.3497      3.1572     84.4775
   440.7500      0.0000    783.8533      3.1512     86.1678
   441.0000      0.0000    783.9049      3.3127     86.3739
   441.2500      0.0000    781.9706      3.6035     84.4239
   441.5000      0.0000    778.2737      3.9418     81.3163
   441.7500      0.0000    773.2548      4.2375     78.7561
   442.0000      0.0000    767.9088      4.4357     77.8055
   442.2500      0.0000    763.5342      4.5378     78.5054
   442.5000      0.0000    761.0668      4.5905     80.0631
   442.7500      0.0000    760.3135      4.6585     80.9986
   443.0000      0.0000    759.7146      4.7926     79.8413
   443.2500      0.0000    757.4306      5.0016     76.2730
   443.5000      0.0000    753.1100      5.2471     71.4467
   443.7500      0.0000    748.3027      5.4687     67.2283
   444.0000      0.0000    745.0567      5.6219     65.2180
   444.2500      0.0000    744.4412      5.6972     66.0909
   444.5000      0.0000    746.2244      5.7116     69.4168
   444.7500      0.0000    749.4047      5.6925     73.9754
   445.0000      0.0000    753.0901      5.6658     78.2803
   445.2500      0.0000    757.2509      5.6492     81.0955
   445.5000      0.0000    762.4401      5.6453     81.9146
   445.7500      0.0000    768.5886      5.6407     81.1014
   446.0000      0.0000    774.4833      5.6155     79.4640
   446.2500      0.0000    778.6181      5.5556     77.7846
   446.5000      0.0000    780.0801      5.4494     76.6075
   446.7500      0.0000    778.4744      5.2769     75.9588
   447.0000      0.0000    773.6509      5.0188     75.3409
   447.2500      0.0000    766.0906      4.6847     74.4790
   447.5000      0.0000    757.3758      4.3257     73.9080
   447.7500      0.0000    749.6813      4.0059     74.3786
   448.0000      0.0000    744.5557      3.7617     75.8547
   448.2500      0.0000    742.3146      3.5886     77.5147
   448.5000      0.0000    742.6229      3.4596     78.6781
   448.7500      0.0000    745.3954      3.3460     79.5440
   449.0000      0.0000    750.8617      3.2283     81.1987
   449.2500      0.0000    758.7108      3.1030     84.9772
   449.5000      0.0000    767.4211      2.9824     91.4002
   449.7500      0.0000    774.7452      2.8880     99.4048
   450.0000      0.0000    778.8244      2.8445    106.7054
   450.2500      0.0000    778.7386      2.8717    111.0280
   450.5000      0.0000    774.4333      2.9640    111.1515
   450.7500      0.0000    766.8553      3.0778    107.4804
   451.0000      0.0000    758.1723      3.1550    102.1727
   451.2500      0.0000    751.1437      3.1628     98.0973
   451.5000      0.0000    747.6910      3.1071     96.7878
   451.7500      0.0000    747.8676      3.0168     97.4956
   452.0000      0.0000    750.0976      2.9325     98.5616
   452.2500      0.0000    752.4536      2.9031     99.3349
   452.5000      0.0000    753.9592      2.9691    100.4636
   452.7500      0.0000    754.8867      3.1330    102.6459
   453.0000      0.0000    756.1315      3.3492    105.4579
   453.2500      0.0000    758.5278      3.5496    107.5468
   453.5000      0.0000    762.1793      3.6828    107.9916
   453.7500      0.0000    765.7885      3.7318    107.0671
   454.0000      0.0000    767.1558      3.7051    105.3407
   454.2500      0.0000    765.2737      3.6263    102.6254
   454.5000      0.0000    761.8953      3.5330     98.6452
   454.7500      0.0000    760.4315      3.4728     94.5382
   455.0000      0.0000    763.0622      3.4891     92.8631
   455.2500      0.0000    769.0379      3.6025     95.7499
   455.5000      0.0000    775.6998      3.7929    102.9485
   455.7500      0.0000    780.7495      3.9972    111.2403
   456.0000      0.0000    783.3740      4.1323    115.7407
   456.2500      0.0000    783.6214      4.1378    112.7999
   456.5000      0.0000    781.4044      4.0091    102.6015
   456.7500      0.0000    776.5303      3.7920     89.0007
   457.0000      0.0000    769.7137      3.5475     76.6657
   457.2500      0.0000    763.1545      3.3197     68.3005
   457.5000      0.0000    759.3369      3.1240     64.1154
   457.7500      0.0000    758.7850      2.9545     63.0690
   458.0000      0.0000    759.3290      2.8036     64.1357
   458.2500      0.0000    758.1418      2.6782     66.6196
   458.5000      0.0000    754.3978      2.5925     69.9222
   458.7500      0.0000    749.6306      2.5429     73.5130
   459.0000      0.0000    745.8875      2.4996     77.2785
   459.2500      0.0000    744.2169      2.4327     81.7101
   459.5000      0.0000    744.6555      2.3373     87.3623
   459.7500      0.0000    746.6252      2.2241     93.9206
   460.0000      0.0000    749.0096      2.0936    100.1068
   460.2500      0.0000    750.6476      1.9366    104.6283
   460.5000      0.0000    751.6230      1.7626    107.1156
   460.7500      0.0000    753.8440      1.6214    108.2637
   461.0000      0.0000    759.4858      1.5839    109.3414
   461.2500      0.0000    768.4974      1.6943    111.4337
