~Version Information
VERS.                      2.0: CWLS Log ASCII Standard - VERSION 2.0
WRAP.                       NO: One line per depth step
~Well Information Block
STRT.FT               647.0000: 
STOP.FT              1167.5000: 
STEP.FT                 0.2500: 
NULL.                -999.2500: 
COMP.          Pioneer Natural Resources: COMPANY
WELL.             Linda T 32-3: WELL
FLD.           Purgatoire River: FIELD
LOC.           1350' FNL & 2290' FEL: LOCATION
PROV.                 Colorado: PROVINCE
CNTY.               Las Animas: COUNTRY
SRVC.                Patterson: SERVICE COMPANY
DATE.          Sat Feb 05 06:41:02 2005: LOG DATE
UWI.           05 071 08215 00: UNIQUE WELL ID
~Curve Information Block
DEPT.FT            0 000 00 00: Depth
SN.Ohm-m                      : IEL Short Normal
SP.mV                         : IEL Spontaneous Potential
DIR.Ohm-m                     : IEL Induction Resistivity
GR.GAPI                       : Gamma Ray
~Parameter Information Block
~A  Depth        SN          SP         DIR          GR     
# ...
  1116.0000     13.3635     42.5447     12.5018    121.4240
  1116.2500     13.2766     42.2420     12.3900    120.7580
  1116.5000     13.1443     41.9944     12.2948    119.4407
  1116.7500     13.0003     41.7858     12.1981    118.3743
  1117.0000     12.9084     41.5962     12.0862    117.2929
  1117.2500     12.8830     41.4090     11.9547    117.6818
  1117.5000     12.8837     41.2144     11.8119    120.4824
  1117.7500     12.8611     41.0129     11.6770    123.1541
  1118.0000     12.7970     40.8181     11.5714    126.0429
  1118.2500     12.7076     40.6517     11.5076    126.1779
  1118.5000     12.6073     40.5316     11.4839    123.9246
  1118.7500     12.4831     40.4622     11.4855    122.0033
  1119.0000     12.3275     40.4316     11.4911    120.6855
  1119.2500     12.1701     40.4120     11.4802    121.1806
  1119.5000     12.0333     40.3641     11.4386    122.6509
  1119.7500     11.9044     40.2505     11.3628    123.0509
  1120.0000     11.7693     40.0535     11.2621    122.0882
  1120.2500     11.6402     39.7863     11.1548    120.7018
  1120.5000     11.5497     39.4895     11.0607    118.2426
  1120.7500     11.5208     39.2128     10.9938    116.6693
  1121.0000     11.5408     38.9909     10.9601    115.0108
  1121.2500     11.5642     38.8306     10.9586    114.6408
  1121.5000     11.5449     38.7145     10.9835    114.8396
  1121.7500     11.4698     38.6163     11.0256    114.8366
  1122.0000     11.3667     38.5105     11.0719    113.8343
  1122.2500     11.2858     38.3770     11.1073    112.6410
  1122.5000     11.2652     38.2039     11.1184    110.8949
  1122.7500     11.3067     37.9868     11.0976    110.0411
  1123.0000     11.3836     37.7225     11.0449    109.1374
  1123.2500     11.4696     37.4070     10.9672    108.7391
  1123.5000     11.5509     37.0417     10.8751    108.6950
  1123.7500     11.6071     36.6420     10.7803    109.1351
  1124.0000     11.6114     36.2366     10.6928    110.2560
  1124.2500     11.5540     35.8587     10.6192    111.1676
  1124.5000     11.4474     35.5327     10.5622    113.0920
  1124.7500     11.3117     35.2657     10.5212    115.1121
  1125.0000     11.1569     35.0440     10.4906    119.3153
  1125.2500     10.9759     34.8378     10.4584    122.3578
  1125.5000     10.7677     34.6132     10.4075    125.8062
  1125.7500     10.5675     34.3472     10.3230    126.6624
  1126.0000     10.4252     34.0395     10.2011    125.4366
  1126.2500     10.3497     33.7135     10.0526    123.2400
  1126.5000     10.3021     33.4081      9.8971    118.9652
  1126.7500     10.2439     33.1611      9.7540    116.3361
  1127.0000     10.1735     32.9903      9.6357    114.1681
  1127.2500     10.1153     32.8799      9.5460    114.2124
  1127.5000     10.0807     32.7791      9.4815    115.6093
  1127.7500     10.0457     32.6230      9.4346    116.4913
  1128.0000      9.9703     32.3672      9.3963    116.7562
  1128.2500      9.8350     32.0116      9.3582    116.2502
  1128.5000      9.6623     31.5914      9.3148    114.9689
  1128.7500      9.4978     31.1467      9.2651    113.9778
  1129.0000      9.3711     30.7036      9.2122    112.3826
  1129.2500      9.2802     30.2790      9.1604    111.2878
  1129.5000      9.2111     29.8903      9.1140    109.8409
  1129.7500      9.1643     29.5491      9.0767    109.1752
  1130.0000      9.1538     29.2492      9.0520    108.7235
  1130.2500      9.1829     28.9679      9.0428    108.7581
  1130.5000      9.2357     28.6807      9.0491    109.3357
  1130.7500      9.2899     28.3711      9.0681    110.0527
  1131.0000      9.3300     28.0291      9.0955    111.1674
  1131.2500      9.3532     27.6467      9.1273    111.4601
  1131.5000      9.3699     27.2182      9.1607    110.6194
  1131.7500      9.3955     26.7451      9.1936    109.2413
  1132.0000      9.4336     26.2411      9.2237    106.7200
  1132.2500      9.4701     25.7314      9.2475    105.4056
  1132.5000      9.4888     25.2470      9.2613    104.7306
  1132.7500      9.4896     24.8129      9.2625    105.0295
  1133.0000      9.4880     24.4351      9.2524    105.8445
  1133.2500      9.4928     24.0952      9.2367    106.4144
  1133.5000      9.4918     23.7604      9.2220    107.7251
  1133.7500      9.4649     23.4063      9.2124    109.2355
  1134.0000      9.4069     23.0325      9.2071    112.3085
  1134.2500      9.3331     22.6626      9.2003    114.2675
  1134.5000      9.2650     22.3272      9.1830    115.6307
  1134.7500      9.2131     22.0467      9.1466    115.0379
  1135.0000      9.1743     21.8232      9.0872    112.6661
  1135.2500      9.1415     21.6434      9.0074    111.1851
  1135.5000      9.1079     21.4857      8.9149    110.3440
  1135.7500      9.0694     21.3239      8.8198    110.4903
  1136.0000      9.0244     21.1290      8.7310    110.7089
  1136.2500      8.9766     20.8771      8.6535    110.6473
  1136.5000      8.9448     20.5605      8.5894    110.8807
  1136.7500      8.9501     20.1926      8.5386    111.7130
  1137.0000      8.9607     19.8021      8.5005    114.1608
  1137.2500      8.8739     19.4170      8.4735    116.3475
  1137.5000      8.6380     19.0512      8.4531    119.6469
  1137.7500      8.3617     18.6996      8.4326    121.2374
  1138.0000      8.1906     18.3450      8.4066    121.9342
  1138.2500      8.1488     17.9748      8.3758    121.4082
  1138.5000      8.1737     17.5913      8.3475    120.2032
  1138.7500      8.2078     17.2070      8.3312    119.5882
  1139.0000      8.2297     16.8290      8.3330    118.7340
  1139.2500      8.2576     16.4478      8.3528    117.8036
  1139.5000      8.3241     16.0395      8.3861    115.6919
  1139.7500      8.4347     15.5789      8.4275    114.1366
  1140.0000      8.5599     15.0554      8.4732    112.3477
  1140.2500      8.6672     14.4813      8.5208    111.8030
  1140.5000      8.7489     13.8884      8.5683    112.0112
  1140.7500      8.8235     13.3129      8.6141    112.5369
  1141.0000      8.9106     12.7780      8.6580    112.9344
  1141.2500      9.0079     12.2839      8.7025    112.5548
  1141.5000      9.0968     11.8116      8.7504    111.5580
  1141.7500      9.1671     11.3344      8.8027    111.4082
  1142.0000      9.2199     10.8337      8.8573    112.7846
  1142.2500      9.2484     10.3099      8.9104    114.5873
  1142.5000      9.2469      9.7857      8.9598    117.7020
  1142.7500      9.2396      9.2953      9.0070    119.4918
  1143.0000      9.2572      8.8685      9.0558    120.8639
  1143.2500      9.2970      8.5184      9.1090    120.5709
  1143.5000      9.3425      8.2371      9.1663    118.5650
  1143.7500      9.3829      7.9980      9.2262    116.8116
  1144.0000      9.4025      7.7635      9.2898    114.7445
  1144.2500      9.3996      7.4992      9.3639    114.0639
  1144.5000      9.4057      7.1932      9.4581    113.8926
  1144.7500      9.4527      6.8623      9.5794    114.1057
  1145.0000      9.5427      6.5390      9.7272    114.8557
  1145.2500      9.6586      6.2504      9.8942    115.7833
  1145.5000      9.7888      6.0036     10.0722    117.8215
  1145.7500      9.9427      5.7894     10.2573    119.2656
  1146.0000     10.1440      5.5940     10.4507    120.4535
  1146.2500     10.4058      5.4100     10.6538    119.9251
  1146.5000     10.7206      5.2373     10.8634    116.6466
  1146.7500     11.0681      5.0728     11.0706    113.0726
  1147.0000     11.4249      4.9032     11.2652    106.5199
  1147.2500     11.7679      4.7061     11.4422    101.4674
  1147.5000     12.0847      4.4630     11.6053     91.4311
  1147.7500     12.3716      4.1702     11.7644     81.6717
  1148.0000     12.6105      3.8381     11.9294     61.4444
  1148.2500     12.7606      3.4847     12.1044     45.7388
  1148.5000     12.7858      3.1325     12.2848     24.0920
  1148.7500     12.6911      2.8086     12.4565     13.5305
  1149.0000     12.5281      2.5406     12.5957      4.4540
  1149.2500     12.3551      2.3472     12.6726      1.7862
