~Version Information
VERS.                      2.0: CWLS Log ASCII Standard - VERSION 2.0
WRAP.                       NO: One line per depth step
~Well Information Block
STRT.FT               482.2000: 
STOP.FT              2349.0000: 
STEP.FT                 0.1000: 
NULL.                -999.2500: 
COMP.          Pioneer Natural Resources: COMPANY
WELL.          Hill Climb 22-2: WELL
FLD.           Purgatoire River: FIELD
LOC.           1820' FNL & 2193' FWL: LOCATION
PROV.                 Colorado: PROVINCE
CNTY.               Las Animas: COUNTRY
SRVC.                Patterson: SERVICE COMPANY
DATE.          Wed Oct 20 09:25:25 2004: LOG DATE
UWI.           05 071 08175 00: UNIQUE WELL ID
~Curve Information Block
DEPT.FT            0 000 00 00: Depth
DCAL.in                       : CDL Caliper
DPOR.pu                       : CDL Density Porosity
NPOR.pu                       : Neutron Porosity
RHOB.g/cc                     : CDL Bulk Density
RHOC.g/cc                     : CDL Density Correction
GR.GAPI                       : Gamma Ray
~Parameter Information Block
~A  Depth       DCAL        DPOR        NPOR        RHOB        RHOC         GR     
# ...
  1288.6000      2.4586     66.8190     16.9800      1.5475     -0.1910     57.3932
  1288.7000      2.4586     67.6410     16.4073      1.5339     -0.2025     61.2267
  1288.8000      2.4620     67.8780     16.2151      1.5300     -0.2236     75.4197
  1288.9000      2.4620     67.4062     16.4364      1.5378     -0.1996     89.5100
  1289.0000      2.4602     67.1545     16.8345      1.5420     -0.1836    100.9594
  1289.1000      2.4602     67.9784     17.2844      1.5284     -0.2141    112.3619
  1289.2000      2.4602     69.0878     17.8852      1.5101     -0.2588    125.8588
  1289.3000      2.4550     69.5392     18.4575      1.5026     -0.2368    135.5181
  1289.4000      2.4550     69.3821     18.5209      1.5052     -0.2487    127.8138
  1289.5000      2.4554     68.7012     18.0011      1.5164     -0.2124    105.3273
  1289.6000      2.4554     67.3818     17.4335      1.5382     -0.2038     84.7600
  1289.7000      2.4554     65.6180     17.1708      1.5673     -0.2059     74.8046
  1289.8000      2.4600     64.3150     17.0849      1.5888     -0.1655     76.0968
  1289.9000      2.4600     64.3514     17.0391      1.5882     -0.1806     81.6236
  1290.0000      2.4621     65.1410     17.0690      1.5752     -0.2387     81.1407
  1290.1000      2.4621     65.5357     17.1957      1.5687     -0.2167     78.9215
  1290.2000      2.4621     65.6031     17.4662      1.5675     -0.1930     84.3790
  1290.3000      2.4599     65.7122     17.5839      1.5657     -0.2304     93.1101
  1290.4000      2.4599     65.4427     17.0895      1.5702     -0.2255     94.3593
  1290.5000      2.4565     64.4484     16.3457      1.5866     -0.2108     86.7608
  1290.6000      2.4565     62.9432     16.1534      1.6114     -0.1805     77.3228
  1290.7000      2.4565     61.5690     16.6390      1.6341     -0.1606     70.0370
  1290.8000      2.4575     61.1266     17.3474      1.6414     -0.1454     64.9825
  1290.9000      2.4575     61.6420     17.8556      1.6329     -0.1607     62.9485
  1291.0000      2.4598     62.2816     17.9028      1.6224     -0.2071     62.7646
  1291.1000      2.4598     62.7522     17.5993      1.6146     -0.1555     62.8763
  1291.2000      2.4598     63.3778     17.6398      1.6043     -0.1862     67.0608
  1291.3000      2.4596     63.7906     18.3356      1.5975     -0.2100     75.3059
  1291.4000      2.4596     63.4448     19.2282      1.6032     -0.1961     78.8838
  1291.5000      2.4606     62.2858     19.6031      1.6223     -0.1650     75.6229
  1291.6000      2.4606     59.6602     19.6347      1.6656     -0.2048     75.2436
  1291.7000      2.4606     54.4369     20.0468      1.7518     -0.1741     82.6145
  1291.8000      2.4619     47.3815     20.6283      1.8682     -0.1088     90.9956
  1291.9000      2.4619     41.5178     20.7810      1.9650     -0.0466     94.5559
  1292.0000      2.4680     38.4611     20.4494      2.0154     -0.1211     96.3827
  1292.1000      2.4680     36.1506     20.1579      2.0535     -0.1236     94.5271
  1292.2000      2.4680     32.1347     20.0577      2.1198     -0.0933     87.2622
  1292.3000      2.4777     26.8585     19.6795      2.2068     -0.1206     83.3694
  1292.4000      2.4777     22.0929     19.3360      2.2855     -0.2182     85.6287
  1292.5000      2.4855     19.0174     19.5063      2.3362     -0.0968     87.9661
  1292.6000      2.4855     19.6569     19.1950      2.3257     -0.1243     87.6061
  1292.7000      2.4855     26.4364     17.6312      2.2138     -0.1393     86.2919
  1292.8000      2.4927     38.9031     15.6774      2.0081     -0.3364     86.7058
  1292.9000      2.4927     52.3585     14.1203      1.7861     -0.4810     86.5904
  1293.0000      2.4994     62.4403     12.8124      1.6197     -0.5174     82.8911
  1293.1000      2.4994     69.6039     11.6517      1.5015     -0.5339     79.5893
  1293.2000      2.4994     76.6827     10.8594      1.3847     -0.5236     80.7002
  1293.3000      2.5023     84.3523     10.6315      1.2582     -0.5417     83.9093
  1293.4000      2.5023     90.1101     10.8408      1.1632     -0.5657     86.0377
  1293.5000      2.4947     91.4783     11.3524      1.1406     -0.5565     86.9461
  1293.6000      2.4947     88.9591     12.0427      1.1822     -0.4908     89.3735
  1293.7000      2.4947     84.5401     12.4492      1.2551     -0.4102     93.5434
  1293.8000      2.4729     79.4783     12.3637      1.3386     -0.2823     92.3671
  1293.9000      2.4729     74.6296     11.9320      1.4186     -0.0979     86.1070
  1294.0000      2.4423     70.8871     11.2981      1.4804      0.0386     84.0653
  1294.1000      2.4423     68.2702     10.8242      1.5235      0.1204     86.4527
  1294.2000      2.4423     65.6377     11.1307      1.5670      0.1821     87.2690
  1294.3000      2.4193     62.1376     12.7274      1.6247      0.2707     87.6768
  1294.4000      2.4193     58.2729     15.0225      1.6885      0.2758     92.1803
  1294.5000      2.5665     55.0575     16.3429      1.7416      0.3111     97.8070
  1294.6000      2.5665     52.9180     16.5650      1.7769      0.3194    100.4159
  1294.7000      2.5665     50.7590     16.5923      1.8125      0.2909    102.2555
  1294.8000      4.4681     45.2312     16.4627      1.9037      0.2742    101.9914
  1294.9000      4.4681     32.8759     16.2652      2.1075      0.3190     97.3151
  1295.0000     11.8607     16.1364     16.3834      2.3837      0.5255     92.8735
  1295.1000     11.8607      2.8495     16.8583      2.6030      0.5769     91.4249
  1295.2000     11.8607     -2.9629     17.5956      2.6989      0.5886     89.6433
  1295.3000     18.9013     -2.1906     18.4428      2.6861      0.5964     88.2437
  1295.4000     18.9013      4.1267     19.0227      2.5819      0.5300     90.9624
  1295.5000     14.6910     13.6157     19.1637      2.4253      0.2033    100.6516
  1295.6000     14.6910     21.5477     19.3288      2.2945      0.1084    118.7587
  1295.7000     14.6910     25.1839     19.9023      2.2345      0.1022    134.5027
  1295.8000      8.6178     25.2503     20.4101      2.2334      0.0841    133.0659
  1295.9000      8.6178     23.1367     20.1921      2.2682      0.1132    118.7402
  1296.0000      7.0296     19.7079     19.3016      2.3248      0.1544    106.9342
  1296.1000      7.0296     15.3782     18.3610      2.3963      0.1963    104.4445
  1296.2000      7.0296     10.2752     18.0788      2.4805      0.2233    109.2675
  1296.3000      7.0608      4.9477     18.6930      2.5684      0.2555    113.2712
  1296.4000      7.0608      0.5648     19.5596      2.6407      0.2475    110.7047
  1296.5000      7.3689     -2.1000     19.9186      2.6846      0.2351    104.6243
  1296.6000      7.3689     -2.6956     19.7485      2.6945      0.2291     97.7403
  1296.7000      7.3689     -0.2953     19.5955      2.6549      0.2021     91.5219
  1296.8000      7.7029      5.6711     20.0726      2.5564      0.1462     86.4410
  1296.9000      7.7029     13.4618     21.0113      2.4279      0.0330     82.1282
  1297.0000      7.9021     20.2967     21.7927      2.3151     -0.0055     80.7153
  1297.1000      7.9021     24.8518     22.1958      2.2399     -0.0714     82.3970
  1297.2000      7.9021     26.9407     22.6521      2.2055     -0.0975     83.2136
  1297.3000      7.9811     27.1365     23.8877      2.2022     -0.0494     83.0959
  1297.4000      7.9811     26.6359     25.7492      2.2105      0.0236     89.0853
  1297.5000      8.0454     25.7671     27.1545      2.2248      0.0048    105.2142
  1297.6000      8.0454     24.1957     27.6242      2.2508      0.0671    126.6834
  1297.7000      8.0454     22.5363     27.6159      2.2782      0.1520    145.6691
  1297.8000      8.1345     21.2780     27.3021      2.2989      0.1536    153.9880
  1297.9000      8.1345     19.8364     26.8904      2.3227      0.1333    148.1604
  1298.0000      8.2234     18.1648     27.0900      2.3503      0.1635    133.3825
  1298.1000      8.2234     17.1114     27.8249      2.3677      0.1359    126.7558
