~Version Information
VERS.                      2.0: CWLS Log ASCII Standard - VERSION 2.0
WRAP.                       NO: One line per depth step
~Well Information Block
STRT.FT                -9.5000: 
STOP.FT              1862.5000: 
STEP.FT                 0.2500: 
NULL.                -999.2500: 
COMP.          Petrogulf Corporation: COMPANY
WELL.             State 16-34R: WELL
FLD.           Purgatoire River: FIELD
LOC.           1095' FSL & 1498' FEL--: LOCATION
CNTY.               Las Animas: COUNTY
SRVC.                         : SERVICE COMPANY
DATE.          Mon May 10 14:56:57 2004: LOG DATE
UWI.                          : UNIQUE WELL ID
STAT.                       CO: STATE
~Curve Information Block
DEPT.FT            0 000 00 00: Depth
GR.GAPI                       : Gamma Ray
CCL.                          : Casing Collar Locator
TT3.usec                      : CBL 3' Travel Time
AMP3.mV                       : CBL 3' Amplitude
~Parameter Information Block
~A  Depth        GR         CCL         TT3         AMP3    
# ...
   493.0000    105.3109      0.0000    977.3171      5.7468
   493.2500    101.7154      0.0000   1035.1674      5.6403
   493.5000     95.3144      0.0000   1070.8888      5.5061
   493.7500     87.3645      0.0000   1123.3806      5.4771
   494.0000     79.0473      0.0000   1192.4617      5.5983
   494.2500     71.3037      0.0000   1220.9885      5.7832
   494.5000     64.9930      0.0000   1188.2314      5.8807
   494.7500     60.9037      0.0000   1118.3737      5.8189
   495.0000     59.6185      0.0000   1033.3181      5.6653
   495.2500     61.2750      0.0000    959.3015      5.5499
   495.5000     65.4135      0.0000    918.9940      5.5590
   495.7500     71.1490      0.0000    915.5530      5.6554
   496.0000     77.4973      0.0000    948.6178      5.7361
   496.2500     83.5621      0.0000   1004.0400      5.7541
   496.5000     88.6442      0.0000   1033.4380      5.6866
   496.7500     92.4012      0.0000   1003.4468      5.4959
   497.0000     94.9255      0.0000    944.8412      5.2326
   497.2500     96.5450      0.0000    903.7689      5.0602
   497.5000     97.4595      0.0000    888.5444      5.0943
   497.7500     97.6340      0.0000    885.7277      5.2930
   498.0000     97.1172      0.0000    886.2357      5.5347
   498.2500     96.1246      0.0000    888.6950      5.7388
   498.5000     94.5859      0.0000    897.1103      5.9158
   498.7500     92.0679      0.0000    919.6489      6.1305
   499.0000     88.5111      0.0000    957.8617      6.3552
   499.2500     84.5884      0.0000    990.9739      6.4349
   499.5000     80.9863      0.0000    989.7941      6.3316
   499.7500     77.7364      0.0000    954.8202      6.1962
   500.0000     74.6929      0.0000    915.9547      6.1412
   500.2500     72.3145      0.0000    894.3804      6.1698
   500.5000     71.4135      0.0000    890.8405      6.2428
   500.7500     72.0782      0.0000    906.8915      6.3189
   501.0000     73.2560      0.0000    956.1151      6.3793
   501.2500     73.8180      0.0000   1040.6185      6.4128
   501.5000     73.8608      0.0000   1126.6012      6.4214
   501.7500     74.3160      0.0000   1179.6654      6.4079
   502.0000     75.3242      0.0000   1202.4343      6.3246
   502.2500     75.8862      0.0000   1198.4192      6.1475
   502.5000     75.4019      0.0000   1156.6207      5.9626
   502.7500     74.7442      0.0000   1088.6600      5.8755
   503.0000     75.2578      0.0000   1025.4436      5.9203
   503.2500     77.0462      0.0000    985.4738      6.0502
   503.5000     78.6370      0.0000    967.6197      6.1716
   503.7500     78.1893      0.0000    962.0427      6.1956
   504.0000     75.0657      0.0000    960.5377      6.0458
   504.2500     70.6022      0.0000    959.3981      5.7394
   504.5000     67.2867      0.0000    959.8625      5.4878
   504.7500     66.6941      0.0000    970.6086      5.5484
   505.0000     68.2249      0.0000   1001.9303      6.0102
   505.2500     70.0455      0.0000   1048.7217      6.7817
   505.5000     70.7937      0.0000   1091.3851      7.5432
   505.7500     70.0869      0.0000   1113.1144      7.7642
   506.0000     68.2874      0.0000   1104.3550      7.2383
   506.2500     66.5526      0.0000   1073.2137      6.3832
   506.5000     66.4356     -3.6053   1042.8937      5.6737
   506.7500     68.5403     -3.1284   1019.4351      5.2928
   507.0000     71.7600      0.0000    994.4668      5.3108
   507.2500     74.3736      0.0000    966.7073      5.6961
   507.5000     75.7281      0.0000    934.5935      6.1946
   507.7500     76.4811      0.0000    897.1626      6.4606
   508.0000     77.4562      0.0000    872.3965      6.4008
   508.2500     78.7676      0.0000    885.8602      6.2212
   508.5000     79.9876      0.0000    936.8981      6.0770
   508.7500     80.8681      0.0000    993.9349      6.0317
   509.0000     81.9102      0.0000   1020.1777      6.3173
   509.2500     84.0672      0.0000   1009.0297      7.0476
   509.5000     87.5037      0.0000    993.4070      7.7861
   509.7500     90.8007      0.0000    995.7165      7.9140
   510.0000     92.0035      0.0000    993.3918      7.3450
   510.2500     90.6821      0.0000    965.2285      6.5241
   510.5000     88.5147      0.0000    931.1543      5.8687
   510.7500     87.5254      0.0000    923.9569      5.4915
   511.0000     88.1293      0.0000    952.5231      5.3855
   511.2500     89.1446      0.0000    992.7577      5.5682
   511.5000     89.1739      0.0000   1012.9075      5.9295
   511.7500     87.5610      0.0000   1009.2849      6.1925
   512.0000     84.5859      0.0000    996.3627      6.1551
   512.2500     81.3938      0.0000    980.9109      5.8755
   512.5000     79.4500      0.0000    964.6559      5.5917
   512.7500     79.4239      0.0000    946.9188      5.4958
   513.0000     80.6063      0.0000    931.0028      5.6487
   513.2500     81.6944      0.0000    927.6138      5.9573
   513.5000     81.9526      0.0000    930.6263      6.1372
   513.7500     81.4322      0.0000    921.7266      5.9939
   514.0000     80.6019      0.0000    904.2936      5.7158
   514.2500     80.2665      0.0000    897.5002      5.5934
   514.5000     81.3851      0.0000    912.0801      5.6730
   514.7500     84.3318      0.0000    943.4063      5.8300
   515.0000     88.4000      0.0000    972.8268      5.9356
   515.2500     92.1997      0.0000    985.5934      5.9143
   515.5000     94.3984      0.0000    989.3536      5.7466
   515.7500     94.2893      0.0000    997.0732      5.5089
   516.0000     92.2039      0.0000   1005.3378      5.4053
   516.2500     89.4394      0.0000   1007.8295      5.5630
   516.5000     87.4428      0.0000   1008.8112      5.8533
   516.7500     86.9106      0.0000   1010.0173      6.1178
   517.0000     87.5782      0.0000   1010.7658      6.3577
   517.2500     88.4834      0.0000   1019.6201      6.5647
   517.5000     88.3453      0.0000   1039.4948      6.6112
   517.7500     86.3075      0.0000   1055.4249      6.4408
   518.0000     82.7738      0.0000   1055.7163      6.1836
   518.2500     79.2576      0.0000   1051.8599      5.9867
   518.5000     77.0444      0.0000   1067.4099      5.8958
   518.7500     76.0523      0.0000   1116.6538      5.9257
   519.0000     75.1144      0.0000   1188.5148      6.1309
   519.2500     73.2231      0.0000   1232.9597      6.5094
   519.5000     70.3636      0.0000   1193.3206      6.8517
   519.7500     67.3409      0.0000   1078.6949      6.9185
   520.0000     65.0011      0.0000    961.8837      6.7224
   520.2500     63.5649      0.0000    899.3681      6.4182
   520.5000     62.6479      0.0000    898.2831      6.1200
   520.7500     61.9403      0.0000    942.2826      5.8963
   521.0000     61.6592      0.0000    993.4280      5.7702
   521.2500     62.0640      0.0000    985.4124      5.7248
   521.5000     62.7588      0.0000    893.5801      5.7297
   521.7500     63.0289      0.0000    797.7974      5.7572
   522.0000     62.8431      0.0000    794.6122      5.7825
   522.2500     62.9541      0.0000    887.7359      5.7745
   522.5000     63.8849      0.0000   1008.2708      5.7459
   522.7500     65.2764      0.0000   1080.5795      5.7794
   523.0000     66.3582      0.0000   1073.8915      5.9086
   523.2500     66.7381      0.0000   1028.3961      6.0250
   523.5000     66.6134      0.0000   1002.5522      5.9826
   523.7500     66.6794      0.0000   1003.5999      5.7758
   524.0000     68.1097      0.0000    995.6742      5.5163
   524.2500     71.9639      0.0000    955.0472      5.2914
   524.5000     77.8430      0.0000    900.1985      5.1867
   524.7500     83.5209      0.0000    870.2594      5.2717
   525.0000     86.6821      0.0000    889.2879      5.4749
   525.2500     87.0473      0.0000    961.5565      5.6232
   525.5000     86.6015      0.0000   1070.1196      5.5780
   525.7500     87.8892      0.0000   1170.3866      5.3570
   526.0000     91.8990      0.0000   1224.3933      5.1399
   526.2500     97.1408      0.0000   1236.7361      5.0654
