~Version Information
VERS.                      2.0: CWLS Log ASCII Standard - VERSION 2.0
WRAP.                       NO: One line per depth step
~Well Information Block
STRT.FT               -13.0000: 
STOP.FT              1411.2500: 
STEP.FT                 0.2500: 
NULL.                -999.2500: 
COMP.                         : COMPANY
WELL.                         : WELL
FLD.                          : FIELD
LOC.                          : LOCATION
CNTY.                         : COUNTY
SRVC.                         : SERVICE COMPANY
DATE.          Sat Jan 17 07:25:27 2004: LOG DATE
UWI.                          : UNIQUE WELL ID
STAT.                         : STATE
~Curve Information Block
DEPT.FT            0 000 00 00: Depth
CCL.                          : Casing Collar Locator
TT3.usec                      : CBL 3' Travel Time
AMP3.mV                       : CBL 3' Amplitude
GR.GAPI                       : Gamma Ray
~Parameter Information Block
~A  Depth       CCL         TT3         AMP3         GR     
# ...
   657.0000      0.0000    298.9435     18.1327     65.6158
   657.2500      0.0000    298.6925     18.0257     65.9064
   657.5000      0.0000    298.6767     18.0192     65.8119
   657.7500      0.0000    298.7565     18.1599     66.2213
   658.0000      0.0000    298.8485     18.4275     67.2430
   658.2500      0.0000    298.8849     18.7646     68.1129
   658.5000      0.0000    298.8199     19.1241     68.2403
   658.7500      0.0000    298.6533     19.5007     67.8606
   659.0000      0.0000    298.4376     19.9206     67.4364
   659.2500      0.0000    298.2429     20.3977     66.8288
   659.5000      0.0000    298.1124     20.9036     65.4449
   659.7500      0.0000    298.0509     21.3917     63.0409
   660.0000      0.0000    298.0552     21.8482     60.0936
   660.2500      0.0000    298.1495     22.3071     57.4725
   660.5000      0.0000    298.4839     22.7960     55.9652
   660.7500      0.0000    299.5222     23.2481     56.0493
   661.0000      0.0000    302.2727     23.4696     57.8110
   661.2500      0.0000    308.0601     23.2361     60.8297
   661.5000      0.0000    317.3085     22.4727     64.1387
   661.7500      0.0000    328.1635     21.3376     66.5597
   662.0000      0.0000    337.1264     20.0918     67.3720
   662.2500      0.0000    342.1409     18.9046     66.7710
   662.5000      0.0000    345.0264     17.8318     65.6096
   662.7500      0.0000    351.1183     16.9141     64.5768
   663.0000      0.0000    367.4663     16.1845     63.6947
   663.2500     -4.0000    400.7150     15.6010     62.7705
   663.5000     -4.0000    453.4767     15.0550     62.2020
   663.7500      0.0000    520.0863     14.4592     62.8612
   664.0000      0.0000    585.7095     13.8236     65.0132
   664.2500      0.0000    632.2897     13.2705     67.8341
   664.5000      0.0000    649.8665     12.9635     70.3189
   664.7500      0.0000    643.8785     12.9704     72.2978
   665.0000      0.0000    628.5391     13.1805     74.1581
   665.2500      0.0000    613.2012     13.3969     75.8064
   665.5000      0.0000    600.7724     13.5000     76.4586
   665.7500      0.0000    597.8215     13.4992     75.4996
   666.0000      0.0000    614.8000     13.4661     73.1248
   666.2500      0.0000    652.4413     13.4724     70.1511
   666.5000      0.0000    695.9231     13.5742     67.6205
   666.7500      0.0000    726.2006     13.8073     66.5116
   667.0000      0.0000    733.1837     14.1676     67.3370
   667.2500      0.0000    719.0645     14.5993     69.7800
   667.5000      0.0000    695.5760     15.0057     72.7260
   667.7500      0.0000    678.8113     15.2648     74.7704
   668.0000      0.0000    679.9957     15.2414     75.0615
   668.2500      0.0000    696.6068     14.8234     73.9596
   668.5000      0.0000    713.9201     13.9902     72.7153
   668.7500      0.0000    718.0712     12.8466     72.1974
   669.0000      0.0000    708.0121     11.5611     72.0390
   669.2500      0.0000    694.2177     10.2468     71.2706
   669.5000      0.0000    686.6010      8.9075     69.5336
   669.7500      0.0000    685.8192      7.5130     67.3875
   670.0000      0.0000    686.2245      6.1135     65.7846
   670.2500      0.0000    684.0906      4.8504     65.4733
   670.5000      0.0000    681.3611      3.8486     66.4625
   670.7500      0.0000    682.9537      3.1272     67.8188
   671.0000      0.0000    691.5392      2.6252     68.3105
   671.2500      0.0000    704.5142      2.2809     67.4685
   671.5000      0.0000    715.7273      2.0563     66.0280
   671.7500      0.0000    720.1045      1.9178     65.3668
   672.0000      0.0000    716.8669      1.8379     66.3835
   672.2500      0.0000    709.0486      1.8060     68.7651
   672.5000      0.0000    700.7224      1.8088     71.4465
   672.7500      0.0000    694.5012      1.8146     73.7442
   673.0000      0.0000    690.8625      1.8062     75.8670
   673.2500      0.0000    689.0441      1.8148     78.3665
   673.5000      0.0000    688.1597      1.8875     81.1460
   673.7500      0.0000    687.7059      2.0178     83.0519
   674.0000      0.0000    687.5237      2.1369     82.7266
   674.2500      0.0000    687.6032      2.1816     80.0501
   674.5000      0.0000    687.9717      2.1534     76.5072
   674.7500      0.0000    688.7200      2.1022     73.9497
   675.0000      0.0000    690.0857      2.0671     73.1526
   675.2500      0.0000    692.3349      2.0481     73.5702
   675.5000      0.0000    695.2963      2.0307     74.0977
   675.7500      0.0000    697.9464      2.0232     73.9157
   676.0000      0.0000    698.8264      2.0544     72.9808
   676.2500      0.0000    697.2501      2.1376     71.9035
   676.5000      0.0000    693.9544      2.2471     71.2397
   676.7500      0.0000    690.3146      2.3379     71.0563
   677.0000      0.0000    687.0784      2.3827     71.3563
   677.2500      0.0000    684.1228      2.3869     72.3825
   677.5000      0.0000    681.4295      2.3728     74.1522
   677.7500      0.0000    680.1313      2.3615     76.3127
   678.0000      0.0000    682.2211      2.3813     78.7579
   678.2500      0.0000    688.7509      2.4852     81.5718
   678.5000      0.0000    698.2952      2.7368     83.9796
   678.7500      0.0000    707.6375      3.1668     84.1464
   679.0000      0.0000    713.9492      3.7617     80.8112
   679.2500      0.0000    715.2031      4.5040     75.0051
   679.5000      0.0000    708.2399      5.4018     69.6009
   679.7500      0.0000    689.2366      6.4577     66.9497
   680.0000      0.0000    659.6043      7.6147     67.0778
   680.2500      0.0000    629.9461      8.7577     68.1796
   680.5000      0.0000    613.0969      9.7814     68.5799
   680.7500      0.0000    612.1274     10.6556     68.1020
   681.0000      0.0000    617.5529     11.4328     67.8357
   681.2500      0.0000    615.4813     12.2078     68.8185
   681.5000      0.0000    595.9766     13.0574     70.9128
   681.7500      0.0000    556.3967     13.9903     72.9241
   682.0000      0.0000    501.7210     14.9469     73.7534
   682.2500      0.0000    442.1360     15.8481     73.1907
   682.5000      0.0000    388.3089     16.6419     71.7076
   682.7500      0.0000    347.6578     17.3071     69.9928
   683.0000      0.0000    323.3772     17.8314     68.8378
   683.2500      0.0000    315.7711     18.1743     69.0026
   683.5000      0.0000    324.8257     18.2315     70.8085
   683.7500      0.0000    350.8984     17.8616     73.8356
   684.0000      0.0000    391.5793     17.0143     76.9730
   684.2500      0.0000    438.4347     15.8578     78.8116
   684.5000      0.0000    480.0763     14.7187     78.3684
   684.7500      0.0000    510.8829     13.8530     75.8762
   685.0000      0.0000    535.6743     13.2915     72.9159
   685.2500      4.0000    563.0844     12.8934     71.5424
   685.5000     -4.0000    593.9246     12.4962     72.9495
   685.7500      0.0000    619.4443     12.0127     76.6216
   686.0000      0.0000    632.7805     11.4635     80.6195
   686.2500      0.0000    638.1195     10.9913     82.9423
   686.5000      0.0000    645.1620     10.8333     83.0192
   686.7500      0.0000    657.7934     11.1863     81.9794
   687.0000      0.0000    671.0809     12.0246     81.3773
   687.2500      0.0000    677.4633     13.0603     81.6585
   687.5000      0.0000    674.9808     13.9259     81.9397
   687.7500      0.0000    671.0154     14.4077     81.1414
   688.0000      0.0000    676.5494     14.5159     79.0032
   688.2500      0.0000    694.3068     14.3793     75.9625
   688.5000      0.0000    714.8862     14.1193     72.5086
   688.7500      0.0000    726.7073     13.7982     69.0312
   689.0000      0.0000    726.8267     13.4290     66.0624
   689.2500      0.0000    720.4887     13.0063     64.3067
   689.5000      0.0000    713.8575     12.5414     64.3792
   689.7500      0.0000    709.7232     12.0838     66.4235
   690.0000      0.0000    708.0822     11.7066     69.9077
   690.2500      0.0000    708.0140     11.4618     73.9307
