~Version Information
VERS.                      2.0: CWLS Log ASCII Standard - VERSION 2.0
WRAP.                       NO: One line per depth step
~Well Information Block
STRT.FT               987.5000: 
STOP.FT              2426.0000: 
STEP.FT                 0.5000: 
NULL.                -999.2500: 
COMP.          Evergreen Operating Corporation: COMPANY
WELL.          McCullough 34-32: WELL
FLD.           Purgatorie River: FIELD
LOC.           261' FSL & 2098' FEL--: LOCATION
PROV.                 Colorado: PROVINCE
CNTY.               Las Animas: COUNTRY
SRVC.          Patterson Wireline: SERVICE COMPANY
DATE.          Mon May 17 13:38:56 2004: LOG DATE
UWI.           05-071-07953-00: UNIQUE WELL ID
~Curve Information Block
DEPT.FT            0 000 00 00: Depth
CCL.                          : Casing Collar Locator
TT3.usec                      : CBL 3' Travel Time
AMP3.mV                       : CBL 3' Amplitude
GR.GAPI                       : Gamma Ray
~Parameter Information Block
~A  Depth       CCL         TT3         AMP3         GR     
# ...
  2260.5000      0.0000    564.5583      4.8984     80.2920
  2261.0000      5.0000    655.2211      4.1613     72.8266
  2261.5000      0.0000    706.6789      3.9289     75.5569
  2262.0000      0.0000    713.7679      3.6643     85.5086
  2262.5000      0.0000    724.0011      3.5485     93.6835
  2263.0000      0.0000    727.2761      3.9579     98.6980
  2263.5000      0.0000    659.8970      4.6934     98.2663
  2264.0000      0.0000    514.3018      5.5586     87.8540
  2264.5000      0.0000    399.0817      6.5951     66.7897
  2265.0000      0.0000    359.8972      7.7770     51.2125
  2265.5000      0.0000    354.1350      8.3601     49.0560
  2266.0000      0.0000    350.8763      8.9176     50.4287
  2266.5000      0.0000    338.0344     10.0788     50.3156
  2267.0000      0.0000    326.8746     10.8996     53.8110
  2267.5000      0.0000    326.8017     10.9487     56.4734
  2268.0000      0.0000    329.5349     10.6141     59.3187
  2268.5000      0.0000    326.4127     10.0942     70.0936
  2269.0000      0.0000    322.7264     10.0571     85.5531
  2269.5000      0.0000    321.6022     10.6221    100.3437
  2270.0000      0.0000    321.7377     10.8288    106.6299
  2270.5000      0.0000    322.5352     10.4926    100.0233
  2271.0000      0.0000    323.0782     10.4156     94.5866
  2271.5000      0.0000    323.1367     10.4856     98.1678
  2272.0000      0.0000    323.1293     10.1386    106.3871
  2272.5000      0.0000    323.3087     10.0743    110.5942
  2273.0000      0.0000    327.0178     10.3614    108.7966
  2273.5000      0.0000    339.2873      9.9897    100.3691
  2274.0000      0.0000    351.5555      9.3287     95.5350
  2274.5000      0.0000    347.2131      9.4294     99.0705
  2275.0000      0.0000    333.3574      9.9351    101.2106
  2275.5000      0.0000    328.4868     10.0692    103.7773
  2276.0000      0.0000    335.3688      9.7107    106.9123
  2276.5000      0.0000    345.0517      9.2250    109.4138
  2277.0000      0.0000    347.8348      8.9943    111.6806
  2277.5000      0.0000    342.9160      9.1002    111.3088
  2278.0000      0.0000    337.5969      9.1061    109.8977
  2278.5000      0.0000    333.6434      9.0247    100.2901
  2279.0000      0.0000    333.9182      9.2727     88.6581
  2279.5000      0.0000    340.9704      9.6875     87.5958
  2280.0000      0.0000    342.2440      9.8516     87.2673
  2280.5000      0.0000    334.2226      9.8576     81.7112
  2281.0000      0.0000    326.8749      9.5778     77.8440
  2281.5000      0.0000    327.8330      9.0699     82.2430
  2282.0000      0.0000    338.8283      8.8908     95.1693
  2282.5000      0.0000    350.4499      8.8265    103.7630
  2283.0000      0.0000    346.3438      9.0064    101.2329
  2283.5000      0.0000    332.2718      9.7326     92.3176
  2284.0000      0.0000    324.5420      9.9082     86.4429
  2284.5000      0.0000    324.7215      9.3465     88.0144
  2285.0000      0.0000    332.2400      8.8780     92.0451
  2285.5000      0.0000    347.0490      8.5828     88.5443
  2286.0000      0.0000    358.8452      8.9453     79.2118
  2286.5000      0.0000    362.5533      9.3698     77.3454
  2287.0000      0.0000    359.7678      9.5218     82.5788
  2287.5000      0.0000    349.3749      9.7288     80.1249
  2288.0000      0.0000    350.0786      9.7745     68.4131
  2288.5000      0.0000    418.2376      9.2639     68.1742
  2289.0000      0.0000    558.0830      8.2928     75.8495
  2289.5000      0.0000    639.1718      7.6909     78.6402
  2290.0000      0.0000    584.4850      7.6716     83.4354
  2290.5000      0.0000    468.2885      8.0382     89.2524
  2291.0000      0.0000    403.1168      8.3267     85.3856
  2291.5000      0.0000    434.8709      8.0129     76.2967
  2292.0000      0.0000    537.5544      7.7553     71.1901
  2292.5000      0.0000    618.4763      7.5546     74.9697
  2293.0000      0.0000    605.0437      7.1357     88.0955
  2293.5000      0.0000    543.8676      7.2788    103.8775
  2294.0000      0.0000    490.9084      7.9565    110.5066
  2294.5000      0.0000    429.7909      8.8541    103.9400
  2295.0000      0.0000    367.9863      9.7058     94.1598
  2295.5000      0.0000    348.8696      9.9760     88.6003
  2296.0000      0.0000    355.1122      9.8620     83.4273
  2296.5000      0.0000    357.3756      9.7104     86.9579
  2297.0000      0.0000    355.0680      9.6074     99.4833
  2297.5000      0.0000    358.0809      9.2187    100.7396
  2298.0000      0.0000    361.5805      8.7657     88.3223
  2298.5000      0.0000    359.0181      9.1022     79.0212
  2299.0000      0.0000    348.8383      9.3143     83.3643
  2299.5000      0.0000    341.0873      8.9792     89.5177
  2300.0000      0.0000    347.4365      9.0870     83.9791
  2300.5000      0.0000    356.9783      9.4430     79.3115
  2301.0000      0.0000    361.9139      9.4905     81.2564
  2301.5000      0.0000    371.6190      9.1658     76.6377
  2302.0000      0.0000    412.0411      8.5225     66.7053
  2302.5000      0.0000    488.0197      7.9714     60.8266
  2303.0000      0.0000    560.6174      7.9886     60.3619
  2303.5000      0.0000    616.3212      7.8833     59.3314
  2304.0000      0.0000    633.2399      7.5569     57.8679
  2304.5000      5.0000    616.2237      7.5973     63.7624
  2305.0000      0.0000    572.5833      8.0288     71.8646
  2305.5000      0.0000    556.4911      8.3807     76.1897
  2306.0000      0.0000    580.3243      8.5425     82.9444
  2306.5000      0.0000    574.3383      8.5433     88.4457
  2307.0000      0.0000    519.6826      9.1225     85.0270
  2307.5000      0.0000    417.9750      9.5507     82.4500
  2308.0000      0.0000    363.9814      9.0056     79.9146
  2308.5000      0.0000    374.8408      8.8745     68.5768
  2309.0000      0.0000    421.7147      9.1160     56.2484
  2309.5000      0.0000    499.8365      8.7072     54.0734
  2310.0000      0.0000    549.4680      8.4946     64.4352
  2310.5000      0.0000    558.1910      8.2780     75.3587
  2311.0000      0.0000    609.3294      7.0816     78.0020
  2311.5000      0.0000    673.5184      5.9610     82.6279
  2312.0000      0.0000    711.1835      5.6836     89.0388
  2312.5000      0.0000    743.7346      5.3256     88.6066
  2313.0000      0.0000    753.7792      4.1956     81.8759
  2313.5000      0.0000    734.9813      2.6018     78.7495
  2314.0000      0.0000    707.8671      1.7994     86.6479
  2314.5000      0.0000    689.1292      1.9543     94.6810
  2315.0000      0.0000    680.9392      2.2081     93.5068
  2315.5000      0.0000    689.5554      2.2326     89.6014
  2316.0000      0.0000    712.8418      1.9879     85.0582
  2316.5000      0.0000    727.4153      1.8074     83.0707
  2317.0000      0.0000    732.5735      2.1992     82.6843
  2317.5000      0.0000    737.2200      3.1108     87.2586
  2318.0000      0.0000    736.1036      4.1975     96.2842
  2318.5000      0.0000    723.7809      5.3337     97.1965
  2319.0000      0.0000    705.0928      6.1738     92.4626
  2319.5000      0.0000    697.4448      6.4527     91.2315
  2320.0000      0.0000    713.2116      6.1093     89.1043
  2320.5000      0.0000    739.6462      5.4246     80.9326
  2321.0000      0.0000    759.9450      4.6928     69.7764
  2321.5000      0.0000    773.4199      4.0215     64.7947
  2322.0000      0.0000    779.7231      3.6153     61.4264
  2322.5000      0.0000    785.2781      3.5383     52.0360
  2323.0000      0.0000    789.3915      3.6040     44.9717
  2323.5000      0.0000    786.6445      3.8266     45.4016
  2324.0000      0.0000    781.1543      4.3816     43.9027
  2324.5000      0.0000    771.8202      5.0454     41.3553
  2325.0000      0.0000    762.0680      5.8250     47.5968
  2325.5000      0.0000    763.4405      6.5343     61.5943
  2326.0000      0.0000    768.3361      6.8832     73.5866
  2326.5000      0.0000    759.9161      6.9961     81.0750
  2327.0000      0.0000    731.5701      7.1453     87.7017
