~Version Information
VERS.                      2.0: CWLS Log ASCII Standard - VERSION 2.0
WRAP.                       NO: One line per depth step
~Well Information Block
STRT.FT               260.0000: 
STOP.FT              2611.5000: 
STEP.FT                 0.2500: 
NULL.                -999.2500: 
COMP.          Pioneer Natural Resources: COMPANY
WELL.           Costello 44-24: WELL
FLD.           Purgatoire River: FIELD
LOC.           327' FSL & 378' FEL: LOCATION
PROV.                 Colorado: PROVINCE
CNTY.               Las Animas: COUNTRY
SRVC.                Patterson: SERVICE COMPANY
DATE.          Mon Jul 11 00:49:32 2005: LOG DATE
UWI.           05 071 08413 00: UNIQUE WELL ID
~Curve Information Block
DEPT.FT            0 000 00 00: Depth
SN.Ohm-m                      : IEL Short Normal
SP.mV                         : IEL Spontaneous Potential
DIR.Ohm-m                     : IEL Induction Resistivity
GR.GAPI                       : Gamma Ray
~Parameter Information Block
~A  Depth        SN          SP         DIR          GR     
# ...
   863.0000   2000.0000    200.0000     30.1138    118.8503
   863.2500   2000.0000    200.0000     30.6138    121.2982
   863.5000   2000.0000    200.0000     31.2420    123.2204
   863.7500   2000.0000    200.0000     31.9290    122.7320
   864.0000   2000.0000    200.0000     32.5257    119.5703
   864.2500   2000.0000    200.0000     32.8695    116.7821
   864.5000   2000.0000    200.0000     32.8728    113.5137
   864.7500   2000.0000    200.0000     32.5594    112.5562
   865.0000   2000.0000    200.0000     32.0237    112.9439
   865.2500   2000.0000    200.0000     31.3672    114.2663
   865.5000   2000.0000    200.0000     30.6675    117.8479
   865.7500   2000.0000    200.0000     29.9842    121.1145
   866.0000   2000.0000    200.0000     29.3714    126.0401
   866.2500   2000.0000    200.0000     28.8780    128.3958
   866.5000   2000.0000    200.0000     28.5325    129.9197
   866.7500   2000.0000    200.0000     28.3229    129.9440
   867.0000   2000.0000    200.0000     28.1887    129.3657
   867.2500   2000.0000    200.0000     28.0405    128.8698
   867.5000   2000.0000    200.0000     27.8031    128.3210
   867.7500   2000.0000    200.0000     27.4484    128.3463
   868.0000   2000.0000    200.0000     26.9894    129.1010
   868.2500   2000.0000    200.0000     26.4513    129.7083
   868.5000   2000.0000    200.0000     25.8588    129.7272
   868.7500   2000.0000    200.0000     25.2471    128.7225
   869.0000   2000.0000    200.0000     24.6689    125.6185
   869.2500   2000.0000    200.0000     24.1825    122.8439
   869.5000   2000.0000    200.0000     23.8331    119.0466
   869.7500   2000.0000    200.0000     23.6465    117.8347
   870.0000   2000.0000    200.0000     23.6311    118.9652
   870.2500   2000.0000    200.0000     23.7766    121.2383
   870.5000   2000.0000    200.0000     24.0483    125.1348
   870.7500   2000.0000    200.0000     24.3889    127.2384
   871.0000   2000.0000    200.0000     24.7322    129.3869
   871.2500   2000.0000    200.0000     25.0209    130.4459
   871.5000   2000.0000    200.0000     25.2129    132.0665
   871.7500   2000.0000    200.0000     25.2810    133.2762
   872.0000   2000.0000    200.0000     25.2184    134.8601
   872.2500   2000.0000    200.0000     25.0501    135.3285
   872.5000   2000.0000    200.0000     24.8303    134.8246
   872.7500   2000.0000    200.0000     24.6094    133.9312
   873.0000   2000.0000    200.0000     24.3940    132.4761
   873.2500   2000.0000    200.0000     24.1313    131.6711
   873.5000   2000.0000    200.0000     23.7360    130.8490
   873.7500   2000.0000    200.0000     23.1461    130.8132
   874.0000   2000.0000    200.0000     22.3687    132.4722
   874.2500   2000.0000    200.0000     21.4817    135.1329
   874.5000   2000.0000    200.0000     20.5934    140.9060
   874.7500   2000.0000    200.0000     19.7904    144.9268
   875.0000   2000.0000    200.0000     19.1061    149.5533
   875.2500   2000.0000    200.0000     18.5212    151.3681
   875.5000   2000.0000    200.0000     17.9886    152.5938
   875.7500   2000.0000    200.0000     17.4639    152.7316
   876.0000   2000.0000    200.0000     16.9274    152.0526
   876.2500   2000.0000    200.0000     16.3905    150.9857
   876.5000   2000.0000    200.0000     15.8915    148.7161
   876.7500   2000.0000    200.0000     15.4789    147.0863
   877.0000   2000.0000    200.0000     15.1894    145.0276
   877.2500   2000.0000    200.0000     15.0296    144.1288
   877.5000   2000.0000    200.0000     14.9705    143.6835
   877.7500   2000.0000    200.0000     14.9571    143.9741
   878.0000   2000.0000    200.0000     14.9282    144.7467
   878.2500   2000.0000    200.0000     14.8398    144.8008
   878.5000   2000.0000    200.0000     14.6825    143.1627
   878.7500   2000.0000    200.0000     14.4829    141.0518
   879.0000   2000.0000    200.0000     14.2886    137.8469
   879.2500   2000.0000    200.0000     14.1476    136.6255
   879.5000   2000.0000    200.0000     14.0932    136.8427
   879.7500   2000.0000    200.0000     14.1413    138.1830
   880.0000   2000.0000    200.0000     14.2940    141.2264
   880.2500   2000.0000    200.0000     14.5405    143.4714
   880.5000   2000.0000    200.0000     14.8519    146.5838
   880.7500   2000.0000    200.0000     15.1733    148.3865
   881.0000   2000.0000    200.0000     15.4271    150.7154
   881.2500   2000.0000    200.0000     15.5382    151.7770
   881.5000   2000.0000    200.0000     15.4712    151.5191
   881.7500   2000.0000    200.0000     15.2497    149.6133
   882.0000   2000.0000    200.0000     14.9389    144.8215
   882.2500   2000.0000    200.0000     14.6102    141.5026
   882.5000   2000.0000    200.0000     14.3152    138.2146
   882.7500   2000.0000    200.0000     14.0812    137.5750
   883.0000   2000.0000    200.0000     13.9183    138.4636
   883.2500   2000.0000    200.0000     13.8272    139.5338
   883.5000   2000.0000    200.0000     13.8040    140.2690
   883.7500   2000.0000    200.0000     13.8417    139.4720
   884.0000   2000.0000    200.0000     13.9300    136.1528
   884.2500   2000.0000    200.0000     14.0556    132.9524
   884.5000   2000.0000    200.0000     14.2048    127.6472
   884.7500   2000.0000    200.0000     14.3706    124.2069
   885.0000   2000.0000    200.0000     14.5590    119.5993
   885.2500   2000.0000    200.0000     14.7904    116.9456
   885.5000   2000.0000    200.0000     15.0899    113.5309
   885.7500   2000.0000    200.0000     15.4736    111.6765
   886.0000   2000.0000    200.0000     15.9354    109.7139
   886.2500   2000.0000    200.0000     16.4449    108.9243
   886.5000   2000.0000    200.0000     16.9588    108.1562
   886.7500   2000.0000    200.0000     17.4431    107.7514
   887.0000   2000.0000    200.0000     17.8908    107.3428
   887.2500   2000.0000    200.0000     18.3229    107.2684
   887.5000   2000.0000    200.0000     18.7736    107.2844
   887.7500   2000.0000    200.0000     19.2744    107.1919
   888.0000   2000.0000    200.0000     19.8486    106.8891
   888.2500   2000.0000    200.0000     20.5095    106.9021
   888.5000   2000.0000    200.0000     21.2541    108.0900
   888.7500   2000.0000    200.0000     22.0568    109.9854
   889.0000   2000.0000    200.0000     22.8712    114.1538
   889.2500   2000.0000    200.0000     23.6478    116.9626
   889.5000   2000.0000    200.0000     24.3563    119.0780
   889.7500   2000.0000    200.0000     24.9955    118.0828
   890.0000   2000.0000    200.0000     25.5902    112.6717
   890.2500   2000.0000    200.0000     26.1849    107.0689
   890.5000   2000.0000    200.0000     26.8366     97.3447
   890.7500   2000.0000    200.0000     27.6027     90.9595
   891.0000   2000.0000    200.0000     28.5179     82.8754
   891.2500   2000.0000    200.0000     29.5659     78.9137
   891.5000   2000.0000    200.0000     30.6523     75.0002
   891.7500   2000.0000    200.0000     31.6022     73.2342
   892.0000   2000.0000    200.0000     32.2121     70.9152
   892.2500   2000.0000    200.0000     32.3515     69.4403
   892.5000   2000.0000    200.0000     32.0341     67.8160
   892.7500   2000.0000    200.0000     31.3849     67.5274
   893.0000   2000.0000    200.0000     30.5446     68.9446
   893.2500   2000.0000    200.0000     29.6070     71.6100
   893.5000   2000.0000    200.0000     28.6214     78.9108
   893.7500   2000.0000    200.0000     27.6193     85.8425
   894.0000   2000.0000    200.0000     26.6245     97.6789
   894.2500   2000.0000    200.0000     25.6501    105.1034
   894.5000   2000.0000    200.0000     24.6983    113.5556
   894.7500   2000.0000    200.0000     23.7724    117.0189
   895.0000   2000.0000    200.0000     22.8821    119.8012
   895.2500   2000.0000    200.0000     22.0361    121.0373
   895.5000   2000.0000    200.0000     21.2319    123.2437
   895.7500   2000.0000    200.0000     20.4621    124.9558
   896.0000   2000.0000    200.0000     19.7340    126.9205
   896.2500   2000.0000    200.0000     19.0830    127.3698
