~Version Information
VERS.                      2.0: CWLS Log ASCII Standard - VERSION 2.0
WRAP.                       NO: One line per depth step
~Well Information Block
STRT.FT                -7.0000: 
STOP.FT              2730.2500: 
STEP.FT                 0.2500: 
NULL.                -999.2500: 
COMP.          Pioneer Natural Resources: COMPANY
WELL.             Squeal 11-26: WELL
FLD.           Purgatorie River: FIELD
LOC.           1186' FNL & 152' FWL--: LOCATION
PROV.                       CO: PROVINCE
CNTY.               Las Animas: COUNTRY
SRVC.          Patterson Wireline: SERVICE COMPANY
DATE.          Tue Jul 26 11:59:46 2005: LOG DATE
UWI.           05 071 08404 00: UNIQUE WELL ID
~Curve Information Block
DEPT.FT            0 000 00 00: Depth
CCL.                          : Casing Collar Locator
TT3.usec                      : CBL 3' Travel Time
AMP3.mV                       : CBL 3' Amplitude
GR.GAPI                       : Gamma Ray
~Parameter Information Block
~A  Depth       CCL         TT3         AMP3         GR     
# ...
  2170.5000      0.0000    547.8309      5.5757    127.1323
  2170.7500      0.0000    511.3463      5.5675    126.5333
  2171.0000      0.0000    486.1532      5.5643    124.8452
  2171.2500      0.0000    471.3831      5.5708    122.4629
  2171.5000      0.0000    463.7539      5.5905    120.1780
  2171.7500      0.0000    460.7511      5.6213    119.0763
  2172.0000      0.0000    461.1487      5.6567    119.9193
  2172.2500      0.0000    464.6317      5.6910    122.0827
  2172.5000      0.0000    472.6988      5.7253    123.6383
  2172.7500      0.0000    489.7464      5.7684    123.0509
  2173.0000      0.0000    521.3628      5.8286    120.4804
  2173.2500      0.0000    569.3273      5.9059    116.9971
  2173.5000      0.0000    627.5699      5.9915    112.8774
  2173.7500      0.0000    684.1900      6.0766    107.1975
  2174.0000      0.0000    728.5116      6.1611     99.0779
  2174.2500      0.0000    756.4288      6.2499     88.9280
  2174.5000      0.0000    769.8475      6.3368     78.4281
  2174.7500      0.0000    772.4298      6.3903     69.5754
  2175.0000      0.0000    766.2820      6.3630     63.7546
  2175.2500      0.0000    752.0764      6.2238     61.3816
  2175.5000      0.0000    731.5936      5.9953     62.2081
  2175.7500      0.0000    709.4038      5.7661     65.9871
  2176.0000      0.0000    691.7073      5.6430     72.9013
  2176.2500      0.0000    683.7681      5.6643     83.1058
  2176.5000      0.0000    687.7499      5.7715     95.4320
  2176.7500      0.0000    701.0589      5.8858    106.5993
  2177.0000      0.0000    716.7058      5.9883    112.4849
  2177.2500      0.0000    727.5359      6.1034    110.8132
  2177.5000      0.0000    731.1915      6.2373    102.6982
  2177.7500      2.0000    730.5164      6.3655     91.7450
  2178.0000      2.0000    729.6495      6.4636     82.0600
  2178.2500      0.0000    730.3752      6.5337     76.8309
  2178.5000      0.0000    731.2648      6.6072     77.6133
  2178.7500      0.0000    729.3726      6.7101     83.8721
  2179.0000      0.0000    723.1146      6.8107     93.3182
  2179.2500      0.0000    713.3887      6.8263    103.4645
  2179.5000      0.0000    700.9938      6.7143    113.0807
  2179.7500      0.0000    683.5093      6.5242    121.8847
  2180.0000      0.0000    656.7145      6.3302    129.0525
  2180.2500      0.0000    619.7988      6.1531    132.8384
  2180.5000      0.0000    577.8792      5.9762    132.0905
  2180.7500      0.0000    538.6051      5.7971    127.8740
  2181.0000      0.0000    507.1962      5.6353    123.1830
  2181.2500      0.0000    485.3896      5.5093    120.7937
  2181.5000      0.0000    474.3593      5.4257    121.2155
  2181.7500      0.0000    477.1838      5.3836    122.6789
  2182.0000      0.0000    497.1548      5.3761    123.0245
  2182.2500      0.0000    533.1748      5.3907    121.2708
  2182.5000      0.0000    578.0286      5.4106    117.4310
  2182.7500      0.0000    622.8386      5.4212    111.7860
  2183.0000      0.0000    662.8963      5.4162    104.9586
  2183.2500      0.0000    697.8650      5.3994     97.9449
  2183.5000      0.0000    727.2222      5.3816     91.3627
  2183.7500      0.0000    747.7083      5.3745     85.1144
  2184.0000      0.0000    755.3376      5.3873     79.1037
  2184.2500      0.0000    748.6799      5.4253     73.6104
  2184.5000      0.0000    730.5073      5.4887     68.6330
  2184.7500      0.0000    707.2192      5.5687     63.5947
  2185.0000      0.0000    686.0305      5.6466     58.0852
  2185.2500      0.0000    671.3845      5.7017     52.4289
  2185.5000      0.0000    663.5651      5.7226     47.2406
  2185.7500      0.0000    660.3197      5.7110     42.7086
  2186.0000      0.0000    659.2542      5.6771     38.5608
  2186.2500      0.0000    658.9407      5.6327     34.7145
  2186.5000      0.0000    658.8028      5.5865     31.7604
  2186.7500      0.0000    658.6871      5.5433     30.5035
  2187.0000      0.0000    658.6069      5.5071     30.9492
  2187.2500      0.0000    658.6398      5.4842     32.0477
  2187.5000      0.0000    658.9344      5.4820     32.6218
  2187.7500      0.0000    659.8298      5.5060     32.3855
  2188.0000      0.0000    662.0989      5.5611     31.9354
  2188.2500      0.0000    667.0316      5.6512     31.9648
  2188.5000      0.0000    675.8495      5.7745     32.6704
  2188.7500      0.0000    688.4508      5.9160     33.8932
  2189.0000      0.0000    702.6612      6.0533     35.7426
  2189.2500      0.0000    715.2510      6.1696     39.0966
  2189.5000      0.0000    724.0236      6.2625     45.3824
  2189.7500      0.0000    728.8696      6.3391     55.5420
  2190.0000      0.0000    731.0366      6.4037     68.8737
  2190.2500      0.0000    731.8456      6.4519     83.0075
  2190.5000      0.0000    731.9914      6.4765     95.4539
  2190.7500      0.0000    731.2556      6.4781    105.2304
  2191.0000      0.0000    728.0345      6.4643    112.9132
  2191.2500      0.0000    718.7522      6.4378    119.5665
  2191.5000      0.0000    698.3861      6.3909    125.8830
  2191.7500      0.0000    663.4454      6.3166    131.6116
  2192.0000      0.0000    616.1868      6.2246    135.2748
  2192.2500      0.0000    565.6102      6.1404    135.1661
  2192.5000      0.0000    522.5624      6.0872    131.3304
  2192.7500      0.0000    493.2469      6.0694    126.1912
  2193.0000      0.0000    477.9017      6.0704    122.7614
  2193.2500      0.0000    475.1198      6.0631    122.3877
  2193.5000      0.0000    485.6671      6.0246    124.2226
  2193.7500      0.0000    511.0062      5.9460    126.3511
  2194.0000      0.0000    548.4825      5.8318    127.1482
  2194.2500      0.0000    589.5234      5.6940    126.0009
  2194.5000      0.0000    624.1802      5.5469    123.3915
  2194.7500      0.0000    647.7655      5.4024    120.5393
  2195.0000      0.0000    662.7257      5.2666    118.6947
  2195.2500      0.0000    674.5999      5.1434    118.3609
  2195.5000      0.0000    686.9221      5.0428    118.9792
  2195.7500      0.0000    699.5074      4.9799    119.3242
  2196.0000      0.0000    710.4422      4.9643    118.3514
  2196.2500      0.0000    718.8098      4.9881    115.9546
  2196.5000      0.0000    725.3110      5.0279    113.0739
  2196.7500      0.0000    730.9705      5.0624    110.9103
  2197.0000      0.0000    735.8824      5.0971    109.8731
  2197.2500      0.0000    739.1216      5.1722    109.4825
  2197.5000      0.0000    739.7549      5.3473    109.3938
  2197.7500      0.0000    738.2534      5.6752    109.9385
  2198.0000      0.0000    736.6082      6.1792    111.4014
  2198.2500      0.0000    736.3843      6.8372    113.4784
  2198.5000      0.0000    737.0231      7.5776    115.8308
  2198.7500      0.0000    736.8036      8.2940    118.4643
  2199.0000      0.0000    734.9393      8.8787    121.2516
  2199.2500      0.0000    731.7303      9.2652    123.7194
  2199.5000      0.0000    727.3162      9.4495    125.7203
  2199.7500      0.0000    721.7352      9.4738    127.9304
  2200.0000      0.0000    715.9800      9.3850    131.0451
  2200.2500      0.0000    711.6426      9.2011    134.4380
  2200.5000      0.0000    709.1163      8.9053    136.1596
  2200.7500      0.0000    706.4452      8.4770    134.6646
  2201.0000      0.0000    699.7311      7.9340    130.3608
  2201.2500      0.0000    684.9159      7.3472    125.1074
  2201.5000      0.0000    660.0542      6.8130    120.3024
  2201.7500      0.0000    626.3997      6.4080    115.9876
  2202.0000      0.0000    587.1616      6.1615    111.8381
  2202.2500      0.0000    545.9802      6.0560    108.2684
  2202.5000      0.0000    507.9390      6.0491    106.1934
  2202.7500      0.0000    481.4515      6.0973    106.1513
  2203.0000      0.0000    476.6859      6.1670    107.8639
  2203.2500      0.0000    500.0331      6.2356    110.1906
  2203.5000      0.0000    548.4286      6.2887    111.5704
  2203.7500      0.0000    608.4565      6.3176    111.0927
