~Version Information
VERS.                      2.0: CWLS Log ASCII Standard - VERSION 2.0
WRAP.                       NO: One line per depth step
~Well Information Block
STRT.FT               260.0000: 
STOP.FT              2272.0000: 
STEP.FT                 0.2500: 
NULL.                -999.2500: 
COMP.          Pioneer Natural Resources: COMPANY
WELL.            Moo Moo 31-36: WELL
FLD.           Purgatoire River: FIELD
LOC.           612' FNL & 2326' FEL: LOCATION
PROV.                 Colorado: PROVINCE
CNTY.               Las Animas: COUNTRY
SRVC.                Patterson: SERVICE COMPANY
DATE.          Fri Jun 17 07:45:39 2005: LOG DATE
UWI.           05 071 08395 00: UNIQUE WELL ID
~Curve Information Block
DEPT.FT            0 000 00 00: Depth
DIR.Ohm-m                     : IEL Induction Resistivity
SN.Ohm-m                      : IEL Short Normal
SP.mV                         : IEL Spontaneous Potential
GR.GAPI                       : Gamma Ray
~Parameter Information Block
~A  Depth       DIR          SN          SP          GR     
# ...
   662.0000     31.1119   2000.0000   2000.0000     83.5030
   662.2500     33.2285   2000.0000   2000.0000     79.6621
   662.5000     35.5355   2000.0000   2000.0000     74.2774
   662.7500     37.9120   2000.0000   2000.0000     70.4721
   663.0000     40.1902   2000.0000   2000.0000     63.9688
   663.2500     42.2210   2000.0000   2000.0000     59.4467
   663.5000     43.9617   2000.0000   2000.0000     53.5395
   663.7500     45.4991   2000.0000   2000.0000     50.6003
   664.0000     46.9642   2000.0000   2000.0000     47.5214
   664.2500     48.4134   2000.0000   2000.0000     45.9712
   664.5000     49.7917   2000.0000   2000.0000     43.8768
   664.7500     51.0108   2000.0000   2000.0000     42.6103
   665.0000     52.0577   2000.0000   2000.0000     41.2797
   665.2500     53.0179   2000.0000   2000.0000     41.0093
   665.5000     53.9943   2000.0000   2000.0000     41.5572
   665.7500     55.0202   2000.0000   2000.0000     42.3338
   666.0000     56.0517   2000.0000   2000.0000     43.5350
   666.2500     57.0183   2000.0000   2000.0000     43.9936
   666.5000     57.8614   2000.0000   2000.0000     43.6227
   666.7500     58.5328   2000.0000   2000.0000     42.5512
   667.0000     58.9868   2000.0000   2000.0000     40.1155
   667.2500     59.1914   2000.0000   2000.0000     38.4975
   667.5000     59.1266   2000.0000   2000.0000     37.1474
   667.7500     58.7611   2000.0000   2000.0000     37.3592
   668.0000     58.0625   2000.0000   2000.0000     39.2259
   668.2500     57.0746   2000.0000   2000.0000     40.9425
   668.5000     55.9932   2000.0000   2000.0000     42.9382
   668.7500     55.1282   2000.0000   2000.0000     43.4339
   669.0000     54.7601   2000.0000   2000.0000     43.2124
   669.2500     55.0067   2000.0000   2000.0000     42.9500
   669.5000     55.7679   2000.0000   2000.0000     42.9532
   669.7500     56.7603   2000.0000   2000.0000     43.1589
   670.0000     57.6111   2000.0000   2000.0000     43.4326
   670.2500     57.9801   2000.0000   2000.0000     43.5107
   670.5000     57.6793   2000.0000   2000.0000     43.5529
   670.7500     56.7588   2000.0000   2000.0000     43.6142
   671.0000     55.4824   2000.0000   2000.0000     43.9359
   671.2500     54.1718   2000.0000   2000.0000     44.4242
   671.5000     53.0357   2000.0000   2000.0000     45.6024
   671.7500     52.1256   2000.0000   2000.0000     46.5519
   672.0000     51.4227   2000.0000   2000.0000     48.0599
   672.2500     50.9369   2000.0000   2000.0000     49.2130
   672.5000     50.7099   2000.0000   2000.0000     51.2437
   672.7500     50.7407   2000.0000   2000.0000     52.5192
   673.0000     50.9379   2000.0000   2000.0000     53.6219
   673.2500     51.1549   2000.0000   2000.0000     53.7544
   673.5000     51.2723   2000.0000   2000.0000     53.6536
   673.7500     51.2550   2000.0000   2000.0000     53.7271
   674.0000     51.1495   2000.0000   2000.0000     54.0465
   674.2500     51.0472   2000.0000   2000.0000     54.2383
   674.5000     51.0501   2000.0000   2000.0000     54.4199
   674.7500     51.2478   2000.0000   2000.0000     54.4708
   675.0000     51.7015   2000.0000   2000.0000     54.2522
   675.2500     52.4185   2000.0000   2000.0000     53.8237
   675.5000     53.3205   2000.0000   2000.0000     52.9651
   675.7500     54.2382   2000.0000   2000.0000     52.4247
   676.0000     54.9762   2000.0000   2000.0000     51.5983
   676.2500     55.4301   2000.0000   2000.0000     50.8739
   676.5000     55.6531   2000.0000   2000.0000     49.6900
   676.7500     55.7951   2000.0000   2000.0000     49.2696
   677.0000     55.9589   2000.0000   2000.0000     49.7613
   677.2500     56.0872   2000.0000   2000.0000     50.6600
   677.5000     55.9491   2000.0000   2000.0000     51.9011
   677.7500     55.2488   2000.0000   2000.0000     52.2087
   678.0000     53.8073   2000.0000   2000.0000     51.8638
   678.2500     51.6700   2000.0000   2000.0000     51.3925
   678.5000     49.0446   2000.0000   2000.0000     50.9426
   678.7500     46.1564   2000.0000   2000.0000     51.1764
   679.0000     43.1780   2000.0000   2000.0000     53.1052
   679.2500     40.2452   2000.0000   2000.0000     56.0401
   679.5000     37.4746   2000.0000   2000.0000     63.9731
   679.7500     34.9389   2000.0000   2000.0000     71.9266
   680.0000     32.6451   2000.0000   2000.0000     87.1312
   680.2500     30.5514   2000.0000   2000.0000     98.2702
   680.5000     28.6146   2000.0000   2000.0000    114.3847
   680.7500     26.8231   2000.0000   2000.0000    124.2720
   681.0000     25.1925   2000.0000   2000.0000    138.2477
   681.2500     23.7378   2000.0000   2000.0000    147.0576
   681.5000     22.4551   2000.0000   2000.0000    158.3418
   681.7500     21.3220   2000.0000   2000.0000    163.6998
   682.0000     20.3087   2000.0000   2000.0000    168.1069
   682.2500     19.3895   2000.0000   2000.0000    169.0478
   682.5000     18.5502   2000.0000   2000.0000    168.2006
   682.7500     17.7937   2000.0000   2000.0000    166.3398
   683.0000     17.1383   2000.0000   2000.0000    162.1803
   683.2500     16.6075   2000.0000   2000.0000    159.2005
   683.5000     16.2170   2000.0000   2000.0000    155.8369
   683.7500     15.9672   2000.0000   2000.0000    154.8125
   684.0000     15.8467   2000.0000   2000.0000    154.8392
   684.2500     15.8392   2000.0000   2000.0000    155.2741
   684.5000     15.9295   2000.0000   2000.0000    155.5187
   684.7500     16.1008   2000.0000   2000.0000    155.0922
   685.0000     16.3288   2000.0000   2000.0000    153.2467
   685.2500     16.5786   2000.0000   2000.0000    150.9674
   685.5000     16.8114   2000.0000   2000.0000    145.7154
   685.7500     16.9974   2000.0000   2000.0000    141.1954
   686.0000     17.1246   2000.0000   2000.0000    133.9070
   686.2500     17.1986   2000.0000   2000.0000    129.5308
   686.5000     17.2347   2000.0000   2000.0000    125.0570
   686.7500     17.2508   2000.0000   2000.0000    123.9785
   687.0000     17.2642   2000.0000   2000.0000    125.4126
   687.2500     17.2922   2000.0000   2000.0000    128.2072
   687.5000     17.3523   2000.0000   2000.0000    134.3750
   687.7500     17.4619   2000.0000   2000.0000    139.0664
   688.0000     17.6328   2000.0000   2000.0000    145.5907
   688.2500     17.8646   2000.0000   2000.0000    149.0044
   688.5000     18.1415   2000.0000   2000.0000    152.1185
   688.7500     18.4334   2000.0000   2000.0000    152.7202
   689.0000     18.6977   2000.0000   2000.0000    151.8237
   689.2500     18.8807   2000.0000   2000.0000    150.5737
   689.5000     18.9212   2000.0000   2000.0000    148.1813
   689.7500     18.7665   2000.0000   2000.0000    145.8062
   690.0000     18.3967   2000.0000   2000.0000    139.6932
   690.2500     17.8410   2000.0000   2000.0000    133.5593
   690.5000     17.1710   2000.0000   2000.0000    122.5435
   690.7500     16.4721   2000.0000   2000.0000    115.7444
   691.0000     15.8139   2000.0000   2000.0000    109.7083
   691.2500     15.2354   2000.0000   2000.0000    109.7550
   691.5000     14.7448   2000.0000   2000.0000    116.2166
   691.7500     14.3285   2000.0000   2000.0000    123.8773
   692.0000     13.9610   2000.0000   2000.0000    137.6599
   692.2500     13.6148   2000.0000   2000.0000    146.6389
   692.5000     13.2686   2000.0000   2000.0000    157.4669
   692.7500     12.9126   2000.0000   2000.0000    162.1094
   693.0000     12.5477   2000.0000   2000.0000    164.7103
   693.2500     12.1821   2000.0000   2000.0000    163.8224
   693.5000     11.8272   2000.0000   2000.0000    160.0686
   693.7500     11.4950   2000.0000   2000.0000    157.2034
   694.0000     11.1966   2000.0000   2000.0000    154.4665
   694.2500     10.9396   2000.0000   2000.0000    154.5423
   694.5000     10.7275   2000.0000   2000.0000    157.6941
   694.7500     10.5608   2000.0000   2000.0000    160.9765
   695.0000     10.4393   2000.0000   2000.0000    165.2631
   695.2500     10.3626   2000.0000   2000.0000    166.5622
