~Version Information
VERS.                      2.0: CWLS Log ASCII Standard - VERSION 2.0
WRAP.                       NO: One line per depth step
~Well Information Block
STRT.FT               706.1000: 
STOP.FT              2370.0000: 
STEP.FT                 0.1000: 
NULL.                -999.2500: 
COMP.          Petrogulf Corporation: COMPANY
WELL.             State 16-12V: WELL
FLD.           Purgatorie River: FIELD
LOC.           1992' FNL & 1237' FWL: LOCATION
CNTY.               Las Animas: COUNTY
SRVC.                         : SERVICE COMPANY
DATE.          Thu Aug 04 09:34:25 2005: LOG DATE
UWI.           05-071-08016-00: UNIQUE WELL ID
STAT.                 Colorado: STATE
~Curve Information Block
DEPT.FT            0 000 00 00: Depth
DCAL.in                       : CDL Caliper
DPOR.pu                       : CDL Density Porosity
GR.GAPI                       : Gamma Ray
NPOR.pu                       : Neutron Porosity
RHOB.g/cc                     : CDL Bulk Density
RHOC.g/cc                     : CDL Density Correction
~Parameter Information Block
~A  Depth       DCAL        DPOR         GR         NPOR        RHOB        RHOC    
# ...
  2338.1000      7.9209      7.5960   -999.2500   -999.2500      2.5247      0.1085
  2338.2000      7.9209      8.7149   -999.2500   -999.2500      2.5062      0.0425
  2338.3000      7.9324      9.5645   -999.2500   -999.2500      2.4922      0.0308
  2338.4000      7.9324      9.0550   -999.2500   -999.2500      2.5006      0.0329
  2338.5000      7.9227      7.9418   -999.2500   -999.2500      2.5190      0.1384
  2338.6000      7.9227      7.9969   -999.2500   -999.2500      2.5181      0.0983
  2338.7000      7.9227      8.8658   -999.2500   -999.2500      2.5037      0.0286
  2338.8000      7.8958      8.5650   -999.2500   -999.2500      2.5087      0.0514
  2338.9000      7.8958      6.7239   -999.2500   -999.2500      2.5391      0.1000
  2339.0000      7.8997      4.9058   -999.2500   -999.2500      2.5691      0.1173
  2339.1000      7.8997      4.3960   -999.2500   -999.2500      2.5775      0.1065
  2339.2000      7.8997      5.0190   -999.2500   -999.2500      2.5672      0.0535
  2339.3000      7.9342      6.0038   -999.2500   -999.2500      2.5509      0.0720
  2339.4000      7.9342      6.8147   -999.2500   -999.2500      2.5376      0.0460
  2339.5000      7.9189      7.1614   -999.2500   -999.2500      2.5318      0.0389
  2339.6000      7.9189      7.3116   -999.2500   -999.2500      2.5294      0.0249
  2339.7000      7.9189      7.7373   -999.2500   -999.2500      2.5223      0.0496
  2339.8000      7.8367      8.3538   -999.2500   -999.2500      2.5122      0.0244
  2339.9000      7.8367      8.5121   -999.2500   -999.2500      2.5095      0.0323
  2340.0000      7.8212      7.7996   -999.2500   -999.2500      2.5213      0.0061
  2340.1000      7.8212      6.6209   -999.2500   -999.2500      2.5408      0.0527
  2340.2000      7.8212      5.5363   -999.2500   -999.2500      2.5587      0.0478
  2340.3000      7.8499      4.6352   -999.2500   -999.2500      2.5735      0.0640
  2340.4000      7.8499      3.9879   -999.2500   -999.2500      2.5842      0.1080
  2340.5000      7.8979      4.0440   -999.2500   -999.2500      2.5833      0.1205
  2340.6000      7.8979      5.1023   -999.2500   -999.2500      2.5658      0.1088
  2340.7000      7.8979      6.2532   -999.2500   -999.2500      2.5468      0.0503
  2340.8000      7.8900      6.2076   -999.2500   -999.2500      2.5476      0.0565
  2340.9000      7.8900      5.6685   -999.2500   -999.2500      2.5565      0.1244
  2341.0000      7.8399      6.4922   -999.2500   -999.2500      2.5429      0.0731
  2341.1000      7.8399      8.2788   -999.2500   -999.2500      2.5134     -0.0129
  2341.2000      7.8399      9.1211   -999.2500   -999.2500      2.4995      0.0170
  2341.3000      7.8113      8.7915   -999.2500   -999.2500      2.5049      0.0286
  2341.4000      7.8113      7.9339   -999.2500   -999.2500      2.5191      0.0277
  2341.5000      7.8228      6.6971   -999.2500   -999.2500      2.5395      0.0318
  2341.6000      7.8228      5.6123   -999.2500   -999.2500      2.5574      0.0651
  2341.7000      7.8228      5.6629   -999.2500   -999.2500      2.5566      0.0774
  2341.8000      7.8613      6.5852   -999.2500   -999.2500      2.5413      0.0390
  2341.9000      7.8613      7.0798   -999.2500   -999.2500      2.5332      0.0453
  2342.0000      7.8424      7.0436   -999.2500   -999.2500      2.5338      0.0584
  2342.1000      7.8424      7.2300   -999.2500   -999.2500      2.5307      0.0450
  2342.2000      7.8424      7.4249   -999.2500   -999.2500      2.5275      0.0291
  2342.3000      7.8482      6.9622   -999.2500   -999.2500      2.5351      0.0502
  2342.4000      7.8482      6.3313   -999.2500   -999.2500      2.5455      0.1034
  2342.5000      7.8860      6.4228   -999.2500   -999.2500      2.5440      0.0714
  2342.6000      7.8860      7.1614   -999.2500   -999.2500      2.5318      0.0551
  2342.7000      7.8860      7.8457   -999.2500   -999.2500      2.5205      0.0441
  2342.8000      7.8841      7.8780   -999.2500   -999.2500      2.5200      0.0223
  2342.9000      7.8841      7.6240   -999.2500   -999.2500      2.5242      0.0956
  2343.0000      7.8719      7.7548   -999.2500   -999.2500      2.5220      0.0380
  2343.1000      7.8719      7.8259   -999.2500   -999.2500      2.5209      0.0622
  2343.2000      7.8719      7.5345   -999.2500   -999.2500      2.5257      0.0526
  2343.3000      7.8795      7.4354   -999.2500   -999.2500      2.5273      0.0723
  2343.4000      7.8795      7.6772   -999.2500   -999.2500      2.5233      0.0458
  2343.5000      7.8606      7.6676   -999.2500   -999.2500      2.5235      0.0205
  2343.6000      7.8606      7.3486   -999.2500   -999.2500      2.5287      0.0907
  2343.7000      7.8606      7.4478   -999.2500   -999.2500      2.5271      0.0895
  2343.8000      7.8425      8.1088   -999.2500   -999.2500      2.5162      0.0569
  2343.9000      7.8425      8.8993   -999.2500   -999.2500      2.5032      0.0711
  2344.0000      7.8435      9.5320   -999.2500   -999.2500      2.4927      0.0159
  2344.1000      7.8435      9.7214   -999.2500   -999.2500      2.4896      0.0448
  2344.2000      7.8435      9.5311   -999.2500   -999.2500      2.4927      0.0567
  2344.3000      7.8541      9.1476   -999.2500   -999.2500      2.4991      0.0406
  2344.4000      7.8541      8.3911   -999.2500   -999.2500      2.5115      0.0477
  2344.5000      7.8344      7.2830   -999.2500   -999.2500      2.5298      0.0659
  2344.6000      7.8344      4.0886   -999.2500   -999.2500      2.5825      0.0744
  2344.7000      7.8344    -10.7165   -999.2500   -999.2500      2.8268      0.0853
  2344.8000      7.8146    -52.5939   -999.2500   -999.2500      3.5178      0.1330
  2344.9000      7.8146   -105.1964   -999.2500   -999.2500      4.3857      0.5719
  2345.0000      6.6755    -94.0475   -999.2500   -999.2500      4.2018      1.8471
  2345.1000      6.6755      5.9660   -999.2500   -999.2500      2.5516      0.0000
  2345.2000      6.6755    106.5130   -999.2500   -999.2500      0.8925   -999.2500
  2345.3000     -1.6617    150.1821   -999.2500   -999.2500      0.1720   -999.2500
  2345.4000     -1.6617    159.5234   -999.2500   -999.2500      0.0179   -999.2500
  2345.5000     -2.7899    160.5469   -999.2500   -999.2500      0.0010   -999.2500
  2345.6000     -2.7899    160.6061   -999.2500   -999.2500      0.0000   -999.2500
  2345.7000     -2.7899   -999.2500   -999.2500   -999.2500   -999.2500   -999.2500
  2345.8000   -999.2500   -999.2500   -999.2500   -999.2500   -999.2500   -999.2500
  2345.9000   -999.2500   -999.2500   -999.2500   -999.2500   -999.2500   -999.2500
  2346.0000   -999.2500   -999.2500   -999.2500   -999.2500   -999.2500   -999.2500
  2346.1000   -999.2500   -999.2500   -999.2500   -999.2500   -999.2500   -999.2500
  2346.2000   -999.2500   -999.2500   -999.2500   -999.2500   -999.2500   -999.2500
  2346.3000   -999.2500   -999.2500   -999.2500   -999.2500   -999.2500   -999.2500
  2346.4000   -999.2500   -999.2500   -999.2500   -999.2500   -999.2500   -999.2500
  2346.5000   -999.2500   -999.2500   -999.2500   -999.2500   -999.2500   -999.2500
  2346.6000   -999.2500   -999.2500   -999.2500   -999.2500   -999.2500   -999.2500
  2346.7000   -999.2500   -999.2500   -999.2500   -999.2500   -999.2500   -999.2500
  2346.8000   -999.2500   -999.2500   -999.2500   -999.2500   -999.2500   -999.2500
  2346.9000   -999.2500   -999.2500   -999.2500   -999.2500   -999.2500   -999.2500
  2347.0000   -999.2500   -999.2500   -999.2500   -999.2500   -999.2500   -999.2500
  2347.1000   -999.2500   -999.2500   -999.2500   -999.2500   -999.2500   -999.2500
  2347.2000   -999.2500   -999.2500   -999.2500   -999.2500   -999.2500   -999.2500
  2347.3000   -999.2500   -999.2500   -999.2500   -999.2500   -999.2500   -999.2500
  2347.4000   -999.2500   -999.2500   -999.2500   -999.2500   -999.2500   -999.2500
  2347.5000   -999.2500   -999.2500   -999.2500   -999.2500   -999.2500   -999.2500
  2347.6000   -999.2500   -999.2500   -999.2500   -999.2500   -999.2500   -999.2500
