~Version Information
VERS.                      2.0: CWLS Log ASCII Standard - VERSION 2.0
WRAP.                       NO: One line per depth step
~Well Information Block
STRT.FT               250.0000: 
STOP.FT               894.7000: 
STEP.FT                 0.1000: 
NULL.                -999.2500: 
COMP.          Pioneer Natural Resources: COMPANY
WELL.          Santisteven 13-22: WELL
FLD.           Purgatoire River: FIELD
LOC.           1861' FSL & 992' FWL----: LOCATION
PROV.                 Colorado: PROVINCE
CNTY.               Las Animas: COUNTRY
SRVC.                Patterson: SERVICE COMPANY
DATE.          Mon Apr 04 11:05:36 2005: LOG DATE
UWI.           05 071 08337 00: UNIQUE WELL ID
~Curve Information Block
DEPT.FT            0 000 00 00: Depth
DCAL.in                       : CDL Caliper
RHOB.g/cc                     : CDL Bulk Density
RHOC.g/cc                     : CDL Density Correction
DPOR.pu                       : CDL Density Porosity
NPOR.pu                       : Neutron Porosity
GR.GAPI                       : Gamma Ray
~Parameter Information Block
~A  Depth       DCAL        RHOB        RHOC        DPOR        NPOR         GR     
# ...
   538.0000      8.1069      2.5635      0.0483      5.2419     20.2771     88.2897
   538.1000      8.1069      2.5460     -0.0226      6.3040     20.3545     97.5942
   538.2000      8.1069      2.5425      0.0007      6.5164     20.6419    103.5293
   538.3000      8.1063      2.5432      0.0496      6.4747     21.0274    103.7092
   538.4000      8.1063      2.5283      0.0401      7.3730     20.8671     99.2821
   538.5000      8.1065      2.5092      0.0125      8.5311     19.8641     93.3552
   538.6000      8.1065      2.5068      0.0230      8.6781     18.7721     87.5669
   538.7000      8.1065      2.5199      0.0442      7.8879     18.5176     82.8797
   538.8000      8.1075      2.5378      0.0570      6.8023     19.1646     80.3097
   538.9000      8.1075      2.5520      0.0521      5.9386     19.7845     79.6524
   539.0000      8.1088      2.5557      0.0738      5.7140     19.6100     79.0805
   539.1000      8.1088      2.5490      0.0604      6.1224     18.8487     77.5123
   539.2000      8.1088      2.5397      0.0730      6.6831     17.9154     77.2906
   539.3000      8.1098      2.5322      0.0888      7.1370     17.0675     80.3529
   539.4000      8.1098      2.5305      0.0681      7.2438     16.4750     84.7023
   539.5000      8.1097      2.5377      0.0879      6.8064     16.1913     89.6764
   539.6000      8.1097      2.5461      0.0659      6.2969     16.2923     93.6669
   539.7000      8.1097      2.5562      0.0588      5.6840     16.7417     91.9527
   539.8000      8.1094      2.5775      0.0930      4.3915     17.3471     84.8324
   539.9000      8.1094      2.6011      0.1155      2.9660     18.0036     79.0272
   540.0000      8.1091      2.6114      0.1147      2.3415     18.6349     78.8490
   540.1000      8.1091      2.6090      0.1353      2.4839     19.3497     81.4517
   540.2000      8.1091      2.6012      0.0859      2.9601     20.3350     81.3020
   540.3000      8.1078      2.5965      0.0676      3.2409     21.4115     76.5589
   540.4000      8.1078      2.6019      0.0783      2.9132     22.1755     70.6411
   540.5000      8.1069      2.6129      0.1093      2.2476     22.3787     67.5411
   540.6000      8.1069      2.6218      0.0967      1.7087     22.2502     70.0115
   540.7000      8.1069      2.6224      0.0797      1.6757     22.3809     77.3690
   540.8000      8.1064      2.6009      0.0850      2.9782     22.8675     85.6244
   540.9000      8.1064      2.5532      0.0223      5.8641     23.2528     92.5909
   541.0000      8.1065      2.4955      0.0105      9.3638     23.0320     97.9348
   541.1000      8.1065      2.4420     -0.0176     12.6077     22.3330    100.8769
   541.2000      8.1065      2.3977     -0.0108     15.2915     21.4616    101.2437
   541.3000      8.1070      2.3671     -0.0620     17.1430     20.3715    101.7659
   541.4000      8.1070      2.3542     -0.0342     17.9292     19.2083    104.2844
   541.5000      8.1063      2.3541     -0.0157     17.9326     18.1505    110.4208
   541.6000      8.1063      2.3575      0.0377     17.7270     17.0375    121.2400
   541.7000      8.1063      2.3610      0.0465     17.5144     15.8425    132.7442
   541.8000      8.1058      2.3750      0.0481     16.6666     15.0822    138.8058
   541.9000      8.1058      2.4088      0.0800     14.6160     15.1067    139.5290
   542.0000      8.1068      2.4523      0.1177     11.9843     15.6817    141.6141
   542.1000      8.1068      2.4849      0.1306     10.0059     16.3870    144.1984
   542.2000      8.1068      2.4987      0.1096      9.1715     16.8925    143.2364
   542.3000      8.1076      2.5024      0.0888      8.9480     17.1464    141.4672
   542.4000      8.1076      2.5024      0.1169      8.9470     17.4706    141.4939
   542.5000      8.1061      2.4937      0.0807      9.4737     18.0801    143.7581
   542.6000      8.1061      2.4800      0.0644     10.3033     18.6576    148.7276
   542.7000      8.1061      2.4742      0.0686     10.6521     19.0203    153.4753
   542.8000      8.1056      2.4764      0.0860     10.5232     19.3403    153.5888
   542.9000      8.1056      2.4776      0.0722     10.4473     19.6657    150.7066
   543.0000      8.1085      2.4788      0.0559     10.3732     20.1790    150.6472
   543.1000      8.1085      2.4870      0.0646      9.8790     20.9148    155.0915
   543.2000      8.1085      2.5000      0.0596      9.0918     21.4694    158.7222
   543.3000      8.1089      2.5081      0.0737      8.5975     21.4905    158.2519
   543.4000      8.1089      2.5090      0.0708      8.5468     21.0667    157.8944
   543.5000      8.1052      2.5084      0.0782      8.5796     20.7797    159.5760
   543.6000      8.1052      2.5145      0.0883      8.2102     21.1402    157.9981
   543.7000      8.1052      2.5299      0.0687      7.2793     21.8718    148.3552
   543.8000      8.1022      2.5450      0.0610      6.3639     22.2293    134.7127
   543.9000      8.1022      2.5542      0.0821      5.8084     22.0889    128.9124
   544.0000      8.1020      2.5652      0.1022      5.1418     21.8089    134.1313
   544.1000      8.1020      2.5798      0.1076      4.2521     21.5241    137.8891
   544.2000      8.1020      2.5925      0.1050      3.4869     21.2428    133.2584
   544.3000      8.1032      2.6010      0.0791      2.9678     21.1397    130.1493
   544.4000      8.1032      2.6046      0.0955      2.7518     21.3369    137.1591
   544.5000      8.1037      2.6004      0.0760      3.0072     21.5755    148.3632
   544.6000      8.1037      2.5853      0.0977      3.9231     21.5594    154.2770
   544.7000      8.1037      2.5617      0.0311      5.3520     21.3158    153.6478
   544.8000      8.1047      2.5484      0.0214      6.1603     21.0867    147.4652
   544.9000      8.1047      2.5601      0.0268      5.4456     21.1024    138.3136
   545.0000      8.1059      2.5848      0.0688      3.9518     21.3283    131.3329
   545.1000      8.1059      2.6000      0.0710      3.0327     21.6362    128.0779
   545.2000      8.1059      2.6020      0.0584      2.9106     21.9844    129.9679
   545.3000      8.1059      2.6020      0.0462      2.9120     22.2479    136.9778
   545.4000      8.1059      2.6054      0.0355      2.7009     22.3771    141.7122
   545.5000      8.1053      2.6062      0.0553      2.6532     22.6413    140.3338
   545.6000      8.1053      2.6027      0.0491      2.8662     22.9444    135.2351
   545.7000      8.1053      2.6082      0.0227      2.5306     22.9250    127.3392
   545.8000      8.1053      2.6188      0.0729      1.8910     22.8068    119.3397
   545.9000      8.1053      2.6114      0.0150      2.3381     22.9418    116.9686
   546.0000      8.1064      2.5829      0.0367      4.0669     23.2962    120.5227
   546.1000      8.1064      2.5467      0.0274      6.2606     23.5010    127.0247
   546.2000      8.1064      2.5197     -0.0188      7.8960     23.2210    133.9089
   546.3000      8.1079      2.5191     -0.0123      7.9341     22.8642    139.2950
   546.4000      8.1079      2.5481      0.0403      6.1771     22.9773    139.7086
   546.5000      8.1080      2.5838      0.0805      4.0127     23.3454    133.2855
   546.6000      8.1080      2.5988      0.0527      3.1056     23.3711    124.1491
   546.7000      8.1080      2.5893      0.0557      3.6775     22.8686    118.3289
   546.8000      8.1067      2.5691      0.0335      4.9044     22.0503    117.4003
   546.9000      8.1067      2.5569     -0.0266      5.6404     21.0794    118.7935
   547.0000      8.1052      2.5624      0.0209      5.3078     20.6277    119.0782
   547.1000      8.1052      2.5779      0.0165      4.3705     20.9998    116.4185
   547.2000      8.1052      2.5975      0.0348      3.1842     21.3035    113.9307
   547.3000      8.1067      2.6154      0.0724      2.0986     21.2759    114.9394
   547.4000      8.1067      2.6200      0.0485      1.8182     21.7615    117.0514
   547.5000      8.1103      2.6116      0.0252      2.3290     22.7505    115.9504
