~Version Information
VERS.                      2.0: CWLS Log ASCII Standard - VERSION 2.0
WRAP.                       NO: One line per depth step
~Well Information Block
STRT.FT               720.0000: 
STOP.FT              2730.2000: 
STEP.FT                 0.1000: 
NULL.                -999.2500: 
COMP.          Evergreen Operating Corporation: COMPANY
WELL.            Rangely 22-28: WELL
FLD.           Purgatoire River: FIELD
LOC.           1741' FNL & 2335' FWL: LOCATION
PROV.                 Colorado: PROVINCE
CNTY.               Las Animas: COUNTRY
SRVC.                Patterson: SERVICE COMPANY
DATE.          Thu Sep 16 15:10:36 2004: LOG DATE
UWI.           05 071 08044 00: UNIQUE WELL ID
~Curve Information Block
DEPT.FT            0 000 00 00: Depth
DCAL.in                       : CDL Caliper
DPOR.pu                       : CDL Density Porosity
NPOR.pu                       : Neutron Porosity
RHOB.g/cc                     : CDL Bulk Density
RHOC.g/cc                     : CDL Density Correction
GR.GAPI                       : Gamma Ray
~Parameter Information Block
~A  Depth       DCAL        DPOR        NPOR        RHOB        RHOC         GR     
   720.0000      8.0997     25.3714     43.1440      2.2314     -0.2866     94.3057
   720.1000      8.0997     27.6132     42.7631      2.1944     -0.3256     98.4082
   720.2000      8.0997     27.9186     42.5899      2.1893     -0.3588     95.3737
   720.3000      8.0997     26.3951     42.6499      2.2145     -0.2746     89.0492
   720.4000      8.0997     24.1742     42.5270      2.2511     -0.3123     84.8058
   720.5000      8.0966     21.7939     42.1162      2.2904     -0.2510     86.5389
   720.6000      8.0966     19.9820     41.7138      2.3203     -0.2273     89.0766
   720.7000      8.0966     19.2623     41.6352      2.3322     -0.2584     83.3694
   720.8000      8.0909     18.7015     41.7850      2.3414     -0.2568     73.0043
   720.9000      8.0909     17.7923     41.7122      2.3564     -0.2248     67.8270
   721.0000      8.0890     17.7578     41.4405      2.3570     -0.2110     69.8723
   721.1000      8.0890     19.4013     41.3541      2.3299     -0.2330     74.6596
   721.2000      8.0890     21.0442     41.5317      2.3028     -0.3402     77.1171
   721.3000      8.0946     21.1481     41.6935      2.3011     -0.2633     75.5570
   721.4000      8.0946     20.6256     41.5681      2.3097     -0.2797     73.1474
   721.5000      8.0953     20.0093     41.2590      2.3198     -0.3348     73.3064
   721.6000      8.0953     18.9163     41.0284      2.3379     -0.2645     77.2978
   721.7000      8.0953     17.5148     41.0644      2.3610     -0.2836     82.8571
   721.8000      8.0949     15.8163     41.3325      2.3890     -0.2182     86.0884
   721.9000      8.0949     14.1341     41.4708      2.4168     -0.2343     85.7669
   722.0000      8.0964     13.2482     41.3876      2.4314     -0.2499     83.9396
   722.1000      8.0964     13.0887     41.3369      2.4340     -0.2099     83.8903
   722.2000      8.0964     12.5550     41.4396      2.4428     -0.2333     85.1928
   722.3000      8.0976     11.6028     41.6448      2.4586     -0.1790     83.7691
   722.4000      8.0976     11.6371     41.9074      2.4580     -0.2344     80.7826
   722.5000      8.0988     12.9652     42.0189      2.4361     -0.2344     80.2568
   722.6000      8.0988     14.5066     41.7708      2.4106     -0.2633     83.8994
   722.7000      8.0988     15.4458     41.4781      2.3951     -0.2284     89.8963
   722.8000      8.1009     15.8301     41.3278      2.3888     -0.2681     91.6108
   722.9000      8.1009     16.2771     40.9983      2.3814     -0.2163     88.8267
   723.0000      8.1017     17.1214     40.6294      2.3675     -0.2851     87.0020
   723.1000      8.1017     18.1677     40.5946      2.3502     -0.2370     86.2487
   723.2000      8.1017     19.4215     40.8125      2.3295     -0.2774     85.8588
   723.3000      8.1007     20.5141     41.0392      2.3115     -0.2870     86.6762
   723.4000      8.1007     20.9620     41.0183      2.3041     -0.2672     88.0220
   723.5000      8.1006     20.5526     40.6567      2.3109     -0.2673     86.2265
   723.6000      8.1006     19.3207     40.2594      2.3312     -0.2330     81.6136
   723.7000      8.1006     18.0390     40.2156      2.3524     -0.2208     82.6704
   723.8000      8.1012     17.4108     40.4017      2.3627     -0.2039     92.9974
   723.9000      8.1012     17.4837     40.3211      2.3615     -0.2032    105.6097
   724.0000      8.1031     18.0148     40.0160      2.3528     -0.2759    112.8429
   724.1000      8.1031     18.7362     39.9861      2.3409     -0.2457    115.3635
   724.2000      8.1031     19.4395     40.3486      2.3292     -0.2434    115.1342
   724.3000      8.1045     20.0279     40.5385      2.3195     -0.2359    109.2862
   724.4000      8.1045     20.3150     40.1970      2.3148     -0.2960     99.1517
   724.5000      8.1022     20.1577     39.8437      2.3174     -0.2730     92.6529
   724.6000      8.1022     19.9350     40.0194      2.3211     -0.2374     91.1256
   724.7000      8.1022     19.9264     40.3733      2.3212     -0.2523     88.2880
   724.8000      8.0995     19.8978     40.2262      2.3217     -0.2365     82.3522
   724.9000      8.0995     19.6266     39.6593      2.3262     -0.2541     76.2965
   725.0000      8.0986     19.5529     39.2569      2.3274     -0.2122     70.7509
   725.1000      8.0986     20.4686     39.1841      2.3123     -0.2345     66.2831
   725.2000      8.0986     21.8528     39.2802      2.2894     -0.2613     64.6630
   725.3000      8.0984     22.2938     39.3795      2.2822     -0.2901     64.2822
   725.4000      8.0984     21.8996     39.2827      2.2887     -0.2255     62.8452
   725.5000      8.0982     21.6255     38.9031      2.2932     -0.2510     59.2901
   725.6000      8.0982     20.6713     38.4983      2.3089     -0.2687     54.8917
   725.7000      8.0982     17.2870     38.4463      2.3648     -0.2657     54.1908
   725.8000      8.0982     11.7550     38.8446      2.4560     -0.1932     57.9966
   725.9000      8.0982      6.8319     39.4048      2.5373     -0.1703     62.4310
   726.0000      8.0994      4.8913     39.6759      2.5693     -0.1777     64.8995
   726.1000      8.0994      6.1627     39.4536      2.5483     -0.1922     64.8626
   726.2000      8.0994     10.5440     39.0422      2.4760     -0.1692     62.0511
   726.3000      8.1020     18.6459     39.0223      2.3423     -0.2180     56.7094
   726.4000      8.1020     29.3773     39.4963      2.1653     -0.3510     51.9575
   726.5000      8.1080     38.4058     40.1298      2.0163     -0.5546     51.4745
   726.6000      8.1080     41.7366     40.6673      1.9613     -0.5592     56.0656
   726.7000      8.1080     40.1341     40.9092      1.9878     -0.4608     64.2727
   726.8000      8.1202     37.5425     40.5731      2.0305     -0.4845     72.0875
   726.9000      8.1202     36.6336     39.4064      2.0455     -0.5591     76.1285
   727.0000      8.1469     37.2327     37.4770      2.0357     -0.6628     78.7632
   727.1000      8.1469     37.9167     35.1371      2.0244     -0.5594     84.6333
   727.2000      8.1469     38.1882     32.5173      2.0199     -0.4129     92.7488
   727.3000      8.2165     37.7110     29.8464      2.0278     -0.2763     97.6823
   727.4000      8.2165     35.1460     27.5488      2.0701     -0.1977     97.6655
   727.5000      8.3386     31.0462     25.6481      2.1377      0.1680     96.1867
   727.6000      8.3386     28.5183     23.8791      2.1794      0.1591     96.1248
   727.7000      8.3386     28.1030     22.2282      2.1863      0.0922     98.5645
   727.8000      8.4534     28.0196     20.9836      2.1877      0.1620    104.6611
   727.9000      8.4534     27.9094     20.3433      2.1895      0.1326    111.7894
   728.0000      8.5010     28.1907     20.2233      2.1849      0.1285    114.7293
   728.1000      8.5010     28.7221     20.2684      2.1761      0.1176    114.0544
   728.2000      8.5010     28.9071     20.2444      2.1730      0.1004    112.9171
   728.3000      8.5018     28.5482     20.3130      2.1790      0.1357    110.8776
   728.4000      8.5018     28.1618     20.5530      2.1853      0.1288    107.0029
   728.5000      8.4912     27.9819     20.7253      2.1883      0.1315    105.4167
   728.6000      8.4912     27.8260     20.8049      2.1909      0.1384    109.0913
   728.7000      8.4912     27.8554     20.9155      2.1904      0.1396    113.4079
   728.8000      8.4753     28.2000     20.9767      2.1847      0.1125    115.7291
   728.9000      8.4753     28.3360     21.1200      2.1825      0.1027    116.1486
   729.0000      8.6500     27.9738     21.4201      2.1884      0.1392    113.2932
   729.1000      8.6500     27.5017     21.3892      2.1962      0.1150    106.9413
   729.2000      8.6500     27.1684     20.9983      2.2017      0.1284    100.9675
   729.3000      8.6712     26.7989     20.8005      2.2078      0.1209    101.5063
   729.4000      8.6712     26.3781     20.7398      2.2148      0.1423    107.3117
   729.5000      8.6937     26.6470     20.4368      2.2103      0.1546    109.6913
