~Version Information
VERS.                      2.0: CWLS Log ASCII Standard - VERSION 2.0
WRAP.                       NO: One line per depth step
~Well Information Block
STRT.FT               758.7500: 
STOP.FT              2420.7500: 
STEP.FT                 0.2500: 
NULL.                -999.2500: 
COMP.          Petrogulf Corporation: COMPANY
WELL.            Montoya 7-21V: WELL
FLD.           Purgatorie River: FIELD
LOC.           738' FSL & 2070' FWL: LOCATION
CNTY.               Las Animas: COUNTY
SRVC.                         : SERVICE COMPANY
DATE.          Fri Aug 20 07:13:07 2004: LOG DATE
UWI.           05 071 08018 00: UNIQUE WELL ID
STAT.                 Colorado: STATE
~Curve Information Block
DEPT.FT            0 000 00 00: Depth
SP.mV                         : DIL Spontaneous Potential
RILD.Ohm-m                    : DIL Deep Resistivity
RILM.Ohm-m                    : DIL Medium Resistivity
RLL3.Ohm-m                    : DIL Shallow Resistivity
GR.GAPI                       : Gamma Ray
~Parameter Information Block
~A  Depth        SP         RILD        RILM        RLL3         GR     
# ...
   898.7500    -68.4356     36.8451     72.0406     73.9617     79.2450
   899.0000    -69.1009     37.5533     69.7385     74.5359     78.3314
   899.2500    -69.5773     38.0800     67.8364     75.2986     76.1993
   899.5000    -69.7477     38.5497     66.5328     76.1863     72.5760
   899.7500    -69.5977     39.1030     65.9433     77.1534     70.6495
   900.0000    -69.2150     39.8358     66.1070     78.1853     68.7859
   900.2500    -68.7478     40.7847     66.9836     79.2667     67.9537
   900.5000    -68.3425     41.9404     68.4620     80.3344     66.7656
   900.7500    -68.0888     43.2573     70.3867     81.2752     65.9650
   901.0000    -67.9948     44.6465     72.6009     81.9949     65.2256
   901.2500    -67.9961     45.9836     75.0200     82.5154     65.2904
   901.5000    -67.9927     47.1598     77.6984     83.0100     65.8941
   901.7500    -67.8914     48.1791     80.8629     83.7364     66.1003
   902.0000    -67.6341     49.2227     84.8820     84.9147     65.5276
   902.2500    -67.2095     50.6156     90.1902     86.6610     64.7040
   902.5000    -66.6383     52.6956     97.1606     89.0444     63.5665
   902.7500    -65.9491     55.6390    105.8853     92.2221     63.2634
   903.0000    -65.1629     59.2641    115.8031     96.5095     63.6491
   903.2500    -64.2861     62.8721    125.2272    102.2514     64.2486
   903.5000    -63.3202     65.3388    131.2381    109.4826     65.1321
   903.7500    -62.2768     65.6771    130.8097    117.5291     65.6217
   904.0000    -61.1856     63.7614    123.0160    124.8119     66.7233
   904.2500    -60.0966     60.4055    109.9414    129.1021     68.2986
   904.5000    -59.0712     56.7112     95.0319    128.2647     72.8788
   904.7500    -58.1709     53.4614     80.9745    121.1971     77.6019
   905.0000    -57.4505     50.9647     69.0198    108.4322     86.7549
   905.2500    -56.9506     49.1674     59.4002     92.0211     93.8366
   905.5000    -56.6865     47.8017     51.8777     74.7591    105.6765
   905.7500    -56.6331     46.5284     46.0777     59.2123    114.3332
   906.0000    -56.7186     45.0693     41.6337     47.0298    127.4534
   906.2500    -56.8331     43.3114     38.2298     38.7475    134.9340
   906.5000    -56.8582     41.3211     35.6059     33.9933    141.9268
   906.7500    -56.7104     39.2519     33.5480     31.8655    143.3360
   907.0000    -56.3712     37.2393     31.8829     31.2930    141.5714
   907.2500    -55.8982     35.3469     30.4764     31.2968    138.8806
   907.5000    -55.4025     33.5845     29.2306     31.1656    134.8023
   907.7500    -55.0079     31.9523     28.0850     30.5666    133.5039
   908.0000    -54.8098     30.4669     27.0106     29.5547    135.4052
   908.2500    -54.8475     29.1595     26.0008     28.4329    139.0729
   908.5000    -55.0980     28.0614     25.0626     27.5024    145.9782
   908.7500    -55.4913     27.1938     24.2086     26.8470    149.9975
   909.0000    -55.9351     26.5646     23.4512     26.3038    153.9026
   909.2500    -56.3412     26.1651     22.8032     25.6311    155.4320
   909.5000    -56.6486     25.9661     22.2750     24.7386    157.2428
   909.7500    -56.8341     25.9116     21.8747     23.8008    158.0736
   910.0000    -56.9091     25.9228     21.6074     23.1857    157.1093
   910.2500    -56.9012     25.9140     21.4725     23.2695    154.0305
   910.5000    -56.8306     25.8173     21.4626     24.2535    145.7460
   910.7500    -56.6998     25.6070     21.5613     26.0561    138.7468
   911.0000    -56.4924     25.3022     21.7437     28.3015    128.3365
   911.2500    -56.1930     24.9497     21.9773     30.4255    122.6638
   911.5000    -55.8029     24.6014     22.2266     31.8927    117.4088
   911.7500    -55.3462     24.3005     22.4584     32.4405    116.3824
   912.0000    -54.8558     24.0835     22.6490     32.1945    118.3194
   912.2500    -54.3522     23.9870     22.7895     31.5473    121.3677
   912.5000    -53.8326     24.0508     22.8885     30.8812    127.1019
   912.7500    -53.2796     24.3060     22.9700     30.3421    130.9092
   913.0000    -52.6839     24.7569     23.0690     29.8359    136.0123
   913.2500    -52.0641     25.3613     23.2251     29.2314    139.0979
   913.5000    -51.4691     26.0299     23.4758     28.5961    143.6064
   913.7500    -50.9677     26.6500     23.8520     28.2834    146.5357
   914.0000    -50.6314     27.1297     24.3727     28.8162    149.8232
   914.2500    -50.5257     27.4314     25.0387     30.6543    150.0717
   914.5000    -50.7052     27.5639     25.8281     33.9904    145.7810
   914.7500    -51.2104     27.5458     26.6903     38.6643    140.0453
   915.0000    -52.0570     27.3732     27.5451     44.2062    129.9902
   915.2500    -53.2204     27.0219     28.2900     49.9425    124.3895
   915.5000    -54.6298     26.4823     28.8181     55.0875    119.6114
   915.7500    -56.1760     25.7939     29.0489     58.7997    118.7023
   916.0000    -57.7325     25.0551     28.9542     60.2745    119.2996
   916.2500    -59.1817     24.3938     28.5719     58.9544    120.2181
   916.5000    -60.4313     23.9249     27.9955     54.8204    121.9797
   916.7500    -61.4194     23.7156     27.3436     48.5616    123.7233
   917.0000    -62.1126     23.7643     26.7296     41.4284    127.9046
   917.2500    -62.5002     23.9974     26.2393     34.8032    131.7138
   917.5000    -62.5897     24.2845     25.9208     29.7538    137.8005
   917.7500    -62.3974     24.4771     25.7859     26.8267    141.1775
   918.0000    -61.9381     24.4682     25.8141     26.1000    144.2576
   918.2500    -61.2253     24.2336     25.9631     27.3186    144.9561
   918.5000    -60.2742     23.8277     26.1786     29.9573    144.2622
   918.7500    -59.1200     23.3397     26.4064     33.2368    142.8298
   919.0000    -57.8324     22.8477     26.6007     36.2434    139.9056
   919.2500    -56.5161     22.3979     26.7254     38.2265    138.1354
   919.5000    -55.2888     22.0051     26.7496     38.9377    136.7286
   919.7500    -54.2439     21.6637     26.6420     38.7330    136.5069
   920.0000    -53.4217     21.3525     26.3674     38.2817    135.8464
   920.2500    -52.8029     21.0388     25.8947     38.0461    134.4265
   920.5000    -52.3280     20.6838     25.2110     37.9252    131.2251
   920.7500    -51.9349     20.2556     24.3352     37.3450    129.5943
   921.0000    -51.5862     19.7425     23.3189     35.7099    130.0041
   921.2500    -51.2741     19.1590     22.2353     32.8493    132.6011
   921.5000    -51.0086     18.5379     21.1587     29.1386    139.2720
   921.7500    -50.7868     17.9173     20.1489     25.2643    144.6842
   922.0000    -50.5751     17.3280     19.2439     21.8562    152.4393
   922.2500    -50.3039     16.7882     18.4603     19.2437    156.4956
   922.5000    -49.8868     16.3040     17.8001     17.4445    160.4873
   922.7500    -49.2485     15.8738     17.2568     16.3132    162.1165
   923.0000    -48.3585     15.4946     16.8211     15.7017    163.8631
   923.2500    -47.2497     15.1686     16.4837     15.5256    164.8192
   923.5000    -46.0147     14.9057     16.2367     15.7393    165.9215
   923.7500    -44.7853     14.7214     16.0730     16.2881    166.1699
   924.0000    -43.7006     14.6290     15.9854     17.0947    165.0355
   924.2500    -42.8745     14.6319     15.9668     18.0733    163.0232
   924.5000    -42.3746     14.7189     16.0091     19.1354    158.7368
   924.7500    -42.2158     14.8653     16.1048     20.1757    155.7243
   925.0000    -42.3677     15.0400     16.2473     21.0697    151.6617
   925.2500    -42.7629     15.2159     16.4313     21.7099    149.4447
   925.5000    -43.3053     15.3765     16.6522     22.0565    147.5321
   925.7500    -43.8819     15.5163     16.9055     22.1549    147.6074
   926.0000    -44.3761     15.6366     17.1836     22.1043    149.5758
   926.2500    -44.6908     15.7397     17.4755     22.0025    151.5077
   926.5000    -44.7769     15.8266     17.7656     21.9022    154.1528
