~Version Information
VERS.                      2.0: CWLS Log ASCII Standard - VERSION 2.0
WRAP.                       NO: One line per depth step
~Well Information Block
STRT.FT               340.0000: 
STOP.FT              1542.5000: 
STEP.FT                 0.1000: 
NULL.                -999.2500: 
COMP.          Petrogulf Corporation: COMPANY
WELL.            Montoya 7-21R: WELL
FLD.           Purgatorie River: FIELD
LOC.           445' FNL & 1942' FWL: LOCATION
PROV.                 Colorado: PROVINCE
CNTY.               Las Animas: COUNTRY
SRVC.                Patterson: SERVICE COMPANY
DATE.          Thu Sep 15 10:33:27 2005: LOG DATE
UWI.                          : UNIQUE WELL ID
~Curve Information Block
DEPT.FT            0 000 00 00: Depth
DCAL.in                       : CDL Caliper
RHOB.g/cc                     : CDL Bulk Density
RHOC.g/cc                     : CDL Density Correction
DPOR.pu                       : CDL Density Porosity
GR.GAPI                       : Gamma Ray
NPOR.pu                       : Neutron Porosity
~Parameter Information Block
~A  Depth       DCAL        RHOB        RHOC        DPOR         GR         NPOR    
# ...
   580.0000      8.3104      2.6860      0.1138     -2.1813    129.0508     26.8610
   580.1000      8.3104      2.7228      0.1431     -4.4100    126.3372     27.4045
   580.2000      8.3104      2.7419      0.1591     -5.5679    121.5250     28.0933
   580.3000      8.2414      2.7323      0.1412     -4.9885    115.7762     28.7680
   580.4000      8.2414      2.7077      0.0690     -3.4962    110.8289     29.2839
   580.5000      8.2055      2.6930      0.0579     -2.6050    107.9019     29.4304
   580.6000      8.2055      2.6923      0.0674     -2.5617    106.8820     29.0568
   580.7000      8.2055      2.6926      0.0224     -2.5804    106.1528     28.4094
   580.8000      8.1906      2.6882      0.0824     -2.3131    104.2895     27.7387
   580.9000      8.1906      2.6774      0.0629     -1.6616    102.2345     26.9628
   581.0000      8.1893      2.6585      0.0052     -0.5149    101.0302     26.0153
   581.1000      8.1893      2.6355      0.0204      0.8812     99.5058     25.1326
   581.2000      8.1893      2.6189      0.0521      1.8863     96.6199     24.5634
   581.3000      8.1901      2.6143      0.0767      2.1624     94.2919     24.2534
   581.4000      8.1901      2.6123      0.0880      2.2872     93.8989     24.0062
   581.5000      8.1777      2.5998      0.0353      3.0437     93.6749     23.6664
   581.6000      8.1777      2.5799      0.0430      4.2492     91.6872     23.2908
   581.7000      8.1777      2.5645      0.0237      5.1830     88.4460     23.0166
   581.8000      8.1509      2.5545      0.0826      5.7883     86.1541     22.7610
   581.9000      8.1509      2.5413      0.0654      6.5898     85.4851     22.4775
   582.0000      8.1394      2.5281      0.0638      7.3872     84.7732     22.1857
   582.1000      8.1394      2.5309      0.0352      7.2169     82.3344     21.8013
   582.2000      8.1394      2.5630      0.0308      5.2732     79.3745     21.5896
   582.3000      8.1166      2.6102      0.1649      2.4140     80.0521     21.8293
   582.4000      8.1166      2.6340      0.1502      0.9677     84.4497     22.0961
   582.5000      8.1048      2.6258      0.1265      1.4666     86.8682     21.9367
   582.6000      8.1048      2.6111      0.1133      2.3579     86.0133     21.5790
   582.7000      8.1048      2.6068      0.1273      2.6159     85.3119     21.4256
   582.8000      8.0624      2.6137      0.0777      2.1978     85.0758     21.4557
   582.9000      8.0624      2.6224      0.0921      1.6755     85.5975     21.5271
   583.0000      8.0600      2.6181      0.0766      1.9356     87.1381     21.7283
   583.1000      8.0600      2.6125     -0.0204      2.2738     87.4351     22.0283
   583.2000      8.0600      2.6328      0.0380      1.0409     86.7754     22.1698
   583.3000      8.0633      2.6664      0.0968     -0.9912     86.9507     21.9740
   583.4000      8.0633      2.6747      0.1072     -1.4999     88.2251     21.5929
   583.5000      8.0679      2.6521      0.0317     -0.1279     91.0769     21.2868
   583.6000      8.0679      2.6259      0.0217      1.4590     94.7899     21.1098
   583.7000      8.0679      2.6091      0.0603      2.4810     97.0674     21.0323
   583.8000      8.0541      2.5922      0.0410      3.5050     96.7769     21.1246
   583.9000      8.0541      2.5785      0.0227      4.3324     95.6184     21.3920
   584.0000      8.0523      2.5779      0.0486      4.3677     96.6574     21.5715
   584.1000      8.0523      2.5802      0.0616      4.2324     99.8914     21.6246
   584.2000      8.0523      2.5785      0.0092      4.3317    104.2300     21.8350
   584.3000      8.0618      2.5824      0.0181      4.0951    111.1489     22.1187
   584.4000      8.0618      2.5899      0.0388      3.6394    120.4992     22.2599
   584.5000      8.0689      2.5925      0.0113      3.4837    128.1498     22.3272
   584.6000      8.0689      2.5919      0.0200      3.5217    132.4631     22.4977
   584.7000      8.0689      2.5911      0.0408      3.5695    136.8574     22.7638
   584.8000      8.1107      2.5942      0.0691      3.3842    141.6284     23.0410
   584.9000      8.1107      2.6032      0.0629      2.8378    143.2789     23.5010
   585.0000      8.2115      2.6086      0.0699      2.5093    141.7607     24.3122
   585.1000      8.2115      2.6001      0.0849      3.0269    139.6727     25.3658
   585.2000      8.2115      2.5851      0.0528      3.9311    139.6540     26.3743
   585.3000      8.1967      2.5776      0.0432      4.3866    142.6589     27.2321
   585.4000      8.1967      2.5719      0.0771      4.7312    146.4654     28.0000
   585.5000      8.1698      2.5628      0.0027      5.2843    146.7085     28.5080
   585.6000      8.1698      2.5625      0.0327      5.3046    140.1685     28.7333
   585.7000      8.1698      2.5746      0.0493      4.5680    128.7533     28.9256
   585.8000      8.1825      2.5918      0.0222      3.5270    119.9641     29.1052
   585.9000      8.1825      2.6099      0.0834      2.4312    118.8026     29.1396
   586.0000      8.1751      2.6251      0.0504      1.5061    122.6890     28.9872
   586.1000      8.1751      2.6318      0.0522      1.1002    126.7175     28.6129
   586.2000      8.1751      2.6273      0.0374      1.3782    129.6994     28.0861
   586.3000      8.1168      2.6182      0.0628      1.9274    131.8798     27.5768
   586.4000      8.1168      2.6146      0.0009      2.1462    133.2091     27.2443
   586.5000      8.0936      2.6133      0.0505      2.2271    133.9997     27.1724
   586.6000      8.0936      2.5985      0.0376      3.1236    134.5041     27.2247
   586.7000      8.0936      2.5727     -0.0018      4.6837    134.7656     27.3199
   586.8000      8.1018      2.5538      0.0121      5.8314    133.4842     27.5346
   586.9000      8.1018      2.5447      0.0435      6.3844    131.1050     27.7277
   587.0000      8.1256      2.5452      0.0173      6.3503    131.2901     27.7043
   587.1000      8.1256      2.5601      0.0566      5.4466    135.0908     27.6669
   587.2000      8.1256      2.5799      0.0650      4.2482    138.4257     27.7499
   587.3000      8.1206      2.5925      0.0379      3.4828    138.8971     27.8874
   587.4000      8.1206      2.5978      0.0698      3.1666    138.4391     28.0657
   587.5000      8.1120      2.6028      0.0518      2.8617    136.4174     28.0950
   587.6000      8.1120      2.6105      0.0701      2.3939    131.6619     27.9784
   587.7000      8.1120      2.6097      0.0614      2.4453    128.3904     27.9393
   587.8000      8.1085      2.5918      0.0687      3.5267    129.3060     27.7792
   587.9000      8.1085      2.5692      0.0221      4.8998    131.5462     27.2992
   588.0000      8.1132      2.5599      0.0491      5.4636    134.1239     26.7752
   588.1000      8.1132      2.5615      0.0580      5.3619    138.0322     26.4340
   588.2000      8.1132      2.5559      0.0463      5.7008    141.5374     26.1614
   588.3000      8.1201      2.5358      0.0146      6.9192    142.3405     25.8806
   588.4000      8.1201      2.5095      0.0341      8.5162    142.3603     25.6993
   588.5000      8.1160      2.4891      0.0169      9.7511    144.5820     25.6345
   588.6000      8.1160      2.4882      0.0033      9.8090    147.8331     25.7709
   588.7000      8.1160      2.5049      0.0769      8.7969    148.8445     26.2421
   588.8000      8.1244      2.5210      0.0323      7.8159    148.1469     26.9314
   588.9000      8.1244      2.5308      0.0658      7.2238    148.5843     27.5295
   589.0000      8.1311      2.5388      0.0518      6.7395    150.4954     27.9384
   589.1000      8.1311      2.5438      0.1171      6.4356    152.0958     28.2157
   589.2000      8.1311      2.5491      0.0497      6.1150    151.5657     28.4563
   589.3000      8.1211      2.5626      0.1063      5.2957    149.9596     28.8010
   589.4000      8.1211      2.5724      0.1593      4.7050    150.2381     29.0338
   589.5000      8.1272      2.5723      0.0969      4.7076    152.1328     29.0683
