~Version Information
VERS.                      2.0: CWLS Log ASCII Standard - VERSION 2.0
WRAP.                       NO: One line per depth step
~Well Information Block
STRT.FT               548.0000: 
STOP.FT              1916.0000: 
STEP.FT                 0.2500: 
NULL.                -999.2500: 
COMP.          Pioneer Natural Resources: COMPANY
WELL.          Blackjack 32-11 Tr: WELL
FLD.           Purgatorie River: FIELD
LOC.           2066' FNL & 1453' FEL: LOCATION
PROV.                 Colorado: PROVINCE
CNTY.               Las Animas: COUNTRY
SRVC.                Patterson: SERVICE COMPANY
DATE.          Tue Aug 16 12:08:23 2005: LOG DATE
UWI.                          : UNIQUE WELL ID
~Curve Information Block
DEPT.FT            0 000 00 00: Depth
SN.Ohm-m                      : IEL Short Normal
SP.mV                         : IEL Spontaneous Potential
DIR.Ohm-m                     : IEL Induction Resistivity
GR.GAPI                       : Gamma Ray
~Parameter Information Block
~A  Depth        SN          SP         DIR          GR     
# ...
  1452.5000     24.3312    -29.7547     21.6176    124.7517
  1452.7500     23.6796    -29.6589     21.3562    123.1928
  1453.0000     23.1118    -29.4076     21.7309    121.0693
  1453.2500     22.5037    -29.2602     19.1510    123.0175
  1453.5000     22.0485    -29.3686     18.5626    134.2036
  1453.7500     21.3445    -29.3434     19.7180    131.0803
  1454.0000     21.3091    -29.4568     18.9276    137.3731
  1454.2500     21.4163    -29.5605     18.7529    130.1810
  1454.5000     21.3251    -29.4609     18.2433    141.1158
  1454.7500     21.4678    -30.0315     20.9613    142.6349
  1455.0000     22.0798    -30.4108     21.5709    144.0410
  1455.2500     22.2998    -31.0278     21.4939    145.8898
  1455.5000     22.8197    -31.0612     21.1858    144.6300
  1455.7500     23.4250    -31.7265     20.0675    145.7389
  1456.0000     24.5098    -32.2658     20.8962    131.3348
  1456.2500     25.2197    -33.1194     18.3662    131.4115
  1456.5000     26.1995    -34.4604     19.4993    132.1277
  1456.7500     27.3550    -35.5091     23.1912    119.0998
  1457.0000     28.3177    -34.7928     22.4114    115.2627
  1457.2500     29.0394    -35.6611     23.8449    118.1596
  1457.5000     30.1060    -37.8595     21.6362    113.0438
  1457.7500     30.7798    -40.3371     22.9510    111.8359
  1458.0000     30.8402    -35.0154     22.7863    113.9225
  1458.2500     30.8238    -33.0365     21.9550     99.5210
  1458.5000     30.4114    -31.1805     18.8622    100.5687
  1458.7500     30.1542    -28.8593     15.6372     98.7685
  1459.0000     29.8716    -31.5750     13.6702    100.9903
  1459.2500     29.2482    -33.5457     12.2623    105.0724
  1459.5000     28.0462    -35.9034     11.3310    122.9147
  1459.7500     27.1447    -37.3361     11.2918    128.8426
  1460.0000     25.6117    -38.1689     10.6327    142.4881
  1460.2500     24.7451    -38.4210     10.7479    147.1842
  1460.5000     23.8681    -38.8315     10.4030    147.3935
  1460.7500     23.7217    -39.3429     10.1955    155.4621
  1461.0000     22.9620    -39.6955     10.0830    146.5975
  1461.2500     22.3397    -40.1132     12.9987    159.8079
  1461.5000     21.5627    -40.6318     31.0458    143.3028
  1461.7500     21.2526    -41.0238 100000.0000    138.5761
  1462.0000     21.1700    -40.7334 100000.0000    138.8288
  1462.2500     20.8536    -40.9369 100000.0000    135.0779
  1462.5000     21.3979    -41.5693 100000.0000    141.2946
  1462.7500     21.7254    -41.2349 100000.0000    148.3477
  1463.0000     22.2447    -40.9596 100000.0000    142.6619
  1463.2500     23.1465    -41.4794 100000.0000    149.3042
  1463.5000     24.2321    -41.6180 100000.0000    146.1282
  1463.7500     25.0761    -41.3491 100000.0000    143.2025
  1464.0000     24.9525    -41.0414 100000.0000    132.0649
  1464.2500     24.5692    -41.6861 100000.0000    126.5931
  1464.5000     24.4928    -41.0038 100000.0000    135.8613
  1464.7500     24.6815    -40.4982 100000.0000    137.1758
  1465.0000     25.8931    -40.1687 100000.0000    124.9183
  1465.2500     28.7515    -39.7352 100000.0000    127.2874
  1465.5000     30.3270    -39.3010 100000.0000    119.3144
  1465.7500     32.6861    -38.9383 100000.0000    106.6853
  1466.0000     33.3975    -38.7608 100000.0000    102.6021
  1466.2500     33.8506    -38.6738 100000.0000     90.9280
  1466.5000     33.4002    -38.2711 100000.0000     77.8732
  1466.7500     32.0758    -37.9195 100000.0000     75.8488
  1467.0000     30.7761    -37.5504 100000.0000     71.1381
  1467.2500     28.3154    -37.3212 100000.0000     86.4955
  1467.5000     26.4119    -36.7060 100000.0000    121.6958
  1467.7500     23.0105    -35.5447      8.6692    134.4989
  1468.0000     21.5441    -35.4271      0.6972    151.1935
  1468.2500     18.5795    -36.6441      0.2917    152.6620
  1468.5000     16.7545    -38.3241      0.0934    142.8846
  1468.7500     13.1056    -41.3300      0.0614    147.6646
  1469.0000     10.5747    -46.7393      0.0419    149.3589
  1469.2500      4.9406    -54.6281      0.0369    153.2239
  1469.5000      3.2013    -66.4946      0.0349    144.7456
  1469.7500      1.8254    -78.8702      0.0406    136.6488
  1470.0000      1.6971    -96.6452      0.0314    112.5453
  1470.2500      1.9851   -106.7871      0.0422     92.5016
  1470.5000      1.8497   -110.0245      0.0404     83.5867
  1470.7500      2.0527   -108.9014      0.0332     73.6132
  1471.0000      3.1990   -107.4538      0.0268     70.0255
  1471.2500      6.8027   -106.4487      0.0263     73.7650
  1471.5000      8.0616   -105.5036      0.0226     75.3755
  1471.7500      6.9617   -103.9546      0.0220     68.3983
  1472.0000      5.2248   -103.6593      0.0253     71.3049
  1472.2500      2.2876   -102.3320      0.0334     70.5595
  1472.5000      1.8042   -100.0832      0.0741     85.0182
  1472.7500      1.8837    -93.9397      0.1055    101.8651
  1473.0000      2.1862    -81.4306      0.2066    127.8089
  1473.2500      2.4888    -67.5582      0.3284    133.0127
  1473.5000      4.3766    -54.7565      0.7921    133.1023
  1473.7500     11.8307    -47.3058      1.3647    133.0863
  1474.0000     15.9615    -42.2350      1.7601    118.1891
  1474.2500     20.2862    -38.5783      1.4890    120.3585
  1474.5000     21.2983    -35.5752      1.3118    110.3509
  1474.7500     22.4407    -33.4471      1.7987    108.4152
  1475.0000     22.6456    -31.4777     20.9940    116.0898
  1475.2500     22.2811    -30.5034 100000.0000    119.3380
  1475.5000     21.4819    -29.4866 100000.0000    137.3532
  1475.7500     20.3262    -29.1445 100000.0000    140.6727
  1476.0000     20.3589    -28.4577 100000.0000    147.7900
  1476.2500     20.2284    -27.4183 100000.0000    153.6738
  1476.5000     21.1211    -26.6832 100000.0000    138.6149
  1476.7500     22.9382    -26.4944 100000.0000    143.4324
  1477.0000     24.2055    -26.2772 100000.0000    132.8856
  1477.2500     26.3461    -26.3531 100000.0000    133.2392
  1477.5000     27.6043    -26.4299 100000.0000    132.6796
  1477.7500     29.4528    -26.9730 100000.0000    124.8805
  1478.0000     30.3067    -27.7639 100000.0000    110.1423
  1478.2500     32.2537    -28.8508 100000.0000    106.5094
  1478.5000     32.9561    -29.8358 100000.0000    109.0035
  1478.7500     33.9133    -31.3536 100000.0000    115.6664
  1479.0000     34.3118    -32.3238 100000.0000    122.1826
  1479.2500     33.9233    -33.0578 100000.0000    122.1962
  1479.5000     33.3965    -35.2295 100000.0000    128.8266
  1479.7500     32.0370    -37.3311 100000.0000    128.2758
  1480.0000     31.6398    -40.0564 100000.0000    134.2117
  1480.2500     29.9448    -43.3179 100000.0000    125.9162
  1480.5000     28.8826    -48.4541 100000.0000    132.9147
  1480.7500     26.8747    -54.6368 100000.0000    125.1566
  1481.0000     25.5790    -62.0005 100000.0000    108.5265
  1481.2500     20.7001    -69.4431 100000.0000    100.8198
  1481.5000     18.2655    -79.4679      1.5159    112.0172
  1481.7500     14.1367    -89.9256      0.2959    125.5040
  1482.0000     11.6166   -107.3061      0.1174    144.6320
  1482.2500      7.8905   -124.1752      0.0970    147.2291
  1482.5000      6.1086   -140.5481      0.2009    155.0219
  1482.7500      3.1073   -154.5980      0.5216    157.1815
  1483.0000      2.1792   -170.7805      1.1572    147.7722
  1483.2500      2.2532   -193.5398      1.0633    130.9872
  1483.5000      2.2563   -216.1613      0.7183    100.5165
  1483.7500      2.4272   -245.7325      0.7342     78.4417
  1484.0000      2.5889   -261.8675      0.9460     47.8447
  1484.2500      2.6298   -280.9460      0.7308     41.8335
  1484.5000      2.5748   -287.7154      0.3875     39.1698
  1484.7500      1.9560   -290.1360      0.4345     32.2587
  1485.0000      1.4807   -283.6975      3.3826     34.4603
  1485.2500      1.2342   -271.2486 100000.0000     39.5340
  1485.5000      1.0962   -257.4534 100000.0000     50.8529
  1485.7500      1.2387   -237.3116 100000.0000     57.5510
