~Version Information
 VERS.                                  2.0 : CWLS LAS VERSION
 WRAP.                                   NO : WRAPING MODE
 SWARE .                 MController 2.5.0J : SOFTWARE VERSION
~Well Information
 WELL.                           Furu 6-23R : WELL
 COMP.                Petrogulf Corporation : COMPANY
 FLD.                       Purgatory River : FIELD
 LOC.                  NE/SW Sec6 T33S R67W : LOCATION
 DATE.                    6/19/06 - 6/21/06 : DATE(S) LOGGED
 SRVC.      Blanco Geological Services, LLC : SERVICE COMPANY
 STAT.                             Colorado : STATE
 CNTY.                           Las Animas : COUNTY
 CTRY.                                  USA : COUNTRY
 API.                       05-071-08266-00 : API NUMBER
 STRT.FT                             566.00 : START DEPTH
 STOP.FT                            2205.00 : STOP DEPTH
 STEP.FT                               1.00 : DEPTH INCREMENT
 NULL.                                -9999 : NULL VALUE
~Curve information
 DEPTH.FT                                   :
 ROP.MIN/FT                                 :
 GAS.UNITS                                  :
~ASCII Log data
# ...
       766.0         0.82          2.8 
       767.0         0.73          2.8 
       768.0         0.70          3.0 
       769.0         0.27          2.8 
       770.0         0.27          2.4 
       771.0         0.83          3.0 
       772.0         0.72          2.5 
       773.0         0.50          2.5 
       774.0         0.43          2.4 
       775.0         0.53          2.3 
       776.0         4.35        466.2 
       777.0         0.50        833.9 
       778.0         0.72        534.0 
       779.0         1.47         72.2 
       780.0         1.07          0.3 
       781.0         0.65          0.1 
       782.0         0.73          0.2 
       783.0         0.77          2.7 
       784.0         0.63          2.7 
       785.0         0.67          2.6 
       786.0         0.72          2.8 
       787.0         0.63          2.7 
       788.0         0.63          2.7 
       789.0         0.90          3.0 
       790.0         0.78          3.0 
       791.0         0.47          3.2 
       792.0         0.63          3.2 
       793.0         0.63          3.1 
       794.0         0.80          2.9 
       795.0         0.75          3.5 
       796.0         0.60          3.5 
       797.0         0.70          3.5 
       798.0         0.70          3.2 
       799.0         0.80          3.1 
       800.0         0.65          3.5 
       801.0         0.43          3.4 
       802.0         0.77          3.8 
       803.0         0.80          3.9 
       804.0         0.57          3.5 
       805.0         0.30          3.7 
       806.0         4.20        903.4 
       807.0         0.83        440.0 
       808.0         0.93         22.1 
       809.0         0.77          2.2 
       810.0         0.85          1.7 
       811.0         1.03          2.0 
       812.0         0.90          2.4 
       813.0         0.68          2.4 
       814.0         0.77          2.7 
       815.0         1.13          2.8 
       816.0         0.77          2.8 
       817.0         0.92          3.0 
       818.0         0.57          2.8 
       819.0         0.67          3.1 
       820.0         0.80          3.2 
       821.0         0.67          2.9 
       822.0         0.68          3.2 
       823.0         0.57          3.2 
       824.0         0.53          3.2 
       825.0         0.43          3.2 
       826.0         0.43          2.8 
       827.0         0.33          3.0 
       828.0         0.33          2.8 
       829.0         0.37          3.4 
       830.0         0.32          3.5 
       831.0         0.27          3.4 
       832.0         0.30          3.6 
       833.0         0.33          3.4 
       834.0         0.27          3.6 
       835.0         0.40          3.0 
       836.0         5.43       5738.4 
       837.0         0.27        440.0 
       838.0         0.20         99.2 
       839.0         0.30         69.9 
       840.0         0.27         30.4 
       841.0         0.27         18.7 
       842.0         0.33         10.6 
       843.0         0.37          4.7 
       844.0         0.43          2.9 
       845.0         0.38         14.7 
       846.0         0.30         49.9 
       847.0         0.33         89.7 
       848.0         0.37         98.8 
       849.0         0.37         95.4 
       850.0         0.30         85.3 
       851.0         0.33         57.8 
       852.0         0.33         30.0 
       853.0         0.37         14.4 
       854.0         0.37          7.1 
       855.0         0.38          2.9 
       856.0         0.33          1.3 
       857.0         0.40          1.2 
       858.0         0.40          1.4 
       859.0         0.37          1.9 
       860.0         0.37          2.0 
       861.0         0.33          2.1 
       862.0         0.37          1.8 
       863.0         0.37          2.3 
       864.0         0.45          2.0 
       865.0         0.40          2.2 
       866.0         4.75       1474.1 
       867.0         0.83         11.1 
       868.0         0.65         85.6 
       869.0         0.43        257.4 
       870.0         0.33        329.6 
       871.0         0.20        333.0 
       872.0         0.30        320.9 
       873.0         0.23        281.4 
       874.0         0.20        173.7 
       875.0         0.17        125.3 
       876.0         0.20         80.8 
       877.0         0.27         68.7 
       878.0         0.33         27.6 
       879.0         0.30         13.1 
       880.0         0.32         21.1 
       881.0         0.33         56.4 
       882.0         0.33        106.5 
       883.0         0.33        118.0 
       884.0         0.33        105.8 
       885.0         0.33         72.6 
       886.0         0.27         38.0 
       887.0         0.33         20.5 
       888.0         0.30          8.0 
       889.0         0.33          4.1 
       890.0         0.30          2.0 
       891.0         0.32          1.2 
       892.0         0.30          1.1 
       893.0         0.37          1.1 
       894.0         0.33          0.4 
       895.0         0.20          0.8 
       896.0         4.92       2655.1 
       897.0         0.48        900.9 
       898.0         0.40        487.3 
       899.0         0.33        448.0 
       900.0         0.37        440.0 
       901.0         0.50        224.0 
       902.0         0.57        220.8 
       903.0         0.70        191.6 
       904.0         0.72        313.4 
       905.0         0.57        391.5 
       906.0         0.47        386.3 
       907.0         0.37        293.0 
       908.0         0.30        146.3 
       909.0         0.30         86.7 
       910.0         0.33         34.0 
       911.0         0.43         13.2 
       912.0         0.62          4.9 
       913.0         0.33          1.5 
       914.0         0.67          1.4 
       915.0         0.77          1.7 
       916.0         0.87          1.9 
       917.0         0.58          2.0 
       918.0         0.33          1.8 
       919.0         0.33          2.1 
       920.0         0.30          2.0 
       921.0         0.40          1.7 
       922.0         0.30          2.3 
       923.0         0.43          2.3 
       924.0         0.37          1.7 
       925.0         0.27          2.1 
       926.0         3.18       1717.8 
       927.0         0.37        796.5 
       928.0         0.38        476.5 
       929.0         0.30        150.8 
       930.0         0.30        106.7 
       931.0         0.23         66.8 
       932.0         0.27         39.1 
       933.0         0.27         22.9 
       934.0         0.43         12.6 
       935.0         0.43          4.1 
       936.0         0.23          2.0 
       937.0         0.20          1.9 
       938.0         0.27          2.0 
       939.0         0.32          2.1 
       940.0         0.33          2.2 
       941.0         0.37          2.1 
       942.0         0.37          2.4 
       943.0         0.33          2.7 
       944.0         0.37          2.7 
       945.0         0.37          2.9 
       946.0         0.37          3.1 
       947.0         0.37          3.1 
       948.0         0.35          2.9 
       949.0         0.37          2.9 
       950.0         0.40          3.2 
       951.0         0.33          3.0 
       952.0         0.30          2.7 
       953.0         0.33          3.0 
       954.0         0.37          3.2 
       955.0         0.27          2.8 
       956.0         6.57       5846.0 
       957.0         0.27       3088.0 
       958.0         0.40       1630.9 
       959.0         0.72        640.3 
       960.0         0.63         67.1 
       961.0         0.40         18.2 
       962.0         0.30          9.9 
       963.0         0.33          6.3 
       964.0         0.40          5.0 
       965.0         0.40         15.2 
