~Version Information
 VERS.                                  2.0 : CWLS LAS VERSION
 WRAP.                                   NO : WRAPING MODE
 SWARE .                 MController 2.5.0J : SOFTWARE VERSION
~Well Information
 WELL.                      Robinson 15-11R : WELL
 COMP.                       Petrogulf Corp : COMPANY
 FLD.                      Purgatoire River : FIELD
 LOC.                NW/NW Sec 15 T33S R67W : LOCATION
 DATE.                             11/06/04 : DATE(S) LOGGED
 SRVC.       Blanco Geological Services LLC : SERVICE COMPANY
 STAT.                                   CO : STATE
 CNTY.                           Las Animas : COUNTY
 CTRY.                                  USA : COUNTRY
 API.                       05-071-08029-00 : API NUMBER
 STRT.FT                             571.00 : START DEPTH
 STOP.FT                            1521.00 : STOP DEPTH
 STEP.FT                               1.00 : DEPTH INCREMENT
 NULL.                                -9999 : NULL VALUE
~Curve information
 DEPTH.FT                                   :
 ROP.MIN/FT                                 :
 GAS.UNITS                                  :
~ASCII Log data
       571.0     -9999.00          5.1 
       572.0         2.15          6.7 
       573.0         0.13          6.4 
       574.0         0.13          6.0 
       575.0         0.10          5.5 
       576.0         0.13          5.1 
       577.0         0.10          4.4 
       578.0         0.10          4.6 
       579.0         0.27          4.5 
       580.0         0.23          5.0 
       581.0         0.30          5.7 
       582.0         0.23          5.7 
       583.0         0.23          4.6 
       584.0         0.17          5.7 
       585.0         0.13          5.4 
       586.0         0.30          6.9 
       587.0         0.13          7.4 
       588.0         0.10          6.7 
       589.0         0.13          7.1 
       590.0         0.10          6.2 
       591.0         0.13          5.8 
       592.0         0.07          6.2 
       593.0         0.38          5.3 
       594.0         0.17          4.9 
       595.0         0.23          4.3 
       596.0         0.20          4.6 
       597.0         0.23          5.6 
       598.0         0.23          6.6 
       599.0         0.23          7.3 
       600.0         0.20          6.9 
       601.0         0.27          6.5 
       602.0         0.27          5.9 
       603.0         0.27          4.5 
       604.0         0.23          4.2 
       605.0         0.23          5.0 
       606.0         0.27          5.6 
       607.0         0.03          5.4 
       608.0         0.27          4.7 
       609.0         0.23          4.5 
       610.0         0.23          4.0 
       611.0         0.23          4.5 
       612.0         0.20          4.3 
       613.0         0.17          4.8 
       614.0         0.20          5.4 
       615.0         0.23          6.1 
       616.0         0.20          6.6 
       617.0         0.23          6.1 
       618.0         0.20          4.8 
       619.0         0.20          4.2 
       620.0         0.20          4.5 
       621.0         0.23          5.1 
       622.0         0.23          5.6 
       623.0         0.28          6.9 
       624.0         0.25          7.8 
       625.0         0.17          7.9 
       626.0         0.17          6.7 
       627.0         0.13          6.4 
       628.0         0.17          6.9 
       629.0         0.13          7.0 
       630.0         0.17          7.8 
       631.0         0.17          7.1 
       632.0         0.13          7.2 
       633.0         0.13          6.8 
       634.0         0.13          6.7 
       635.0         0.13          6.1 
       636.0         0.17          6.1 
       637.0         0.23          5.4 
       638.0         0.13          5.4 
       639.0         0.20          5.1 
       640.0         0.17          5.8 
       641.0         0.17          6.6 
       642.0         0.13          7.4 
       643.0         0.27          5.9 
       644.0         0.27          6.6 
       645.0         0.23          6.1 
       646.0         0.20          6.1 
       647.0         0.17          6.3 
       648.0         0.23          5.7 
       649.0         0.17          4.6 
       650.0         0.17          5.3 
       651.0         0.22          5.4 
       652.0         0.13          5.1 
       653.0         0.13          6.0 
       654.0         0.13          7.0 
       655.0         0.17          7.9 
       656.0         0.17          7.8 
       657.0         0.13          7.6 
       658.0         0.13          7.6 
       659.0         0.13          8.2 
       660.0         0.13          8.3 
       661.0         0.17          8.3 
       662.0         0.17          8.6 
       663.0         0.13          8.2 
       664.0         0.17          8.1 
       665.0         0.17          7.1 
       666.0         0.13          7.1 
       667.0         0.13          6.1 
       668.0         0.17          6.7 
       669.0         0.13          7.1 
       670.0         0.17          7.5 
       671.0         0.13          8.4 
       672.0         0.17          7.8 
       673.0         0.17          8.1 
       674.0         0.42          5.4 
       675.0         0.40          6.0 
       676.0         0.30          6.3 
       677.0         0.27          6.1 
       678.0         0.23          5.9 
       679.0         0.37          5.9 
       680.0         0.37          7.3 
       681.0         0.43          6.2 
       682.0         0.33          5.4 
       683.0         0.32          5.6 
       684.0         0.33          5.4 
       685.0         0.33          6.3 
       686.0         0.27          6.1 
       687.0         0.13          6.7 
       688.0         0.10          6.6 
       689.0         0.13          6.6 
       690.0         0.10          7.0 
       691.0         0.13          6.2 
       692.0         0.13          6.3 
       693.0         0.13          6.1 
       694.0         0.17          5.7 
       695.0         0.17          6.0 
       696.0         0.17          6.0 
       697.0         0.17          6.9 
       698.0         0.20          7.4 
       699.0         0.17          7.1 
       700.0         0.20          7.4 
       701.0         0.20          7.1 
       702.0         0.18          6.2 
       703.0         0.17          6.1 
       704.0         0.17          5.7 
       705.0         0.17          5.7 
       706.0         0.20          6.7 
       707.0         0.17          7.4 
       708.0         0.13          7.8 
       709.0         0.27          7.8 
       710.0         0.28          7.6 
       711.0         0.23          7.4 
       712.0         0.20          7.2 
       713.0         0.20          6.9 
       714.0         0.23          7.5 
       715.0         0.20          7.4 
       716.0         0.20          7.8 
       717.0         0.20          7.9 
       718.0         0.13          8.2 
       719.0         0.17          7.7 
       720.0         0.13          6.5 
       721.0         0.13          6.5 
       722.0         0.17          6.4 
       723.0         0.20          6.4 
       724.0         0.20          6.6 
       725.0         0.17          6.9 
       726.0         0.17          7.3 
       727.0         0.22          7.9 
       728.0         0.17          8.1 
       729.0         0.17          7.6 
       730.0         0.13          7.4 
       731.0         0.17          6.9 
       732.0         0.20          6.5 
       733.0         0.20          7.4 
       734.0         0.17          8.3 
       735.0         0.17          8.0 
       736.0         0.17          8.0 
       737.0         0.20          7.4 
       738.0         0.07          7.2 
       739.0         0.27          6.9 
       740.0         0.33          6.6 
       741.0         0.27          6.9 
       742.0         0.23          7.9 
       743.0         0.23          7.8 
       744.0         0.23          7.8 
       745.0         0.27          8.3 
       746.0         0.17          9.3 
       747.0         0.17          8.6 
       748.0         0.17          8.5 
       749.0         0.17          9.1 
       750.0         0.17          8.6 
       751.0         0.13          9.0 
       752.0         0.20          8.9 
       753.0         0.28          9.7 
       754.0         0.30         11.6 
       755.0         0.30         10.1 
       756.0         0.20          8.8 
       757.0         0.20          8.2 
       758.0         0.17          8.5 
       759.0         0.13          8.0 
       760.0         0.13          8.5 
       761.0         0.13          7.7 
       762.0         0.13          8.1 
       763.0         0.17          8.9 
       764.0         0.20          9.0 
       765.0         0.17          9.3 
       766.0         0.13          9.6 
       767.0         0.17          8.8 
       768.0         0.27          5.9 
       769.0         0.13          6.2 
       770.0         0.13          6.1 
