~Version Information
VERS.                      2.0: CWLS Log ASCII Standard - VERSION 2.0
WRAP.                       NO: One line per depth step
~Well Information Block
STRT.FT               298.0000: 
STOP.FT              1302.0000: 
STEP.FT                 0.1000: 
NULL.                -999.2500: 
COMP.          Pioneer Natural Resources: COMPANY
WELL.          Bouncer 41-27 Tr: WELL
FLD.           Purgatoire River: FIELD
LOC.           292' FNL & 222' FEL: LOCATION
PROV.                 Colorado: PROVINCE
CNTY.               Las Animas: COUNTRY
SRVC.                Patterson: SERVICE COMPANY
DATE.          Mon Feb 07 12:55:19 2005: LOG DATE
UWI.           05 071 08291 00: UNIQUE WELL ID
~Curve Information Block
DEPT.FT            0 000 00 00: Depth
DCAL.in                       : CDL Caliper
RHOB.g/cc                     : CDL Bulk Density
RHOC.g/cc                     : CDL Density Correction
DPOR.pu                       : CDL Density Porosity
GR.GAPI                       : Gamma Ray
NPOR.pu                       : Neutron Porosity
~Parameter Information Block
~A  Depth       DCAL        RHOB        RHOC        DPOR         GR         NPOR    
# ...
   826.0000      7.9366      2.5784      0.0136      4.3408    149.1556     28.6823
   826.1000      7.9366      2.5803      0.0888      4.2217    147.5570     28.3662
   826.2000      7.9366      2.5981      0.0812      3.1453    146.9417     27.7385
   826.3000      7.9346      2.6015      0.0912      2.9418    152.7346     27.2773
   826.4000      7.9346      2.5801      0.0699      4.2373    157.6596     27.3693
   826.5000      7.9416      2.5487      0.0331      6.1365    157.5363     27.8275
   826.6000      7.9416      2.5251      0.0347      7.5696    155.5675     28.3317
   826.7000      7.9416      2.5145      0.0445      8.2134    153.8288     28.6519
   826.8000      7.9398      2.5127      0.0214      8.3237    152.0205     28.6466
   826.9000      7.9398      2.5145      0.0557      8.2111    150.6978     28.5014
   827.0000      7.9485      2.5267      0.0064      7.4719    150.7880     28.4577
   827.1000      7.9485      2.5493      0.1066      6.1031    150.2213     28.5999
   827.2000      7.9485      2.5611      0.0485      5.3908    146.6231     28.9271
   827.3000      7.9455      2.5636      0.0723      5.2356    142.6209     29.3303
   827.4000      7.9455      2.5781      0.0676      4.3603    142.4154     29.7939
   827.5000      7.9381      2.5995      0.1271      3.0585    145.3788     30.1198
   827.6000      7.9381      2.6043      0.0883      2.7705    148.5484     30.0524
   827.7000      7.9381      2.5900      0.0693      3.6362    149.4228     29.8794
   827.8000      7.9429      2.5733      0.0738      4.6474    147.6871     29.8031
   827.9000      7.9429      2.5614      0.0599      5.3726    147.0843     29.7310
   828.0000      7.9359      2.5505      0.0720      6.0319    147.9834     29.7455
   828.1000      7.9359      2.5403     -0.0026      6.6489    146.9498     29.6998
   828.2000      7.9359      2.5375     -0.0123      6.8191    142.0688     29.3470
   828.3000      7.9387      2.5461      0.0380      6.2956    136.1201     28.8986
   828.4000      7.9387      2.5598      0.0253      5.4659    133.0957     28.8143
   828.5000      7.9440      2.5631      0.0713      5.2680    133.9176     29.1380
   828.6000      7.9440      2.5461      0.0785      6.2942    139.0620     29.5402
   828.7000      7.9440      2.5195      0.0729      7.9112    148.1035     29.6318
   828.8000      7.9431      2.5030      0.0152      8.9098    156.2184     29.4299
   828.9000      7.9431      2.4993      0.0328      9.1339    158.8200     29.2430
   829.0000      7.9479      2.4961      0.0161      9.3264    156.6999     29.0466
   829.1000      7.9479      2.4957      0.0165      9.3486    151.8141     28.8136
   829.2000      7.9479      2.5075      0.0146      8.6361    146.9356     28.9082
   829.3000      7.9455      2.5270      0.0480      7.4516    149.5732     29.2540
   829.4000      7.9455      2.5452      0.0421      6.3507    160.1328     29.1300
   829.5000      7.9493      2.5663      0.0349      5.0720    166.3750     28.5026
   829.6000      7.9493      2.5956      0.0693      3.2954    163.0391     28.1081
   829.7000      7.9493      2.6163      0.0870      2.0450    158.4001     28.3004
   829.8000      7.9475      2.6087      0.0721      2.5006    157.6247     28.7293
   829.9000      7.9475      2.5789      0.0624      4.3101    158.2849     29.0442
   830.0000      7.9475      2.5476      0.0322      6.2068    156.7011     29.2566
   830.1000      7.9475      2.5330      0.0549      7.0914    150.2437     29.2560
   830.2000      7.9475      2.5421      0.0343      6.5395    142.0530     29.0603
   830.3000      7.9343      2.5709      0.0558      4.7937    137.3349     29.1144
   830.4000      7.9343      2.6038      0.0924      2.8021    138.0329     29.3236
   830.5000      7.9371      2.6206      0.0682      1.7790    142.0633     29.0953
   830.6000      7.9371      2.6120      0.0723      2.3046    144.9389     28.4038
   830.7000      7.9371      2.5857      0.0086      3.8964    146.4728     27.6827
   830.8000      7.9530      2.5611      0.0277      5.3905    149.5419     27.2516
   830.9000      7.9530      2.5462      0.0049      6.2895    151.6440     27.0831
   831.0000      7.9633      2.5407      0.0107      6.6236    149.7207     26.9144
   831.1000      7.9633      2.5418      0.0467      6.5596    144.3772     26.7718
   831.2000      7.9633      2.5454      0.0370      6.3415    138.6715     26.9082
   831.3000      7.9673      2.5508      0.0785      6.0140    137.4716     27.1477
   831.4000      7.9673      2.5504      0.0658      6.0343    142.4059     27.0225
   831.5000      7.9617      2.5363      0.0195      6.8907    150.2651     26.4456
   831.6000      7.9617      2.5151      0.0292      8.1761    157.3879     25.4840
   831.7000      7.9617      2.4896      0.0220      9.7222    161.2711     24.1672
   831.8000      7.9592      2.4501      0.0240     12.1174    161.2448     22.8785
   831.9000      7.9592      2.3997     -0.0228     15.1672    159.2060     22.0300
   832.0000      7.9582      2.3514      0.0158     18.0973    156.2143     21.6817
   832.1000      7.9582      2.3059     -0.0084     20.8555    154.0805     21.8561
   832.2000      7.9582      2.2626     -0.0535     23.4770    153.0851     22.6146
   832.3000      7.9950      2.2250     -0.0161     25.7581    150.8971     23.6669
   832.4000      7.9950      2.1946     -0.0159     27.6004    150.5013     24.4965
   832.5000      8.0509      2.1794     -0.0316     28.5217    153.4166     24.8483
   832.6000      8.0509      2.1879     -0.0124     28.0043    150.7946     24.9996
   832.7000      8.0509      2.2136      0.0649     26.4465    139.9781     25.2247
   832.8000      8.0696      2.2481      0.0935     24.3572    132.2926     25.5013
   832.9000      8.0696      2.2982      0.1425     21.3230    132.1377     25.6346
   833.0000      8.0907      2.3667      0.2137     17.1716    133.0757     25.5004
   833.1000      8.0907      2.4334      0.1946     13.1287    131.1546     25.4954
   833.2000      8.0907      2.4732      0.1687     10.7161    128.9452     26.1137
   833.3000      7.9981      2.4836      0.0598     10.0866    130.3825     27.0598
   833.4000      7.9981      2.4781      0.0947     10.4172    133.6415     27.8195
   833.5000      7.9227      2.4733      0.0101     10.7082    137.0540     28.2525
   833.6000      7.9227      2.4886      0.0092      9.7843    139.8212     28.4140
   833.7000      7.9227      2.5297      0.0375      7.2881    143.3476     28.6935
   833.8000      7.9145      2.5770      0.0944      4.4217    148.5026     29.2276
   833.9000      7.9145      2.6025      0.1269      2.8804    151.3324     29.6394
   834.0000      7.9229      2.5940      0.0714      3.3947    151.9121     29.6449
   834.1000      7.9229      2.5599      0.0925      5.4636    153.0127     29.3583
   834.2000      7.9229      2.5234      0.0126      7.6741    153.1051     28.9451
   834.3000      7.9151      2.5066     -0.0193      8.6899    148.6802     28.2846
   834.4000      7.9151      2.5008      0.0411      9.0416    141.6680     27.6510
   834.5000      7.9116      2.4902     -0.0409      9.6849    136.3657     27.5973
   834.6000      7.9116      2.4871     -0.0046      9.8737    131.4083     27.9147
   834.7000      7.9116      2.4969      0.0279      9.2773    126.5537     27.9290
   834.8000      7.9117      2.5057      0.0114      8.7474    126.8042     27.6501
   834.9000      7.9117      2.5037      0.0642      8.8680    131.2669     27.4873
   835.0000      7.9116      2.5014     -0.0313      9.0067    131.9044     27.2805
   835.1000      7.9116      2.5144      0.0242      8.2155    124.7452     26.6944
   835.2000      7.9116      2.5251      0.0860      7.5726    114.3979     26.1784
   835.3000      7.9150      2.5179      0.0047      8.0049    105.9439     26.1001
   835.4000      7.9150      2.5149      0.0324      8.1902    101.7866     26.1130
   835.5000      7.8964      2.5250      0.0773      7.5731    105.0890     26.1693
