~Version Information
VERS.                      2.0: CWLS Log ASCII Standard - VERSION 2.0
WRAP.                       NO: One line per depth step
~Well Information Block
STRT.FT               550.0000: 
STOP.FT              1577.7500: 
STEP.FT                 0.2500: 
NULL.                -999.2500: 
COMP.          Pioneer Natural Resources: COMPANY
WELL.          Kristin 22-23 Tr: WELL
FLD.           Purgatoire River: FIELD
LOC.           2273' FNL & 2029' FWL: LOCATION
PROV.                 Colorado: PROVINCE
CNTY.               Las Animas: COUNTRY
SRVC.                Patterson: SERVICE COMPANY
DATE.          Thu Jan 20 21:18:23 2005: LOG DATE
UWI.           05 071 08259 00: UNIQUE WELL ID
~Curve Information Block
DEPT.FT            0 000 00 00: Depth
SN.Ohm-m                      : IEL Short Normal
SP.mV                         : IEL Spontaneous Potential
DIR.Ohm-m                     : IEL Induction Resistivity
GR.GAPI                       : Gamma Ray
~Parameter Information Block
~A  Depth        SN          SP         DIR          GR     
# ...
  1220.0000     18.5203   -138.6587     18.9655     87.2712
  1220.2500     18.6486   -138.7713     18.9727     89.7771
  1220.5000     18.8153   -138.9209     18.9806     91.0286
  1220.7500     19.0173   -139.1000     19.0016     89.5775
  1221.0000     19.2464   -139.2923     19.0568     84.9295
  1221.2500     19.4910   -139.4729     19.1662     81.4808
  1221.5000     19.7347   -139.6132     19.3369     77.5406
  1221.7500     19.9596   -139.6863     19.5548     75.8991
  1222.0000     20.1536   -139.6732     19.7841     74.1926
  1222.2500     20.3126   -139.5669     19.9772     73.2649
  1222.5000     20.4334   -139.3745     20.0921     72.6311
  1222.7500     20.5065   -139.1152     20.1103     73.2669
  1223.0000     20.5198   -138.8156     20.0432     76.1319
  1223.2500     20.4698   -138.5031     19.9238     78.7845
  1223.5000     20.3656   -138.1996     19.7891     82.1798
  1223.7500     20.2206   -137.9189     19.6645     83.2231
  1224.0000     20.0424   -137.6669     19.5541     82.6485
  1224.2500     19.8313   -137.4451     19.4422     81.3051
  1224.5000     19.5860   -137.2538     19.3047     79.1515
  1224.7500     19.3116   -137.0933     19.1250     78.2666
  1225.0000     19.0256   -136.9616     18.9052     78.1695
  1225.2500     18.7575   -136.8520     18.6664     78.7114
  1225.5000     18.5389   -136.7513     18.4408     79.5670
  1225.7500     18.3871   -136.6426     18.2590     79.6429
  1226.0000     18.2948   -136.5118     18.1380     78.6163
  1226.2500     18.2348   -136.3543     18.0739     77.3577
  1226.5000     18.1751   -136.1785     18.0449     75.4095
  1226.7500     18.0919   -136.0038     18.0220     74.5231
  1227.0000     17.9770   -135.8539     17.9838     74.0660
  1227.2500     17.8423   -135.7496     17.9221     74.1615
  1227.5000     17.7211   -135.7035     17.8377     74.4769
  1227.7500     17.6558   -135.7192     17.7361     74.6899
  1228.0000     17.6712   -135.7936     17.6297     74.8786
  1228.2500     17.7547   -135.9189     17.5432     74.7407
  1228.5000     17.8675   -136.0833     17.5098     73.9485
  1228.7500     17.9786   -136.2704     17.5552     73.2259
  1229.0000     18.0844   -136.4593     17.6816     72.4420
  1229.2500     18.1937   -136.6263     17.8648     72.2113
  1229.5000     18.3050   -136.7492     18.0660     71.9916
  1229.7500     18.4063   -136.8109     18.2485     71.9270
  1230.0000     18.4919   -136.8029     18.3888     72.5898
  1230.2500     18.5703   -136.7248     18.4777     73.7657
  1230.5000     18.6545   -136.5822     18.5185     75.8862
  1230.7500     18.7453   -136.3845     18.5224     76.7982
  1231.0000     18.8286   -136.1413     18.5054     77.0114
  1231.2500     18.8883   -135.8619     18.4811     76.7832
  1231.5000     18.9195   -135.5560     18.4529     76.6804
  1231.7500     18.9278   -135.2354     18.4105     76.9286
  1232.0000     18.9195   -134.9162     18.3353     77.7790
  1232.2500     18.8963   -134.6191     18.2150     78.6903
  1232.5000     18.8603   -134.3678     18.0589     80.4461
  1232.7500     18.8262   -134.1856     17.9027     81.5295
  1233.0000     18.8284   -134.0908     17.7985     82.2102
  1233.2500     18.9095   -134.0943     17.7928     81.7750
  1233.5000     19.0964   -134.1977     17.9042     80.0412
  1233.7500     19.3851   -134.3950     18.1151     78.5561
  1234.0000     19.7464   -134.6730     18.3835     76.4446
  1234.2500     20.1460   -135.0133     18.6676     75.3350
  1234.5000     20.5580   -135.3927     18.9465     74.3354
  1234.7500     20.9666   -135.7858     19.2229     74.1868
  1235.0000     21.3605   -136.1687     19.5081     74.8364
  1235.2500     21.7303   -136.5227     19.8042     75.8927
  1235.5000     22.0760   -136.8373     20.0962     78.2790
  1235.7500     22.4159   -137.1104     20.3587     80.0788
  1236.0000     22.7807   -137.3455     20.5705     82.1718
  1236.2500     23.1914   -137.5492     20.7255     82.6871
  1236.5000     23.6405   -137.7283     20.8318     81.8787
  1236.7500     24.0964   -137.8883     20.9078     80.4472
  1237.0000     24.5220   -138.0331     20.9837     77.5250
  1237.2500     24.8923   -138.1644     21.1020     75.5196
  1237.5000     25.2014   -138.2816     21.3045     73.3841
  1237.7500     25.4571   -138.3815     21.6086     72.9652
  1238.0000     25.6712   -138.4569     21.9900     73.8065
  1238.2500     25.8529   -138.4977     22.3919     74.8920
  1238.5000     26.0083   -138.4922     22.7535     76.2558
  1238.7500     26.1407   -138.4323     23.0326     76.4236
  1239.0000     26.2506   -138.3189     23.2078     75.0675
  1239.2500     26.3372   -138.1670     23.2656     73.3535
  1239.5000     26.4034   -138.0070     23.1977     70.9054
  1239.7500     26.4585   -137.8819     23.0139     70.0482
  1240.0000     26.5162   -137.8396     22.7558     69.8541
  1240.2500     26.5892   -137.9238     22.4898     69.8149
  1240.5000     26.6827   -138.1635     22.2771     69.0341
  1240.7500     26.7925   -138.5626     22.1444     68.0454
  1241.0000     26.9027   -139.0895     22.0712     66.3135
  1241.2500     26.9800   -139.6708     22.0017     65.1346
  1241.5000     26.9671   -140.1923     21.8679     63.2719
  1241.7500     26.7829   -140.5131     21.6100     61.9406
  1242.0000     26.3349   -140.4942     21.1852     60.0513
  1242.2500     25.5418   -140.0329     20.5687     59.1781
  1242.5000     24.3669   -139.0912     19.7554     59.1574
  1242.7500     22.8540   -137.7048     18.7678     60.5064
  1243.0000     21.1377   -135.9681     17.6604     65.8415
  1243.2500     19.3985   -134.0040     16.5081     72.6099
  1243.5000     17.7804   -131.9328     15.3817     88.7829
  1243.7500     16.3365   -129.8532     14.3249    103.0844
  1244.0000     15.0443   -127.8399     13.3501    126.3745
  1244.2500     13.8640   -125.9492     12.4517    140.5182
  1244.5000     12.7806   -124.2259     11.6240    156.7858
  1244.7500     11.8067   -122.7037     10.8699    164.1848
  1245.0000     10.9643   -121.4012     10.1973    171.2932
  1245.2500     10.2703   -120.3163      9.6126    173.9775
  1245.5000      9.7229   -119.4266      9.1165    175.6629
  1245.7500      9.2932   -118.6951      8.7049    175.9362
  1246.0000      8.9341   -118.0803      8.3710    176.4422
  1246.2500      8.6067   -117.5455      8.1055    177.0116
  1246.5000      8.2995   -117.0655      7.8972    177.4594
  1246.7500      8.0218   -116.6275      7.7344    177.3747
  1247.0000      7.7868   -116.2273      7.6068    177.7373
  1247.2500      7.6028   -115.8651      7.5077    178.9077
  1247.5000      7.4729   -115.5414      7.4338    181.8450
  1247.7500      7.3949   -115.2554      7.3833    183.8524
  1248.0000      7.3618   -115.0063      7.3535    185.0817
  1248.2500      7.3659   -114.7948      7.3409    183.5542
  1248.5000      7.4047   -114.6260      7.3432    177.0367
  1248.7500      7.4850   -114.5098      7.3624    170.8629
  1249.0000      7.6222   -114.4600      7.4060    162.0039
  1249.2500      7.8330   -114.4909      7.4862    157.8213
  1249.5000      8.1247   -114.6134      7.6178    154.9110
  1249.7500      8.4917   -114.8332      7.8145    154.8984
  1250.0000      8.9197   -115.1510      8.0867    156.3758
  1250.2500      9.3941   -115.5665      8.4391    157.0951
  1250.5000      9.9064   -116.0818      8.8701    155.4890
  1250.7500     10.4565   -116.7013      9.3733    151.8255
  1251.0000     11.0559   -117.4281      9.9418    142.4036
  1251.2500     11.7336   -118.2571     10.5739    134.0119
  1251.5000     12.5379   -119.1707     11.2758    119.6371
  1251.7500     13.5238   -120.1392     12.0582    110.0173
  1252.0000     14.7198   -121.1291     12.9281     97.9136
  1252.2500     16.0956   -122.1133     13.8782     92.4862
  1252.5000     17.5555   -123.0789     14.8784     88.6228
  1252.7500     18.9707   -124.0279     15.8767     88.1821
  1253.0000     20.2286   -124.9690     16.8096     89.1025
  1253.2500     21.2691   -125.9055     17.6209     90.1899
