~Version Information
VERS.                      2.0: CWLS Log ASCII Standard - VERSION 2.0
WRAP.                       NO: One line per depth step
~Well Information Block
STRT.FT               375.0000: 
STOP.FT              2795.7000: 
STEP.FT                 0.1000: 
NULL.                -999.2500: 
COMP.          Pioneer Natural Resources: COMPANY
WELL.              Getem 21-23: WELL
FLD.           Purgatoire River: FIELD
LOC.           2623' FWL & 790' FNL--: LOCATION
PROV.                 Colorado: PROVINCE
CNTY.               Las Animas: COUNTRY
SRVC.                Patterson: SERVICE COMPANY
DATE.          Mon Jun 20 07:26:21 2005: LOG DATE
UWI.           05 071 08411 00: UNIQUE WELL ID
~Curve Information Block
DEPT.FT            0 000 00 00: Depth
DCAL.in                       : CDL Caliper
RHOB.g/cc                     : CDL Bulk Density
RHOC.g/cc                     : CDL Density Correction
DPOR.pu                       : CDL Density Porosity
NPOR.pu                       : Neutron Porosity
GR.GAPI                       : Gamma Ray
~Parameter Information Block
~A  Depth       DCAL        RHOB        RHOC        DPOR        NPOR         GR     
# ...
  1171.8000      8.0363      2.4697      0.0305     10.9252     30.3660    143.5822
  1171.9000      8.0363      2.3996     -0.0396     15.1764     29.4943    143.6759
  1172.0000      8.0180      2.3322     -0.0158     19.2585     28.5247    136.4566
  1172.1000      8.0180      2.2657     -0.0988     23.2890     27.7849    130.3456
  1172.2000      8.0180      2.2181     -0.0566     26.1773     26.9868    130.2297
  1172.3000      8.0094      2.2096     -0.0411     26.6894     25.6052    134.0099
  1172.4000      8.0094      2.2477      0.0024     24.3802     24.3353    138.7206
  1172.5000      8.0038      2.3309      0.0917     19.3368     24.0803    143.0093
  1172.6000      8.0038      2.4351      0.2897     13.0220     24.1921    144.3958
  1172.7000      8.0038      2.5198      0.3793      7.8917     23.6355    141.9937
  1172.8000      7.9895      2.5793      0.3872      4.2874     22.9207    138.5363
  1172.9000      7.9895      2.6394      0.4257      0.6431     23.0450    135.9175
  1173.0000      7.9647      2.6911      0.4746     -2.4924     23.8212    132.1979
  1173.1000      7.9647      2.6960      0.3718     -2.7884     24.6619    125.6371
  1173.2000      7.9647      2.6593      0.1527     -0.5636     25.3601    118.9462
  1173.3000      7.9407      2.6291      0.0692      1.2685     25.7625    112.5263
  1173.4000      7.9407      2.6245      0.1151      1.5460     25.8314    106.2689
  1173.5000      7.9283      2.6181      0.1578      1.9304     25.7996    105.1661
  1173.6000      7.9283      2.5825      0.1322      4.0892     26.0462    112.4530
  1173.7000      7.9283      2.5215      0.1119      7.7891     26.5443    121.3957
  1173.8000      7.9254      2.4676      0.0074     11.0566     27.0847    121.1238
  1173.9000      7.9254      2.4508      0.0411     12.0757     27.7527    111.2908
  1174.0000      7.9251      2.4638      0.0570     11.2872     28.4023    101.6817
  1174.1000      7.9251      2.4864      0.0911      9.9133     28.5044     98.3211
  1174.2000      7.9251      2.5117      0.1172      8.3823     28.0397    100.4582
  1174.3000      7.9235      2.5355      0.1303      6.9401     27.9545    104.4405
  1174.4000      7.9235      2.5564      0.1008      5.6724     28.7937    105.7430
  1174.5000      7.9219      2.5729      0.1713      4.6735     29.6593    102.9766
  1174.6000      7.9219      2.5809      0.1386      4.1872     29.6562     98.2405
  1174.7000      7.9219      2.5923      0.1162      3.4945     29.1256     94.5703
  1174.8000      7.9219      2.6199      0.1648      1.8222     28.7978     92.9684
  1174.9000      7.9219      2.6503      0.1754     -0.0184     28.8639     93.2319
  1175.0000      7.9220      2.6628      0.1495     -0.7750     29.0145     96.2461
  1175.1000      7.9220      2.6539      0.1316     -0.2379     29.2160    101.1510
  1175.2000      7.9220      2.6346      0.1157      0.9342     29.4883    104.7266
  1175.3000      7.9230      2.6187      0.0843      1.8949     29.3882    104.1277
  1175.4000      7.9230      2.6130      0.0972      2.2429     28.9001    101.6972
  1175.5000      7.9256      2.6137      0.0704      2.1986     28.4466    101.3681
  1175.6000      7.9256      2.6109      0.0817      2.3694     28.2121    102.0246
  1175.7000      7.9256      2.5957      0.0822      3.2918     28.1360    101.9081
  1175.8000      7.9309      2.5790      0.0211      4.3046     28.2401    102.2676
  1175.9000      7.9309      2.5802      0.0177      4.2296     28.6012    102.1163
  1176.0000      7.9390      2.5981      0.0728      3.1468     29.0585     99.3908
  1176.1000      7.9390      2.6176      0.0683      1.9638     29.3337     97.7496
  1176.2000      7.9390      2.6242      0.1221      1.5649     29.4422    100.8774
  1176.3000      7.9445      2.6127      0.0714      2.2607     29.5474    106.0583
  1176.4000      7.9445      2.5957      0.0693      3.2897     29.4266    109.6825
  1176.5000      7.9442      2.5813      0.0957      4.1612     28.9417    112.6095
  1176.6000      7.9442      2.5701      0.0648      4.8438     28.5930    112.9681
  1176.7000      7.9442      2.5731      0.0442      4.6607     28.6315    108.6766
  1176.8000      7.9393      2.5913      0.0847      3.5571     28.6764    103.3834
  1176.9000      7.9393      2.6075      0.1291      2.5785     28.3513    101.4969
  1177.0000      7.9339      2.6202      0.0788      1.8073     27.8106    104.9021
  1177.1000      7.9339      2.6433      0.0738      0.4033     27.8836    110.4945
  1177.2000      7.9339      2.6686      0.1442     -1.1270     28.8921    112.4842
  1177.3000      7.9318      2.6731      0.1360     -1.3991     29.9256    112.3162
  1177.4000      7.9318      2.6538      0.0930     -0.2311     30.5185    113.0948
  1177.5000      7.9325      2.6261      0.0542      1.4498     31.1980    113.0422
  1177.6000      7.9325      2.6052      0.0427      2.7164     31.9014    110.7870
  1177.7000      7.9325      2.5955      0.0443      3.3012     32.0510    107.9147
  1177.8000      7.9319      2.5912      0.0472      3.5609     31.9465    110.3500
  1177.9000      7.9319      2.5862      0.0333      3.8675     32.1104    120.7140
  1178.0000      7.9296      2.5769      0.0658      4.4321     32.3294    132.3869
  1178.1000      7.9296      2.5655      0.0560      5.1212     32.3708    138.8410
  1178.2000      7.9296      2.5639      0.0835      5.2192     32.3998    142.1440
  1178.3000      7.9303      2.5792      0.0738      4.2886     32.4534    144.6051
  1178.4000      7.9303      2.6051      0.1031      2.7234     32.4257    143.7546
  1178.5000      7.9341      2.6252      0.1027      1.5018     32.6006    139.0844
  1178.6000      7.9341      2.6265      0.1109      1.4245     32.8800    134.3901
  1178.7000      7.9341      2.6055      0.0910      2.6963     32.6743    134.8856
  1178.8000      7.9385      2.5653      0.0618      5.1353     32.1196    140.2662
  1178.9000      7.9385      2.5158      0.0498      8.1311     31.6223    144.4351
  1179.0000      7.9416      2.4837      0.0459     10.0770     31.0458    143.5036
  1179.1000      7.9416      2.4922      0.0665      9.5621     30.1774    140.0430
  1179.2000      7.9416      2.5157      0.1366      8.1375     29.3232    140.9820
  1179.3000      7.9426      2.5125      0.0809      8.3345     28.9585    146.2970
  1179.4000      7.9426      2.4794      0.0920     10.3366     28.8820    147.8343
  1179.5000      7.9425      2.4209      0.0741     13.8852     28.4256    142.9401
  1179.6000      7.9425      2.3364      0.0498     19.0032     27.3697    137.6735
  1179.7000      7.9425      2.2564      0.0021     23.8575     26.3362    140.4919
  1179.8000      7.9408      2.2286      0.0210     25.5422     25.8636    149.2569
  1179.9000      7.9408      2.2588      0.1420     23.7107     25.5631    151.7290
  1180.0000      7.9383      2.3002      0.1897     21.2026     24.7288    146.5784
  1180.1000      7.9383      2.3116      0.1845     20.5100     23.3935    142.0854
  1180.2000      7.9383      2.2988      0.0989     21.2829     22.2692    142.7828
  1180.3000      7.9357      2.2906      0.1236     21.7834     21.6875    146.0013
  1180.4000      7.9357      2.3023      0.1524     21.0738     21.2074    147.6020
  1180.5000      7.9332      2.3478      0.1579     18.3148     20.7324    145.6852
  1180.6000      7.9332      2.4393      0.2074     12.7708     20.6986    139.0484
  1180.7000      7.9332      2.5472      0.3401      6.2279     21.0542    129.1942
  1180.8000      7.9313      2.6104      0.3405      2.3974     21.6723    121.5477
  1180.9000      7.9313      2.6117      0.2104      2.3189     22.6136    122.4448
  1181.0000      7.9315      2.5935      0.1748      3.4259     23.4434    128.5054
  1181.1000      7.9315      2.5858      0.1845      3.8927     23.8608    129.8374
  1181.2000      7.9315      2.5791      0.1756      4.2985     24.5158    124.3857
  1181.3000      7.9319      2.5675      0.1446      5.0013     25.5364    117.0018
