~Version Information
VERS.                      2.0: CWLS Log ASCII Standard - VERSION 2.0
WRAP.                       NO: One line per depth step
~Well Information Block
STRT.FT               -11.7500: 
STOP.FT              2025.5000: 
STEP.FT                 0.2500: 
NULL.                -999.2500: 
COMP.          Evergreen Operating Corp.: COMPANY
WELL.            Sumatra 34-22: WELL
FLD.           Purgatorie River: FIELD
LOC.           542 FSL & 2438 FEL--: LOCATION
PROV.                       CO: PROVINCE
CNTY.               Las Animas: COUNTRY
SRVC.          Patterson Wireline, Inc.: SERVICE COMPANY
DATE.          Wed Apr 02 10:17:21 2003: LOG DATE
UWI.           05 071 07804 00: UNIQUE WELL ID
~Curve Information Block
DEPT.FT            0 000 00 00: Depth
CCL.                          : Casing Collar Locator
TT3.usec                      : CBL 3' Travel Time
AMP3.mV                       : CBL 3' Amplitude
GR.GAPI                       : Gamma Ray
~Parameter Information Block
~A  Depth       CCL         TT3         AMP3         GR     
# ...
  1596.2500      0.0000    746.9435      2.0938    129.9580
  1596.5000      0.0000    737.7808      2.1427    126.9799
  1596.7500      0.0000    726.0922      2.1951    124.4311
  1597.0000      0.0000    716.3356      2.2310    122.9235
  1597.2500      0.0000    710.6788      2.2739    122.8798
  1597.5000      0.0000    707.3896      2.3185    124.4551
  1597.7500      0.0000    704.5665      2.3545    127.1885
  1598.0000      0.0000    703.0460      2.4011    130.1346
  1598.2500      0.0000    704.0404      2.4558    132.4850
  1598.5000      0.0000    706.2319      2.4816    133.8781
  1598.7500      0.0000    707.9656      2.4562    134.2297
  1599.0000      0.0000    710.1473      2.3964    133.5331
  1599.2500      0.0000    715.5587      2.3399    131.7329
  1599.5000      0.0000    725.8522      2.3045    128.5284
  1599.7500      0.0000    738.5385      2.2794    123.4837
  1600.0000      0.0000    748.5240      2.2600    116.7481
  1600.2500      0.0000    753.4136      2.2318    109.6318
  1600.5000      0.0000    754.7432      2.1517    103.9681
  1600.7500      0.0000    754.8344      2.0182    100.6096
  1601.0000      0.0000    754.8188      1.8913     98.8117
  1601.2500      0.0000    754.8474      1.8368     97.3612
  1601.5000      0.0000    754.7253      1.9273     96.0404
  1601.7500      0.0000    753.9796      2.2100     95.5457
  1602.0000      0.0000    751.1342      2.6059     96.2121
  1602.2500      0.0000    743.2422      2.9455     97.4319
  1602.5000      0.0000    728.7186      3.1380     98.4038
  1602.7500      0.0000    712.6031      3.2128     98.9146
  1603.0000      0.0000    704.9151      3.2370     99.0274
  1603.2500      0.0000    709.6413      3.2610     98.3898
  1603.5000      0.0000    718.3561      3.2843     96.3549
  1603.7500      0.0000    720.0712      3.2609     92.7880
  1604.0000      0.0000    716.1890      3.1627     88.3900
  1604.2500      0.0000    716.3844      3.0051     84.0288
  1604.5000      0.0000    720.4236      2.8298     79.9083
  1604.7500      0.0000    718.0759      2.6811     75.6044
  1605.0000      0.0000    706.5939      2.5823     70.9572
  1605.2500      0.0000    694.1127      2.5284     66.8904
  1605.5000      0.0000    687.3488      2.5020     65.2865
  1605.7500      0.0000    687.3068      2.4779     67.8487
  1606.0000      0.0000    694.5680      2.4130     74.6468
  1606.2500      0.0000    709.7957      2.2684     83.5986
  1606.5000      0.0000    728.5966      2.0742     91.8053
  1606.7500      0.0000    742.2419      1.9218     97.7492
  1607.0000      0.0000    745.1712      1.8544    102.1241
  1607.2500      0.0000    738.6111      1.8384    106.5223
  1607.5000      0.0000    729.0601      1.8413    111.5250
  1607.7500      0.0000    724.5168      1.8797    116.2270
  1608.0000      0.0000    727.9278      2.0179    119.5718
  1608.2500      0.0000    733.5719      2.3138    121.8871
  1608.5000      0.0000    733.1715      2.7151    124.8390
  1608.7500      0.0000    725.6426      3.0561    129.9054
  1609.0000      0.0000    717.2490      3.1991    137.1318
  1609.2500      0.0000    714.6282      3.1157    145.4014
  1609.5000      0.0000    721.1564      2.8629    153.5545
  1609.7500      0.0000    734.7686      2.5532    160.7971
  1610.0000      0.0000    748.8621      2.3027    166.2405
  1610.2500      0.0000    759.4482      2.1757    168.9223
  1610.5000      0.0000    766.4986      2.1813    168.6192
  1610.7500      0.0000    767.9694      2.2890    166.0541
  1611.0000      0.0000    761.6793      2.4180    162.0846
  1611.2500      0.0000    754.2150      2.4525    157.1102
  1611.5000      0.0000    758.7872      2.3222    151.1944
  1611.7500      0.0000    778.3278      2.0912    144.1754
  1612.0000      0.0000    798.6122      1.9211    135.8079
  1612.2500      0.0000    805.4166      1.9152    126.4767
  1612.5000      0.0000    796.6221      2.0350    117.7957
  1612.7500     -1.6046    773.7937      2.1613    111.8848
  1613.0000      5.0000    736.0146      2.2119    109.7429
  1613.2500      2.2992    690.4443      2.1795    110.5407
  1613.5000      0.0000    664.0489      2.0883    112.6527
  1613.7500      0.0000    679.3788      2.0141    115.1164
  1614.0000      0.0000    716.7778      2.0924    118.0143
  1614.2500      0.0000    735.7778      2.3373    121.9163
  1614.5000      0.0000    724.6262      2.5503    127.3649
  1614.7500      0.0000    701.8259      2.5775    134.5594
  1615.0000      0.0000    684.2805      2.5039    142.8661
  1615.2500      0.0000    670.0355      2.4827    150.4392
  1615.5000      0.0000    643.5332      2.5326    154.9330
  1615.7500      0.0000    593.2251      2.5654    155.2823
  1616.0000      0.0000    529.5764      2.5155    152.7067
  1616.2500      0.0000    477.9832      2.4231    149.4480
  1616.5000      0.0000    450.9287      2.3923    146.6745
  1616.7500      0.0000    441.3199      2.4593    144.0538
  1617.0000      0.0000    438.4937      2.5621    141.0790
  1617.2500      0.0000    437.2437      2.6310    138.3214
  1617.5000      0.0000    435.9386      2.6369    137.4284
  1617.7500      0.0000    433.8965      2.5590    139.7322
  1618.0000      0.0000    430.9728      2.3838    144.5581
  1618.2500      0.0000    427.8038      2.1800    149.3348
  1618.5000      0.0000    425.4378      2.0867    151.9720
  1618.7500      0.0000    424.6248      2.1706    152.7995
  1619.0000      0.0000    425.5286      2.3548    153.6175
  1619.2500      0.0000    427.7618      2.4921    155.2444
  1619.5000      0.0000    430.4865      2.4758    156.9953
  1619.7500      0.0000    432.8471      2.3207    158.5126
  1620.0000      0.0000    434.4805      2.1735    160.7630
  1620.2500      0.0000    435.5130      2.2060    164.4499
  1620.5000      0.0000    436.2345      2.4446    168.2962
  1620.7500      0.0000    436.8871      2.7201    169.8002
  1621.0000      0.0000    437.5864      2.8468    167.4748
  1621.2500      0.0000    438.3020      2.7966    161.9195
  1621.5000      0.0000    438.9568      2.6277    155.0859
  1621.7500      0.0000    439.5484      2.3928    149.0612
  1622.0000      0.0000    440.1229      2.1918    145.2857
  1622.2500      0.0000    440.7962      2.1675    143.9992
  1622.5000      0.0000    441.8198      2.3643    144.1536
  1622.7500      0.0000    443.3507      2.6299    144.3295
  1623.0000      0.0000    445.2256      2.7336    144.1396
  1623.2500      0.0000    447.2219      2.6047    144.5847
  1623.5000      0.0000    449.2761      2.4064    146.7913
  1623.7500      0.0000    451.1402      2.3509    150.5363
  1624.0000      0.0000    452.2624      2.4660    154.4121
  1624.2500      0.0000    452.3695      2.6075    157.4172
  1624.5000      0.0000    451.8338      2.6598    159.7624
  1624.7500      0.0000    451.2126      2.6292    161.9562
  1625.0000      0.0000    450.7263      2.5853    163.7915
  1625.2500      0.0000    450.3309      2.5714    164.6440
  1625.5000      0.0000    449.9414      2.5883    164.2686
  1625.7500      0.0000    449.4432      2.5977    162.8643
  1626.0000      0.0000    448.7465      2.5183    160.6597
  1626.2500      0.0000    447.9525      2.3408    158.0186
  1626.5000      0.0000    447.3828      2.2176    155.9701
  1626.7500      0.0000    447.5355      2.2989    156.0127
  1627.0000      0.0000    450.0148      2.5267    158.8899
  1627.2500      0.0000    460.7295      2.6773    163.5011
  1627.5000      0.0000    492.1002      2.5965    167.2829
  1627.7500      0.0000    553.4727      2.3659    167.9968
  1628.0000      0.0000    632.9147      2.2055    165.2324
  1628.2500      0.0000    701.8821      2.2203    159.9938
  1628.5000      0.0000    744.9168      2.2918    153.0337
  1628.7500      0.0000    768.9545      2.2512    144.2794
  1629.0000      0.0000    784.3675      2.0841    133.8747
  1629.2500      0.0000    793.2856      1.9114    122.9926
  1629.5000      0.0000    794.8324      1.8508    113.3385
