~Version Information
VERS.                      2.0: CWLS Log ASCII Standard - VERSION 2.0
WRAP.                       NO: One line per depth step
~Well Information Block
STRT.FT               866.0000: 
STOP.FT              2027.5000: 
STEP.FT                 0.1000: 
NULL.                -999.2500: 
COMP.          Petrogulf Corporation: COMPANY
WELL.             State 16-21R: WELL
FLD.           Purgatorie River: FIELD
LOC.           203' FNL & 1560' FWL: LOCATION
PROV.                 Colorado: PROVINCE
CNTY.               Las Animas: COUNTRY
SRVC.                Patterson: SERVICE COMPANY
DATE.          Tue Aug 16 13:32:09 2005: LOG DATE
UWI.                071 08313 : UNIQUE WELL ID
~Curve Information Block
DEPT.FT            0 000 00 00: Depth
DCAL.in                       : CDL Caliper
RHOB.g/cc                     : CDL Bulk Density
RHOC.g/cc                     : CDL Density Correction
DPOR.pu                       : CDL Density Porosity
GR.GAPI                       : Gamma Ray
NPOR.pu                       : Neutron Porosity
~Parameter Information Block
~A  Depth       DCAL        RHOB        RHOC        DPOR         GR         NPOR    
# ...
  1624.4000      7.9857      2.5877      0.0456      3.7753    129.9883     23.1554
  1624.5000      7.9745      2.5819      0.0451      4.1270    131.0951     22.7254
  1624.6000      7.9745      2.5867      0.1251      3.8336    131.7740     22.9748
  1624.7000      7.9745      2.5806      0.0640      4.2063    134.9046     23.6322
  1624.8000      7.9896      2.5654      0.0701      5.1265    140.4098     24.2807
  1624.9000      7.9896      2.5507      0.0596      6.0190    145.0940     24.4917
  1625.0000      7.9900      2.5371      0.0626      6.8408    144.9794     24.2136
  1625.1000      7.9900      2.5285      0.0572      7.3657    138.2452     23.8679
  1625.2000      7.9900      2.5319      0.0032      7.1581    130.5930     23.7278
  1625.3000      7.9782      2.5481      0.0465      6.1787    127.7136     23.8384
  1625.4000      7.9782      2.5673      0.0540      5.0102    128.9394     24.2203
  1625.5000      7.9949      2.5806      0.0717      4.2073    132.1714     24.6433
  1625.6000      7.9949      2.5835      0.0559      4.0328    135.8378     24.7049
  1625.7000      7.9949      2.5763      0.0840      4.4644    137.8928     24.4470
  1625.8000      7.9919      2.5647      0.0793      5.1669    137.9392     24.2209
  1625.9000      7.9919      2.5560      0.0669      5.6943    136.4530     24.1974
  1626.0000      8.0072      2.5508      0.0752      6.0111    133.7353     24.3553
  1626.1000      8.0072      2.5459      0.0586      6.3068    132.6548     24.5965
  1626.2000      8.0072      2.5465      0.0563      6.2704    136.2529     25.0357
  1626.3000      8.0013      2.5547      0.0672      5.7749    141.8614     25.7087
  1626.4000      8.0013      2.5616      0.0684      5.3591    144.9415     26.0954
  1626.5000      7.9795      2.5644      0.0637      5.1854    144.3351     25.8697
  1626.6000      7.9795      2.5699      0.0812      4.8564    141.2341     25.5721
  1626.7000      7.9795      2.5800      0.1117      4.2415    139.3269     25.5730
  1626.8000      7.9814      2.5861      0.1520      3.8748    140.2660     25.6248
  1626.9000      7.9814      2.5859      0.0826      3.8866    142.0700     25.6341
  1627.0000      7.9553      2.5931      0.0910      3.4486    142.9516     25.6015
  1627.1000      7.9553      2.6079      0.1216      2.5523    140.0855     25.4129
  1627.2000      7.9553      2.6155      0.1207      2.0902    131.7605     25.1120
  1627.3000      7.9813      2.6159      0.0965      2.0664    122.7331     24.5954
  1627.4000      7.9813      2.6192      0.1021      1.8661    117.9875     23.7931
  1627.5000      7.9839      2.6258      0.1039      1.4675    114.2970     22.9639
  1627.6000      7.9839      2.6335      0.0790      0.9988    106.4426     22.3021
  1627.7000      7.9839      2.6460      0.0832      0.2442     97.4009     21.7508
  1627.8000      7.9586      2.6580      0.0909     -0.4860     93.7793     20.9905
  1627.9000      7.9586      2.6597      0.0848     -0.5864     95.4463     19.8314
  1628.0000      7.9219      2.6540      0.0378     -0.2397     97.5183     18.5793
  1628.1000      7.9219      2.6495      0.0675      0.0300     96.5898     17.8121
  1628.2000      7.9219      2.6464      0.0803      0.2204     93.0315     17.8598
  1628.3000      7.9064      2.6456      0.0312      0.2645     89.9295     18.4858
  1628.4000      7.9064      2.6506      0.0514     -0.0378     90.1057     18.9905
  1628.5000      7.8857      2.6500      0.0743      0.0022     93.6122     19.0320
  1628.6000      7.8857      2.6293      0.0872      1.2525     98.7510     18.9728
  1628.7000      7.8857      2.5976      0.0155      3.1766    103.9814     18.9095
  1628.8000      7.9142      2.5792     -0.0072      4.2880    109.6650     18.8218
  1628.9000      7.9142      2.5821      0.0673      4.1146    116.3274     19.1224
  1629.0000      7.9371      2.5922      0.0546      3.5030    122.5788     19.8263
  1629.1000      7.9371      2.5962      0.0727      3.2593    128.0653     20.6171
  1629.2000      7.9371      2.5931      0.0565      3.4489    133.9111     21.3931
  1629.3000      7.9355      2.5855      0.0733      3.9061    139.5134     22.0418
  1629.4000      7.9355      2.5717      0.1200      4.7433    143.2167     22.6041
  1629.5000      8.0096      2.5550      0.0735      5.7583    145.5903     23.1843
  1629.6000      8.0096      2.5441      0.0934      6.4188    148.1540     23.6978
  1629.7000      8.0096      2.5387      0.0682      6.7480    150.7991     24.2976
  1629.8000      8.0426      2.5334      0.0448      7.0677    151.4559     25.0125
  1629.9000      8.0426      2.5291      0.0272      7.3291    148.7620     25.5444
  1630.0000      8.0667      2.5341     -0.0158      7.0213    145.7019     25.9162
  1630.1000      8.0667      2.5466      0.0794      6.2675    143.5392     26.0518
  1630.2000      8.0667      2.5516      0.0510      5.9638    140.3177     25.7669
  1630.3000      8.0433      2.5503      0.0376      6.0447    138.3308     25.3417
  1630.4000      8.0433      2.5530      0.0557      5.8785    140.2168     25.0699
  1630.5000      8.0342      2.5610      0.0685      5.3969    142.9973     25.1272
  1630.6000      8.0342      2.5700      0.0630      4.8511    142.1536     25.5091
  1630.7000      8.0342      2.5719      0.0771      4.7305    138.0071     25.7184
  1630.8000      8.0192      2.5612      0.0384      5.3825    135.8936     25.4810
  1630.9000      8.0192      2.5465      0.0259      6.2750    137.5267     25.1782
  1631.0000      7.9984      2.5349      0.0564      6.9732    139.4901     25.1909
  1631.1000      7.9984      2.5242      0.0304      7.6219    139.1083     25.3094
  1631.2000      7.9984      2.5220      0.0020      7.7587    137.1732     25.3590
  1631.3000      7.9962      2.5300      0.0664      7.2715    135.3953     25.5442
  1631.4000      7.9962      2.5363      0.0664      6.8928    134.6755     25.7848
  1631.5000      7.9706      2.5509      0.0247      6.0063    134.7735     25.8570
  1631.6000      7.9706      2.5900      0.0882      3.6387    135.3347     25.9032
  1631.7000      7.9706      2.6330      0.1435      1.0314    137.0477     26.2825
  1631.8000      7.9632      2.6511      0.1500     -0.0690    140.5508     26.9410
  1631.9000      7.9632      2.6441      0.1434      0.3571    145.0079     27.4160
  1632.0000      7.9279      2.6247      0.1255      1.5363    148.9212     27.4194
  1632.1000      7.9279      2.6004      0.0926      3.0059    152.6975     27.0036
  1632.2000      7.9279      2.5772      0.0729      4.4121    155.5126     26.3287
  1632.3000      7.9459      2.5631      0.0508      5.2678    154.3327     25.5123
  1632.4000      7.9459      2.5654      0.0345      5.1250    148.2969     24.8894
  1632.5000      7.9871      2.5787      0.0732      4.3188    142.3796     24.7976
  1632.6000      7.9871      2.5833      0.0768      4.0448    141.7710     25.1385
  1632.7000      7.9871      2.5704      0.0511      4.8253    144.3666     25.6551
  1632.8000      8.0153      2.5558     -0.0247      5.7094    145.4013     25.9903
  1632.9000      8.0153      2.5503      0.0603      6.0401    143.1019     25.9355
  1633.0000      8.0065      2.5404      0.0683      6.6421    139.5711     25.7963
  1633.1000      8.0065      2.5211      0.0354      7.8149    138.6841     25.8226
  1633.2000      8.0065      2.5078      0.0146      8.6188    138.9705     25.8373
  1633.3000      8.0023      2.5126      0.0106      8.3286    135.7255     25.7502
  1633.4000      8.0023      2.5311      0.0561      7.2053    130.7430     25.4697
  1633.5000      8.0040      2.5507      0.0547      6.0185    128.2089     24.9018
  1633.6000      8.0040      2.5633      0.0795      5.2524    126.6588     24.2322
  1633.7000      8.0040      2.5647      0.0759      5.1690    124.9762     23.8091
  1633.8000      8.0175      2.5544      0.0762      5.7945    127.2771     23.8605
  1633.9000      8.0175      2.5349      0.0563      6.9741    134.3733     24.2398
