~Version Information
VERS.                      2.0: CWLS Log ASCII Standard - VERSION 2.0
WRAP.                       NO: One line per depth step
~Well Information Block
STRT.FT               433.5000: 
STOP.FT              1880.2500: 
STEP.FT                 0.2500: 
NULL.                -999.2500: 
COMP.          Pioneer Natural Resources: COMPANY
WELL.           Buckhorn 12-21: WELL
FLD.           Purgatorie River: FIELD
LOC.           2450' FNL & 608' FWL--: LOCATION
PROV.                       CO: PROVINCE
CNTY.               Las Animas: COUNTRY
SRVC.                         : SERVICE COMPANY
DATE.          Fri Dec 03 14:13:08 2004: LOG DATE
UWI.          005 071 08129 : UNIQUE WELL ID
~Curve Information Block
DEPT.FT            0 000 00 00: Depth
NPOR.pu                       : Neutron Porosity
CCL.                          : Casing Collar Locator
TT3.usec                      : CBL 3' Travel Time
AMP3.mV                       : CBL 3' Amplitude
GR.GAPI                       : Gamma Ray
~Parameter Information Block
~A  Depth       NPOR        CCL         TT3         AMP3         GR     
# ...
  1469.5000     29.2972      0.0000    688.5336      0.9375     57.7367
  1469.7500     29.4146      0.0000    689.0254      0.9340     53.1150
  1470.0000     29.5040      0.0000    689.2468      0.9868     49.0928
  1470.2500     29.4103      0.0000    689.2294      1.0788     46.5333
  1470.5000     29.0897      0.0000    688.5162      1.1753     45.7287
  1470.7500     28.6230      0.0000    686.4202      1.2317     46.7260
  1471.0000     28.0348      0.0000    682.7629      1.2132     49.5990
  1471.2500     27.1833      0.0000    678.2935      1.1180     54.1158
  1471.5000     25.8810      0.0000    674.3098      0.9801     59.5283
  1471.7500     24.0683      0.0000    671.9033      0.8495     65.0136
  1472.0000     21.8393      0.0000    671.4692      0.7706     70.3221
  1472.2500     19.3861      0.0000    672.6024      0.7797     75.9039
  1472.5000     16.9878      0.0000    674.4064      0.9068     82.1787
  1472.7500     14.9988      0.0000    676.1702      1.1545     88.4700
  1473.0000     13.7617      0.0000    677.7426      1.4589     92.9685
  1473.2500     13.5056      0.0000    678.8854      1.6931     94.0874
  1473.5000     14.2882      0.0000    678.5359      1.7478     91.5350
  1473.7500     15.9840      0.0000    675.4900      1.6190     85.9512
  1474.0000     18.3107      0.0000    669.9072      1.4013     78.1804
  1474.2500     20.8919      0.0000    663.4565      1.1977     69.3799
  1474.5000     23.3782      0.0000    657.8162      1.0496     61.3971
  1474.7500     25.5629      0.0000    653.6212      0.9510     56.1615
  1475.0000     27.3931      0.0000    650.9625      0.8984     54.2366
  1475.2500     28.8647      0.0000    650.1141      0.9014     54.2325
  1475.5000     29.9309      0.0000    651.3314      0.9503     54.0789
  1475.7500     30.5571      0.0000    654.1688      1.0008     52.7747
  1476.0000     30.8585      0.0000    657.2132      1.0037     50.6637
  1476.2500     31.1134      0.0000    658.7266      0.9468     48.3398
  1476.5000     31.5827      0.0000    657.8849      0.8597     45.8490
  1476.7500     32.3231      0.0000    655.3842      0.7853     42.9821
  1477.0000     33.1899      0.0000    652.6721      0.7541     39.9628
  1477.2500     33.9995      0.0000    650.7506      0.7773     37.5623
  1477.5000     34.6691      0.0000    649.8713      0.8509     36.5487
  1477.7500     35.2201      0.0000    650.0602      0.9560     37.1745
  1478.0000     35.6778      0.0000    651.4813      1.0591     39.1294
  1478.2500     36.0106      0.0000    654.0947      1.1232     41.6698
  1478.5000     36.1857      0.0000    657.1358      1.1241     43.6884
  1478.7500     36.2402      0.0000    659.4561      1.0625     44.1506
  1479.0000     36.2490      0.0000    660.6208      0.9634     43.0902
  1479.2500     36.2510      0.0000    661.2064      0.8690     42.1678
  1479.5000     36.2424      0.0000    661.6689      0.8216     43.6393
  1479.7500     36.2118      0.0000    661.5272      0.8428     48.3919
  1480.0000     36.1554      0.0000    660.1819      0.9190     55.0819
  1480.2500     36.0858      0.0000    658.0019      1.0105     61.1516
  1480.5000     36.0439      0.0000    656.0080      1.0792     64.4250
  1480.7500     36.0727      0.0000    654.8000      1.1152     64.0382
  1481.0000     36.1591      0.0000    654.2114      1.1396     60.6880
  1481.2500     36.2242      0.0000    653.7927      1.1812     56.4173
  1481.5000     36.1951      0.0000    653.3058      1.2452     53.8689
  1481.7500     36.0794      0.0000    652.8852      1.3022     55.2637
  1482.0000     35.9443      0.0000    653.0588      1.3114     61.5419
  1482.2500     35.8208      0.0000    654.7081      1.2569     71.9425
  1482.5000     35.6449      0.0000    658.6374      1.1619     84.3366
  1482.7500     35.3090      0.0000    664.6916      1.0687     96.4362
  1483.0000     34.7762      0.0000    671.1630      1.0047    107.0368
  1483.2500     34.1427      0.0000    675.4025      0.9657    115.9983
  1483.5000     33.5953      0.0000    675.4210      0.9287    123.0054
  1483.7500     33.3101      0.0000    671.2050      0.8793    126.8621
  1484.0000     33.3733      0.0000    664.7089      0.8251    126.3477
  1484.2500     33.7598      0.0000    658.6165      0.7841    121.5123
  1484.5000     34.3617      0.0000    654.9526      0.7656    113.8832
  1484.7500     35.0432      0.0000    654.6153      0.7679    105.6744
  1485.0000     35.6943      0.0000    657.7504      0.7886     98.9525
  1485.2500     36.2454      0.0000    663.9324      0.8305     94.9813
  1485.5000     36.6423      0.0000    671.7913      0.8956     93.5996
  1485.7500     36.8341      0.0000    679.0412      0.9774     93.3025
  1486.0000     36.8096      0.0000    683.5600      1.0640     92.3325
  1486.2500     36.6456      0.0000    684.4966      1.1493     89.6303
  1486.5000     36.4808      0.0000    682.2779      1.2404     84.7382
  1486.7500     36.3991      0.0000    678.2225      1.3478     77.6096
  1487.0000     36.3487      0.0000    674.5385      1.4673     69.1018
  1487.2500     36.2231      0.0000    673.7139      1.5755     61.2026
  1487.5000     36.0094      0.0000    676.6749      1.6492     56.0686
  1487.7500     35.8069      0.0000    681.5775      1.6900     54.7758
  1488.0000     35.7080      0.0000    685.0594      1.7234     57.1374
  1488.2500     35.7157      0.0000    684.8241      1.7696     62.4078
  1488.5000     35.7817      0.0000    680.9288      1.8186     69.5908
  1488.7500     35.8829      0.0000    675.1271      1.8413     77.1645
  1489.0000     36.0355      0.0000    669.6521      1.8245     83.1749
  1489.2500     36.2464      0.0000    666.1814      1.7862     86.0112
  1489.5000     36.4781      0.0000    665.0361      1.7593     85.1781
  1489.7500     36.6684      0.0000    665.4191      1.7702     81.5455
  1490.0000     36.7589      0.0000    666.7851      1.8268     76.9404
  1490.2500     36.6976      0.0000    669.2925      1.9109     73.2823
  1490.5000     36.4432      0.0000    672.5150      1.9872     71.9961
  1490.7500     35.9897      0.0000    674.9908      2.0321     74.1007
  1491.0000     35.3814      0.0000    676.0312      2.0547     80.2134
  1491.2500     34.6935      0.0000    677.0779      2.0737     90.0196
  1491.5000     33.9874      0.0000    680.2043      2.0817    102.1704
  1491.7500     33.2731      0.0000    685.6925      2.0569    115.1857
  1492.0000     32.5140      0.0000    691.8142      2.0014    128.1878
  1492.2500     31.6789      0.0000    696.7032      1.9435    140.5399
  1492.5000     30.7937      0.0000    699.7546      1.9025    151.1288
  1492.7500     29.9538      0.0000    701.3813      1.8739    158.4681
  1493.0000     29.3018      0.0000    702.1602      1.8525    161.7298
  1493.2500     28.9767      0.0000    702.4769      1.8486    161.6572
  1493.5000     29.0274      0.0000    702.6537      1.8700    160.2043
  1493.7500     29.3567      0.0000    703.0488      1.9039    159.1255
  1494.0000     29.7665      0.0000    703.9818      1.9359    158.7994
  1494.2500     30.0572      0.0000    705.5983      1.9746    158.2514
  1494.5000     30.0774      0.0000    707.7630      2.0372    156.3205
  1494.7500     29.7329      0.0000    710.0428      2.1162    152.7710
  1495.0000     29.0226      0.0000    711.8237      2.1841    148.0385
  1495.2500     28.0584      0.0000    712.2755      2.2265    142.3070
  1495.5000     26.9948      0.0000    709.7411      2.2509    135.7796
  1495.7500     25.9444      0.0000    700.6785      2.2690    129.8400
  1496.0000     25.0017      0.0000    679.6659      2.2894    126.8602
  1496.2500     24.3041      0.0000    642.4116      2.3245    128.3075
  1496.5000     23.9736      0.0000    590.8336      2.3824    133.4574
  1496.7500     23.9914      0.0000    535.1621      2.4498    140.2166
  1497.0000     24.1990      0.0000    489.1904      2.4990    146.7137
  1497.2500     24.4254      0.0000    462.5323      2.5214    151.8378
