~Version Information
VERS.                      2.0: CWLS Log ASCII Standard - VERSION 2.0
WRAP.                       NO: One line per depth step
~Well Information Block
STRT.FT               630.0000: 
STOP.FT              1155.5000: 
STEP.FT                 0.1000: 
NULL.                -999.2500: 
COMP.          Pioneer Natural Resources: COMPANY
WELL.          Drewmeister 34-34: WELL
FLD.           Purgatoire River: FIELD
LOC.           958' FSL & 1857' FEL: LOCATION
STAT.                 Colorado: State
CNTY.               Las Animas: COUNTY
CTRY. USA : Country
SECT. 34 : Section
TOWN. 32S : Township
RANG. 65W : Range
SRVC.                Patterson: SERVICE COMPANY
DATE.          Tue Oct 04 08:23:16 2005: LOG DATE
API.           05 071 08131 00: UNIQUE WELL ID
~Curve Information Block
DEPT.FT            0 000 00 00: Depth
DCAL.in                       : CDL Caliper
RHOB.g/cc                     : CDL Bulk Density
RHOC.g/cc                     : CDL Density Correction
DPOR.pu                       : CDL Density Porosity
GR.GAPI                       : Gamma Ray
NPOR.pu                       : Neutron Porosity
~Parameter Information Block
~A  Depth       DCAL        RHOB        RHOC        DPOR         GR         NPOR    
# ...
   802.8000      8.0897      2.4918      0.0066      9.5898    104.1881     23.2158
   802.9000      8.0897      2.4803      0.0085     10.2827     99.3711     23.5200
   803.0000      8.0906      2.4792      0.0059     10.3539     99.3653     22.7637
   803.1000      8.0906      2.4873      0.0315      9.8611     99.8727     21.7829
   803.2000      8.0906      2.5056     -0.0162      8.7539     99.0610     21.8862
   803.3000      8.0912      2.5341      0.0845      7.0238     96.1213     22.8154
   803.4000      8.0912      2.5549      0.0979      5.7622     92.6373     23.5104
   803.5000      8.0918      2.5583      0.0831      5.5546     91.7015     23.6531
   803.6000      8.0918      2.5605      0.0637      5.4234     92.6247     23.3682
   803.7000      8.0918      2.5694      0.1480      4.8874     92.2759     22.9377
   803.8000      8.0919      2.5674      0.1177      5.0087     90.7812     22.7137
   803.9000      8.0919      2.5451      0.0661      6.3548     91.7789     22.5194
   804.0000      8.0917      2.5128      0.0513      8.3159     95.9560     22.3123
   804.1000      8.0917      2.4918     -0.0139      9.5908    100.6264     22.5085
   804.2000      8.0917      2.5035      0.0401      8.8813    102.5905     23.1001
   804.3000      8.0911      2.5474      0.0288      6.2208     99.3247     23.5237
   804.4000      8.0911      2.6008      0.0966      2.9828     94.4129     23.6135
   804.5000      8.0900      2.6290      0.1237      1.2746     91.4481     23.5688
   804.6000      8.0900      2.6154      0.0960      2.0986     86.2315     23.3438
   804.7000      8.0900      2.5820      0.0748      4.1206     77.8607     23.3059
   804.8000      8.0876      2.5527      0.0650      5.8952     75.9328     23.5470
   804.9000      8.0876      2.5216      0.0714      7.7822     84.2848     23.2732
   805.0000      8.0851      2.4789      0.0668     10.3668     93.7572     22.5012
   805.1000      8.0851      2.4365      0.0312     12.9392     95.6095     21.9650
   805.2000      8.0851      2.4117     -0.0049     14.4420     93.9946     21.7204
   805.3000      8.0839      2.4189     -0.0101     14.0076     97.4114     21.5897
   805.4000      8.0839      2.4694      0.0352     10.9440    102.9913     21.7616
   805.5000      8.0831      2.5565      0.1073      5.6686    101.8145     22.1809
   805.6000      8.0831      2.6412      0.2604      0.5352     96.2698     22.3192
   805.7000      8.0831      2.6806      0.2701     -1.8520     95.5978     22.2453
   805.8000      8.0868      2.6724      0.2145     -1.3546    100.0424     22.4236
   805.9000      8.0868      2.6481      0.1583      0.1141    101.6777     22.7382
   806.0000      8.0954      2.6310      0.1166      1.1504     96.3106     23.1278
   806.1000      8.0954      2.6161      0.1190      2.0543     87.2525     23.5001
   806.2000      8.0954      2.5964      0.0666      3.2457     81.8951     23.3966
   806.3000      8.1048      2.5867      0.0166      3.8379     85.8302     22.6905
   806.4000      8.1048      2.6043      0.0364      2.7680     96.0561     22.3558
   806.5000      8.1094      2.6367      0.1236      0.8071    103.7622     23.3151
   806.6000      8.1094      2.6495      0.1556      0.0303    106.3216     24.5763
   806.7000      8.1094      2.6373      0.0895      0.7695    106.6751     24.9679
   806.8000      8.1105      2.6254      0.0878      1.4907    102.7176     25.0043
   806.9000      8.1105      2.6272      0.0774      1.3839     94.6772     25.0076
   807.0000      8.1109      2.6252      0.0879      1.5003     85.9565     24.3407
   807.1000      8.1109      2.5993      0.0517      3.0708     77.5337     23.0703
   807.2000      8.1109      2.5582      0.0092      5.5623     73.0346     21.9696
   807.3000      8.1109      2.5286     -0.0327      7.3604     75.3501     21.3264
   807.4000      8.1109      2.5250     -0.0000      7.5779     83.4285     20.9160
   807.5000      8.1108      2.5370      0.0103      6.8480     92.7435     20.6475
   807.6000      8.1108      2.5466      0.0212      6.2662     96.5512     20.5380
   807.7000      8.1108      2.5500      0.0377      6.0632     92.1928     20.1883
   807.8000      8.1111      2.5558      0.0037      5.7113     82.1977     19.4713
   807.9000      8.1111      2.5715      0.0412      4.7551     74.6541     19.0198
   808.0000      8.1110      2.5919      0.0722      3.5187     76.3455     18.9862
   808.1000      8.1110      2.6049      0.0947      2.7315     81.8236     18.8511
   808.2000      8.1110      2.6080      0.0852      2.5430     83.9992     18.9143
   808.3000      8.1093      2.6140      0.0712      2.1807     82.6843     19.6341
   808.4000      8.1093      2.6264      0.1023      1.4296     79.0267     20.5173
   808.5000      8.1076      2.6243      0.1183      1.5550     76.8120     21.0153
   808.6000      8.1076      2.5974      0.0428      3.1882     78.5889     21.2987
   808.7000      8.1076      2.5627      0.0467      5.2883     79.9264     21.6905
   808.8000      8.1090      2.5349      0.0299      6.9757     80.9901     22.1679
   808.9000      8.1090      2.5135      0.0282      8.2724     86.7716     22.5111
   809.0000      8.1107      2.4966     -0.0004      9.2987     97.1304     22.4044
   809.1000      8.1107      2.4814      0.0384     10.2208    104.6298     21.9245
   809.2000      8.1107      2.4641     -0.0420     11.2666    101.9126     21.6512
   809.3000      8.1111      2.4446      0.0041     12.4490     92.9792     22.3436
   809.4000      8.1111      2.4271     -0.0330     13.5119     84.4141     23.8310
   809.5000      8.1113      2.4331     -0.0435     13.1427     76.4084     24.6786
   809.6000      8.1113      2.4827      0.0109     10.1400     69.6060     24.6727
   809.7000      8.1113      2.5748      0.0424      4.5549     66.2024     24.8308
   809.8000      8.1109      2.6965      0.0738     -2.8212     66.4506     25.1990
   809.9000      8.1109      2.8207      0.1509    -10.3442     68.7942     25.2632
   810.0000      8.1102      2.9177      0.1420    -16.2226     73.7629     25.1861
   810.1000      8.1102      2.9727      0.2132    -19.5578     82.3082     25.0688
   810.2000      8.1102      2.9805      0.2067    -20.0290     88.8833     24.6223
   810.3000      8.1099      2.9508      0.1505    -18.2332     90.0146     24.4826
   810.4000      8.1099      2.9043      0.1173    -15.4145     89.6458     25.3350
   810.5000      8.1097      2.8439      0.0785    -11.7544     88.5522     26.2003
   810.6000      8.1097      2.7647     -0.0013     -6.9531     85.0999     26.0679
   810.7000      8.1097      2.6833     -0.0489     -2.0182     79.8546     25.3513
   810.8000      8.1096      2.6273      0.0000      1.3738     73.1116     24.5038
   810.9000      8.1096      2.5966      0.0696      3.2360     67.2365     23.3872
   811.0000      8.1100      2.5674      0.0298      5.0034     67.5785     22.3888
   811.1000      8.1100      2.5347      0.0086      6.9877     72.7043     22.0666
   811.2000      8.1100      2.5141     -0.0295      8.2354     74.9860     22.2366
   811.3000      8.1104      2.5166      0.0390      8.0869     71.8783     22.4132
   811.4000      8.1104      2.5324      0.0651      7.1265     66.8591     22.5421
   811.5000      8.1099      2.5453      0.0336      6.3463     63.7801     22.4483
   811.6000      8.1099      2.5523      0.0198      5.9237     63.6081     22.1098
   811.7000      8.1099      2.5583      0.0380      5.5569     64.2123     21.8696
   811.8000      8.1094      2.5684      0.0214      4.9466     64.2694     21.3947
   811.9000      8.1094      2.5821      0.0661      4.1149     64.2302     20.4577
   812.0000      8.1100      2.5919      0.0555      3.5239     63.0845     19.7610
   812.1000      8.1100      2.5888      0.0847      3.7086     63.1758     19.5037
   812.2000      8.1100      2.5697      0.0403      4.8654     67.8424     19.1966
   812.3000      8.1112      2.5417      0.0305      6.5623     72.4794     18.9021
