~Version Information
VERS.                      2.0: CWLS Log ASCII Standard - VERSION 2.0
WRAP.                       NO: One line per depth step
~Well Information Block
STRT.FT               340.0000: 
STOP.FT              1731.0000: 
STEP.FT                 0.1000: 
NULL.                -999.2500: 
COMP.          Pioneer Natural Resources: COMPANY
WELL.          Rancher 12-35 Tr: WELL
FLD.           Purgatoire River: FIELD
LOC.           2242' FNL & 308' FWL SWNW 35 32S 67W: LOCATION
PROV.                 Colorado: PROVINCE
CNTY.               Las Animas: COUNTRY
SRVC.                Patterson: SERVICE COMPANY
DATE.          Tue Jul 05 07:18:22 2005: LOG DATE
UWI.              05 071 08430 00: UNIQUE WELL ID
~Curve Information Block
DEPT.FT            0 000 00 00: Depth
DCAL.in                       : CDL Caliper
RHOB.g/cc                     : CDL Bulk Density
RHOC.g/cc                     : CDL Density Correction
DPOR.pu                       : CDL Density Porosity
GR.GAPI                       : Gamma Ray
NPOR.pu                       : Neutron Porosity
~Parameter Information Block
~A  Depth       DCAL        RHOB        RHOC        DPOR         GR         NPOR    
# ...
  1252.0000      7.9793      2.4265      0.0737     13.5455    147.2210     29.4189
  1252.1000      7.9793      2.4029      0.0649     14.9759    145.3589     29.1875
  1252.2000      7.9793      2.3930      0.0938     15.5765    148.4722     28.7813
  1252.3000      7.9775      2.3889      0.0439     15.8261    148.8135     29.0371
  1252.4000      7.9775      2.3868      0.0543     15.9526    145.2587     28.9701
  1252.5000      7.9898      2.3908      0.0198     15.7068    140.3986     27.7229
  1252.6000      7.9898      2.4081      0.0536     14.6594    136.2722     25.9732
  1252.7000      7.9898      2.4425      0.0289     12.5729    135.5139     24.7783
  1252.8000      7.9724      2.4911      0.0355      9.6274    137.8160     24.4707
  1252.9000      7.9724      2.5385      0.1097      6.7578    141.1258     24.4316
  1253.0000      7.9630      2.5707      0.0638      4.8059    142.2379     24.2076
  1253.1000      7.9630      2.5898      0.1052      3.6474    137.8349     23.9798
  1253.2000      7.9630      2.6008      0.0589      2.9822    132.3028     23.6149
  1253.3000      7.9448      2.6023      0.1030      2.8928    130.6913     22.8810
  1253.4000      7.9448      2.5918      0.0936      3.5267    131.5620     21.8725
  1253.5000      7.9389      2.5775      0.0316      4.3932    135.5304     20.4655
  1253.6000      7.9389      2.5664      0.0481      5.0644    141.2500     18.8577
  1253.7000      7.9389      2.5569      0.0247      5.6437    141.5471     17.9951
  1253.8000      7.9685      2.5474      0.0259      6.2207    134.1443     17.9871
  1253.9000      7.9685      2.5413      0.0031      6.5904    124.4251     18.0406
  1254.0000      7.9675      2.5449      0.0478      6.3719    114.9448     17.8519
  1254.1000      7.9675      2.5540      0.0935      5.8198    106.1221     17.5205
  1254.2000      7.9675      2.5588      0.0550      5.5289    104.3968     17.1727
  1254.3000      7.9672      2.5590      0.0813      5.5138    111.7998     17.0189
  1254.4000      7.9672      2.5560      0.0577      5.6953    118.2915     17.2718
  1254.5000      7.9547      2.5479      0.0268      6.1897    115.7831     17.8241
  1254.6000      7.9547      2.5387      0.0099      6.7431    107.7187     18.5465
  1254.7000      7.9547      2.5378      0.0171      6.7985    103.0350     19.5179
  1254.8000      7.9874      2.5497      0.0107      6.0792    105.4123     20.2158
  1254.9000      7.9874      2.5682      0.0164      4.9590    110.8667     19.8710
  1255.0000      8.0086      2.5790      0.0385      4.3026    114.8612     18.6154
  1255.1000      8.0086      2.5749      0.0686      4.5487    114.4980     17.4478
  1255.2000      8.0086      2.5631      0.0795      5.2657    111.2065     16.7828
  1255.3000      8.0064      2.5566      0.0196      5.6604    108.1416     16.3128
  1255.4000      8.0064      2.5631      0.0081      5.2646    104.0444     15.7888
  1255.5000      7.9820      2.5759      0.0528      4.4882     97.7611     15.1668
  1255.6000      7.9820      2.5821      0.0435      4.1179     93.8079     14.9655
  1255.7000      7.9820      2.5860      0.0607      3.8775     95.0345     15.8587
  1255.8000      7.9919      2.6009      0.0288      2.9749     97.5047     17.3316
  1255.9000      7.9919      2.6167      0.1264      2.0197     97.4379     18.1906
  1256.0000      7.9830      2.6210      0.0622      1.7600     95.4761     18.4434
  1256.1000      7.9830      2.6259      0.0965      1.4602     94.1898     18.5217
  1256.2000      7.9830      2.6318      0.1226      1.1031     95.6680     18.1989
  1256.3000      7.9344      2.6195      0.1259      1.8498     97.7197     17.5888
  1256.4000      7.9344      2.5887      0.0642      3.7123     95.6441     17.3343
  1256.5000      7.9342      2.5643      0.0164      5.1965     93.3887     17.6991
  1256.6000      7.9342      2.5530      0.0818      5.8769     96.1039     18.3624
  1256.7000      7.9342      2.5415      0.0062      6.5744     97.7418     18.5848
  1256.8000      7.9433      2.5352      0.0201      6.9578     92.1154     17.9849
  1256.9000      7.9433      2.5429      0.0153      6.4937     82.8455     17.2936
  1257.0000      7.9659      2.5567      0.0265      5.6562     78.8651     17.0112
  1257.1000      7.9659      2.5621      0.0506      5.3258     86.0058     17.1238
  1257.2000      7.9659      2.5562      0.0253      5.6843     99.4276     17.5006
  1257.3000      7.9761      2.5573      0.0091      5.6175    108.1836     17.6181
  1257.4000      7.9761      2.5769      0.0466      4.4285    107.4349     17.5268
  1257.5000      7.9688      2.5883      0.1192      3.7394    101.4508     17.9861
  1257.6000      7.9688      2.5746      0.0409      4.5693     98.3021     18.9428
  1257.7000      7.9688      2.5674      0.0020      5.0074    102.2307     19.5636
  1257.8000      7.9610      2.5806      0.0604      4.2063    110.4706     19.3719
  1257.9000      7.9610      2.5834      0.0341      4.0348    115.7026     19.0129
  1258.0000      7.9599      2.5623      0.0292      5.3155    112.7188     19.2163
  1258.1000      7.9599      2.5338      0.0596      7.0430    104.6627     19.3684
  1258.2000      7.9599      2.5034      0.0453      8.8827     98.7526     18.8471
  1258.3000      7.9472      2.4713      0.0092     10.8297     98.5110     18.2342
  1258.4000      7.9472      2.4517     -0.0057     12.0179    105.1973     17.6399
  1258.5000      7.9548      2.4515     -0.0108     12.0316    118.2939     17.0904
  1258.6000      7.9548      2.4631      0.0032     11.3246    129.8796     17.3128
  1258.7000      7.9548      2.4803      0.0081     10.2874    130.6353     18.0409
  1258.8000      7.9436      2.4896      0.0672      9.7213    124.7230     18.4450
  1258.9000      7.9436      2.4833      0.0348     10.1020    121.2176     18.2473
  1259.0000      7.9626      2.4768      0.0302     10.4986    122.4888     17.4134
  1259.1000      7.9626      2.4765      0.0275     10.5154    127.9954     16.7987
  1259.2000      7.9626      2.4716      0.0371     10.8113    132.3555     17.0531
  1259.3000      7.9517      2.4605     -0.0324     11.4823    129.1222     17.2745
  1259.4000      7.9517      2.4475      0.0277     12.2701    119.9694     16.7623
  1259.5000      7.9466      2.4362     -0.0203     12.9572    113.9367     15.8750
  1259.6000      7.9466      2.4382     -0.0021     12.8361    114.2925     14.9737
  1259.7000      7.9466      2.4522      0.0053     11.9852    113.3377     14.2912
  1259.8000      7.9440      2.4602      0.0190     11.5011    106.4083     14.4240
  1259.9000      7.9440      2.4546      0.0026     11.8433     98.0380     15.3183
  1260.0000      7.9512      2.4438      0.0117     12.4951     92.9269     15.6363
  1260.1000      7.9512      2.4360      0.0108     12.9685     92.5205     14.7714
  1260.2000      7.9512      2.4299      0.0230     13.3376     92.9967     13.6815
  1260.3000      7.9472      2.4247      0.0329     13.6527     87.8257     13.2137
  1260.4000      7.9472      2.4352     -0.0414     13.0170     77.6041     13.3613
  1260.5000      7.9269      2.4707      0.0326     10.8646     68.8516     13.6430
  1260.6000      7.9269      2.5060      0.0587      8.7299     65.9308     14.0347
  1260.7000      7.9269      2.5156      0.0437      8.1451     67.0933     14.7743
  1260.8000      7.9312      2.5054      0.0791      8.7642     68.7575     15.3407
  1260.9000      7.9312      2.4956      0.0388      9.3581     72.2500     15.6307
  1261.0000      7.9490      2.4975      0.0297      9.2417     77.6506     16.0498
  1261.1000      7.9490      2.5027      0.0755      8.9300     80.5538     16.4545
  1261.2000      7.9490      2.5023      0.0603      8.9542     77.3402     16.6712
  1261.3000      7.9706      2.4998      0.0246      9.1011     68.1945     16.2432
  1261.4000      7.9706      2.4929      0.0375      9.5185     60.4900     14.9638
  1261.5000      7.9781      2.4751      0.0410     10.5989     63.9982     13.9072
