~Version Information
 VERS.                                  2.0 : CWLS LAS VERSION
 WRAP.                                   NO : WRAPING MODE
 SWARE .                 MController 2.5.0J : SOFTWARE VERSION
~Well Information
 WELL.                  Great Plains 22-21R : WELL
 COMP.                Petrogulf Corporation : COMPANY
 FLD.                      Purgatoire River : FIELD
 LOC.                NE/NW Sec 22 T33S R67W : LOCATION
 DATE.                               9/7/05 : DATE(S) LOGGED
 SRVC.       BLANCO Geological Services LLC : SERVICE COMPANY
 STAT.                                   CO : STATE
 CNTY.                           Las Animas : COUNTY
 CTRY.                                  USA : COUNTRY
 API.                       05-071-08343-00 : API NUMBER
 STRT.FT                             554.00 : START DEPTH
 STOP.FT                            1620.00 : STOP DEPTH
 STEP.FT                               1.00 : DEPTH INCREMENT
 NULL.                                -9999 : NULL VALUE
~Curve information
 DEPTH.FT                                   :
 ROP.MIN/FT                                 :
 GAS.UNITS                                  :
~ASCII Log data
# ...
      1154.0         0.40        100.0 
      1155.0         0.43         99.8 
      1156.0         0.43         96.3 
      1157.0         0.37         82.2 
      1158.0         0.23         67.0 
      1159.0         0.33         73.3 
      1160.0         0.28         78.5 
      1161.0         0.30         82.7 
      1162.0         0.27         86.8 
      1163.0         0.30        100.5 
      1164.0         0.37        113.1 
      1165.0         0.37        112.9 
      1166.0         0.23        109.9 
      1167.0         0.37        106.7 
      1168.0         0.27         93.7 
      1169.0         0.20         73.7 
      1170.0         3.32       1195.4 
      1171.0         0.27        670.8 
      1172.0         0.30        617.8 
      1173.0         0.25        579.4 
      1174.0         0.33        553.0 
      1175.0         0.17        519.1 
      1176.0         0.13        506.4 
      1177.0         0.30        496.9 
      1178.0         0.23        479.4 
      1179.0         0.30        468.6 
      1180.0         0.33        456.9 
      1181.0         0.20        446.7 
      1182.0         0.27        445.4 
      1183.0         0.17        440.0 
      1184.0         0.17        440.0 
      1185.0         0.20         90.5 
      1186.0         0.27         90.1 
      1187.0         0.28         88.2 
      1188.0         0.40         86.2 
      1189.0         0.17         85.3 
      1190.0         0.17         85.4 
      1191.0         0.17         85.2 
      1192.0         0.17         84.8 
      1193.0         0.13         85.0 
      1194.0         0.20         85.4 
      1195.0         0.23         86.1 
      1196.0         0.33         86.8 
      1197.0         0.33         86.5 
      1198.0         0.30         78.7 
      1199.0         0.23         62.0 
      1200.0         3.22       1294.8 
      1201.0         0.27        712.7 
      1202.0         0.20        645.7 
      1203.0         0.25        605.1 
      1204.0         0.30        567.0 
      1205.0         0.30        542.2 
      1206.0         0.27        520.7 
      1207.0         0.17        506.7 
      1208.0         0.20        497.5 
      1209.0         0.17        489.6 
      1210.0         0.17        482.9 
      1211.0         0.20        480.4 
      1212.0         0.17        476.5 
      1213.0         0.20        474.3 
      1214.0         0.17        469.2 
      1215.0         0.20        467.0 
      1216.0         0.17        460.4 
      1217.0         0.17        457.2 
      1218.0         0.17        471.8 
      1219.0         0.13        488.0 
      1220.0         0.15        500.3 
      1221.0         0.20        501.9 
      1222.0         0.13        502.9 
      1223.0         0.17        498.8 
      1224.0         0.13        486.1 
      1225.0         0.13        474.3 
      1226.0         0.13        458.5 
      1227.0         0.13        447.0 
      1228.0         0.17        444.2 
      1229.0         0.20        478.1 
      1230.0         2.35       1132.3 
      1231.0         0.30        801.9 
      1232.0         0.37        752.3 
      1233.0         0.43        666.7 
      1234.0         0.47        598.7 
      1235.0         0.23        556.8 
      1236.0         0.23        540.7 
      1237.0         0.37        526.7 
      1238.0         0.23        505.4 
      1239.0         0.28        494.6 
      1240.0         0.30        484.8 
      1241.0         0.27        477.2 
      1242.0         0.27        471.8 
      1243.0         0.23        464.5 
      1244.0         0.27        460.0 
      1245.0         0.23        454.6 
      1246.0         0.23        450.8 
      1247.0         0.23        450.8 
      1248.0         0.23        451.8 
      1249.0         0.23        455.3 
      1250.0         0.23        458.5 
      1251.0         0.23        459.7 
      1252.0         0.23        460.0 
      1253.0         0.25        460.4 
      1254.0         0.27        458.8 
      1255.0         0.23        457.8 
      1256.0         0.27        457.5 
      1257.0         0.27        450.5 
      1258.0         0.27        440.0 
      1259.0         0.23         65.9 
      1260.0         2.62       1124.6 
      1261.0         0.37        874.2 
      1262.0         0.33        803.4 
      1263.0         0.30        713.6 
      1264.0         0.30        652.4 
      1265.0         0.27        611.4 
      1266.0         0.27        584.8 
      1267.0         0.27        561.3 
      1268.0         0.28        547.3 
      1269.0         0.27        531.8 
      1270.0         0.27        521.9 
      1271.0         0.23        509.2 
      1272.0         0.27        499.1 
      1273.0         0.23        490.2 
      1274.0         0.27        481.0 
      1275.0         0.23        475.0 
      1276.0         0.27        469.6 
      1277.0         0.27        466.1 
      1278.0         0.27        464.2 
      1279.0         0.23        461.9 
      1280.0         0.27        460.4 
      1281.0         0.23        455.0 
      1282.0         0.28        452.7 
      1283.0         0.23        451.8 
      1284.0         0.30        451.8 
      1285.0         0.27        453.4 
      1286.0         0.23        449.2 
      1287.0         0.27        440.0 
      1288.0         0.23        440.0 
      1289.0         0.27         61.9 
      1290.0         3.05        461.4 
      1291.0         0.43        310.6 
      1292.0         0.40        299.6 
      1293.0         0.30        254.7 
      1294.0         0.23        218.8 
      1295.0         0.25        191.2 
      1296.0         0.20        166.2 
      1297.0         0.33        153.0 
      1298.0         0.33        134.7 
      1299.0         0.20        116.5 
      1300.0         0.20        106.2 
      1301.0         0.20         98.1 
      1302.0         0.20        103.5 
      1303.0         0.17        113.0 
      1304.0         0.20        125.1 
      1305.0         0.23        133.9 
      1306.0         0.20        138.3 
      1307.0         0.23        139.6 
      1308.0         0.20        143.5 
      1309.0         0.23        153.1 
      1310.0         0.28        158.8 
      1311.0         0.40        157.5 
      1312.0         0.20        132.4 
      1313.0         0.23        129.3 
      1314.0         0.27        137.3 
      1315.0         0.30        140.4 
      1316.0         0.30        140.4 
      1317.0         0.27        130.2 
      1318.0         0.23        113.5 
      1319.0         0.23         96.8 
      1320.0         3.25       1187.5 
      1321.0         0.30        786.6 
      1322.0         0.23        721.6 
      1323.0         0.27        685.1 
      1324.0         0.22        651.7 
      1325.0         0.23        617.5 
      1326.0         0.23        593.3 
      1327.0         0.27        572.7 
      1328.0         0.23        550.2 
      1329.0         0.23        528.0 
      1330.0         0.23        512.7 
      1331.0         0.23        504.8 
      1332.0         0.27        496.9 
      1333.0         0.27        489.2 
      1334.0         0.33        488.6 
      1335.0         0.40        488.6 
      1336.0         0.28        484.8 
      1337.0         0.33        479.1 
      1338.0         0.23        467.0 
      1339.0         0.27        464.8 
      1340.0         0.23        469.2 
      1341.0         0.23        475.3 
      1342.0         0.30        480.4 
      1343.0         0.30        481.3 
      1344.0         0.27        480.7 
      1345.0         0.27        481.0 
      1346.0         0.23        481.3 
      1347.0         0.23        474.6 
      1348.0         0.17        456.9 
      1349.0         0.25        446.1 
      1350.0         2.47       1227.2 
      1351.0         0.20        919.3 
      1352.0         0.27        908.8 
      1353.0         0.27        879.0 
