~Version Information
VERS.                      2.0: CWLS Log ASCII Standard - VERSION 2.0
WRAP.                       NO: One line per depth step
~Well Information Block
STRT.FT                -9.2500: 
STOP.FT              1945.2500: 
STEP.FT                 0.2500: 
NULL.                -999.2500: 
COMP.          Pioneer Natural Resources: COMPANY
WELL.          Titan Federal 34-17: WELL
FLD.           Purgatorie River: FIELD
LOC.           321' FSL & 1911' FEL: LOCATION
STAT.                       CO: State
CNTY.               Las Animas: COUNTY
CTRY. USA : Country
SECT. 17 : Section
TOWN. 32S : Township
RANG. 65W : Range
SRVC.          Patterson Wireline: SERVICE COMPANY
DATE.          Tue Oct 11 10:22:27 2005: LOG DATE
API.           05 071 08272 00: UNIQUE WELL ID
~Curve Information Block
DEPT.FT            0 000 00 00: Depth
CCL.                          : Casing Collar Locator
TT3.usec                      : CBL 3' Travel Time
AMP3.mV                       : CBL 3' Amplitude
GR.GAPI                       : Gamma Ray
~Parameter Information Block
~A  Depth       CCL         TT3         AMP3         GR     
# ...
   627.2500      0.0000    760.3944     11.1745     94.3172
   627.5000      0.0000    758.2834     11.2646     93.8546
   627.7500      0.0000    755.6810     11.3277     91.6653
   628.0000      0.0000    751.8829     11.3567     88.5033
   628.2500      0.0000    746.9406     11.3553     86.1126
   628.5000      0.0000    741.9233     11.3262     86.0900
   628.7500      0.0000    738.3964     11.2722     88.6876
   629.0000      0.0000    737.3823     11.2027     92.7273
   629.2500      0.0000    738.5283     11.1320     96.1703
   629.5000      0.0000    740.4067     11.0735     96.9908
   629.7500      0.0000    741.6782     11.0348     94.6296
   630.0000      0.0000    741.7263     11.0144     90.8401
   630.2500      0.0000    740.4042     11.0047     88.1949
   630.5000      0.0000    737.9445     11.0001     87.5770
   630.7500      0.0000    735.2187     11.0029     87.9873
   631.0000      0.0000    733.4619     11.0171     88.8873
   631.2500      0.0000    733.4400     11.0389     91.5107
   631.5000      0.0000    734.8582     11.0580     97.1353
   631.7500      0.0000    736.4352     11.0675    104.8286
   632.0000      0.0000    736.6778     11.0663    111.7798
   632.2500      0.0000    735.0031     11.0571    115.5043
   632.5000      0.0000    732.1870     11.0447    115.0814
   632.7500      0.0000    729.5607     11.0354    110.9179
   633.0000      0.0000    727.9119     11.0307    104.4521
   633.2500      0.0000    727.2361     11.0227     97.8248
   633.5000      0.0000    727.1818     11.0016     92.8465
   633.7500      0.0000    727.4438     10.9688     90.2172
   634.0000      0.0000    727.8448     10.9370     89.7982
   634.2500      0.0000    728.2748     10.9163     90.9904
   634.5000      0.0000    728.6454     10.9057     92.7450
   634.7500      0.0000    728.8905     10.8997     94.0521
   635.0000      0.0000    728.9860     10.8981     94.7685
   635.2500      0.0000    728.9316     10.9084     95.4891
   635.5000      0.0000    728.7291     10.9388     96.5546
   635.7500      0.0000    728.4148     10.9897     97.7430
   636.0000      0.0000    728.0980     11.0529     98.9361
   636.2500      0.0000    727.9065     11.1154    100.2779
   636.5000      0.0000    727.8834     11.1649    101.4031
   636.7500      0.0000    727.9634     11.1934    101.3945
   637.0000      0.0000    728.0518     11.2018    100.0277
   637.2500      0.0000    728.1084     11.2007     98.2941
   637.5000      0.0000    728.1614     11.2028     97.0755
   637.7500      0.0000    728.2591     11.2118     95.8716
   638.0000      0.0000    728.4130     11.2196     93.4582
   638.2500      0.0000    728.5798     11.2142     89.4881
   638.5000      0.0000    728.7335     11.1883     84.8663
   638.7500      0.0000    729.0415     11.1437     80.7563
   639.0000      0.0000    730.0279     11.0901     77.8119
   639.2500      0.0000    732.4498     11.0406     76.2094
   639.5000      0.0000    736.6363     11.0047     75.6936
   639.7500      0.0000    741.6237     10.9820     75.5348
   640.0000      0.0000    745.1844     10.9627     75.0615
   640.2500      0.0000    745.3979     10.9331     74.4568
   640.5000      0.0000    742.4310     10.8827     74.7210
   640.7500      0.0000    738.5015     10.8086     76.6371
   641.0000      0.0000    736.0344     10.7187     79.8671
   641.2500      0.0000    735.9152     10.6304     83.2482
   641.5000      0.0000    737.1620     10.5609     86.0023
   641.7500      0.0000    737.9592     10.5157     88.4662
   642.0000      0.0000    737.1922     10.4858     91.5832
   642.2500      0.0000    735.1479     10.4557     95.9639
   642.5000      0.0000    732.6789     10.4124    101.4432
   642.7500      0.0000    729.8016     10.3473    107.1226
   643.0000      0.0000    725.2587     10.2593    111.6562
   643.2500      0.0000    717.7673     10.1711    113.8832
   643.5000      0.0000    708.4798     10.1205    113.5521
   643.7500      0.0000    702.5616     10.0950    111.3367
   644.0000      0.0000    707.1028      9.9799    108.0310
   644.2500      0.0000    725.7190      9.6452    103.9499
   644.5000      0.0000    755.3102      9.1122     99.2169
   644.7500      0.0000    788.9067      8.5685     94.3032
   645.0000      0.0000    820.4857      8.1944     89.9841
   645.2500     -2.0000    845.6091      8.0286     86.9453
   645.5000      2.0000    860.1391      8.0128     85.5420
   645.7500      0.0000    862.1088      8.1157     85.6929
   646.0000      0.0000    852.4995      8.4090     86.9683
   646.2500      0.0000    830.7952      9.0393     89.0329
   646.5000      0.0000    794.5780     10.0764     92.0720
   646.7500      0.0000    749.0484     11.3343     96.5802
   647.0000      0.0000    711.1038     12.4010    102.5229
   647.2500      0.0000    695.8395     12.9358    108.8122
   647.5000      0.0000    702.0944     12.9196    114.0185
   647.7500      0.0000    716.8076     12.5821    117.4620
   648.0000      0.0000    729.7993     12.1579    119.1290
   648.2500      0.0000    739.6683     11.7606    118.8503
   648.5000      0.0000    748.8456     11.4131    116.3033
   648.7500      0.0000    758.0844     11.1124    111.7324
   649.0000      0.0000    765.8763     10.8574    105.9844
   649.2500      0.0000    770.5283     10.6530     99.8912
   649.5000      0.0000    771.6199     10.5035     94.2060
   649.7500      0.0000    770.1202     10.4038     90.1088
   650.0000      0.0000    767.8925     10.3382     89.0984
   650.2500      0.0000    766.8936     10.2869     92.0451
   650.5000      0.0000    768.0308     10.2357     98.4921
   650.7500      0.0000    770.6367     10.1766    106.8913
   651.0000      0.0000    773.2909     10.1008    115.3731
   651.2500      0.0000    775.0615      9.9977    122.3432
   651.5000      0.0000    775.8892      9.8636    126.6567
   651.7500      0.0000    776.1589      9.7079    127.5187
   652.0000      0.0000    776.2342      9.5457    124.6714
   652.2500      0.0000    776.3008      9.3840    118.9456
   652.5000      0.0000    776.3912      9.2207    112.2293
   652.7500      0.0000    776.4077      9.0581    106.3615
   653.0000      0.0000    776.0858      8.9092    101.9492
   653.2500      0.0000    774.8909      8.7885     98.2926
   653.5000      0.0000    771.9973      8.7010     94.3801
   653.7500      0.0000    766.6470      8.6447     90.0086
   654.0000      0.0000    758.9579      8.6203     86.0215
   654.2500      0.0000    750.5129      8.6329     83.4620
   654.5000      0.0000    743.9040      8.6859     82.7280
   654.7500      0.0000    741.4250      8.7741     83.7881
   655.0000      0.0000    743.9401      8.8788     86.7967
   655.2500      0.0000    750.5186      8.9673     91.7983
   655.5000      0.0000    758.8580      9.0064     97.8452
   655.7500      0.0000    766.4103      8.9848    103.0392
   656.0000      0.0000    771.6395      8.9219    105.8609
   656.2500      0.0000    774.4125      8.8509    106.2715
   656.5000      0.0000    775.3195      8.7946    105.2248
   656.7500      0.0000    774.7426      8.7577    103.3506
   657.0000      0.0000    772.5424      8.7386    100.5907
   657.2500      0.0000    768.6396      8.7419     97.0584
   657.5000      0.0000    764.0095      8.7754     93.7786
   657.7500      0.0000    760.8633      8.8338     92.4120
   658.0000      0.0000    761.2317      8.8936     94.1878
   658.2500      0.0000    765.4323      8.9316     98.6875
   658.5000      0.0000    772.5912      8.9463    103.4615
   658.7500      0.0000    782.9037      8.9540    105.3736
   659.0000      0.0000    798.1876      8.9670    102.9325
   659.2500      0.0000    818.4251      8.9802     97.3671
   659.5000      0.0000    837.6099      8.9798     91.4747
   659.7500      0.0000    845.7888      8.9618     87.5403
   660.0000      0.0000    837.6888      8.9418     86.0432
   660.2500      0.0000    817.8948      8.9463     85.8250
   660.5000      0.0000    795.7457      8.9934     85.3235
