~Version Information
VERS.                      2.0: CWLS Log ASCII Standard - VERSION 2.0
WRAP.                       NO: One line per depth step
~Well Information Block
STRT.FT                -2.7500: 
STOP.FT              2139.2500: 
STEP.FT                 0.2500: 
NULL.                -999.2500: 
COMP.          Petrogulf Corporation: COMPANY
WELL.             State 16-34V: WELL
FLD.           Purgatorie River: FIELD
LOC.           1146' FSL & 1393' FEL: LOCATION
PROV.                 Colorado: PROVINCE
CNTY.               Las Animas: COUNTRY
SRVC.          Patterson Wireline: SERVICE COMPANY
DATE.          Wed Jun 25 13:16:42 2003: LOG DATE
UWI.           05 071 07724 00: UNIQUE WELL ID
~Curve Information Block
DEPT.FT            0 000 00 00: Depth
CCL.                          : Casing Collar Locator
TT3.usec                      : CBL 3' Travel Time
AMP3.mV                       : CBL 3' Amplitude
GR.GAPI                       : Gamma Ray
~Parameter Information Block
~A  Depth       CCL         TT3         AMP3         GR     
# ...
   566.7500      0.0000    448.1127      9.5993     61.2777
   567.0000      0.0000    448.1267      9.3496     62.0007
   567.2500      0.0000    447.8947      9.0985     61.9509
   567.5000      0.0000    447.5488      8.8288     61.5781
   567.7500      0.0000    447.2357      8.5750     61.7684
   568.0000      0.0000    447.0293      8.3963     62.8792
   568.2500      0.0000    446.9287      8.3263     64.3946
   568.5000      0.0000    446.9204      8.3446     65.2409
   568.7500      0.0000    447.0104      8.3859     64.5105
   569.0000      0.0000    447.1873      8.3882     62.1848
   569.2500      0.0000    447.3871      8.3406     59.2283
   569.5000      0.0000    447.5273      8.2695     56.9449
   569.7500      0.0000    447.5810      8.1915     56.0977
   570.0000      0.0000    447.6015      8.1070     56.3684
   570.2500      0.0000    447.6639      8.0319     56.6963
   570.5000      0.0000    447.7818      8.0068     56.4878
   570.7500      0.0000    447.8837      8.0661     56.4107
   571.0000      0.0000    447.8720      8.1953     57.6539
   571.2500      0.0000    447.7020      8.3194     60.5278
   571.5000      0.0000    447.4092      8.3489     64.1458
   571.7500      0.0000    447.0708      8.2578     67.4336
   572.0000      0.0000    446.7561      8.1161     70.1081
   572.2500      0.0000    446.5104      8.0388     72.6293
   572.5000      0.0000    446.3524      8.1016     75.4237
   572.7500      0.0000    446.2812      8.3023     78.3413
   573.0000      0.0000    446.3117      8.5916     80.7286
   573.2500      0.0000    446.6947      8.9287     81.7127
   573.5000      0.0000    448.2975      9.2985     80.3997
   573.7500      0.0000    452.9108      9.6747     76.3236
   574.0000      0.0000    462.5411      9.9882     70.1691
   574.2500      0.0000    476.9115     10.1639     63.8425
   574.5000      0.0000    491.0430     10.2004     59.3768
   574.7500      0.0000    497.2353     10.1794     57.6366
   575.0000      0.0000    491.6201     10.1719     58.0686
   575.2500      0.0000    478.0344     10.1509     59.5070
   575.5000      0.0000    464.1232     10.0261     61.0839
   575.7500      0.0000    454.7930      9.7557     62.4646
   576.0000      0.0000    450.2816      9.4028     63.6139
   576.2500      0.0000    448.6170      9.0861     64.8230
   576.5000      0.0000    448.0757      8.8884     66.7207
   576.7500      0.0000    447.7995      8.8012     69.4843
   577.0000      0.0000    447.4707      8.7476     72.0220
   577.2500      0.0000    447.0274      8.6696     72.6761
   577.5000      0.0000    446.5429      8.5920     70.8808
   577.7500      0.0000    446.2021      8.5880     67.5683
   578.0000      0.0000    446.2362      8.6786     64.0298
   578.2500      0.0000    447.1062      8.7897     61.0224
   578.5000      0.0000    450.1863      8.8183     58.9327
   578.7500      0.0000    458.6808      8.7267     58.0953
   579.0000      0.0000    477.1408      8.5630     58.7153
   579.2500      0.0000    507.3231      8.4181     60.6424
   579.5000      0.0000    542.1027      8.3783     63.1485
   579.7500      0.0000    565.5027      8.4781     64.9430
   580.0000      0.0000    564.0034      8.6624     64.7957
   580.2500      0.0000    539.3875      8.8150     62.3942
   580.5000      0.0000    507.9877      8.8512     58.5797
   580.7500      0.0000    486.8725      8.7773     54.7681
   581.0000      0.0000    481.8080      8.6684     52.0693
   581.2500      0.0000    486.4756      8.6142     50.6779
   581.5000      0.0000    490.4909      8.6731     49.9919
   581.7500      0.0000    488.8620      8.8487     49.3570
   582.0000      0.0000    485.0551      9.1055     48.7829
   582.2500      0.0000    484.8950      9.4110     48.9772
   582.5000      0.0000    488.3957      9.7383     50.6151
   582.7500      0.0000    489.4344     10.0301     53.4090
   583.0000      0.0000    483.1444     10.2101     56.0271
   583.2500      0.0000    471.2339     10.2603     57.2042
   583.5000      0.0000    459.3617     10.2592     56.8490
   583.7500      0.0000    451.4263     10.3181     55.8958
   584.0000      0.0000    447.6044     10.4918     55.2912
   584.2500      0.0000    446.1882     10.7610     55.4165
   584.5000      0.0000    445.6244     11.0883     56.2588
   584.7500      0.0000    445.0033     11.4642     57.6828
   585.0000      0.0000    443.5802     11.9024     59.4622
   585.2500      0.0000    440.1014     12.4206     61.3097
   585.5000      0.0000    432.4970     13.0307     63.1391
   585.7500      0.0000    418.6976     13.7175     65.2940
   586.0000      0.0000    398.4612     14.4213     68.2301
   586.2500      0.0000    374.5030     15.0650     71.6604
   586.5000      0.0000    351.2110     15.6040     74.2848
   586.7500      0.0000    332.0352     16.0418     74.9406
   587.0000      0.0000    318.2466     16.4116     73.9225
   587.2500      0.0000    309.5906     16.7599     72.6603
   587.5000      0.0000    305.6189     17.1170     72.2441
   587.7500      0.0000    306.9550     17.4479     72.7244
   588.0000      0.0000    316.4836     17.6155     73.6680
   588.2500      0.0000    338.6578     17.4081     74.8799
   588.5000      0.0000    374.9355     16.6541     76.4828
   588.7500      0.0000    418.4162     15.3837     78.4972
   589.0000      0.0000    455.7329     13.8981     80.5485
   589.2500      0.0000    477.2327     12.6052     82.1440
   589.5000      0.0000    483.6812     11.7332     83.2262
   589.7500     -2.0000    481.2953     11.2266     84.2566
   590.0000     -2.0000    473.4164     10.9137     85.7309
   590.2500      0.0000    459.9291     10.6944     87.7288
   590.5000      0.0000    442.8515     10.5684     89.9663
   590.7500      0.0000    429.1261     10.5760     92.0851
   591.0000      0.0000    426.7197     10.7446     93.7105
   591.2500      0.0000    438.3648     11.0322     94.3697
   591.5000      0.0000    459.1148     11.3084     93.6440
   591.7500      0.0000    478.9619     11.4405     91.4202
   592.0000      0.0000    488.7546     11.3876     87.9432
   592.2500      0.0000    486.4286     11.1751     83.9055
   592.5000      0.0000    479.0315     10.8168     80.6392
   592.7500      0.0000    477.8304     10.3160     79.7161
   593.0000      0.0000    490.6228      9.7195     81.7371
   593.2500      0.0000    517.4881      9.1273     85.4852
   593.5000      0.0000    552.0897      8.6418     88.7744
   593.7500      0.0000    586.4767      8.3113     90.3523
   594.0000      0.0000    615.4158      8.1163     90.6642
   594.2500      0.0000    637.7143      8.0006     90.7618
   594.5000      0.0000    654.9597      7.9163     91.0296
   594.7500      0.0000    669.1124      7.8396     91.0226
   595.0000      0.0000    680.4580      7.7689     90.0223
   595.2500      0.0000    688.1542      7.7307     87.5038
   595.5000      0.0000    693.3419      7.7807     83.3702
   595.7500      0.0000    700.0453      7.9661     78.0771
   596.0000      0.0000    711.1705      8.2775     72.5738
   596.2500      0.0000    724.7844      8.6487     67.8576
   596.5000      0.0000    736.0866      9.0031     64.2812
   596.7500      0.0000    741.7658      9.2891     61.3531
   597.0000      0.0000    740.8263      9.4920     58.5872
   597.2500      0.0000    732.6750      9.6475     56.5394
   597.5000      0.0000    716.4884      9.8398     56.5090
   597.7500      0.0000    692.2352     10.1371     58.9360
   598.0000      0.0000    661.9874     10.4962     62.3795
   598.2500      0.0000    630.4623     10.7630     64.4962
   598.5000      0.0000    603.4128     10.8041     64.0625
   598.7500      0.0000    584.5090     10.6308     61.8371
   599.0000      0.0000    573.7238     10.3704     59.5866
   599.2500      0.0000    568.4985     10.1364     58.5465
   599.5000      0.0000    565.9359      9.9603     58.7368
   599.7500      0.0000    564.1104      9.8368     59.3416
   600.0000      0.0000    562.2656      9.7888     59.5512
