~Version Information
VERS.                      2.0: CWLS Log ASCII Standard - VERSION 2.0
WRAP.                       NO: One line per depth step
~Well Information Block
STRT.FT               698.9000: 
STOP.FT              2459.5000: 
STEP.FT                 0.1000: 
NULL.                -999.2500: 
COMP.          Petrogulf Corporation: COMPANY
WELL.             State 16-23V: WELL
FLD.           Purgatorie River: FIELD
LOC.           2414' FSL & 2215' FWL: LOCATION
PROV.                 Colorado: PROVINCE
CNTY.               Las Animas: COUNTRY
SRVC.                         : SERVICE COMPANY
DATE.          Mon Jun 09 12:47:39 2003: LOG DATE
UWI.           05 071 07865 00: UNIQUE WELL ID
~Curve Information Block
DEPT.FT            0 000 00 00: Depth
SP.mV                         : DIL Spontaneous Potential
RILD.Ohm-m                    : DIL Deep Resistivity
RILM.Ohm-m                    : DIL Medium Resistivity
RLL3.Ohm-m                    : DIL Shallow Resistivity
GR.GAPI                       : Gamma Ray
~Parameter Information Block
~A  Depth        SP         RILD        RILM        RLL3         GR     
# ...
  1628.5000     13.0012     10.6175     14.1113     20.6444    100.5638
  1628.6000     13.0012     10.6175     14.1113     20.6444     99.7908
  1628.7000     13.0012     10.6175     14.1113     20.6444     99.4337
  1628.8000     13.0137     10.7318     13.9834     20.3449     99.5270
  1628.9000     13.0137     10.7318     13.9834     20.3449    100.0931
  1629.0000     12.9801     10.8381     13.6810     19.1104    101.1401
  1629.1000     12.9801     10.8381     13.6810     19.1104    102.6479
  1629.2000     12.9801     10.8381     13.6810     19.1104    104.5697
  1629.3000     12.9094     10.9217     13.3150     17.3760    106.8355
  1629.4000     12.9094     10.9217     13.3150     17.3760    109.3482
  1629.5000     12.8212     10.9819     12.9858     15.5537    111.9986
  1629.6000     12.8212     10.9819     12.9858     15.5537    114.6755
  1629.7000     12.8212     10.9819     12.9858     15.5537    117.2759
  1629.8000     12.7339     11.0377     12.7531     13.8782    119.7178
  1629.9000     12.7339     11.0377     12.7531     13.8782    121.9436
  1630.0000     12.6593     11.1086     12.6390     12.5092    123.9285
  1630.1000     12.6593     11.1086     12.6390     12.5092    125.6751
  1630.2000     12.6593     11.1086     12.6390     12.5092    127.2079
  1630.3000     12.5988     11.1949     12.6402     11.6196    128.5646
  1630.4000     12.5988     11.1949     12.6402     11.6196    129.7839
  1630.5000     12.5484     11.2773     12.7378     11.2995    130.8966
  1630.6000     12.5484     11.2773     12.7378     11.2995    131.9133
  1630.7000     12.5484     11.2773     12.7378     11.2995    132.8249
  1630.8000     12.5073     11.3335     12.9114     11.5034    133.5999
  1630.9000     12.5073     11.3335     12.9114     11.5034    134.1932
  1631.0000     12.4763     11.3545     13.1460     12.1359    134.5515
  1631.1000     12.4763     11.3545     13.1460     12.1359    134.6205
  1631.2000     12.4763     11.3545     13.1460     12.1359    134.3572
  1631.3000     12.4549     11.3499     13.4289     13.1050    133.7310
  1631.4000     12.4549     11.3499     13.4289     13.1050    132.7328
  1631.5000     12.4423     11.3448     13.7466     14.2927    131.3701
  1631.6000     12.4423     11.3448     13.7466     14.2927    129.6700
  1631.7000     12.4423     11.3448     13.7466     14.2927    127.6732
  1631.8000     12.4357     11.3742     14.0902     15.5291    125.4313
  1631.9000     12.4357     11.3742     14.0902     15.5291    123.0063
  1632.0000     12.4305     11.4713     14.4559     16.6142    120.4676
  1632.1000     12.4305     11.4713     14.4559     16.6142    117.8920
  1632.2000     12.4305     11.4713     14.4559     16.6142    115.3608
  1632.3000     12.4253     11.6523     14.8387     17.3935    112.9576
  1632.4000     12.4253     11.6523     14.8387     17.3935    110.7627
  1632.5000     12.4218     11.9068     15.2340     17.8432    108.8474
  1632.6000     12.4218     11.9068     15.2340     17.8432    107.2630
  1632.7000     12.4218     11.9068     15.2340     17.8432    106.0387
  1632.8000     12.4185     12.2018     15.6523     18.0949    105.1729
  1632.9000     12.4185     12.2018     15.6523     18.0949    104.6341
  1633.0000     12.4116     12.5043     16.1216     18.3924    104.3661
  1633.1000     12.4116     12.5043     16.1216     18.3924    104.2946
  1633.2000     12.4116     12.5043     16.1216     18.3924    104.3430
  1633.3000     12.3930     12.8066     16.6611     18.9716    104.4423
  1633.4000     12.3930     12.8066     16.6611     18.9716    104.5385
  1633.5000     12.3488     13.1286     17.2508     19.8466    104.6085
  1633.6000     12.3488     13.1286     17.2508     19.8466    104.6519
  1633.7000     12.3488     13.1286     17.2508     19.8466    104.6879
  1633.8000     12.2756     13.4895     17.8325     20.7038    104.7455
  1633.9000     12.2756     13.4895     17.8325     20.7038    104.8485
  1634.0000     12.1944     13.8782     18.3474     21.1523    105.0026
  1634.1000     12.1944     13.8782     18.3474     21.1523    105.1888
  1634.2000     12.1944     13.8782     18.3474     21.1523    105.3597
  1634.3000     12.1332     14.2556     18.7726     21.1162    105.4462
  1634.4000     12.1332     14.2556     18.7726     21.1162    105.3725
  1634.5000     12.1003     14.5822     19.1247     20.8660    105.0674
  1634.6000     12.1003     14.5822     19.1247     20.8660    104.4852
  1634.7000     12.1003     14.5822     19.1247     20.8660    103.6161
  1634.8000     12.0898     14.8389     19.4408     20.6806    102.4874
  1634.9000     12.0898     14.8389     19.4408     20.6806    101.1640
  1635.0000     12.1003     15.0261     19.7629     20.6590     99.7342
  1635.1000     12.1003     15.0261     19.7629     20.6590     98.2995
  1635.2000     12.1003     15.0261     19.7629     20.6590     96.9594
  1635.3000     12.1353     15.1526     20.1112     20.8872     95.7931
  1635.4000     12.1353     15.1526     20.1112     20.8872     94.8540
  1635.5000     12.1958     15.2270     20.4438     21.5873     94.1648
  1635.6000     12.1958     15.2270     20.4438     21.5873     93.7172
  1635.7000     12.1958     15.2270     20.4438     21.5873     93.4825
  1635.8000     12.2768     15.2518     20.6499     22.8967     93.4191
  1635.9000     12.2768     15.2518     20.6499     22.8967     93.4825
  1636.0000     12.3667     15.2260     20.6179     24.4445     93.6370
  1636.1000     12.3667     15.2260     20.6179     24.4445     93.8615
  1636.2000     12.3667     15.2260     20.6179     24.4445     94.1559
  1636.3000     12.4506     15.1613     20.3323     25.2941     94.5348
  1636.4000     12.4506     15.1613     20.3323     25.2941     95.0246
  1636.5000     12.5147     15.0989     19.8928     24.6203     95.6525
  1636.6000     12.5147     15.0989     19.8928     24.6203     96.4376
  1636.7000     12.5147     15.0989     19.8928     24.6203     97.3842
  1636.8000     12.5489     15.1036     19.4402     22.5874     98.4699
  1636.9000     12.5489     15.1036     19.4402     22.5874     99.6527
  1637.0000     12.5488     15.2349     19.0766     20.2832    100.8678
  1637.1000     12.5488     15.2349     19.0766     20.2832    102.0402
  1637.2000     12.5488     15.2349     19.0766     20.2832    103.0918
  1637.3000     12.5165     15.5167     18.8461     18.6603    103.9504
  1637.4000     12.5165     15.5167     18.8461     18.6603    104.5597
  1637.5000     12.4550     15.9245     18.7594     17.8895    104.8834
  1637.6000     12.4550     15.9245     18.7594     17.8895    104.9061
  1637.7000     12.4550     15.9245     18.7594     17.8895    104.6322
  1637.8000     12.3624     16.3833     18.8209     17.7850    104.0836
  1637.9000     12.3624     16.3833     18.8209     17.7850    103.2920
  1638.0000     12.2416     16.7851     19.0267     18.3652    102.2954
  1638.1000     12.2416     16.7851     19.0267     18.3652    101.1340
  1638.2000     12.2416     16.7851     19.0267     18.3652     99.8434
  1638.3000     12.1091     17.0397     19.3414     19.7896     98.4567
  1638.4000     12.1091     17.0397     19.3414     19.7896     96.9969
  1638.5000     11.9883     17.1273     19.6950     22.0363     95.4826
  1638.6000     11.9883     17.1273     19.6950     22.0363     93.9297
  1638.7000     11.9883     17.1273     19.6950     22.0363     92.3550
  1638.8000     11.8960     17.0914     20.0212     24.8008     90.7812
  1638.9000     11.8960     17.0914     20.0212     24.8008     89.2430
  1639.0000     11.8307     16.9911     20.2961     27.5319     87.7896
  1639.1000     11.8307     16.9911     20.2961     27.5319     86.4832
  1639.2000     11.8307     16.9911     20.2961     27.5319     85.3917
  1639.3000     11.7745     16.8773     20.5393     29.4923     84.5822
  1639.4000     11.7745     16.8773     20.5393     29.4923     84.1080
  1639.5000     11.7145     16.7975     20.7985     30.0011     83.9950
  1639.6000     11.7145     16.7975     20.7985     30.0011     84.2346
