~Version Information
VERS.                      2.0: CWLS Log ASCII Standard - VERSION 2.0
WRAP.                       NO: One line per depth step
~Well Information Block
STRT.FT               650.0000: 
STOP.FT              2000.5000: 
STEP.FT                 0.1000: 
NULL.                -999.2500: 
COMP.          Pioneer Natural Resources: COMPANY
WELL.           Firehawk 34-26: WELL
FLD.           Purgatoire River: FIELD
LOC.           1196' FSL & 1595' FEL--: LOCATION
STAT.                 Colorado: State
CNTY.               Las Animas: COUNTY
CTRY. USA : Country
SECT. 26 : Section
TOWN. 32S : Township
RANG. 66W : Range
SRVC.                Patterson: SERVICE COMPANY
DATE.          Mon Oct 17 07:23:34 2005: LOG DATE
API.           05 071 08389 00: UNIQUE WELL ID
~Curve Information Block
DEPT.FT            0 000 00 00: Depth
DCAL.in                       : CDL Caliper
RHOB.g/cc                     : CDL Bulk Density
RHOC.g/cc                     : CDL Density Correction
DPOR.pu                       : CDL Density Porosity
NPOR.pu                       : Neutron Porosity
GR.GAPI                       : Gamma Ray
~Parameter Information Block
~A  Depth       DCAL        RHOB        RHOC        DPOR        NPOR         GR     
# ...
  1178.0000      8.0778      2.4739      0.0595     10.6738     21.3273     38.3928
  1178.1000      8.0778      2.4734      0.0223     10.7030     21.5042     37.6202
  1178.2000      8.0778      2.4765      0.0293     10.5139     21.7680     35.3955
  1178.3000      8.0785      2.4862      0.0360      9.9302     21.9846     32.8637
  1178.4000      8.0785      2.4923      0.0400      9.5588     22.0328     31.9174
  1178.5000      8.0782      2.4853      0.0436      9.9803     21.8923     31.3084
  1178.6000      8.0782      2.4690      0.0038     10.9708     21.6474     32.1789
  1178.7000      8.0782      2.4611      0.0186     11.4468     21.4332     36.0653
  1178.8000      8.0758      2.4684      0.0547     11.0065     21.4486     40.3349
  1178.9000      8.0758      2.4757      0.0211     10.5665     21.6100     41.8251
  1179.0000      8.0736      2.4729      0.0351     10.7306     21.6193     40.5436
  1179.1000      8.0736      2.4679      0.0250     11.0369     21.4786     39.4311
  1179.2000      8.0736      2.4697      0.0637     10.9263     21.3850     39.5916
  1179.3000      8.0738      2.4833      0.0297     10.1019     21.5099     38.9344
  1179.4000      8.0738      2.5034      0.0262      8.8824     21.8274     36.4823
  1179.5000      8.0759      2.5030      0.0804      8.9101     21.9981     34.1151
  1179.6000      8.0759      2.4732      0.0259     10.7173     21.8382     33.4722
  1179.7000      8.0759      2.4515      0.0021     12.0312     21.4923     33.9754
  1179.8000      8.0767      2.4626      0.0295     11.3580     21.2107     35.9420
  1179.9000      8.0767      2.4854      0.0554      9.9749     21.2193     39.5804
  1180.0000      8.0759      2.4976      0.0551      9.2372     21.5524     42.1239
  1180.1000      8.0759      2.4992      0.0465      9.1408     21.9589     43.3269
  1180.2000      8.0759      2.4926      0.0620      9.5366     22.0538     44.9624
  1180.3000      8.0757      2.4851      0.0024      9.9916     21.8667     46.4899
  1180.4000      8.0757      2.4859      0.0460      9.9472     21.6890     47.6109
  1180.5000      8.0760      2.4852      0.0534      9.9898     21.5436     48.5035
  1180.6000      8.0760      2.4765      0.0197     10.5162     21.2817     47.5893
  1180.7000      8.0760      2.4711     -0.0009     10.8415     20.9125     43.5364
  1180.8000      8.0757      2.4736      0.0260     10.6888     20.6237     38.1057
  1180.9000      8.0757      2.4733      0.0411     10.7079     20.4683     35.2750
  1181.0000      8.0746      2.4635      0.0259     11.3004     20.5083     36.4757
  1181.1000      8.0746      2.4520      0.0121     12.0015     20.8341     39.1687
  1181.2000      8.0746      2.4505      0.0086     12.0898     21.2491     40.5319
  1181.3000      8.0748      2.4572      0.0307     11.6865     21.5905     40.6544
  1181.4000      8.0748      2.4577      0.0142     11.6570     22.0731     41.6079
  1181.5000      8.0762      2.4441      0.0323     12.4764     22.8242     42.9693
  1181.6000      8.0762      2.4111      0.0281     14.4811     23.7116     42.4806
  1181.7000      8.0762      2.3499     -0.0081     18.1899     24.7182     39.5803
  1181.8000      8.0818      2.2619     -0.0342     23.5204     26.0714     36.3209
  1181.9000      8.0818      2.1663     -0.1131     29.3147     28.1326     35.3714
  1182.0000      8.0952      2.0825     -0.0991     34.3921     30.7975     36.5119
  1182.1000      8.0952      2.0104     -0.0741     38.7657     33.1633     37.3941
  1182.2000      8.0952      1.9487     -0.1392     42.5025     34.6828     36.6940
  1182.3000      8.1157      1.8976     -0.0865     45.6007     35.4833     36.1003
  1182.4000      8.1157      1.8264     -0.0187     49.9129     35.8997     38.4608
  1182.5000      8.1589      1.7134     -0.0990     56.7642     36.4716     41.9878
  1182.6000      8.1589      1.6040     -0.1117     63.3966     36.8191     42.1361
  1182.7000      8.1589      1.5554      0.0568     66.3372     36.2617     40.3160
  1182.8000      8.2193      1.5707      0.1005     65.4136     34.9763     41.6453
  1182.9000      8.2193      1.6332      0.0893     61.6258     33.1320     45.7288
  1183.0000      8.2158      1.7374      0.1047     55.3068     30.9959     50.0500
  1183.1000      8.2158      1.8670      0.1519     47.4560     29.1200     55.0247
  1183.2000      8.2158      1.9910      0.2433     39.9380     27.6261     60.4480
  1183.3000      8.1205      2.0939      0.2572     33.7006     26.6476     64.7906
  1183.4000      8.1205      2.1845      0.2755     28.2117     26.0177     69.0356
  1183.5000      8.0427      2.2695      0.2820     23.0626     25.3764     74.9776
  1183.6000      8.0427      2.3481      0.2511     18.2959     24.7270     80.2572
  1183.7000      8.0427      2.4236      0.2028     13.7222     24.2176     81.3005
  1183.8000      8.0094      2.4922      0.1286      9.5640     23.7774     79.1521
  1183.9000      8.0094      2.5415      0.0942      6.5758     23.2823     79.6431
  1184.0000      7.9898      2.5712      0.0490      4.7782     23.0330     84.8237
  1184.1000      7.9898      2.5917      0.0522      3.5324     23.0437     88.4081
  1184.2000      7.9898      2.6044      0.0623      2.7625     22.8377     85.7050
  1184.3000      7.9787      2.6114      0.0460      2.3365     22.4424     79.0823
  1184.4000      7.9787      2.6186      0.0680      1.9047     22.1670     74.0483
  1184.5000      7.9728      2.6196      0.1018      1.8441     21.9930     73.8781
  1184.6000      7.9728      2.6119      0.0355      2.3072     21.8350     74.5150
  1184.7000      7.9728      2.6060      0.0777      2.6692     21.7293     71.6941
  1184.8000      7.9670      2.6059      0.0471      2.6724     21.6718     67.7452
  1184.9000      7.9670      2.6104      0.0640      2.3985     21.5972     66.5226
  1185.0000      7.9631      2.6167      0.0708      2.0177     21.5809     67.8106
  1185.1000      7.9631      2.6214      0.0764      1.7339     21.6724     67.8549
  1185.2000      7.9631      2.6235      0.0809      1.6083     21.7255     66.6627
  1185.3000      7.9616      2.6254      0.0713      1.4917     21.7323     67.0287
  1185.4000      7.9616      2.6219      0.0875      1.7000     21.7556     69.0436
  1185.5000      7.9625      2.6066      0.0604      2.6328     21.7542     69.4068
  1185.6000      7.9625      2.5924      0.0316      3.4923     21.7199     65.6824
  1185.7000      7.9625      2.5893      0.0693      3.6762     21.6492     61.3717
  1185.8000      7.9684      2.5838      0.0599      4.0104     21.5949     61.1341
  1185.9000      7.9684      2.5666      0.0481      5.0545     21.6840     63.3260
  1186.0000      7.9785      2.5516     -0.0133      5.9632     21.9839     63.9254
  1186.1000      7.9785      2.5602      0.0015      5.4400     22.3390     64.8749
  1186.2000      7.9785      2.5902      0.0375      3.6257     22.2362     67.7425
  1186.3000      7.9866      2.6139      0.0868      2.1904     21.6826     67.6959
  1186.4000      7.9866      2.6179      0.0364      1.9481     21.3641     64.5727
  1186.5000      7.9887      2.6151      0.0238      2.1149     21.6175     64.4075
  1186.6000      7.9887      2.6099      0.0443      2.4307     22.1232     67.4831
  1186.7000      7.9887      2.5912      0.0224      3.5654     22.2972     69.6703
  1186.8000      7.9872      2.5642     -0.0220      5.2011     21.9941     70.7807
  1186.9000      7.9872      2.5463      0.0005      6.2832     21.5799     71.9946
  1187.0000      7.9845      2.5444     -0.0078      6.4016     21.2928     72.2857
  1187.1000      7.9845      2.5608     -0.0146      5.4043     21.2334     72.1168
  1187.2000      7.9845      2.5828      0.0459      4.0740     21.4088     73.3291
  1187.3000      7.9802      2.5856      0.0324      3.9032     21.5174     75.5209
  1187.4000      7.9802      2.5710      0.0131      4.7890     21.2927     76.9545
  1187.5000      7.9735      2.5568      0.0321      5.6457     20.9485     76.9440
