~Version Information
VERS.                      2.0: CWLS Log ASCII Standard - VERSION 2.0
WRAP.                       NO: One line per depth step
~Well Information Block
STRT.FT               340.0000: 
STOP.FT              1542.5000: 
STEP.FT                 0.1000: 
NULL.                -999.2500: 
COMP.          Petrogulf Corporation: COMPANY
WELL.            Montoya 7-21R: WELL
FLD.           Purgatorie River: FIELD
LOC.           445' FNL & 1942' FWL: LOCATION
PROV.                 Colorado: PROVINCE
CNTY.               Las Animas: COUNTRY
SRVC.                Patterson: SERVICE COMPANY
DATE.          Thu Sep 15 10:33:27 2005: LOG DATE
UWI.                          : UNIQUE WELL ID
~Curve Information Block
DEPT.FT            0 000 00 00: Depth
DCAL.in                       : CDL Caliper
RHOB.g/cc                     : CDL Bulk Density
RHOC.g/cc                     : CDL Density Correction
DPOR.pu                       : CDL Density Porosity
GR.GAPI                       : Gamma Ray
NPOR.pu                       : Neutron Porosity
~Parameter Information Block
~A  Depth       DCAL        RHOB        RHOC        DPOR         GR         NPOR    
# ...
  1290.4000      8.0180      2.5226      0.0544      7.7206    125.8804     20.1623
  1290.5000      7.9662      2.5152      0.0539      8.1673    131.8683     20.2590
  1290.6000      7.9662      2.5185      0.0177      7.9694    139.7603     20.2463
  1290.7000      7.9662      2.5347      0.0833      6.9907    143.8264     20.0752
  1290.8000      7.9861      2.5491      0.0521      6.1148    143.5331     19.9687
  1290.9000      7.9861      2.5560      0.0905      5.6963    143.0695     20.1411
  1291.0000      8.0281      2.5557      0.0662      5.7152    143.8623     20.6435
  1291.1000      8.0281      2.5486      0.0228      6.1443    145.1694     21.5218
  1291.2000      8.0281      2.5389      0.0223      6.7333    147.9216     22.4705
  1291.3000      8.0293      2.5284      0.0422      7.3720    152.3845     22.7072
  1291.4000      8.0293      2.5143      0.0614      8.2262    156.3778     22.1286
  1291.5000      8.0186      2.5037      0.0295      8.8660    157.2050     21.5307
  1291.6000      8.0186      2.5097      0.0453      8.5021    154.8241     21.5876
  1291.7000      8.0186      2.5271      0.0661      7.4469    152.4138     22.2888
  1291.8000      7.9932      2.5391      0.0538      6.7205    152.5683     23.2330
  1291.9000      7.9932      2.5378      0.0727      6.7987    154.5609     24.0374
  1292.0000      7.9805      2.5277      0.0463      7.4097    156.0958     24.3561
  1292.1000      7.9805      2.5256      0.0245      7.5422    157.7990     24.1111
  1292.2000      7.9805      2.5447      0.0320      6.3796    160.8685     23.6387
  1292.3000      8.0007      2.5739      0.0716      4.6108    163.6626     23.2964
  1292.4000      8.0007      2.5844      0.1433      3.9782    164.1701     23.3647
  1292.5000      8.0099      2.5661      0.0565      5.0874    163.6755     23.8190
  1292.6000      8.0099      2.5443      0.0247      6.4061    162.5898     24.2661
  1292.7000      8.0099      2.5473      0.0492      6.2215    157.7940     24.4470
  1292.8000      7.9887      2.5726      0.0767      4.6932    150.7693     24.4053
  1292.9000      7.9887      2.5900      0.0974      3.6367    148.6829     23.9700
  1293.0000      7.9830      2.5769      0.0762      4.4317    149.4950     23.1406
  1293.1000      7.9830      2.5430      0.0148      6.4840    146.0296     22.6120
  1293.2000      7.9830      2.5140      0.0321      8.2434    142.8654     22.9318
  1293.3000      8.0030      2.5060      0.0115      8.7277    145.2263     23.6782
  1293.4000      8.0030      2.5212      0.0208      7.8047    146.5052     23.8864
  1293.5000      8.0295      2.5488      0.0488      6.1322    140.8123     23.6237
  1293.6000      8.0295      2.5833      0.0478      4.0404    132.1611     23.7690
  1293.7000      8.0295      2.6364      0.0485      0.8235    126.4368     24.2321
  1293.8000      8.0379      2.7064      0.1239     -3.4194    123.6178     24.2076
  1293.9000      8.0379      2.7744      0.0999     -7.5401    119.7353     23.6238
  1294.0000      8.0029      2.8341      0.1304    -11.1571    113.3973     23.0153
  1294.1000      8.0029      2.8801      0.1833    -13.9454    107.9742     22.6603
  1294.2000      8.0029      2.8963      0.2048    -14.9251    105.5225     22.4930
  1294.3000      7.9976      2.8734      0.1005    -13.5417    103.7827     22.4019
  1294.4000      7.9976      2.8213      0.0625    -10.3818    102.5012     22.4686
  1294.5000      7.9556      2.7615     -0.0609     -6.7582    105.6789     22.5396
  1294.6000      7.9556      2.7114     -0.0488     -3.7212    112.5748     22.3717
  1294.7000      7.9556      2.6737     -0.0446     -1.4373    115.3273     22.1210
  1294.8000      7.9832      2.6455     -0.0521      0.2712    111.6628     22.0219
  1294.9000      7.9832      2.6200     -0.0187      1.8164    110.1181     22.2195
  1295.0000      7.9779      2.5943     -0.0318      3.3739    116.6490     22.5362
  1295.1000      7.9779      2.5837     -0.0307      4.0177    127.7752     22.6594
  1295.2000      7.9779      2.6046      0.0135      2.7489    136.9696     22.8681
  1295.3000      7.9667      2.6318      0.1646      1.1054    142.1956     23.5808
  1295.4000      7.9667      2.6201      0.1201      1.8146    145.0931     24.4676
  1295.5000      7.9945      2.5773      0.0693      4.4070    144.4779     25.2354
  1295.6000      7.9945      2.5402      0.0704      6.6569    138.3182     25.9267
  1295.7000      7.9945      2.5171      0.0165      8.0564    130.6618     26.3367
  1295.8000      8.0431      2.4987      0.0302      9.1690    128.4925     26.2922
  1295.9000      8.0431      2.4827     -0.0011     10.1412    133.1131     25.8679
  1296.0000      8.1128      2.4774     -0.0294     10.4598    141.1762     25.4453
  1296.1000      8.1128      2.4796      0.0347     10.3259    148.8208     25.4466
  1296.2000      8.1128      2.4681      0.0602     11.0243    152.1066     25.7011
  1296.3000      8.0486      2.4400      0.0075     12.7245    149.9546     25.7600
  1296.4000      8.0486      2.4125      0.0979     14.3960    147.0332     25.7542
  1296.5000      8.0158      2.3923      0.0798     15.6169    148.3651     26.1427
  1296.6000      8.0158      2.3868      0.0697     15.9501    154.4386     26.7654
  1296.7000      8.0158      2.4094      0.0572     14.5846    161.3557     26.9678
  1296.8000      8.0561      2.4571      0.1091     11.6898    161.8701     26.6495
  1296.9000      8.0561      2.5078      0.2093      8.6173    155.7163     26.3364
  1297.0000      8.0951      2.5459      0.2398      6.3077    151.7814     26.3091
  1297.1000      8.0951      2.5758      0.2571      4.4957    154.9284     26.5797
  1297.2000      8.0951      2.5981      0.3409      3.1473    162.3155     27.0344
  1297.3000      8.1838      2.5945      0.3110      3.3646    171.2614     27.3865
  1297.4000      8.1838      2.5525      0.2565      5.9106    179.2071     27.5469
  1297.5000      8.1439      2.4778      0.2027     10.4352    180.2152     27.5760
  1297.6000      8.1439      2.3889      0.1082     15.8216    173.4281     27.4707
  1297.7000      8.1439      2.3055      0.0836     20.8776    163.0491     27.4210
  1297.8000      8.1887      2.2370      0.0256     25.0324    153.9933     27.7760
  1297.9000      8.1887      2.1947      0.0088     27.5954    149.7617     28.3600
  1298.0000      8.1352      2.1889      0.0625     27.9452    151.1559     28.7390
  1298.1000      8.1352      2.2088      0.1273     26.7408    156.6829     29.0717
  1298.2000      8.1352      2.2434      0.1652     24.6417    161.5254     29.5804
  1298.3000      8.1884      2.3005      0.2088     21.1835    163.6093     29.8570
  1298.4000      8.1884      2.3754      0.3279     16.6431    164.1191     29.5273
  1298.5000      8.4304      2.4433      0.3776     12.5283    164.2921     29.1723
  1298.6000      8.4304      2.4993      0.3759      9.1311    163.9669     29.4810
  1298.7000      8.4304      2.5522      0.3768      5.9292    162.0624     30.0353
  1298.8000      8.5122      2.5863      0.3956      3.8627    158.1691     29.9539
  1298.9000      8.5122      2.5821      0.3046      4.1175    151.8280     29.2922
  1299.0000      8.4453      2.5447      0.3046      6.3841    144.1380     28.7552
  1299.1000      8.4453      2.4944      0.2248      9.4281    137.8066     28.5189
  1299.2000      8.4453      2.4570      0.1880     11.6944    133.7610     28.4317
  1299.3000      8.4684      2.4378      0.2022     12.8591    131.7585     28.6311
  1299.4000      8.4684      2.4153      0.1580     14.2222    131.1916     28.9441
  1299.5000      8.6780      2.3790      0.1191     16.4249    132.8754     28.8205
  1299.6000      8.6780      2.3498      0.0678     18.1964    138.3385     28.3378
  1299.7000      8.6780      2.3600      0.0807     17.5742    144.6630     27.9680
  1299.8000      8.8952      2.4141      0.2536     14.2973    145.4839     27.5942
  1299.9000      8.8952      2.4851      0.2919      9.9965    139.2036     27.1996
