~Version Information
VERS.                      2.0: CWLS Log ASCII Standard - VERSION 2.0
WRAP.                       NO: One line per depth step
~Well Information Block
STRT.FT               420.0000: 
STOP.FT              1528.5000: 
STEP.FT                 0.2500: 
NULL.                -999.2500: 
COMP.          Evergreen Operating Corporation: COMPANY
WELL.              Chase 21-10: WELL
FLD.           Purgatoire River: FIELD
LOC.           1122' FNL & 1544' FWL: LOCATION
PROV.                       CO: PROVINCE
CNTY.               Las Animas: COUNTRY
SRVC.                         : SERVICE COMPANY
DATE.          Sun May 23 21:20:45 2004: LOG DATE
UWI.           05 071 08006 00: UNIQUE WELL ID
~Curve Information Block
DEPT.FT            0 000 00 00: Depth
SN.Ohm-m                      : IEL Short Normal
SP.mV                         : IEL Spontaneous Potential
DIR.Ohm-m                     : IEL Induction Resistivity
GR.GAPI                       : Gamma Ray
~Parameter Information Block
~A  Depth        SN          SP         DIR          GR     
# ...
   721.5000   2000.0000   2038.0000      8.1063    121.5650
   721.7500   2000.0000   2038.0000      8.1758    119.2225
   722.0000   2000.0000   2038.0000      8.2434    117.1375
   722.2500   2000.0000   2038.0000      8.3055    117.2543
   722.5000   2000.0000   2038.0000      8.3559    120.2225
   722.7500   2000.0000   2038.0000      8.3863    123.7310
   723.0000   2000.0000   2038.0000      8.3883    129.4454
   723.2500   2000.0000   2038.0000      8.3556    132.2932
   723.5000   2000.0000   2038.0000      8.2860    134.1508
   723.7500   2000.0000   2038.0000      8.1818    134.2747
   724.0000   2000.0000   2038.0000      8.0498    134.5393
   724.2500   2000.0000   2038.0000      7.8991    135.3617
   724.5000   2000.0000   2038.0000      7.7393    137.0911
   724.7500   2000.0000   2038.0000      7.5789    137.9875
   725.0000   2000.0000   2038.0000      7.4247    138.7156
   725.2500   2000.0000   2038.0000      7.2818    139.0886
   725.5000   2000.0000   2038.0000      7.1531    139.8351
   725.7500   2000.0000   2038.0000      7.0384    140.3723
   726.0000   2000.0000   2038.0000      6.9354    140.8374
   726.2500   2000.0000   2038.0000      6.8403    140.6357
   726.5000   2000.0000   2038.0000      6.7503    139.2636
   726.7500   2000.0000   2038.0000      6.6644    137.9098
   727.0000   2000.0000   2038.0000      6.5842    136.5315
   727.2500   2000.0000   2038.0000      6.5122    136.6985
   727.5000   2000.0000   2038.0000      6.4516    138.4457
   727.7500   2000.0000   2038.0000      6.4052    139.9730
   728.0000   2000.0000   2038.0000      6.3747    141.8842
   728.2500   2000.0000   2038.0000      6.3609    142.7837
   728.5000   2000.0000   2038.0000      6.3636    143.7670
   728.7500   2000.0000   2038.0000      6.3816    144.1951
   729.0000   2000.0000   2038.0000      6.4129    144.2807
   729.2500   2000.0000   2038.0000      6.4546    143.9381
   729.5000   2000.0000   2038.0000      6.5032    142.9995
   729.7500   2000.0000   2038.0000      6.5552    142.0881
   730.0000   2000.0000   2038.0000      6.6078    140.1437
   730.2500   2000.0000   2038.0000      6.6592    138.5894
   730.5000   2000.0000   2038.0000      6.7091    136.2858
   730.7500   2000.0000   2038.0000      6.7578    134.6418
   731.0000   2000.0000   2038.0000      6.8062    131.1806
   731.2500   2000.0000   2038.0000      6.8548    128.0711
   731.5000   2000.0000   2038.0000      6.9038    123.5607
   731.7500   2000.0000   2038.0000      6.9527    122.0614
   732.0000   2000.0000   2038.0000      7.0006    123.7140
   732.2500   2000.0000   2038.0000      7.0468    127.0939
   732.5000   2000.0000   2038.0000      7.0908    133.1112
   732.7500   2000.0000   2038.0000      7.1326    136.2085
   733.0000   2000.0000   2038.0000      7.1734    138.0983
   733.2500   2000.0000   2038.0000      7.2156    137.4191
   733.5000   2000.0000   2038.0000      7.2620    134.0014
   733.7500   2000.0000   2038.0000      7.3140    130.7900
   734.0000   2000.0000   2038.0000      7.3702    126.2383
   734.2500   2000.0000   2038.0000      7.4276    124.2925
   734.5000   2000.0000   2038.0000      7.4839    123.5318
   734.7500   2000.0000   2038.0000      7.5391    123.9509
   735.0000   2000.0000   2038.0000      7.5962    124.3707
   735.2500   2000.0000   2038.0000      7.6604    123.8459
   735.5000   2000.0000   2038.0000      7.7377    121.8411
   735.7500   2000.0000   2038.0000      7.8344    120.1176
   736.0000   2000.0000   2038.0000      7.9571    117.6840
   736.2500   2000.0000   2038.0000      8.1130    116.4965
   736.5000   2000.0000   2038.0000      8.3095    116.0080
   736.7500   2000.0000   2038.0000      8.5523    116.8493
   737.0000   2000.0000   2038.0000      8.8442    119.5385
   737.2500   2000.0000   2038.0000      9.1826    121.5780
   737.5000   2000.0000   2038.0000      9.5596    124.1618
   737.7500   2000.0000   2038.0000      9.9647    125.9229
   738.0000   2000.0000   2038.0000     10.3882    130.2389
   738.2500   2000.0000   2038.0000     10.8246    134.9145
   738.5000   2000.0000   2038.0000     11.2747    144.1290
   738.7500   2000.0000   2038.0000     11.7468    150.3203
   739.0000   2000.0000   2038.0000     12.2569    155.9190
   739.2500   2000.0000   2038.0000     12.8245    155.0726
   739.5000   2000.0000   2038.0000     13.4623    145.5410
   739.7500   2000.0000   2038.0000     14.1621    134.8527
   740.0000   2000.0000   2038.0000     14.8818    117.0023
   740.2500   2000.0000   2038.0000     15.5427    106.9351
   740.5000   2000.0000   2038.0000     16.0458     97.9180
   740.7500   2000.0000   2038.0000     16.3061     96.0756
   741.0000   2000.0000   2038.0000     16.2898     96.9437
   741.2500   2000.0000   2038.0000     16.0303     97.7277
   741.5000   2000.0000   2038.0000     15.6147     96.4681
   741.7500   2000.0000   2038.0000     15.1515     93.8149
   742.0000   2000.0000   2038.0000     14.7414     89.0555
   742.2500   2000.0000   2038.0000     14.4595     86.9689
   742.5000   2000.0000   2038.0000     14.3484     87.3670
   742.7500   2000.0000   2038.0000     14.4155     90.2340
   743.0000   2000.0000   2038.0000     14.6333     97.4875
   743.2500   2000.0000   2038.0000     14.9422    103.1542
   743.5000   2000.0000   2038.0000     15.2600    110.7960
   743.7500   2000.0000   2038.0000     15.4987    114.6054
   744.0000   2000.0000   2038.0000     15.5874    118.6199
   744.2500   2000.0000   2038.0000     15.4933    120.8405
   744.5000   2000.0000   2038.0000     15.2337    124.2187
   744.7500   2000.0000   2038.0000     14.8691    126.1794
   745.0000   2000.0000   2038.0000     14.4772    127.5309
   745.2500   2000.0000   2038.0000     14.1221    127.2585
   745.5000   2000.0000   2038.0000     13.8367    126.4542
   745.7500   2000.0000   2038.0000     13.6217    126.7451
   746.0000   2000.0000   2038.0000     13.4546    129.3813
   746.2500   2000.0000   2038.0000     13.3010    132.4450
   746.5000   2000.0000   2038.0000     13.1245    138.0663
   746.7500   2000.0000   2038.0000     12.8955    141.8686
   747.0000   2000.0000   2038.0000     12.5963    146.6936
   747.2500   2000.0000   2038.0000     12.2246    149.0056
   747.5000   2000.0000   2038.0000     11.7923    151.4785
   747.7500   2000.0000   2038.0000     11.3228    153.1388
   748.0000   2000.0000   2038.0000     10.8439    156.4018
   748.2500   2000.0000   2038.0000     10.3808    158.6133
   748.5000   2000.0000   2038.0000      9.9520    159.9187
   748.7500   2000.0000   2038.0000      9.5680    158.6435
   749.0000   2000.0000   2038.0000      9.2320    154.4548
   749.2500   2000.0000   2038.0000      8.9416    151.5979
   749.5000   2000.0000   2038.0000      8.6906    148.8486
   749.7500   2000.0000   2038.0000      8.4715    147.8938
   750.0000   2000.0000   2038.0000      8.2768    146.8570
   750.2500   2000.0000   2038.0000      8.1010    146.3663
   750.5000   2000.0000   2038.0000      7.9409    146.7122
   750.7500   2000.0000   2038.0000      7.7960    148.0678
   751.0000   2000.0000   2038.0000      7.6683    151.5768
   751.2500   2000.0000   2038.0000      7.5620    154.3068
   751.5000   2000.0000   2038.0000      7.4835    157.7270
   751.7500   2000.0000   2038.0000      7.4419    159.0172
   752.0000   2000.0000   2038.0000      7.4483    159.2893
   752.2500   2000.0000   2038.0000      7.5144    158.6967
   752.5000   2000.0000   2038.0000      7.6496    157.4336
   752.7500   2000.0000   2038.0000      7.8601    156.5301
   753.0000   2000.0000   2038.0000      8.1467    154.7385
   753.2500   2000.0000   2038.0000      8.5056    152.9246
   753.5000   2000.0000   2038.0000      8.9293    149.1248
   753.7500   2000.0000   2038.0000      9.4092    146.0410
   754.0000   2000.0000   2038.0000      9.9382    140.5623
   754.2500   2000.0000   2038.0000     10.5141    135.7547
   754.5000   2000.0000   2038.0000     11.1409    125.2437
   754.7500   2000.0000   2038.0000     11.8296    115.5844
