~Version Information
VERS.                      2.0: CWLS Log ASCII Standard - VERSION 2.0
WRAP.                       NO: One line per depth step
~Well Information Block
STRT.FT              1882.7500: 
STOP.FT              2400.5000: 
STEP.FT                 0.2500: 
NULL.                -999.2500: 
COMP.          Pioneer Natural Resources: COMPANY
WELL.          Flying Horse 12-11: WELL
FLD.           Purgatoire River: FIELD
LOC.           2,428' FNL & 308' FWL------: LOCATION
PROV.                 Colorado: PROVINCE
CNTY.               Las Animas: COUNTRY
SRVC.                         : SERVICE COMPANY
DATE.          Fri Jun 10 06:52:30 2005: LOG DATE
UWI.                          : UNIQUE WELL ID
~Curve Information Block
DEPT.FT            0 000 00 00: Depth
CCL.                          : Casing Collar Locator
TT3.usec                      : CBL 3' Travel Time
AMP3.mV                       : CBL 3' Amplitude
AMP5.mV                       : CBL 5' Amplitude
GR.GAPI                       : Gamma Ray
~Parameter Information Block
~A  Depth       CCL         TT3         AMP3        AMP5         GR     
# ...
  2330.7500      0.0000    258.7826     65.4414     89.4356     58.8351
  2331.0000      0.0000    258.7868     65.4640     89.0004     60.9081
  2331.2500      0.0000    258.7928     65.4753     89.8709     62.4046
  2331.5000      0.0000    258.7946     65.4642     89.5227     63.0105
  2331.7500      0.0000    258.7855     65.4053     89.7838     62.8764
  2332.0000      0.0000    258.7661     65.2825     89.1745     62.5984
  2332.2500      0.0000    258.7455     65.1089     90.0450     62.6368
  2332.5000      0.0000    258.7338     64.9254     89.6968     62.8052
  2332.7500      0.0000    258.7377     64.7749     89.8709     62.6031
  2333.0000      0.0000    258.7593     64.6726     89.9579     62.0543
  2333.2500      0.0000    258.7944     64.6001     90.1320     61.8454
  2333.5000      0.0000    258.8313     64.5316     90.2191     62.4497
  2333.7500      0.0000    258.8565     64.4623     90.0450     63.4387
  2334.0000      0.0000    258.8653     64.4119     89.5227     63.8837
  2334.2500      0.0000    258.8647     64.4022     90.0450     63.1608
  2334.5000      0.0000    258.8667     64.4367     89.8709     61.2789
  2334.7500      0.0000    258.8782     64.4967     90.0450     58.7410
  2335.0000      0.0000    258.8974     64.5502     89.3486     56.2096
  2335.2500      0.0000    258.9161     64.5651     88.6522     54.1412
  2335.5000      0.0000    258.9252     64.5240     89.0875     52.7801
  2335.7500      0.0000    258.9206     64.4341     89.4356     52.5237
  2336.0000      0.0000    258.9056     64.3183     88.8263     53.9897
  2336.2500      0.0000    258.8881     64.1921     88.4781     57.4431
  2336.5000      0.0000    258.8745     64.0527     88.3911     62.2963
  2336.7500      0.0000    258.8668     63.8977     89.5227     67.3139
  2337.0000      0.0000    258.8647     63.7550     89.1745     71.2715
  2337.2500      0.0000    258.8708     63.6803     89.2616     73.5502
  2337.5000      0.0000    258.8901     63.7120     89.0004     74.4191
  2337.7500      0.0000    258.9235     63.8287     89.5227     74.7535
  2338.0000      0.0000    258.9617     63.9597     89.2616     75.2633
  2338.2500      0.0000    258.9899     64.0400     89.6097     76.0141
  2338.5000      0.0000    258.9991     64.0470     89.9579     76.7130
  2338.7500      0.0000    258.9923     63.9926     89.9579     77.2432
  2339.0000      0.0000    258.9788     63.8939     89.6968     77.8092
  2339.2500      0.0000    258.9670     63.7601     89.5227     78.8212
  2339.5000      0.0000    258.9616     63.6004     89.4356     80.8280
  2339.7500      0.0000    258.9628     63.4384     89.7838     84.3006
  2340.0000      0.0000    258.9686     63.3150     89.9579     89.0870
  2340.2500      0.0000    258.9784     63.2707     89.5227     94.0178
  2340.5000      0.0000    258.9922     63.3149     89.5227     97.3572
  2340.7500      0.0000    259.0078     63.4172     89.0875     97.9617
  2341.0000      0.0000    259.0204     63.5319     90.0450     96.0284
  2341.2500      0.0000    259.0284     63.6279     88.4781     92.6306
  2341.5000      0.0000    259.0348     63.6941     88.6522     88.7165
  2341.7500      0.0000    259.0425     63.7311     89.6097     84.6796
  2342.0000      0.0000    259.0499     63.7447     89.6968     80.6504
  2342.2500      0.0000    259.0527     63.7423     89.0875     77.0190
  2342.5000      0.0000    259.0500     63.7294     89.3486     74.7555
  2342.7500      0.0000    259.0449     63.7071     89.6097     75.0895
  2343.0000      0.0000    259.0405     63.6749     89.6968     78.4858
  2343.2500      0.0000    259.0377     63.6352     89.5227     83.8344
  2343.5000      0.0000    259.0354     63.5936     89.7838     88.9014
  2343.7500      0.0000    259.0313     63.5534     89.0875     91.8431
  2344.0000      0.0000    259.0226     63.5128     89.4356     92.3412
  2344.2500      0.0000    259.0100     63.4690     89.0004     91.3235
  2344.5000      0.0000    258.9976     63.4249     89.0875     89.8305
  2344.7500      0.0000    258.9906     63.3893     89.3486     88.3883
  2345.0000      0.0000    258.9926     63.3701     89.2616     87.3132
  2345.2500      0.0000    259.0046     63.3672     89.4356     87.0096
  2345.5000      0.0000    259.0243     63.3706     89.7838     87.5895
  2345.7500      0.0000    259.0456     63.3686     89.0004     88.5096
  2346.0000      0.0000    259.0612     63.3576     88.9134     89.0576
  2346.2500      0.0000    259.0659     63.3441     89.0004     89.0484
  2346.5000      0.0000    259.0601     63.3364     89.0875     88.6202
  2346.7500      0.0000    259.0491     63.3369     88.9134     87.5604
  2347.0000      0.0000    259.0396     63.3403     88.6522     85.5524
  2347.2500      0.0000    259.0365     63.3351     88.3911     83.0569
  2347.5000      0.0000    259.0406     63.3065     88.4781     81.1070
  2347.7500      0.0000    259.0490     63.2431     88.6522     79.8345
  2348.0000      0.0000    259.0569     63.1464     88.3911     77.7974
  2348.2500      0.0000    259.0617     63.0345     88.7393     73.5205
  2348.5000      0.0000    259.0642     62.9339     88.4781     67.5691
  2348.7500      0.0000    259.0664     62.8581     88.0429     62.4869
  2349.0000      0.0000    259.0695     62.7896     89.0004     60.5816
  2349.2500      0.0000    259.0743     62.6898     88.3911     61.9835
  2349.5000      0.0000    259.0806     62.5362     88.7393     64.7948
  2349.7500      0.0000    259.0874     62.3483     88.2170     66.8732
  2350.0000      0.0000    259.0940     62.1723     88.1299     67.2964
  2350.2500      0.0000    259.1006     62.0445     88.3911     66.3125
  2350.5000      0.0000    259.1086     61.9677     88.0429     64.6201
  2350.7500      0.0000    259.1179     61.9164     87.8688     63.1784
  2351.0000      0.0000    259.1261     61.8602     88.2170     63.1684
  2351.2500      0.0000    259.1311     61.7896     87.8688     65.2570
  2351.5000      0.0000    259.1345     61.7196     87.6947     68.8675
  2351.7500      0.0000    259.1410     61.6653     87.8688     72.6646
  2352.0000      0.0000    259.1548     61.6124     87.6947     75.6750
  2352.2500      0.0000    259.1754     61.5231     87.6947     77.6190
  2352.5000      0.0000    259.1970     61.3732     87.6947     78.5887
  2352.7500      0.0000    259.2120     61.1781     88.2170     79.0512
  2353.0000      0.0000    259.2166     60.9800     88.3911     79.8925
  2353.2500      0.0000    259.2132     60.8204     88.2170     81.6891
  2353.5000      0.0000    259.2074     60.7202     88.2170     83.9068
  2353.7500      0.0000    259.2029     60.6736     88.4781     85.3326
  2354.0000      0.0000    259.2013     60.6533     87.6947     85.3455
  2354.2500      0.0000    259.2037     60.6284     87.4336     84.4555
  2354.5000      0.0000    259.2116     60.5819     87.2595     83.6221
  2354.7500      0.0000    259.2251     60.5155     87.6947     83.3421
  2355.0000      0.0000    259.2420     60.4420     87.7818     83.4604
  2355.2500      0.0000    259.2603     60.3740     87.7818     83.6201
  2355.5000      0.0000    259.2805     60.3191     87.6077     83.5270
  2355.7500      0.0000    259.3035     60.2798     88.0429     82.7739
  2356.0000      0.0000    259.3259     60.2561     88.1299     81.0013
  2356.2500      0.0000    259.3405     60.2459     88.2170     78.5528
  2356.5000      0.0000    259.3425     60.2404     87.9558     76.4136
  2356.7500      0.0000    259.3336     60.2244     87.6077     75.0313
  2357.0000      0.0000    259.3198     60.1871     87.8688     73.5573
  2357.2500      0.0000    259.3057     60.1347     87.6077     70.6523
  2357.5000      0.0000    259.2922     60.0870     88.1299     65.8666
  2357.7500      0.0000    259.2781     60.0592     87.3465     59.9607
  2358.0000      0.0000    259.2617     60.0474     87.2595     54.0366
  2358.2500      0.0000    259.2451     60.0338     86.3890     48.7694
  2358.5000      0.0000    259.2339     60.0027     86.1279     44.4895
