~Version Information
VERS.                      2.0: CWLS Log ASCII Standard - VERSION 2.0
WRAP.                       NO: One line per depth step
~Well Information Block
STRT.FT                -8.2500: 
STOP.FT              1795.0000: 
STEP.FT                 0.2500: 
NULL.                -999.2500: 
COMP.          Petrogulf Corporation: COMPANY
WELL.           Montoya 7-21 R: WELL
FLD.           Purgatoire River: FIELD
LOC.           445' FNL & 1942' FWL----: LOCATION
PROV.                 Colorado: PROVINCE
CNTY.               Las Animas: COUNTRY
SRVC.                         : SERVICE COMPANY
DATE.          Fri Sep 30 15:33:54 2005: LOG DATE
UWI.                          : UNIQUE WELL ID
~Curve Information Block
DEPT.FT            0 000 00 00: Depth
GR.GAPI                       : Gamma Ray
CCL.                          : Casing Collar Locator
TT3.usec                      : CBL 3' Travel Time
AMP3.mV                       : CBL 3' Amplitude
~Parameter Information Block
~A  Depth        GR         CCL         TT3         AMP3    
# ...
   929.7500    128.6854      0.0000    248.9575     66.1743
   930.0000    123.2114      0.0000    249.0800     65.4673
   930.2500    121.5250      0.0000    249.1758     64.9513
   930.5000    124.7840      0.0000    249.2344     64.6208
   930.7500    131.9757      0.0000    249.3015     64.3960
   931.0000    140.7388      0.0000    249.5501     64.1275
   931.2500    148.4882      0.0000    250.3754     63.6280
   931.5000    152.8106      0.0000    252.4034     62.6870
   931.7500    151.9476      0.0000    256.2020     61.0986
   932.0000    146.0887      0.0000    261.7122     58.7571
   932.2500    137.9082      0.0000    267.9392     55.7711
   932.5000    130.8211      0.0000    273.4364     52.4501
   932.7500    126.4119      0.0000    277.2397     49.1051
   933.0000    123.6886      0.0000    279.3307     45.8040
   933.2500    120.5875      0.0000    280.3498     42.3263
   933.5000    115.9971      0.0000    281.1342     38.4034
   933.7500    110.4534      0.0000    282.5663     34.0345
   934.0000    105.1532      0.0000    285.6452     29.5585
   934.2500    100.7654      0.0000    291.3712     25.4325
   934.5000     97.4835      0.0000    300.3339     21.9740
   934.7500     95.6953      0.0000    312.4222     19.2892
   935.0000     95.8742      0.0000    327.1430     17.3460
   935.2500     97.7528      0.0000    344.6131     16.0377
   935.5000    100.1260      0.0000    366.4294     15.1767
   935.7500    101.8516      0.0000    394.0352     14.4995
   936.0000    102.8137      0.0000    423.6397     13.7805
   936.2500    103.4158      0.0000    443.6199     12.9995
   936.5000    103.3082      0.0000    441.9248     12.3573
   936.7500    101.4469      0.0000    418.0628     12.0672
   937.0000     97.5614      0.0000    384.7568     12.1332
   937.2500     92.8664      0.0000    356.9618     12.3497
   937.5000     89.0784      1.0474    342.1480     12.4829
   937.7500     87.1892      0.0000    340.8686     12.4308
   938.0000     87.1898      0.0000    352.0374     12.2557
   938.2500     88.3952      0.0000    374.0545     12.1149
   938.5000     89.8216      0.0000    401.0491     12.1506
   938.7500     90.6219      0.0000    421.3702     12.4074
   939.0000     90.4242      0.0000    424.2767     12.8165
   939.2500     89.3096      0.0000    410.0844     13.2262
   939.5000     87.5811      0.0000    391.1429     13.4639
   939.7500     85.4837      0.0000    380.1249     13.4385
   940.0000     82.8946      0.0000    378.2933     13.2212
   940.2500     79.3712      0.0000    376.7842     13.0038
   940.5000     74.8753      0.0000    367.9975     12.9677
   940.7500     70.3159      0.0000    353.0689     13.1957
   941.0000     67.0118      0.0000    338.5017     13.6679
   941.2500     65.7587      0.0000    328.8703     14.2817
   941.5000     66.5622      0.0000    324.3434     14.8650
   941.7500     68.8256      0.0000    323.0174     15.2152
   942.0000     71.4768      0.0000    323.7847     15.1807
   942.2500     73.3068      0.0000    327.9413     14.7384
   942.5000     73.6548      0.0000    340.1630     14.0068
   942.7500     72.7879      0.0000    367.8286     13.1734
   943.0000     71.5516      0.0000    415.7770     12.3918
   943.2500     70.7165      0.0000    477.8484     11.7274
   943.5000     70.5232      0.0000    535.3804     11.1731
   943.7500     70.4944      0.0000    570.2820     10.6955
   944.0000     69.7007      0.0000    581.5633     10.2691
   944.2500     67.6189      0.0000    585.6393      9.8876
   944.5000     64.7658      0.0000    600.3679      9.5581
   944.7500     62.1658      0.0000    631.6194      9.2853
   945.0000     60.2901      0.0000    673.0223      9.0620
   945.2500     58.9004      0.0000    712.8909      8.8791
   945.5000     57.8737      0.0000    739.8110      8.7424
   945.7500     57.7062      0.0000    744.9688      8.6726
   946.0000     58.9526      0.0000    723.9131      8.6828
   946.2500     61.3310      0.0000    680.1455      8.7575
   946.5000     63.6924      0.0000    628.1828      8.8584
   946.7500     65.0597      0.0000    589.2548      8.9499
   947.0000     65.5351      0.0000    577.4287      9.0163
   947.2500     65.8663      0.0000    588.2821      9.0549
   947.5000     66.3782      0.0000    604.9454      9.0633
   947.7500     66.8831      0.0000    615.3030      9.0431
   948.0000     67.4401      0.0000    618.8073      9.0115
   948.2500     68.4085      0.0000    618.2211      9.0002
   948.5000     69.6061      0.0000    613.8707      9.0455
   948.7500     70.0904      0.0000    607.4288      9.1836
   949.0000     69.2089      0.0000    601.3210      9.4545
   949.2500     67.6341      0.0000    590.1399      9.8937
   949.5000     66.9564      0.0000    561.3789     10.5098
   949.7500     68.2578      0.0000    510.1789     11.2691
   950.0000     71.3017      0.0000    447.9505     12.1040
   950.2500     75.0172      0.0000    392.9008     12.9332
   950.5000     78.4821      0.0000    355.7253     13.6699
   950.7500     81.4174      0.0000    335.9202     14.2242
   951.0000     84.1442      0.0000    327.3937     14.5363
   951.2500     87.4783      0.0000    324.3792     14.6359
   951.5000     92.3362      0.0000    323.4596     14.6768
   951.7500     98.6676      0.0000    323.0008     14.9008
   952.0000    104.7690      0.0000    322.0535     15.5402
   952.2500    108.5115      0.0000    319.7276     16.7158
   952.5000    109.5284      0.0000    315.2713     18.3877
   952.7500    109.7666      0.0000    308.6625     20.3956
   953.0000    111.8784      0.0000    300.9981     22.5762
   953.2500    117.2897      0.0000    293.9579     24.9001
   953.5000    125.3572      0.0000    288.6814     27.5483
   953.7500    133.8551      0.0000    285.1428     30.8610
   954.0000    140.3789      0.0000    282.4127     35.1634
   954.2500    143.6415      0.0000    279.2705     40.5623
   954.5000    143.8261      0.0000    274.7659     46.8241
   954.7500    142.0570      0.0000    268.7471     53.3820
   955.0000    139.5905      0.0000    262.1023     59.4682
   955.2500    137.3464      0.0000    256.2601     64.3678
   955.5000    136.0792      0.0000    252.2178     67.7116
   955.7500    136.6151      0.0000    250.0268     69.6092
   956.0000    139.3519      0.0000    249.0974     70.5048
   956.2500    143.4448      0.0000    248.7872     70.8922
   956.5000    146.9066      0.0000    248.7017     71.1128
   956.7500    147.8353      0.0000    248.6765     71.3189
   957.0000    145.7555      0.0000    248.6629     71.5309
   957.2500    142.1487      0.0000    248.6527     71.7063
   957.5000    139.6180      0.0000    248.6453     71.7978
   957.7500    139.8610      0.0000    248.6398     71.7881
   958.0000    142.1154      0.0000    248.6340     71.6792
   958.2500    143.9149      0.0000    248.6295     71.4464
   958.5000    143.6631      0.0000    248.6330     71.0215
   958.7500    142.1720      0.0000    248.6525     70.3466
   959.0000    141.4679      0.0000    248.6904     69.4443
   959.2500    142.6085      0.0000    248.7454     68.4167
   959.5000    145.0457      0.0000    248.8217     67.3649
   959.7500    147.3907      0.0000    248.9421     66.3224
   960.0000    148.0809      0.0000    249.1710     65.2735
   960.2500    145.8386      0.0000    249.6657     64.2145
   960.5000    140.4333      0.0000    250.7654     63.1693
   960.7500    133.1147      0.0000    253.0129     62.1424
   961.0000    125.9470      0.0000    256.8994     61.0897
   961.2500    120.6929      0.0000    262.3357     59.9668
   961.5000    118.2064      0.0000    268.3621     58.8144
   961.7500    118.3877      0.0000    273.6118     57.7845
   962.0000    120.4049      0.0000    277.1923     57.0588
   962.2500    123.1354      0.0000    279.0722     56.7275
   962.5000    125.7093      0.0000    279.6712     56.7516
   962.7500    127.8404      0.0000    279.2093     57.0410
   963.0000    129.7045      0.0000    277.4273     57.5510
