~Version Information
VERS.                      2.0: CWLS Log ASCII Standard - VERSION 2.0
WRAP.                       NO: One line per depth step
~Well Information Block
STRT.FT               -19.2500: 
STOP.FT              2421.5000: 
STEP.FT                 0.2500: 
NULL.                -999.2500: 
COMP.          Petrogulf Corporation: COMPANY
WELL.           Montoya 13-41V: WELL
FLD.           Purgatorie River: FIELD
LOC.           449' FNL & 891' FEL: LOCATION
CNTY.               Las Animas: COUNTY
SRVC.                         : SERVICE COMPANY
DATE.          Mon Sep 13 13:48:36 2004: LOG DATE
UWI.                       N/A: UNIQUE WELL ID
STAT.                 Colorado: STATE
~Curve Information Block
DEPT.FT            0 000 00 00: Depth
TT3.usec                      : CBL 3' Travel Time
AMP3.mV                       : CBL 3' Amplitude
GR.GAPI                       : Gamma Ray
CCL.                          : Casing Collar Locator
~Parameter Information Block
~A  Depth       TT3         AMP3         GR         CCL     
# ...
  1588.7500    780.0576      5.1618    160.3064      0.0000
  1589.0000    780.7592      4.6655    161.7665      0.0000
  1589.2500    783.5233      4.2000    162.9112      0.0000
  1589.5000    785.8444      3.7439    163.1926      0.0000
  1589.7500    787.4817      3.2861    162.0886      0.0000
  1590.0000    790.5987      2.8438    159.8715      0.0000
  1590.2500    791.0762      2.4585    157.6813      0.0000
  1590.5000    782.6741      2.1733    156.6624      0.0000
  1590.7500    770.7827      1.9927    156.8642      0.0000
  1591.0000    764.2579      1.8818    157.2038      0.0000
  1591.2500    761.0037      1.8067    156.5113      0.0000
  1591.5000    754.7284      1.7445    154.1746      0.0000
  1591.7500    746.6931      1.6784    149.8986      0.0000
  1592.0000    743.7194      1.6135    143.7021      0.0000
  1592.2500    747.6177      1.5685    136.3898      0.0000
  1592.5000    752.4573      1.5560    129.4688      0.0000
  1592.7500    752.3643      1.5962    124.3529      0.0000
  1593.0000    741.1555      1.7274    121.6494      0.0000
  1593.2500    704.1433      1.9689    120.9598      0.0000
  1593.5000    629.5276      2.2881    121.1161      0.0000
  1593.7500    534.7927      2.6329    120.7033      0.0000
  1594.0000    458.2322      2.9820    118.6955      0.0000
  1594.2500    418.2701      3.3383    114.8798      0.0000
  1594.5000    404.3380      3.6772    109.9480      0.0000
  1594.7500    402.3973      3.9146    105.4246      0.0000
  1595.0000    412.5964      3.9586    103.2787      0.0000
  1595.2500    447.8442      3.8087    104.7678      0.0000
  1595.5000    513.2573      3.5763    109.1939      0.0000
  1595.7500    582.8889      3.3979    114.0725      0.0000
  1596.0000    624.0742      3.3080    116.7786      0.0000
  1596.2500    646.0568      3.2134    116.2642      0.0000
  1596.5000    678.2111      3.0293    113.8299      0.0000
  1596.7500    718.3873      2.7753    112.5933      0.0000
  1597.0000    747.3755      2.5036    115.5546      0.0000
  1597.2500    760.1459      2.2232    123.4441      0.0000
  1597.5000    761.1888      1.9335    134.2681      0.0000
  1597.7500    755.8058      1.6680    144.9220      0.0000
  1598.0000    749.7999      1.4826    153.1992      0.0000
  1598.2500    746.6048      1.4070    158.5100      0.0000
  1598.5000    745.6982      1.4139    161.2592      0.0000
  1598.7500    745.2389      1.4416    162.1032      0.0000
  1599.0000    744.3199      1.4437    161.7329      0.0000
  1599.2500    743.1505      1.4210    160.7856      0.0000
  1599.5000    742.3229      1.4070    159.7785      0.0000
  1599.7500    742.1123      1.4258    159.2669      0.0000
  1600.0000    742.4028      1.4685    159.7576      0.0000
  1600.2500    743.0540      1.5072    161.2243      0.0000
  1600.5000    744.1002      1.5230    163.2090      0.0000
  1600.7500    745.5895      1.5128    165.5650      0.0000
  1601.0000    747.3788      1.4853    168.3673      0.0000
  1601.2500    749.2014      1.4602    170.9597      0.0000
  1601.5000    750.7412      1.4700    171.9214      0.0000
  1601.7500    751.5302      1.5468    170.3534      0.0000
  1602.0000    751.1737      1.6794    166.9496      0.0000
  1602.2500    749.8517      1.7903    163.5988      0.0000
  1602.5000    748.1760      1.8128    161.7036      0.0000
  1602.7500    746.5599      1.7690    160.7496      0.0000
  1603.0000    745.5515      1.7259    158.7011      0.0000
  1603.2500    746.8383      1.7210    153.9543      0.0000
  1603.5000    752.0573      1.7486    146.9018     -5.0000
  1603.7500    759.3893      1.7758    139.8442     -1.5839
  1604.0000    763.5685      1.7669    135.5305      0.0000
  1604.2500    761.2439      1.7262    135.4949      0.0000
  1604.5000    754.6246      1.7114    139.3993      0.0000
  1604.7500    748.5626      1.7700    145.6774      0.0000
  1605.0000    745.5098      1.8605    152.6011      0.0000
  1605.2500    744.7427      1.8738    158.9002      0.0000
  1605.5000    744.9484      1.7571    163.8955      0.0000
  1605.7500    745.5400      1.5810    167.3331      0.0000
  1606.0000    746.3508      1.4478    169.2907      0.0000
  1606.2500    747.4377      1.4041    170.5864      0.0000
  1606.5000    749.1207      1.4709    172.9361      0.0000
  1606.7500    751.9376      1.6743    177.4266      0.0000
  1607.0000    756.3240      2.0189    182.4639      0.0000
  1607.2500    761.7830      2.4712    184.3159      0.0000
  1607.5000    766.1291      2.9756    180.1939      0.0000
  1607.7500    766.1008      3.4713    170.3699      0.0000
  1608.0000    760.1400      3.9124    157.5324      0.0000
  1608.2500    751.7367      4.3006    144.8978      0.0000
  1608.5000    748.1318      4.6910    134.8830      0.0000
  1608.7500    753.2087      5.1343    128.6931      0.0000
  1609.0000    761.9789      5.6085    126.3902      0.0000
  1609.2500    760.9944      6.0279    127.0128      0.0000
  1609.5000    732.8767      6.3141    128.8607      0.0000
  1609.7500    670.4264      6.4147    130.3184      0.0000
  1610.0000    597.9551      6.2857    130.9045      0.0000
  1610.2500    563.9390      5.9334    131.4423      0.0000
  1610.5000    594.5507      5.4374    132.9101      0.0000
  1610.7500    664.7846      4.9043    135.2172      0.0000
  1611.0000    727.3281      4.4234    137.3913      0.0000
  1611.2500    759.6683      4.0186    138.7728      0.0000
  1611.5000    770.5227      3.6483    139.5602      0.0000
  1611.7500    775.6547      3.2940    140.2075      0.0000
  1612.0000    782.4780      2.9871    140.7785      0.0000
  1612.2500    788.3925      2.7441    141.2593      0.0000
  1612.5000    787.2506      2.5370    142.2633      0.0000
  1612.7500    778.8853      2.3255    144.7996      0.0000
  1613.0000    769.4878      2.0898    149.1901      0.0000
  1613.2500    763.9860      1.8386    154.6412      0.0000
  1613.5000    762.3805      1.6041    160.1011      0.0000
  1613.7500    761.4659      1.4185    164.9853      0.0000
  1614.0000    757.6649      1.3036    168.6220      0.0000
  1614.2500    748.7385      1.2777    169.5423      0.0000
  1614.5000    735.1525      1.3261    166.2024      0.0000
  1614.7500    722.5436      1.3848    158.5195      0.0000
  1615.0000    718.1966      1.4136    148.3550      0.0000
  1615.2500    721.3533      1.4393    138.3820      0.0000
  1615.5000    724.9421      1.4940    130.4523      0.0000
  1615.7500    727.4183      1.5644    124.6940      0.0000
  1616.0000    731.8604      1.6250    119.7193      0.0000
  1616.2500    736.2529      1.6836    113.6707      0.0000
  1616.5000    734.7901      1.7734    105.4852      0.0000
  1616.7500    726.3860      1.9071     95.5458      0.0000
  1617.0000    717.8740      2.0512     85.4753      0.0000
  1617.2500    717.6242      2.1532     77.4891      0.0000
  1617.5000    725.8259      2.2035     73.5047      0.0000
  1617.7500    735.4830      2.2418     74.1644      0.0000
  1618.0000    742.0569      2.3012     78.4876      0.0000
  1618.2500    746.1569      2.3792     84.5195      0.0000
  1618.5000    748.9404      2.4655     90.3042      0.0000
  1618.7500    750.2239      2.5534     94.6169      0.0000
  1619.0000    749.9617      2.6291     97.5040      0.0000
  1619.2500    748.5262      2.6904    100.2927      0.0000
  1619.5000    746.2549      2.7555    104.5918      0.0000
  1619.7500    743.1835      2.8202    110.9290      0.0000
  1620.0000    738.3903      2.8327    118.3287      0.0000
  1620.2500    732.1185      2.7368    125.1435      0.0000
  1620.5000    728.5494      2.5354    130.2927      0.0000
  1620.7500    731.2365      2.2938    134.0187      0.0000
  1621.0000    737.5988      2.0784    137.7022      0.0000
  1621.2500    742.9212      1.9171    142.6366      0.0000
  1621.5000    745.8439      1.8168    148.5812      0.0000
  1621.7500    747.5922      1.7816    153.6291      0.0000
  1622.0000    749.4063      1.8030    155.8869      0.0000
