~Version Information
VERS.                      2.0: CWLS Log ASCII Standard - VERSION 2.0
WRAP.                       NO: One line per depth step
~Well Information Block
STRT.FT               450.0000: 
STOP.FT              1739.2000: 
STEP.FT                 0.1000: 
NULL.                -999.2500: 
COMP.          Pioneer Natural Resources: COMPANY
WELL.            Harlee L 34-9: WELL
FLD.           Purgatoire River: FIELD
LOC.           600' FSL & 2125' FEL: LOCATION
PROV.                 Colorado: PROVINCE
CNTY.               Las Animas: COUNTRY
SRVC.                Patterson: SERVICE COMPANY
DATE.          Wed Jan 26 13:57:24 2005: LOG DATE
UWI.           05 071 08009 00: UNIQUE WELL ID
~Curve Information Block
DEPT.FT            0 000 00 00: Depth
DCAL.in                       : CDL Caliper
RHOB.g/cc                     : CDL Bulk Density
RHOC.g/cc                     : CDL Density Correction
DPOR.pu                       : CDL Density Porosity
NPOR.pu                       : Neutron Porosity
GR.GAPI                       : Gamma Ray
~Parameter Information Block
~A  Depth       DCAL        RHOB        RHOC        DPOR        NPOR         GR     
# ...
  1458.0000      8.8442      2.5716      0.0519      4.7519     25.6891    101.5956
  1458.1000      8.8442      2.5757      0.0542      4.5047     25.5515     96.5545
  1458.2000      8.8442      2.5684      0.0614      4.9460     25.5223     92.7678
  1458.3000      8.8533      2.5537      0.0402      5.8371     26.4294     89.3774
  1458.4000      8.8533      2.5299      0.0522      7.2777     28.0232     82.5735
  1458.5000      8.8553      2.4932      0.0079      9.5026     28.9089     75.0080
  1458.6000      8.8553      2.4521     -0.0214     11.9954     28.4231     75.5381
  1458.7000      8.8553      2.4223     -0.0365     13.8024     27.3644     85.6296
  1458.8000      8.8532      2.4083      0.0119     14.6483     26.6521     96.5275
  1458.9000      8.8532      2.4034     -0.0149     14.9452     26.0919    100.4504
  1459.0000      8.8506      2.3993     -0.0126     15.1968     25.8071     95.3980
  1459.1000      8.8506      2.3836      0.0409     16.1448     26.7652     86.6215
  1459.2000      8.8506      2.3478      0.0024     18.3170     28.7601     81.3683
  1459.3000      8.8488      2.3047     -0.0288     20.9299     30.1520     81.9920
  1459.4000      8.8488      2.2791     -0.0449     22.4815     30.1406     86.7179
  1459.5000      8.8533      2.2736      0.0130     22.8117     29.3980     90.1644
  1459.6000      8.8533      2.2567      0.0350     23.8370     28.9134     87.3722
  1459.7000      8.8533      2.1957      0.0220     27.5333     29.2845     79.8103
  1459.8000      8.8596      2.0937     -0.0556     33.7143     30.7728     74.0786
  1459.9000      8.8596      1.9815     -0.0838     40.5136     32.9762     74.2955
  1460.0000      8.8659      1.8791     -0.1022     46.7209     34.4869     74.7847
  1460.1000      8.8659      1.7811     -0.1018     52.6577     34.9300     69.3095
  1460.2000      8.8659      1.6834     -0.1487     58.5789     35.2256     58.8198
  1460.3000      8.8791      1.5938     -0.1273     64.0135     35.8144     48.2949
  1460.4000      8.8791      1.5092     -0.1074     69.1368     36.4063     44.2141
  1460.5000      8.9376      1.4248     -0.1432     74.2534     36.4592     46.1918
  1460.6000      8.9376      1.3585     -0.1242     78.2732     36.4062     47.6106
  1460.7000      8.9376      1.3335     -0.0623     79.7872     37.2532     45.8773
  1460.8000      9.1516      1.3458      0.0396     79.0406     38.2817     44.2718
  1460.9000      9.1516      1.3675      0.0827     77.7259     38.2318     44.0722
  1461.0000      9.4890      1.3785      0.0745     77.0625     37.2963     42.4416
  1461.1000      9.4890      1.3766      0.0682     77.1782     35.9782     38.7745
  1461.2000      9.4890      1.3653      0.0345     77.8620     34.5741     34.9035
  1461.3000      9.6211      1.3468      0.0241     78.9832     33.2764     32.4835
  1461.4000      9.6211      1.3221      0.0350     80.4813     32.3757     32.2789
  1461.5000      9.4649      1.3003      0.0089     81.7995     32.5367     33.5008
  1461.6000      9.4649      1.2953      0.0392     82.1011     33.7448     36.2618
  1461.7000      9.4649      1.3093      0.0505     81.2551     34.9992     40.0225
  1461.8000      9.3257      1.3333      0.0739     79.8000     35.8384     40.1869
  1461.9000      9.3257      1.3595      0.0627     78.2148     36.3417     34.5194
  1462.0000      9.3446      1.3868      0.0949     76.5589     36.3705     28.5097
  1462.1000      9.3446      1.4170      0.0933     74.7290     36.1183     27.3829
  1462.2000      9.3446      1.4480      0.1161     72.8459     35.9209     29.9849
  1462.3000      9.4479      1.4740      0.1106     71.2757     35.2071     33.0616
  1462.4000      9.4479      1.4947      0.1172     70.0199     33.9239     37.1374
  1462.5000      9.4774      1.5169      0.1362     68.6699     33.3033     44.3271
  1462.6000      9.4774      1.5439      0.1242     67.0355     33.9065     53.4604
  1462.7000      9.4774      1.5653      0.1362     65.7393     34.7979     60.1796
  1462.8000      9.2836      1.5660      0.0883     65.6940     34.6465     60.1516
  1462.9000      9.2836      1.5504      0.0424     66.6416     33.4771     55.0009
  1463.0000      8.9590      1.5339      0.0674     67.6436     32.8307     51.8849
  1463.1000      8.9590      1.5317      0.0303     67.7780     33.5194     52.2532
  1463.2000      8.9590      1.5657      0.0129     65.7166     34.5899     53.0429
  1463.3000      8.7854      1.6466      0.1104     60.8114     34.7346     52.5620
  1463.4000      8.7854      1.7607      0.1499     53.8977     33.7322     51.3681
  1463.5000      8.7758      1.8846      0.2190     46.3894     32.5408     56.0979
  1463.6000      8.7758      1.9996      0.2179     39.4167     31.9590     66.1818
  1463.7000      8.7758      2.1011      0.2403     33.2648     31.7012     71.6616
  1463.8000      8.7909      2.1958      0.2374     27.5256     31.2184     71.2048
  1463.9000      8.7909      2.2878      0.2636     21.9534     30.4780     72.7680
  1464.0000      8.7853      2.3684      0.2619     17.0666     29.8947     80.6812
  1464.1000      8.7853      2.4279      0.1849     13.4601     29.6043     89.7753
  1464.2000      8.7853      2.4676      0.1536     11.0523     29.5501     92.4893
  1464.3000      8.7780      2.4961      0.0789      9.3260     29.4624     91.1925
  1464.4000      8.7780      2.5191      0.0691      7.9324     28.9313     92.9703
  1464.5000      8.7773      2.5301      0.0711      7.2664     28.0143     99.4395
  1464.6000      8.7773      2.5223      0.0453      7.7390     26.7262    106.7417
  1464.7000      8.7773      2.5068      0.0117      8.6765     25.5842    107.2877
  1464.8000      8.7782      2.5047      0.0025      8.8090     25.6223     97.1347
  1464.9000      8.7782      2.5216      0.0363      7.7809     26.5512     87.0346
  1465.0000      8.7783      2.5423      0.0491      6.5270     27.3895     89.1721
  1465.1000      8.7783      2.5511      0.0470      5.9927     27.6577     99.7182
  1465.2000      8.7783      2.5503      0.0182      6.0445     27.0968    106.3771
  1465.3000      8.7781      2.5468      0.0716      6.2534     25.9853    105.1471
  1465.4000      8.7781      2.5384      0.0590      6.7662     24.9988    102.6467
  1465.5000      8.7777      2.5238      0.0463      7.6497     24.4559    102.5823
  1465.6000      8.7777      2.5088     -0.0097      8.5591     24.3172    103.7651
  1465.7000      8.7777      2.5034      0.0049      8.8839     24.4335    102.0803
  1465.8000      8.7768      2.5107     -0.0046      8.4411     24.5558     96.7047
  1465.9000      8.7768      2.5227      0.0551      7.7156     24.6203     93.4192
  1466.0000      8.7763      2.5357      0.0298      6.9285     24.8462     94.3011
  1466.1000      8.7763      2.5518      0.0469      5.9499     24.9270     93.5605
  1466.2000      8.7763      2.5630      0.0289      5.2735     24.4029     88.2900
  1466.3000      8.7763      2.5609      0.0387      5.4029     23.6155     85.6882
  1466.4000      8.7763      2.5467      0.0545      6.2606     22.8623     92.5041
  1466.5000      8.7756      2.5288      0.0089      7.3477     22.0552    101.1591
  1466.6000      8.7756      2.5189      0.0386      7.9431     21.1305    102.0715
  1466.7000      8.7756      2.5243      0.0258      7.6154     20.4945    100.0214
  1466.8000      8.7748      2.5464      0.0021      6.2771     20.7272     98.6676
  1466.9000      8.7748      2.5734      0.0552      4.6453     21.7217     97.5663
  1467.0000      8.7753      2.5813      0.0707      4.1608     22.4772     98.6094
  1467.1000      8.7753      2.5662      0.0338      5.0785     21.7676     99.9172
  1467.2000      8.7753      2.5466      0.0117      6.2677     20.3191    100.2185
  1467.3000      8.7753      2.5362      0.0089      6.8966     20.0469    101.4607
  1467.4000      8.7753      2.5361      0.0139      6.9048     21.4823    102.9396
  1467.5000      8.7759      2.5354      0.0375      6.9460     23.4391    103.5153
