~Version Information
VERS.                      2.0: CWLS Log ASCII Standard - VERSION 2.0
WRAP.                       NO: One line per depth step
~Well Information Block
STRT.FT               510.5000: 
STOP.FT              2075.5000: 
STEP.FT                 0.1000: 
NULL.                -999.2500: 
COMP.          Petrogulf Corporation: COMPANY
WELL.          Robinson 15-11V: WELL
FLD.           Purgatorie River: FIELD
LOC.           226' FNL & 592' FWL: LOCATION
CNTY.               Las Animas: COUNTY
SRVC.                         : SERVICE COMPANY
DATE.          Wed Aug 04 06:17:53 2004: LOG DATE
UWI.           05 071 08027 00: UNIQUE WELL ID
STAT.                 Colorado: STATE
~Curve Information Block
DEPT.FT            0 000 00 00: Depth
DCAL.in                       : CDL Caliper
RHOB.g/cc                     : CDL Bulk Density
RHOC.g/cc                     : CDL Density Correction
DPOR.pu                       : CDL Density Porosity
GR.GAPI                       : Gamma Ray
NPOR.pu                       : Neutron Porosity
~Parameter Information Block
~A  Depth       DCAL        RHOB        RHOC        DPOR         GR         NPOR    
# ...
  1451.3000      7.9283      2.5405      0.0449      6.6352     82.8702     24.1677
  1451.4000      7.9283      2.5582      0.0514      5.5628     79.3549     24.2917
  1451.5000      7.9333      2.5825      0.0672      4.0884     76.6906     24.5420
  1451.6000      7.9333      2.6011      0.0754      2.9666     77.9660     24.6717
  1451.7000      7.9333      2.6019      0.0804      2.9181     83.7048     24.7547
  1451.8000      7.8790      2.5852      0.0918      3.9265     89.2808     24.9162
  1451.9000      7.8790      2.5622      0.0897      5.3229     90.3228     25.1723
  1452.0000      7.8403      2.5528      0.0590      5.8918     86.9810     25.4449
  1452.1000      7.8403      2.5679      0.1039      4.9778     81.2714     25.5136
  1452.2000      7.8403      2.5916      0.1195      3.5368     74.0608     25.2358
  1452.3000      7.8431      2.6088      0.0946      2.4949     67.7526     24.8221
  1452.4000      7.8431      2.6221      0.1336      1.6907     66.6061     24.5580
  1452.5000      7.8439      2.6334      0.1684      1.0060     71.0757     24.4091
  1452.6000      7.8439      2.6402      0.1787      0.5930     76.7754     24.2552
  1452.7000      7.8439      2.6416      0.1747      0.5063     81.2351     24.2106
  1452.8000      7.8436      2.6347      0.1309      0.9292     84.7644     24.2657
  1452.9000      7.8436      2.6163      0.1224      2.0397     88.5043     24.2654
  1453.0000      7.8501      2.5917      0.0719      3.5330     92.5083     24.3490
  1453.1000      7.8501      2.5704      0.0728      4.8219     90.3424     24.6214
  1453.2000      7.8501      2.5616     -0.0044      5.3546     80.0130     24.8853
  1453.3000      7.8540      2.5657      0.0725      5.1113     72.3150     25.0250
  1453.4000      7.8540      2.5692      0.0757      4.8975     73.7104     25.0430
  1453.5000      7.8497      2.5673      0.1092      5.0117     79.8392     24.9894
  1453.6000      7.8497      2.5700      0.0836      4.8474     84.4333     25.0377
  1453.7000      7.8497      2.5821      0.0673      4.1122     85.4400     25.1480
  1453.8000      7.8503      2.5974      0.0903      3.1883     85.4311     25.0287
  1453.9000      7.8503      2.6102      0.0964      2.4135     87.5795     24.7841
  1454.0000      7.8576      2.6191      0.0912      1.8755     92.7912     24.7265
  1454.1000      7.8576      2.6240      0.0974      1.5733    100.3410     24.8098
  1454.2000      7.8576      2.6244      0.1001      1.5515    107.1069     25.0339
  1454.3000      7.8594      2.6201      0.0845      1.8123    109.2834     25.4723
  1454.4000      7.8594      2.6163      0.0879      2.0410    107.8401     25.7720
  1454.5000      7.8698      2.6138      0.0779      2.1964    104.6634     25.5713
  1454.6000      7.8698      2.6080      0.1043      2.5452    100.8320     25.2098
  1454.7000      7.8698      2.6051      0.0569      2.7216     98.5512     25.1619
  1454.8000      7.8614      2.6140      0.0899      2.1828     94.9635     25.4633
  1454.9000      7.8614      2.6213      0.1076      1.7384     87.5590     25.8199
  1455.0000      7.8597      2.6103      0.0735      2.4078     84.0649     25.8423
  1455.1000      7.8597      2.5835      0.0736      4.0284     90.0764     25.5850
  1455.2000      7.8597      2.5520      0.0259      5.9394     97.4332     25.4431
  1455.3000      7.8608      2.5367     -0.0123      6.8655     97.5344     25.6733
  1455.4000      7.8608      2.5533      0.0435      5.8602     93.8685     26.0328
  1455.5000      7.8660      2.5810      0.1194      4.1819     94.0628     26.2247
  1455.6000      7.8660      2.5860      0.1244      3.8799     97.6919     26.3519
  1455.7000      7.8660      2.5709      0.0660      4.7925    100.1320     26.4993
  1455.8000      7.8659      2.5647      0.0804      5.1720     99.7735     26.5276
  1455.9000      7.8659      2.5742      0.0789      4.5960     98.1576     26.4740
  1456.0000      7.8703      2.5853      0.0780      3.9213     98.1666     26.6584
  1456.1000      7.8703      2.5965      0.0627      3.2405    100.0405     27.0630
  1456.2000      7.8703      2.6187      0.0822      1.8989    101.1840     27.3764
  1456.3000      7.8662      2.6467      0.1120      0.1994     99.3713     27.5620
  1456.4000      7.8662      2.6670      0.1113     -1.0324     96.5798     27.6659
  1456.5000      7.8657      2.6808      0.1225     -1.8688     98.4589     27.5300
  1456.6000      7.8657      2.6934      0.1336     -2.6315    104.7278     27.0965
  1456.7000      7.8657      2.6947      0.1421     -2.7104    108.1075     26.4795
  1456.8000      7.8622      2.6716      0.1312     -1.3085    107.4456     26.0432
  1456.9000      7.8622      2.6346      0.0578      0.9338    108.3191     26.3100
  1457.0000      7.8673      2.6034      0.0594      2.8232    111.5458     27.0648
  1457.1000      7.8673      2.5824      0.0172      4.0982    114.1281     27.5004
  1457.2000      7.8673      2.5679      0.0668      4.9786    115.6323     27.3095
  1457.3000      7.8837      2.5505      0.0854      6.0316    115.6940     26.9016
  1457.4000      7.8837      2.5252      0.0372      7.5614    115.1050     26.6495
  1457.5000      7.9006      2.5059      0.0261      8.7363    117.2030     26.4174
  1457.6000      7.9006      2.5080      0.0144      8.6087    120.6738     26.1181
  1457.7000      7.9006      2.5262      0.0712      7.5044    120.8590     26.0502
  1457.8000      7.8962      2.5421      0.1092      6.5398    116.3715     26.3657
  1457.9000      7.8962      2.5493      0.1116      6.1008    110.8568     26.6299
  1458.0000      7.9033      2.5498      0.1292      6.0730    109.0014     26.5042
  1458.1000      7.9033      2.5403      0.1347      6.6503    112.2365     26.3991
  1458.2000      7.9033      2.5259      0.1079      7.5217    116.6964     26.5112
  1458.3000      7.9042      2.5252      0.0915      7.5617    119.8118     26.5166
  1458.4000      7.9042      2.5437      0.1708      6.4402    123.4336     26.4740
  1458.5000      7.8958      2.5675      0.1657      5.0008    125.1685     26.4873
  1458.6000      7.8958      2.5905      0.1890      3.6044    121.9694     26.3373
  1458.7000      7.8958      2.6178      0.1751      1.9510    117.6212     26.1594
  1458.8000      7.9044      2.6551      0.1610     -0.3072    117.9234     26.3568
  1458.9000      7.9044      2.6967      0.2208     -2.8304    119.9191     26.7187
  1459.0000      7.9065      2.7179      0.2598     -4.1144    117.3169     26.7248
  1459.1000      7.9065      2.7058      0.2357     -3.3837    112.5387     26.4598
  1459.2000      7.9065      2.6819      0.1449     -1.9315    109.9417     26.3074
  1459.3000      7.9082      2.6701      0.1478     -1.2184    109.1272     26.2872
  1459.4000      7.9082      2.6675      0.1542     -1.0618    109.4938     26.0673
  1459.5000      7.8982      2.6587      0.1423     -0.5275    111.6479     25.4787
  1459.6000      7.8982      2.6421      0.1043      0.4801    113.8918     24.7780
  1459.7000      7.8982      2.6247      0.1212      1.5356    111.5521     24.3459
  1459.8000      7.8770      2.6066      0.0619      2.6313    103.6429     24.3367
  1459.9000      7.8770      2.5895      0.0605      3.6676     96.4855     24.4063
  1460.0000      7.8809      2.5697      0.0978      4.8650     94.6722     24.1877
  1460.1000      7.8809      2.5372      0.0342      6.8341     95.9859     23.8248
  1460.2000      7.8809      2.5033      0.0028      8.8933     96.9690     23.4418
  1460.3000      7.9554      2.4880      0.0445      9.8164     96.0816     23.1097
  1460.4000      7.9554      2.4897      0.0586      9.7182     97.2076     23.0222
  1460.5000      7.9905      2.4931      0.0966      9.5065    104.1473     23.2141
  1460.6000      7.9905      2.4941      0.0740      9.4514    109.9142     23.5901
  1460.7000      7.9905      2.4969      0.0951      9.2804    108.8022     23.8985
  1460.8000      7.9947      2.4927      0.1743      9.5312    108.3228     23.8326
