~Version Information
 VERS.                                  2.0 : CWLS LAS VERSION
 WRAP.                                   NO : WRAPING MODE
 SWARE .                 MController 2.5.0I : SOFTWARE VERSION
~Well Information
 WELL.                       Montoya 12-41v : WELL
 COMP.                       Petrogulf Corp : COMPANY
 FLD.                      Purgatoire River : FIELD
 LOC.                NE/NE Sec 12 T33S R68W : LOCATION
 DATE.                              8/10/04 : DATE(S) LOGGED
 SRVC.       Blanco Geological Services LLc : SERVICE COMPANY
 STAT.                                   CO : STATE
 CNTY.                           Las Animas : COUNTY
 CTRY.                                  USA : COUNTRY
 API.                       05-071-08139-00 : API NUMBER
 STRT.FT                            698.00 : START DEPTH
 STOP.FT                            2660.00 : STOP DEPTH
 STEP.FT                               1.00 : DEPTH INCREMENT
 NULL.                                 9999 : NULL VALUE
~Curve information
 DEPTH.FT                                   :
 ROP.MIN/FT                                 :
 GAS.UNITS                                  :
~ASCII Log data
       698.00    -9999.000          0.0 
       699.00    -9999.000         10.3 
       700.00    -9999.000          4.3 
       701.00        0.567          9.9 
       702.00    -9999.000         10.8 
       703.00        0.617         10.5 
       704.00    -9999.000         13.1 
       705.00        0.617         15.7 
       706.00    -9999.000         12.8 
       707.00    -9999.000         10.5 
       708.00        0.617         10.0 
       709.00    -9999.000          9.8 
       710.00        0.617          9.3 
       711.00    -9999.000         10.3 
       712.00        0.617          9.2 
       713.00    -9999.000          9.0 
       714.00        0.617          8.9 
       715.00    -9999.000          8.9 
       716.00    -9999.000          8.7 
       717.00        0.617          8.6 
       718.00    -9999.000          8.7 
       719.00        0.617          8.6 
       720.00    -9999.000          8.9 
       721.00        0.617         12.8 
       722.00    -9999.000         81.5 
       723.00    -9999.000         27.6 
       724.00        0.617         14.7 
       725.00    -9999.000         12.9 
       726.00        0.617         12.0 
       727.00    -9999.000         10.8 
       728.00        0.717         17.4 
       729.00        0.267         45.9 
       730.00        0.267         18.0 
       731.00        0.283         12.3 
       732.00        0.267         12.1 
       733.00        0.267         10.4 
       734.00        0.267         10.7 
       735.00        0.267          9.8 
       736.00        0.267          9.9 
       737.00        0.267          9.4 
       738.00        0.267          9.8 
       739.00        0.267          9.3 
       740.00        0.167          9.2 
       741.00        0.267         10.3 
       742.00        0.300          6.2 
       743.00        0.267          6.3 
       744.00        0.383          6.9 
       745.00        0.267          7.2 
       746.00        0.267          6.8 
       747.00        0.267          5.9 
       748.00        0.267          5.9 
       749.00        0.267          6.0 
       750.00        0.267          5.8 
       751.00        0.267          5.8 
       752.00        0.267          6.2 
       753.00        0.233          8.6 
       754.00        0.267        134.8 
       755.00        0.267         57.2 
       756.00        0.283         17.9 
       757.00        0.267          9.6 
       758.00        0.267          7.2 
       759.00        0.267          7.3 
       760.00        0.267          6.9 
       761.00        0.267          6.6 
       762.00        0.333          6.3 
       763.00        0.133          5.7 
       764.00        0.267          5.8 
       765.00        0.267          5.5 
       766.00        0.300         10.2 
       767.00        0.267         81.1 
       768.00        0.267         72.7 
       769.00        0.133         57.9 
       770.00        0.150         51.8 
       771.00        0.267         40.4 
       772.00        0.267         22.3 
       773.00        0.267         21.3 
       774.00        0.267         17.1 
       775.00        0.833          7.7 
       776.00        0.500          3.6 
       777.00        0.267          7.3 
       778.00        0.500          6.5 
       779.00        0.183          7.2 
       780.00        0.533          2.9 
       781.00        0.100          1.5 
       782.00        0.500          2.3 
       783.00        0.167          2.9 
       784.00        0.500          3.6 
       785.00        0.133          3.6 
       786.00        0.567          3.8 
       787.00        0.133          4.5 
       788.00        0.583          3.9 
       789.00        0.100          3.4 
       790.00        0.067          3.5 
       791.00        0.533          3.5 
       792.00        0.467          2.5 
       793.00        0.133          2.6 
       794.00        0.033          3.1 
       795.00        0.067          2.3 
       796.00        0.300          2.1 
       797.00        0.500          1.9 
       798.00        0.033          1.8 
       799.00        0.433          2.2 
       800.00        0.233          1.5 
       801.00        0.417          1.6 
       802.00        0.067          2.0 
       803.00        0.100          2.2 
       804.00        0.500          2.1 
       805.00        0.167          2.6 
       806.00        0.533          3.3 
       807.00        0.067          3.0 
       808.00        0.233          3.5 
       809.00        0.600          4.5 
       810.00        0.033          4.8 
       812.00        0.100          4.8 
       812.00        0.333          3.7 
       813.00        0.200          3.4 
       814.00        0.100          4.1 
       815.00        0.033          3.1 
       816.00        0.450          2.8 
       817.00        0.033          2.3 
       818.00        0.067          2.9 
       819.00        0.067          2.7 
       820.00        0.100          2.7 
       821.00        0.133          3.0 
       822.00        0.400          3.1 
       823.00        0.200          3.2 
       824.00        0.033          3.3 
       825.00        0.100          3.3 
       826.00        0.233          3.5 
       827.00        0.433          3.5 
       828.00        0.100          3.3 
       829.00        0.133          3.3 
       830.00        0.400          3.0 
       831.00        0.200          3.1 
       832.00        0.200          3.0 
       833.00        0.417          3.2 
       834.00        0.033          2.9 
       835.00        0.433          2.5 
       836.00        0.400          2.6 
       837.00        0.067          3.0 
       838.00        0.500          2.8 
       839.00        0.033          2.9 
       840.00        0.033          3.0 
       841.00        0.500          3.6 
       842.00        0.633          3.8 
       843.00        0.100          4.1 
       844.00        0.450          3.8 
       845.00        0.100          5.0 
       846.00        0.500          4.0 
       847.00        0.500          4.0 
       848.00        0.033          3.7 
       849.00        0.033          4.0 
       850.00        0.100          3.8 
       851.00        0.533          3.1 
       852.00        0.067          3.3 
       853.00        0.167          5.1 
       854.00        0.500          4.5 
       855.00        0.033          4.9 
       856.00        0.467          4.5 
       857.00        0.133          4.3 
       858.00        0.483          4.0 
       859.00        0.067          4.1 
       860.00        0.433          4.6 
       861.00        0.800          4.8 
       862.00        0.233          5.3 
       863.00        0.167          4.0 
       864.00        0.267          3.8 
       865.00        0.367          5.0 
       866.00        0.167          4.4 
       867.00        0.100          4.9 
       868.00        0.200          5.7 
       869.00        0.100          5.2 
       870.00        0.217          6.2 
       871.00        0.100          5.1 
       872.00        0.167          5.5 
       873.00        0.100          5.7 
       874.00        0.133          5.5 
       875.00        0.133          6.3 
       876.00        0.200          5.8 
       877.00        0.067          5.7 
       878.00        0.267          5.6 
       879.00        0.200          5.8 
       880.00        0.133          5.6 
       881.00        0.167          5.6 
       882.00        0.100          6.8 
       883.00        0.167          2.0 
       884.00        0.233          0.8 
       885.00        0.133          0.5 
       886.00        0.233          0.6 
       887.00        0.267          0.8 
       888.00        0.133          0.9 
       889.00        0.133          0.8 
       890.00        0.317          1.0 
       891.00        0.133          0.7 
       892.00        0.267          0.8 
       893.00        0.233          1.4 
