~Version Information
VERS.                      2.0: CWLS Log ASCII Standard - VERSION 2.0
WRAP.                       NO: One line per depth step
~Well Information Block
STRT.FT               965.2500: 
STOP.FT              2602.5000: 
STEP.FT                 0.2500: 
NULL.                -999.2500: 
COMP.          Petrogulf Corporation: COMPANY
WELL.             Valejo 8-12V: WELL
FLD.           Purgatorie River: FIELD
LOC.           1510' FNL & 1460' FWL: LOCATION
CNTY.               Las Animas: COUNTY
SRVC.                         : SERVICE COMPANY
DATE.          Fri Nov 14 05:32:33 2003: LOG DATE
UWI.                          : UNIQUE WELL ID
STAT.                 Colorado: STATE
~Curve Information Block
DEPT.FT            0 000 00 00: Depth
RILD.Ohm-m                    : DIL Deep Resistivity
RILM.Ohm-m                    : DIL Medium Resistivity
RLL3.Ohm-m                    : DIL Shallow Resistivity
SP.mV                         : DIL Spontaneous Potential
GR.GAPI                       : Gamma Ray
~Parameter Information Block
~A  Depth       RILD        RILM        RLL3         SP          GR     
# ...
  1609.2500     15.2100     18.9333     21.9393     -7.1310    107.0655
  1609.5000     15.2981     19.0387     22.3790     -7.1100    106.4079
  1609.7500     15.3227     19.1132     22.6597     -7.0658    105.1574
  1610.0000     15.3058     19.1402     22.6741     -6.9765    103.1171
  1610.2500     15.2805     19.1070     22.6044     -6.8178    102.3259
  1610.5000     15.2787     19.0082     22.7210     -6.5756    102.5108
  1610.7500     15.3224     18.8490     23.0450     -6.2559    103.4233
  1611.0000     15.4210     18.6461     23.3004     -5.8817    105.2529
  1611.2500     15.5681     18.4291     23.1905     -5.4847    106.2072
  1611.5000     15.7411     18.2402     22.6356     -5.0974    106.5350
  1611.7500     15.9086     18.1308     21.7685     -4.7480    106.1044
  1612.0000     16.0458     18.1535     20.8370     -4.4530    105.5291
  1612.2500     16.1478     18.3476     20.1844     -4.2098    105.8698
  1612.5000     16.2296     18.7230     20.2448     -3.9972    107.7664
  1612.7500     16.3128     19.2490     21.3911     -3.7873    109.5010
  1613.0000     16.4124     19.8555     23.6245     -3.5624    111.6086
  1613.2500     16.5343     20.4526     26.3735     -3.3240    112.1801
  1613.5000     16.6826     20.9614     28.7190     -3.0905    111.6751
  1613.7500     16.8679     21.3403     29.9836     -2.8875    110.7374
  1614.0000     17.1090     21.5882     30.1823     -2.7366    108.9965
  1614.2500     17.4252     21.7307     29.8965     -2.6452    107.7405
  1614.5000     17.8264     21.8070     29.6667     -2.6007    105.9670
  1614.7500     18.3050     21.8696     29.4734     -2.5793    105.3250
  1615.0000     18.8352     21.9885     28.8493     -2.5627    105.9323
  1615.2500     19.3786     22.2479     27.5670     -2.5500    107.1047
  1615.5000     19.8930     22.7295     26.1708     -2.5524    108.0504
  1615.7500     20.3436     23.4867     25.7126     -2.5779    106.8897
  1616.0000     20.7115     24.5152     26.9255     -2.6195    101.7822
  1616.2500     20.9956     25.7297     29.6714     -2.6545     96.7078
  1616.5000     21.2086     26.9672     33.1311     -2.6520     88.0498
  1616.7500     21.3716     28.0360     36.4111     -2.5879     82.1584
  1617.0000     21.5147     28.7959     38.9602     -2.4571     73.8593
  1617.2500     21.6772     29.2109     40.5419     -2.2761     69.2210
  1617.5000     21.8990     29.3339     40.9939     -2.0768     64.4081
  1617.7500     22.2043     29.2509     40.1497     -1.8928     62.7243
  1618.0000     22.5901     29.0531     38.0525     -1.7441     62.1370
  1618.2500     23.0283     28.8431     35.2055     -1.6291     62.7110
  1618.5000     23.4768     28.7485     32.4858     -1.5257     64.1171
  1618.7500     23.8909     28.9119     30.6684     -1.4019     64.7546
  1619.0000     24.2334     29.4521     29.9645     -1.2285     64.7308
  1619.2500     24.4850     30.4053     30.0187     -0.9909     64.3093
  1619.5000     24.6532     31.6579     30.3283     -0.6939     63.6178
  1619.7500     24.7689     32.9138     30.6231     -0.3590     63.1144
  1620.0000     24.8694     33.7898     30.8914     -0.0177     62.1357
  1620.2500     24.9808     34.0525     31.1816      0.2947     61.3627
  1620.5000     25.1101     33.7819     31.4655      0.5466     59.7642
  1620.7500     25.2511     33.2612     31.6595      0.7179     57.9716
  1621.0000     25.3926     32.7354     31.7034      0.8060     53.9398
  1621.2500     25.5245     32.2919     31.6077      0.8235     50.9022
  1621.5000     25.6375     31.9034     31.4618      0.7916     47.2394
  1621.7500     25.7216     31.5341     31.4109      0.7357     45.9075
  1622.0000     25.7713     31.2156     31.5973      0.6813     45.7820
  1622.2500     25.7968     31.0435     32.0877      0.6480     46.8584
  1622.5000     25.8303     31.1144     32.8292      0.6424     49.6446
  1622.7500     25.9158     31.4563     33.6573      0.6551     51.6425
  1623.0000     26.0799     32.0026     34.3515      0.6686     53.6961
  1623.2500     26.3072     32.6179     34.7299      0.6714     54.0857
  1623.5000     26.5451     33.1638     34.7414      0.6625     53.3640
  1623.7500     26.7406     33.5548     34.4861      0.6428     52.4571
  1624.0000     26.8802     33.7755     34.1393      0.6037     51.4678
  1624.2500     26.9991     33.8642     33.8466      0.5281     51.5033
  1624.5000     27.1513     33.8896     33.6753      0.4027     52.6999
  1624.7500     27.3663     33.9280     33.6368      0.2305     53.9267
  1625.0000     27.6206     34.0405     33.7266      0.0317     55.4339
  1625.2500     27.8465     34.2495     33.9328     -0.1640     55.6416
  1625.5000     27.9755     34.5264     34.2141     -0.3301     54.3607
  1625.7500     27.9804     34.8005     34.4916     -0.4533     52.8002
  1626.0000     27.8787     34.9876     34.6768     -0.5402     50.7612
  1626.2500     27.7022     35.0281     34.7130     -0.6153     50.3480
  1626.5000     27.4802     34.9104     34.5985     -0.7054     51.4386
  1626.7500     27.2538     34.6761     34.3861     -0.8192     52.7785
  1627.0000     27.0890     34.4101     34.1498     -0.9433     54.2567
  1627.2500     27.0567     34.2251     33.9312     -1.0597     54.3311
  1627.5000     27.1983     34.2447     33.7178     -1.1613     53.3311
  1627.7500     27.5071     34.5735     33.4896     -1.2446     52.6218
  1628.0000     27.9353     35.2540     33.2909     -1.2984     52.5658
  1628.2500     28.4134     36.2181     33.2577     -1.3065     53.2896
  1628.5000     28.8690     37.2728     33.5780     -1.2590     54.8626
  1628.7500     29.2426     38.1682     34.4194     -1.1589     55.7835
  1629.0000     29.4957     38.7402     35.8466     -1.0235     56.5263
  1629.2500     29.6112     39.0028     37.7488     -0.8823     56.4694
  1629.5000     29.5938     39.0914     39.8296     -0.7692     55.4174
  1629.7500     29.4795     39.1312     41.7066     -0.7096     54.1061
  1630.0000     29.3430     39.1697     43.0803     -0.7085     51.6299
  1630.2500     29.2804     39.1955     43.8401     -0.7463     49.9918
  1630.5000     29.3633     39.1810     44.0102     -0.7882     47.9506
  1630.7500     29.5961     39.1001     43.6022     -0.8021     46.8359
  1631.0000     29.9095     38.9314     42.5425     -0.7770     45.2628
  1631.2500     30.1996     38.6604     40.7574     -0.7249     44.2377
  1631.5000     30.3867     38.2797     38.3253     -0.6686     43.0170
  1631.7500     30.4489     37.7849     35.5443     -0.6264     42.6674
  1632.0000     30.4107     37.1762     32.8434     -0.6071     43.0970
  1632.2500     30.3074     36.4738     30.5977     -0.6170     43.9067
  1632.5000     30.1602     35.7257     28.9834     -0.6659     45.2455
  1632.7500     29.9747     34.9931     27.9801     -0.7661     45.8295
  1633.0000     29.7498     34.3300     27.5063     -0.9249     46.1571
  1633.2500     29.4838     33.7780     27.5356     -1.1397     46.2761
  1633.5000     29.1783     33.3729     28.0505     -1.4000     46.7060
  1633.7500     28.8427     33.1445     28.8867     -1.6920     47.2036
  1634.0000     28.5000     33.1007     29.6858     -1.9973     48.1919
  1634.2500     28.1845     33.2251     30.0930     -2.2901     48.8533
  1634.5000     27.9286     33.4994     30.0570     -2.5400     49.2287
  1634.7500     27.7453     33.9271     29.9338     -2.7207     48.7810
  1635.0000     27.6212     34.5136     30.2536     -2.8211     47.4654
  1635.2500     27.5254     35.2000     31.3260     -2.8490     46.7955
  1635.5000     27.4278     35.8115     33.0182     -2.8270     46.7474
  1635.7500     27.3146     36.1039     34.8502     -2.7828     47.1286
  1636.0000     27.1934     35.9166     36.2496     -2.7383     47.4335
  1636.2500     27.0889     35.3066     36.7617     -2.6997     47.1506
  1636.5000     27.0320     34.5147     36.1808     -2.6560     46.2189
  1636.7500     27.0474     33.8096     34.6417     -2.5859     45.6930
  1637.0000     27.1397     33.3643     32.6083     -2.4732     45.8540
