~Version Information
VERS.                      2.0: CWLS Log ASCII Standard - VERSION 2.0
WRAP.                       NO: One line per depth step
~Well Information Block
STRT.FT                -6.7500: 
STOP.FT              1181.0000: 
STEP.FT                 0.2500: 
NULL.                -999.2500: 
COMP.          Pioneer Natural Resources: COMPANY
WELL.          Pacheco 33-27 Tr: WELL
FLD.           Purgatorie River: FIELD
LOC.           2251' FSL & 2342' FEL--: LOCATION
PROV.                       CO: PROVINCE
CNTY.               Las Animas: COUNTRY
SRVC.          Patterson Wireline: SERVICE COMPANY
DATE.          Wed Jun 15 10:58:02 2005: LOG DATE
UWI.           05 071 08384 00: UNIQUE WELL ID
~Curve Information Block
DEPT.FT            0 000 00 00: Depth
CCL.                          : Casing Collar Locator
TT3.usec                      : CBL 3' Travel Time
AMP3.mV                       : CBL 3' Amplitude
GR.GAPI                       : Gamma Ray
~Parameter Information Block
~A  Depth       CCL         TT3         AMP3         GR     
# ...
   964.7500      0.0000    806.5618      5.1191     68.3263
   965.0000      0.0000    809.9276      5.0332     72.8895
   965.2500      0.0000    806.7922      4.9587     81.7281
   965.5000      0.0000    801.4983      4.9170     94.0598
   965.7500      0.0000    797.9905      4.8942    108.3457
   966.0000      0.0000    798.4963      4.8593    122.3616
   966.2500      0.0000    803.5641      4.7995    133.7818
   966.5000      0.0000    812.2299      4.7377    140.5404
   966.7500      0.0000    821.9780      4.7130    140.8304
   967.0000      0.0000    829.0929      4.7483    133.8658
   967.2500      0.0000    829.3506      4.8313    121.2381
   967.5000      0.0000    819.3473      4.9254    106.9689
   967.7500      0.0000    798.9905      4.9986     95.5860
   968.0000      0.0000    773.0485      5.0456     89.6636
   968.2500      0.0000    748.9534      5.0795     88.5152
   968.5000      0.0000    732.2930      5.1065     88.9273
   968.7500      0.0000    724.5718      5.1173     87.6362
   969.0000      0.0000    724.4842      5.1074     83.5992
   969.2500      0.0000    729.6715      5.0935     78.2612
   969.5000      0.0000    737.1527      5.1045     74.1132
   969.7500      0.0000    743.7776      5.1604     73.0199
   970.0000      0.0000    747.4586      5.2565     75.3059
   970.2500      0.0000    747.4613      5.3570     79.9259
   970.5000      0.0000    743.4686      5.4098     85.3994
   970.7500      0.0000    735.7051      5.3894     90.7820
   971.0000      0.0000    726.3583      5.3277     96.1094
   971.2500      0.0000    719.6686      5.2837    102.1411
   971.5000      0.0000    719.6140      5.2770    109.5596
   971.7500      0.0000    727.3771      5.2669    118.2001
   972.0000      0.0000    741.3660      5.2045    126.9970
   972.2500      0.0000    759.6169      5.0921    134.6857
   972.5000      0.0000    780.9533      4.9799    140.5327
   972.7500      0.0000    803.3652      4.9164    144.3810
   973.0000      0.0000    823.1246      4.9130    146.1256
   973.2500      0.0000    836.9850      4.9459    145.4611
   973.5000      0.0000    844.4540      4.9766    142.2932
   973.7500      0.0000    847.1976      4.9787    137.1814
   974.0000      0.0000    846.8314      4.9608    131.2376
   974.2500      0.0000    843.5263      4.9625    125.7861
   974.5000      0.0000    836.0833      5.0147    122.1963
   974.7500      0.0000    823.0154      5.0917    121.6632
   975.0000      0.0000    804.0860      5.1156    124.7757
   975.2500      0.0000    781.5482      5.0293    131.3727
   975.5000      0.0000    760.1694      4.8620    140.9123
   975.7500      0.0000    745.7422      4.7098    152.4355
   976.0000      0.0000    742.8225      4.6543    163.8244
   976.2500      0.0000    752.6705      4.7091    171.9064
   976.5000      0.0000    771.7917      4.8266    174.3934
   976.7500      0.0000    792.2311      4.9364    171.5933
   977.0000      0.0000    805.3046      4.9880    165.6971
   977.2500      0.0000    807.3407      4.9829    158.9054
   977.5000      0.0000    802.2381      4.9720    152.7162
   977.7500      0.0000    797.6918      5.0053    148.0482
   978.0000      0.0000    798.1633      5.0773    145.1331
   978.2500      0.0000    800.9286      5.1380    143.7575
   978.5000      0.0000    798.6597      5.1554    144.0531
   978.7500      0.0000    786.0690      5.1374    146.5099
   979.0000      0.0000    764.3649      5.0969    150.8753
   979.2500      0.0000    739.6783      5.0310    155.4850
   979.5000      0.0000    718.1606      4.9383    158.2287
   979.7500      0.0000    703.0264      4.8345    158.3822
   980.0000      0.0000    694.6953      4.7448    157.6310
   980.2500      0.0000    691.8621      4.6888    159.0073
   980.5000      0.0000    692.6011      4.6654    164.2586
   980.7500      0.0000    695.8571      4.6457    171.9502
   981.0000      0.0000    702.5582      4.5896    178.1997
   981.2500      0.0000    715.0736      4.4837    179.5222
   981.5000      0.0000    734.9161      4.3634    175.3743
   981.7500      0.0000    759.8834      4.2876    168.3533
   982.0000      0.0000    783.4252      4.2888    162.3055
   982.2500      0.0000    798.5297      4.3565    159.9722
   982.5000      0.0000    803.1376      4.4571    161.3185
   982.7500      0.0000    800.7006      4.5586    163.5668
   983.0000      0.0000    795.5673      4.6415    163.5790
   983.2500      0.0000    790.0175      4.6928    160.7013
   983.5000      0.0000    785.5175      4.6974    156.7010
   983.7500      0.0000    783.0731      4.6401    152.8281
   984.0000      0.0000    781.4599      4.5173    148.0617
   984.2500      0.0000    778.8314      4.3425    140.8269
   984.5000      0.0000    777.2345      4.1402    131.6558
   984.7500      0.0000    782.0825      3.9481    123.2954
   985.0000      0.0000    795.5683      3.8245    118.3890
   985.2500      0.0000    813.1602      3.8214    117.6870
   985.5000      0.0000    828.0137      3.9371    120.5190
   985.7500      0.0000    836.8178      4.1083    126.2242
   986.0000     -2.0000    839.9053      4.2566    134.3074
   986.2500      0.0000    837.4727      4.3343    143.3968
   986.5000      0.0000    828.4375      4.3369    151.1293
   986.7500      0.0000    813.2778      4.2905    155.6850
   987.0000      0.0000    795.8976      4.2338    157.0009
   987.2500      0.0000    781.1729      4.2021    156.2083
   987.5000      0.0000    770.8630      4.2162    154.5672
   987.7500      0.0000    762.5608      4.2803    153.4253
   988.0000      0.0000    752.7066      4.3858    154.3590
   988.2500      0.0000    740.1689      4.5161    158.2537
   988.5000      0.0000    726.8409      4.6492    164.1898
   988.7500      0.0000    715.7654      4.7577    169.8138
   989.0000      0.0000    709.4255      4.8167    173.0300
   989.2500      0.0000    708.9978      4.8218    173.2202
   989.5000      0.0000    714.1487      4.7904    171.1960
   989.7500      0.0000    723.3647      4.7481    168.5202
   990.0000      0.0000    734.2841      4.7254    166.5938
   990.2500      0.0000    743.5301      4.7548    165.8391
   990.5000      0.0000    747.4393      4.8480    165.6936
   990.7500      0.0000    744.6008      4.9732    165.3450
   991.0000      0.0000    737.3978      5.0690    164.3575
   991.2500      0.0000    729.9954      5.0934    162.7801
   991.5000      0.0000    725.1057      5.0580    160.9208
   991.7500      0.0000    723.2264      5.0126    159.0241
   992.0000      0.0000    724.3002      4.9965    157.1803
   992.2500      0.0000    729.3368      5.0134    155.5076
   992.5000      0.0000    740.4034      5.0482    154.1777
   992.7500      0.0000    758.8694      5.0898    153.0471
   993.0000      0.0000    783.1837      5.1320    151.3114
   993.2500      0.0000    808.5176      5.1785    147.8540
   993.5000      0.0000    829.3571      5.2468    142.3199
   993.7500      0.0000    842.7794      5.3439    135.9325
   994.0000      0.0000    849.2687      5.4391    130.9978
   994.2500      0.0000    850.7897      5.4829    129.1320
   994.5000      0.0000    848.3912      5.4512    129.8046
   994.7500      0.0000    841.4243      5.3579    131.0963
   995.0000      0.0000    829.2010      5.2351    132.1479
   995.2500      0.0000    813.9736      5.1116    134.3129
   995.5000      0.0000    801.7027      5.0047    139.6621
   995.7500      0.0000    798.2454      4.9188    148.8613
   996.0000      0.0000    804.4845      4.8465    160.5896
   996.2500      0.0000    816.1356      4.7776    172.1406
   996.5000      0.0000    827.7088      4.7129    180.2204
   996.7500      0.0000    835.1719      4.6592    182.2923
   997.0000      0.0000    835.5805      4.6169    178.4420
   997.2500      0.0000    826.8410      4.5866    171.8868
   997.5000      0.0000    809.5275      4.5739    166.9041
   997.7500      0.0000    788.8046      4.5731    166.1330
   998.0000      0.0000    773.3228      4.5613    169.8127
