~Version Information
VERS.                      2.0: CWLS Log ASCII Standard - VERSION 2.0
WRAP.                       NO: One line per depth step
~Well Information Block
STRT.FT               -12.5000: 
STOP.FT              1647.5000: 
STEP.FT                 0.2500: 
NULL.                -999.2500: 
COMP.          Pioneer Natural Resources: COMPANY
WELL.            Harlee L 34-9: WELL
FLD.           Purgatorie River`: FIELD
LOC.           600' FSL & 2125' FEL----: LOCATION
PROV.                       CO: PROVINCE
CNTY.               Las Animas: COUNTRY
SRVC.                Patterson: SERVICE COMPANY
DATE.          Sat Feb 12 09:31:33 2005: LOG DATE
UWI.           05 071 08009 00: UNIQUE WELL ID
~Curve Information Block
DEPT.FT            0 000 00 00: Depth
CCL.                          : Casing Collar Locator
TT3.usec                      : CBL 3' Travel Time
AMP3.mV                       : CBL 3' Amplitude
AMP5.mV                       : CBL 5' Amplitude
GR.GAPI                       : Gamma Ray
~Parameter Information Block
~A  Depth       CCL         TT3         AMP3        AMP5         GR     
# ...
   407.5000      0.0000    286.7158     65.8068     60.4627     73.1607
   407.7500      0.0000    286.7045     65.8309     60.6536     73.9822
   408.0000      0.0000    286.6944     65.8505     60.3481     76.8338
   408.2500      0.0000    286.6881     65.8531     60.3481     79.9274
   408.5000      0.0000    286.6862     65.8266     60.6536     82.0376
   408.7500      0.0000    286.6874     65.7682     60.5772     82.9330
   409.0000      0.0000    286.6894     65.6913     60.6536     82.3303
   409.2500      0.0000    286.6892     65.6212     60.1954     79.3721
   409.5000      0.0000    286.6851     65.5822     61.2264     73.5730
   409.7500      0.0000    286.6765     65.5888     61.1118     65.8012
   410.0000      0.0000    286.6636     65.6425     60.7300     57.9253
   410.2500      0.0000    286.6470     65.7310     60.5009     51.7309
   410.5000      0.0000    286.6284     65.8308     61.1118     48.3028
   410.7500      0.0000    286.6115     65.9147     60.9591     47.9317
   411.0000      0.0000    286.6002     65.9622     60.6154     50.1324
   411.2500      0.0000    286.5964     65.9654     60.4627     53.8083
   411.5000      0.0000    286.5986     65.9301     61.0355     57.7916
   411.7500      0.0000    286.6033     65.8734     61.0736     61.6054
   412.0000      0.0000    286.6078     65.8183     60.4245     65.6980
   412.2500      0.0000    286.6104     65.7865     60.8827     70.5971
   412.5000      0.0000    286.6098     65.7910     60.8063     75.8906
   412.7500      0.0000    286.6052     65.8302     60.8445     80.4181
   413.0000      0.0000    286.5985     65.8889     60.3863     83.4837
   413.2500      0.0000    286.5939     65.9466     60.6154     85.5390
   413.5000      0.0000    286.5946     65.9907     60.7682     87.5071
   413.7500      0.0000    286.6000     66.0230     60.9591     89.5450
   414.0000      0.0000    286.6074     66.0569     60.9209     90.6973
   414.2500      0.0000    286.6142     66.1039     60.8063     89.9319
   414.5000      0.0000    286.6194     66.1641     61.3410     87.3673
   414.7500      0.0000    286.6227     66.2297     61.4937     84.3324
   415.0000      0.0000    286.6234     66.2986     61.4173     82.3757
   415.2500      0.0000    286.6219     66.3777     61.1118     82.2627
   415.5000      0.0000    286.6199     66.4723     61.2264     83.7595
   415.7500      0.0000    286.6206     66.5743     61.4555     86.1707
   416.0000      0.0000    286.6261     66.6653     61.4173     88.8864
   416.2500      0.0000    286.6364     66.7299     61.1500     91.4737
   416.5000      0.0000    286.6497     66.7632     61.1882     93.6323
   416.7500      0.0000    286.6626     66.7685     61.7992     95.2733
   417.0000      0.0000    286.6717     66.7529     61.9901     96.5436
   417.2500      0.0000    286.6747     66.7251     61.8756     97.7407
   417.5000      0.0000    286.6719     66.6944     61.6464     99.0791
   417.7500      0.0000    286.6659     66.6681     61.7610    100.2230
   418.0000      0.0000    286.6595     66.6509     61.9519    100.1435
   418.2500      0.0000    286.6548     66.6440     61.6846     98.0622
   418.5000      0.0000    286.6520     66.6441     61.5701     94.5348
   418.7500      0.0000    286.6503     66.6448     61.1500     90.9316
   419.0000      0.0000    286.6477     66.6405     60.8445     87.8061
   419.2500      0.0000    286.6429     66.6303     61.4555     84.4063
   419.5000      0.0000    286.6354     66.6172     61.4173     79.8554
   419.7500      0.0000    286.6251     66.6034     61.1882     74.2672
   420.0000      0.0000    286.6124     66.5888     61.1118     68.5818
   420.2500      0.0000    286.5984     66.5730     61.6464     63.7255
   420.5000      0.0000    286.5838     66.5565     61.7610     60.1399
   420.7500      0.0000    286.5692     66.5373     61.5701     57.9426
   421.0000      0.0000    286.5550     66.5116     61.3028     57.2266
   421.2500      0.0000    286.5421     66.4807     61.3410     57.9208
   421.5000      0.0000    286.5316     66.4564     61.7992     59.3784
   421.7500      0.0000    286.5231     66.4579     61.9519     60.4626
   422.0000      0.0000    286.5142     66.5022     61.7610     60.2325
   422.2500      0.0000    286.5011     66.5957     61.4937     58.5553
   422.5000      0.0000    286.4812     66.7312     61.6464     56.1881
   422.7500      0.0000    286.4543     66.8889     62.1810     54.3687
   423.0000      0.0000    286.4232     67.0444     61.9901     54.0354
   423.2500      0.0000    286.3921     67.1786     61.6464     55.1120
   423.5000      0.0000    286.3657     67.2860     61.3028     56.5652
   423.7500      0.0000    286.3473     67.3729     61.3028     57.1983
   424.0000      0.0000    286.3382     67.4531     61.3028     56.3029
   424.2500      0.0000    286.3371     67.5441     61.4173     53.7962
   424.5000      0.0000    286.3405     67.6630     61.3791     50.3063
   424.7500      0.0000    286.3436     67.8213     61.3410     47.1675
   425.0000      0.0000    286.3432     68.0214     61.3791     45.7083
   425.2500      0.0000    286.3385     68.2553     61.6083     46.1324
   425.5000      0.0000    286.3312     68.5042     61.9901     47.3143
   425.7500      0.0000    286.3236     68.7451     61.6464     47.8608
   426.0000      0.0000    286.3180     68.9623     61.7228     47.2091
   426.2500      0.0000    286.3154     69.1545     62.1429     45.6883
   426.5000      0.0000    286.3159     69.3284     62.2956     43.9151
   426.7500      0.0000    286.3196     69.4889     62.2574     42.4953
   427.0000      0.0000    286.3268     69.6374     62.1429     42.2099
   427.2500      0.0000    286.3370     69.7779     62.5629     43.9848
   427.5000      0.0000    286.3482     69.9192     62.9830     48.1649
   427.7500      0.0000    286.3565     70.0680     63.0211     53.7433
   428.0000      0.0000    286.3576     70.2189     63.2121     58.6637
   428.2500      0.0000    286.3493     70.3562     63.4030     61.2093
   428.5000      0.0000    286.3318     70.4668     63.4030     61.0459
   428.7500      0.0000    286.3071     70.5515     63.5176     58.9683
   429.0000      0.0000    286.2786     70.6216     63.9376     56.0781
   429.2500      0.0000    286.2516     70.6619     64.1667     53.3090
   429.5000      0.0000    286.2344     70.5618     64.3577     51.2988
   429.7500      0.0000    286.2425     70.0418     55.2311     50.3494
   430.0000      0.0000    286.3067     68.6775     31.2883     50.4729
   430.2500      0.0000    286.4814     66.1621     68.6727     51.4334
   430.5000      0.0000    286.8449     62.6869     46.4483     52.8189
   430.7500      0.0000    287.4799     58.9288     30.5246     54.2376
   431.0000      0.0000    288.4295     55.4496     38.5055     55.3976
   431.2500      0.0000    289.6412     52.2540     37.3218     55.9338
   431.5000      0.0000    290.9452     49.1802     37.3981     55.3853
   431.7500      0.0000    292.1096     46.4720     37.5891     53.5493
   432.0000      0.0000    292.9579     44.6024     37.8946     50.7050
   432.2500      0.0000    293.4564     43.6969     38.2001     47.4203
   432.5000     -1.9760    293.6996     43.4597     37.8564     44.3565
   432.7500      2.1780    293.8239     43.5728     37.6273     42.2331
   433.0000      0.0000    293.9184     44.0097     37.5127     41.5950
   433.2500      0.0000    293.9525     45.0271     37.6273     42.4058
   433.5000      0.0000    293.7423     46.9338     38.3528     43.9861
   433.7500      0.0000    293.0485     49.8043     38.3910     45.5042
   434.0000      0.0000    291.8037     53.4121     38.0473     46.5699
   434.2500      0.0000    290.2397     57.4405     38.3910     47.3979
   434.5000      0.0000    288.7376     61.5750     32.8540     48.4689
   434.7500      0.0000    287.5721     65.3537     34.1523     50.0695
   435.0000      0.0000    286.8135     68.2395     72.5677     52.1502
   435.2500      0.0000    286.3954     69.9950     35.2597     54.5091
