~Version Information
 VERS.                      2.0: CWLS Log ASCII Standard - VERSION 2.0
 WRAP.                       NO: One line per depth step
 ~Well Information Block
 STRT.FT               465.6000: 
 STOP.FT              1777.2000: 
 STEP.FT                 0.1000: 
 NULL.                -999.2500: 
 COMP.          Petrogulf Corporation: COMPANY
 WELL.          Alexander 9-43R: WELL
 FLD.           Purgatorie River: FIELD
 LOC.           1652' FSL & 1049' FEL: LOCATION
 CNTY.               Las Animas: COUNTY
 SRVC.                         : SERVICE COMPANY
 DATE.          Fri Sep 03 15:08:45 2004: LOG DATE
 UWI.           05 071 08036 00: UNIQUE WELL ID
 STAT.                 Colorado: STATE
 PROV.                         :Province
 ~Curve Information Block
 DEPT.FT            0 000 00 00: Depth
 DCAL.in                       : CDL Caliper
 RHOB.g/cc                     : CDL Bulk Density
 RHOC.g/cc                     : CDL Density Correction
 DPOR.pu                       : CDL Density Porosity
 GR.GAPI                       : Gamma Ray
 NPOR.pu                       : Neutron Porosity
 ~Parameter Information Block
 ~A  Depth       DCAL        RHOB        RHOC        DPOR         GR         NPOR    
# ...
  1675.2000      8.1055      2.3911      0.0790     15.6918     26.9160     13.1425
  1675.3000      8.1019      2.3575      0.0524     17.7248     25.3975     12.9194
  1675.4000      8.1019      2.3361     -0.0163     19.0248     26.1430     12.7534
  1675.5000      8.1010      2.3388      0.0291     18.8625     28.5691     12.7152
  1675.6000      8.1010      2.3677      0.0380     17.1086     32.8706     12.9186
  1675.7000      8.1010      2.4091      0.0667     14.6000     37.7843     13.5542
  1675.8000      8.1033      2.4403      0.1238     12.7120     39.3961     14.7795
  1675.9000      8.1033      2.4568      0.0529     11.7100     38.1294     16.4106
  1676.0000      8.0977      2.4755      0.0558     10.5780     38.6408     17.7835
  1676.1000      8.0977      2.4974      0.0944      9.2456     42.6816     18.6804
  1676.2000      8.0977      2.5093      0.0950      8.5296     48.1098     19.3713
  1676.3000      8.0973      2.5120      0.1056      8.3663     55.3936     20.0016
  1676.4000      8.0973      2.5150      0.0953      8.1840     65.2903     20.7512
  1676.5000      8.0954      2.5171      0.1104      8.0566     74.2798     21.4278
  1676.6000      8.0954      2.5167      0.0637      8.0784     80.5777     21.7080
  1676.7000      8.0954      2.5232      0.0269      7.6869     85.0556     21.8619
  1676.8000      8.1062      2.5362      0.0554      6.8999     88.9725     22.1775
  1676.9000      8.1062      2.5378      0.0869      6.8015     90.2781     22.6563
  1677.0000      8.0933      2.5160      0.0565      8.1222     86.0605     23.0606
  1677.1000      8.0933      2.4872      0.0093      9.8693     81.7706     22.9253
  1677.2000      8.0933      2.4746      0.0259     10.6333     81.3389     22.5096
  1677.3000      8.0976      2.4748      0.0483     10.6163     81.7480     22.3621
  1677.4000      8.0976      2.4718      0.0486     10.8015     79.6110     22.1140
  1677.5000      8.0866      2.4645      0.0076     11.2439     73.3440     21.3952
  1677.6000      8.0866      2.4665      0.0307     11.1221     66.7732     20.3082
  1677.7000      8.0866      2.4792      0.0855     10.3524     62.1941     19.0909
  1677.8000      8.0905      2.4870      0.0708      9.8799     55.8587     18.4024
  1677.9000      8.0905      2.4822      0.0722     10.1713     51.3576     18.5642
  1678.0000      8.1109      2.4692      0.0842     10.9546     55.4849     19.1362
  1678.1000      8.1109      2.4541      0.0694     11.8728     63.4054     19.5055
  1678.2000      8.1109      2.4427     -0.0154     12.5658     68.6065     19.3643
  1678.3000      8.1124      2.4392      0.0306     12.7766     73.2610     18.7146
  1678.4000      8.1124      2.4439      0.0300     12.4929     79.0388     17.9208
  1678.5000      8.1099      2.4581      0.0435     11.6289     81.9893     17.4020
  1678.6000      8.1099      2.4745      0.0605     10.6383     83.0717     17.1774
  1678.7000      8.1099      2.4776      0.0946     10.4501     87.5684     17.0053
  1678.8000      8.1103      2.4687      0.0465     10.9886     94.9067     16.9012
  1678.9000      8.1103      2.4658      0.0421     11.1652     98.1833     16.7981
  1679.0000      8.1119      2.4803      0.0312     10.2831     92.9369     16.6210
  1679.1000      8.1119      2.4979      0.1005      9.2190     83.4891     16.9304
  1679.2000      8.1119      2.4954      0.0816      9.3685     76.5888     17.7655
  1679.3000      8.1132      2.4792      0.0620     10.3518     73.5382     18.0011
  1679.4000      8.1132      2.4681      0.0547     11.0228     70.4870     17.2683
  1679.5000      8.1100      2.4703      0.0373     10.8910     64.0401     16.3313
  1679.6000      8.1100      2.4874      0.0241      9.8553     56.8188     15.7356
  1679.7000      8.1100      2.5062      0.0914      8.7134     53.3923     15.6801
  1679.8000      8.0784      2.5041      0.1271      8.8450     53.8374     16.0584
  1679.9000      8.0784      2.4827      0.0584     10.1387     55.0425     16.6998
  1680.0000      8.0706      2.4677      0.0283     11.0481     54.5899     17.4236
  1680.1000      8.0706      2.4655      0.0635     11.1826     51.1504     17.8511
  1680.2000      8.0706      2.4613      0.0247     11.4337     45.9497     18.0703
  1680.3000      8.0803      2.4579     -0.0224     11.6406     42.6261     18.3172
  1680.4000      8.0803      2.4663      0.0304     11.1321     41.6625     18.0369
  1680.5000      8.0872      2.4768      0.0502     10.4949     41.9392     16.9237
  1680.6000      8.0872      2.4731      0.0615     10.7196     44.0060     15.9189
  1680.7000      8.0872      2.4506      0.0313     12.0854     45.9008     15.9075
  1680.8000      8.0902      2.4213      0.0093     13.8580     46.1172     16.5442
  1680.9000      8.0902      2.4066      0.0081     14.7519     46.2218     16.7228
  1681.0000      8.0858      2.4152      0.0451     14.2313     46.9581     16.5575
  1681.1000      8.0858      2.4434      0.0145     12.5232     47.7600     16.7768
  1681.2000      8.0858      2.4786      0.0893     10.3895     49.1737     16.9132
  1681.3000      8.0854      2.4966      0.0940      9.2979     51.8342     16.5910
  1681.4000      8.0854      2.4907      0.0511      9.6544     54.8380     16.0717
  1681.5000      8.0838      2.4837      0.0350     10.0784     55.9385     15.2900
  1681.6000      8.0838      2.4889      0.0570      9.7609     53.7591     14.5083
  1681.7000      8.0838      2.4994      0.0332      9.1255     50.5353     14.4734
  1681.8000      8.0856      2.5077      0.0329      8.6230     50.5093     15.1355
  1681.9000      8.0856      2.5099      0.0701      8.4899     52.9534     15.4819
  1682.0000      8.0885      2.5106      0.0378      8.4456     53.1287     15.4715
  1682.1000      8.0885      2.5207      0.0154      7.8341     52.4403     16.3805
  1682.2000      8.0885      2.5299      0.0758      7.2800     55.0394     18.4031
  1682.3000      8.1016      2.5180      0.0415      8.0002     59.2502     20.2799
  1682.4000      8.1016      2.4981     -0.0135      9.2087     63.9079     21.0762
  1682.5000      8.1108      2.4929      0.0003      9.5188     70.8063     21.1265
  1682.6000      8.1108      2.4925      0.0671      9.5480     74.7542     21.0915
  1682.7000      8.1108      2.4741      0.0476     10.6581     69.4395     21.2366
  1682.8000      8.1122      2.4399      0.0126     12.7304     59.8905     21.6241
  1682.9000      8.1122      2.4098     -0.0864     14.5598     53.1198     21.9444
  1683.0000      8.1163      2.3925     -0.0443     15.6040     50.2430     21.7545
  1683.1000      8.1163      2.3773     -0.0476     16.5284     48.8449     21.2690
  1683.2000      8.1163      2.3596     -0.0418     17.5987     47.0914     20.5748
  1683.3000      8.1008      2.3501      0.0043     18.1734     46.2606     19.5645
  1683.4000      8.1008      2.3559      0.0144     17.8252     47.5227     18.6568
  1683.5000      8.0946      2.3747      0.0133     16.6843     47.6454     18.3318
  1683.6000      8.0946      2.3988      0.0402     15.2269     44.4430     18.7483
  1683.7000      8.0946      2.4145      0.0793     14.2735     41.9308     19.5114
  1683.8000      8.0881      2.4160      0.0502     14.1842     41.8592     19.9874
  1683.9000      8.0881      2.4139      0.0363     14.3069     41.5111     20.1258
  1684.0000      8.0820      2.4188      0.0414     14.0109     40.6937     19.9819
  1684.1000      8.0820      2.4311      0.0524     13.2653     39.9090     19.4040
  1684.2000      8.0820      2.4480      0.0641     12.2434     38.9110     18.5618
  1684.3000      8.0843      2.4602      0.1185     11.5024     37.8281     18.0493
  1684.4000      8.0843      2.4590      0.0637     11.5763     37.6269     17.9990
  1684.5000      8.0862      2.4456      0.1036     12.3870     39.1644     17.8632
  1684.6000      8.0862      2.4229      0.0290     13.7641     40.8691     17.3980
  1684.7000      8.0862      2.4022     -0.0044     15.0161     41.4211     17.0102
