~Version Information
VERS.                      2.0: CWLS Log ASCII Standard - VERSION 2.0
WRAP.                       NO: One line per depth step
~Well Information Block
STRT.FT               870.0000: 
STOP.FT              2517.5000: 
STEP.FT                 0.1000: 
NULL.                -999.2500: 
COMP.          Pioneer Natural Resources: COMPANY
WELL.              Tiaga 23-14: WELL
FLD.           Purgatoire River: FIELD
LOC.           2168' FSL & 2030' FWL: LOCATION
PROV.                 Colorado: PROVINCE
CNTY.               Las Animas: COUNTRY
SRVC.                         : SERVICE COMPANY
DATE.          Sat May 07 09:09:05 2005: LOG DATE
UWI.           05 071 08329 00: UNIQUE WELL ID
~Curve Information Block
DEPT.FT            0 000 00 00: Depth
LTEN.lb                       : Surface Line Tension
DCAL.in                       : CDL Caliper
RHOC.g/cc                     : CDL Density Correction
DPOR.pu                       : CDL Density Porosity
GR.GAPI                       : Gamma Ray
NPOR.pu                       : Neutron Porosity
~Parameter Information Block
~A  Depth       LTEN        DCAL        RHOC        DPOR         GR         NPOR    
   870.0000    727.2137      5.0887     -0.4968     30.8129    119.4943     20.8938
   870.1000    727.2137      5.0887     -0.4990     28.4943    129.4762     20.1592
   870.2000    727.2137      5.0887     -0.4386     24.7563    127.8486     19.6484
   870.3000    734.2292      5.0905     -0.2774     20.9018    121.5479     19.7643
   870.4000    734.2292      5.0905     -0.2966     20.4093    118.3116     20.6851
   870.5000    737.9216      5.0892     -0.4373     23.6881    121.3307     21.7989
   870.6000    737.9216      5.0892     -0.4837     27.4073    128.3569     22.3119
   870.7000    737.9216      5.0892     -0.4605     29.4420    130.8525     22.3211
   870.8000    737.0930      5.0905     -0.5906     29.4116    127.2347     22.4256
   870.9000    737.0930      5.0905     -0.4662     27.8482    123.9572     22.6999
   871.0000    736.1437      5.0680     -0.3846     26.8367    124.6661     22.7603
   871.1000    736.1437      5.0680     -0.5234     26.8137    128.9040     22.3608
   871.2000    736.1437      5.0680     -0.4762     25.4025    135.8371     21.9883
   871.3000    736.1312      5.0863     -0.3844     23.2428    144.3833     22.3749
   871.4000    736.1312      5.0863     -0.3833     23.4808    148.5225     23.0129
   871.5000    749.3060      5.0810     -0.4973     24.9340    145.1557     22.8813
   871.6000    749.3060      5.0810     -0.4465     24.4153    139.0473     22.3099
   871.7000    749.3060      5.0810     -0.4277     22.3777    135.4132     22.2441
   871.8000    754.2033      5.0841     -0.3602     21.1568    134.7626     22.9216
   871.9000    754.2033      5.0841     -0.3503     21.8152    133.9084     23.9330
   872.0000    760.9313      5.0895     -0.4302     23.2036    132.4780     24.6316
   872.1000    760.9313      5.0895     -0.4501     22.8975    134.0282     24.7545
   872.2000    760.9313      5.0895     -0.3234     20.7513    138.8248     24.4765
   872.3000    762.1448      5.0948     -0.4117     19.0875    140.2690     24.1825
   872.4000    762.1448      5.0948     -0.3423     18.5070    136.4994     24.2125
   872.5000    755.3747      5.0940     -0.4395     18.2320    132.8952     24.4338
   872.6000    755.3747      5.0940     -0.3871     17.9897    129.7923     24.4162
   872.7000    755.3747      5.0940     -0.4524     17.2493    124.8995     24.0895
   872.8000    745.6451      5.0826     -0.4197     15.1208    121.9952     23.7729
   872.9000    745.6451      5.0826     -0.3493     13.1892    124.0987     23.6152
   873.0000    744.1685      5.0992     -0.3577     14.4452    127.5099     23.2223
   873.1000    744.1685      5.0992     -0.3771     18.3326    127.5054     22.5488
   873.2000    744.1685      5.0992     -0.4808     21.3336    126.3262     22.4676
   873.3000    736.6833      5.0929     -0.5581     21.3123    127.1121     23.5306
   873.4000    736.6833      5.0929     -0.3601     19.4652    126.6471     24.7444
   873.5000    751.7308      5.0942     -0.3926     17.5872    121.8257     24.4536
   873.6000    751.7308      5.0942     -0.3603     15.6312    116.3608     23.0916
   873.7000    751.7308      5.0942     -0.3720     14.6618    116.2099     22.3923
   873.8000    734.0168      5.0889     -0.4747     16.2314    119.6075     22.5947
   873.9000    734.0168      5.0889     -0.4981     18.9950    119.3200     22.6349
   874.0000    739.2350      5.0845     -0.4578     21.3908    113.6191     22.2073
   874.1000    739.2350      5.0845     -0.4546     23.3464    109.0425     21.9941
   874.2000    739.2350      5.0845     -0.5462     24.0298    110.5171     22.3205
   874.3000    729.7645      5.0871     -0.3761     23.2352    115.7022     23.0146
   874.4000    729.7645      5.0871     -0.4401     22.3301    118.3275     23.6537
   874.5000    731.9395      5.0843     -0.4513     21.5844    114.9846     23.6308
   874.6000    731.9395      5.0843     -0.4629     21.1885    110.1303     22.9048
   874.7000    731.9395      5.0843     -0.4234     21.5223    109.7522     22.1889
   874.8000    728.5236      5.0933     -0.4086     21.9643    110.4648     21.4574
   874.9000    728.5236      5.0933     -0.4203     22.9858    108.2437     20.1496
   875.0000    744.1910      5.0902     -0.5102     25.0368    104.6529     18.7482
   875.1000    744.1910      5.0902     -0.5294     26.1373    101.3494     18.0230
   875.2000    744.1910      5.0902     -0.3868     25.5866    100.3878     17.9122
   875.3000    746.9620      5.0910     -0.3775     25.9172    103.7126     18.3219
   875.4000    746.9620      5.0910     -0.4731     28.0923    109.9015     19.1778
   875.5000    750.5668      5.0959     -0.5607     29.9317    114.3338     19.7217
   875.6000    750.5668      5.0959     -0.4504     30.0047    119.2137     19.7049
   875.7000    750.5668      5.0959     -0.4658     28.6666    128.0378     19.7710
   875.8000    747.8011      5.1001     -0.4365     26.6044    130.7165     20.3630
   875.9000    747.8011      5.1001     -0.3489     25.2616    121.6443     21.0951
   876.0000    745.6885      5.0992     -0.4749     25.4258    111.9283     21.0562
   876.1000    745.6885      5.0992     -0.3700     25.9724    113.3585     20.5221
   876.2000    745.6885      5.0992     -0.4466     26.0112    123.3283     20.2811
   876.3000    754.6781      5.0967     -0.3900     25.3743    129.4969     20.2705
   876.4000    754.6781      5.0967     -0.3487     24.5321    127.6316     20.0727
   876.5000    737.1362      5.1024     -0.4922     23.7195    124.9305     19.7152
   876.6000    737.1362      5.1024     -0.3459     22.8863    124.3476     19.7138
   876.7000    737.1362      5.1024     -0.3786     22.4984    123.2865     19.9918
   876.8000    758.0917      5.0999     -0.4007     22.0585    121.6330     20.0133
   876.9000    758.0917      5.0999     -0.3282     21.3064    122.0535     20.1636
   877.0000    745.5399      5.4286     -0.3498     20.9794    126.8807     20.9370
   877.1000    745.5399      5.4286     -0.2981     21.0811    132.0278     21.4700
   877.2000    745.5399      5.4286     -0.4062     21.5840    131.4535     21.0942
   877.3000    745.4773      7.9078     -0.3679     22.8784    129.5216     20.8991
   877.4000    745.4773      7.9078     -0.4300     24.7991    131.2265     21.5016
   877.5000    764.6179      8.2432     -0.4188     26.5109    131.3775     21.7927
   877.6000    764.6179      8.2432     -0.4731     27.3752    127.0817     21.5494
   877.7000    764.6179      8.2432     -0.5338     26.8881    125.6288     21.6510
   877.8000    737.4595      8.2452     -0.4892     25.4027    130.5788     21.9448
   877.9000    737.4595      8.2452     -0.3735     24.6194    136.8121     21.7368
   878.0000    757.8129      8.2420     -0.4918     25.1933    140.4116     21.1058
   878.1000    757.8129      8.2420     -0.4395     26.1046    140.6903     20.8877
   878.2000    757.8129      8.2420     -0.4568     27.0161    137.3656     21.5891
   878.3000    738.8741      8.2508     -0.5197     27.6458    133.0686     22.4020
   878.4000    738.8741      8.2508     -0.4797     26.5956    131.1912     22.6091
   878.5000    732.9019      8.2520     -0.3830     24.0287    132.1283     22.5569
   878.6000    732.9019      8.2520     -0.3769     22.5454    134.3484     22.5057
   878.7000    732.9019      8.2520     -0.4226     23.3574    135.8605     22.4144
   878.8000    762.7118      8.2532     -0.4193     24.4631    133.9305     22.3518
   878.9000    762.7118      8.2532     -0.4441     23.7823    129.6588     22.4718
   879.0000    728.1047      8.2636     -0.3124     22.1157    126.1922     22.5919
   879.1000    728.1047      8.2636     -0.3797     21.5800    121.7008     22.2707
   879.2000    728.1047      8.2636     -0.4517     21.8882    113.6909     21.8680
   879.3000    731.5803      8.2510     -0.4873     21.0027    101.8881     21.9853
   879.4000    731.5803      8.2510     -0.4007     18.4769     90.0110     22.2636
   879.5000    736.5281      8.2376     -0.3179     16.0354     84.4703     22.2892
