~Version Information
 VERS.                                  2.0 : CWLS LAS VERSION
 WRAP.                                   NO : WRAPING MODE
 SWARE .                 MController 2.5.0J : SOFTWARE VERSION
~Well Information
 WELL.                      Robinson 15-11R : WELL
 COMP.                       Petrogulf Corp : COMPANY
 FLD.                      Purgatoire River : FIELD
 LOC.                NW/NW Sec 15 T33S R67W : LOCATION
 DATE.                             11/06/04 : DATE(S) LOGGED
 SRVC.       Blanco Geological Services LLC : SERVICE COMPANY
 STAT.                                   CO : STATE
 CNTY.                           Las Animas : COUNTY
 CTRY.                                  USA : COUNTRY
 API.                       05-071-08029-00 : API NUMBER
 STRT.FT                             571.00 : START DEPTH
 STOP.FT                            1521.00 : STOP DEPTH
 STEP.FT                               1.00 : DEPTH INCREMENT
 NULL.                                -9999 : NULL VALUE
~Curve information
 DEPTH.FT                                   :
 ROP.MIN/FT                                 :
 GAS.UNITS                                  :
~ASCII Log data
# ...
      1371.0         0.13         11.8 
      1372.0         0.18         12.2 
      1373.0         0.13         11.6 
      1374.0         0.23         10.9 
      1375.0         0.20         11.7 
      1376.0         0.30         11.4 
      1377.0         0.30         11.1 
      1378.0         0.13         11.4 
      1379.0         0.17         10.8 
      1380.0         0.27         11.4 
      1381.0         0.13         11.7 
      1382.0         0.23         11.9 
      1383.0         0.13         11.3 
      1384.0         0.27         10.3 
      1385.0         0.27         10.2 
      1386.0         0.27         10.7 
      1387.0         0.28         11.2 
      1388.0         0.20         10.7 
      1389.0         0.27         10.3 
      1390.0         0.27         10.3 
      1391.0         0.30          9.6 
      1392.0         0.30          9.1 
      1393.0         0.27          9.5 
      1394.0         0.33         10.1 
      1395.0         0.27          9.7 
      1396.0         0.17         10.1 
      1397.0         0.27         10.7 
      1398.0         0.13         11.5 
      1399.0         0.37         14.1 
      1400.0         0.22         15.5 
      1401.0         0.23         15.9 
      1402.0         0.20         17.9 
      1403.0         0.20         18.6 
      1404.0         0.23         20.0 
      1405.0         0.20         19.3 
      1406.0         0.17         19.0 
      1407.0         0.17         18.1 
      1408.0         0.13         17.8 
      1409.0         0.17         17.6 
      1410.0         0.13         17.1 
      1411.0         0.27         16.6 
      1412.0         0.17         16.4 
      1413.0         0.13         16.3 
      1414.0         0.13         15.7 
      1415.0         0.13         16.1 
      1416.0         0.17         15.3 
      1417.0         0.13         15.4 
      1418.0         0.17         14.5 
      1419.0         0.18         13.3 
      1420.0         0.13         13.1 
      1421.0         0.13         12.7 
      1422.0         0.10         12.9 
      1423.0         0.13         12.2 
      1424.0         0.13         12.0 
      1425.0         0.10         12.2 
      1426.0         0.27         12.0 
      1427.0         0.37         11.0 
      1428.0         0.27         11.5 
      1429.0         0.33         12.0 
      1430.0         0.20         11.2 
      1431.0         0.27         10.7 
      1432.0         0.27         10.1 
      1433.0         0.20         10.2 
      1434.0         0.20         10.3 
      1435.0         0.32         10.9 
      1436.0         0.37          9.5 
      1437.0         0.33          9.2 
      1438.0         0.30         10.5 
      1439.0         0.27         12.6 
      1440.0         0.23         13.4 
      1441.0         0.20         14.1 
      1442.0         0.17         16.0 
      1443.0         0.23         17.3 
      1444.0         0.23         19.0 
      1445.0         0.20         20.8 
      1446.0         0.23         21.1 
      1447.0         0.20         20.5 
      1448.0         0.25         19.7 
      1449.0         0.27         19.3 
      1450.0         0.30         19.2 
      1451.0         0.30         19.8 
      1452.0         0.27         17.6 
      1453.0         0.23         16.5 
      1454.0         0.23         15.4 
      1455.0         0.17         14.5 
      1456.0         0.33         13.1 
      1457.0         0.37         12.9 
      1458.0         0.17         12.3 
      1459.0         0.17         12.2 
      1460.0         0.20         12.1 
      1461.0         0.18         11.7 
      1462.0         0.13         11.0 
      1463.0         0.17         11.2 
      1464.0         0.27         11.0 
      1465.0         0.27         11.2 
      1466.0         0.27          9.2 
      1467.0         0.40          8.4 
      1468.0         0.45          8.5 
      1469.0         0.47          9.9 
      1470.0         0.23         10.4 
      1471.0         0.33         10.1 
      1472.0         0.40         11.7 
      1473.0         0.37         14.6 
      1474.0         0.47         18.0 
      1475.0         0.40         19.5 
      1476.0         0.33         20.0 
      1477.0         0.28         20.1 
      1478.0         0.27         19.9 
      1479.0         0.20         18.4 
      1480.0         0.23         18.5 
      1481.0         0.23         18.1 
      1482.0         0.23         18.5 
      1483.0         0.23         16.0 
      1484.0         0.23         14.4 
      1485.0         0.27         13.1 
      1486.0         0.30         12.6 
      1487.0         0.30         12.3 
      1488.0         0.30         11.8 
      1489.0         0.33         10.8 
      1490.0         0.32         10.5 
      1491.0         0.27         10.5 
      1492.0         0.23         10.2 
      1493.0         0.20         10.6 
      1494.0         0.98         12.0 
      1495.0         0.23         12.2 
      1496.0         0.37         12.7 
      1497.0         0.37         12.7 
      1498.0         0.43         13.9 
      1499.0         0.37         17.7 
      1500.0         0.33         22.2 
      1501.0         0.30         27.3 
      1502.0         0.37         30.8 
      1503.0         0.52         32.7 
      1504.0         0.33         33.3 
      1505.0         0.30         33.6 
      1506.0         0.23         31.8 
      1507.0         0.20         31.1 
      1508.0         0.23         30.0 
      1509.0         0.20         27.9 
      1510.0         0.23         27.1 
      1511.0         0.20         24.8 
      1512.0         0.17         24.6 
      1513.0         0.13         22.8 
      1514.0         0.17         21.0 
      1515.0         0.17         21.0 
      1516.0         0.20         19.0 
      1517.0         0.22         18.9 
      1518.0         0.13         18.7 
      1519.0         0.27         17.7 
      1520.0         0.27         16.8 
      1521.0         1.00         15.2 
