~Version Information
 VERS.                                  2.0 : CWLS LAS VERSION
 WRAP.                                   NO : WRAPING MODE
 SWARE .                 MController 2.5.0N : SOFTWARE VERSION
~Well Information
 WELL.                        Paradise 13-8 : WELL
 COMP.        Pioneer Natural Resources Inc : COMPANY
 FLD.                      Purgatoire River : FIELD
 LOC.                 NW/SW Sec 8 T32S R66W : LOCATION
 DATE.                           1/21-22/05 : DATE(S) LOGGED
 SRVC.       Blanco Geological Services LLC : SERVICE COMPANY
 STAT.                                   CO : STATE
 CNTY.                           Las Animas : COUNTY
 CTRY.                                  USA : COUNTRY
 API.                       05-071-07946-00 : API NUMBER
 STRT.FT                             855.00 : START DEPTH
 STOP.FT                            3151.00 : STOP DEPTH
 STEP.FT                               1.00 : DEPTH INCREMENT
 NULL.                                -9999 : NULL VALUE
~Curve information
 DEPTH.FT                                   :
 ROP.MIN/FT                                 :
 GAS.UNITS                                  :
~ASCII Log data
# ...
      1255.0         0.40          7.6 
      1256.0         0.42          9.5 
      1257.0         0.37         11.6 
      1258.0         0.40         14.5 
      1259.0         0.33         17.1 
      1260.0         0.33         19.5 
      1261.0         0.30         21.8 
      1262.0         0.23         23.5 
      1263.0         0.27         25.2 
      1264.0         8.88        283.3 
      1265.0         0.33          2.6 
      1266.0         0.30          2.6 
      1267.0         0.40          1.8 
      1268.0         0.47          1.7 
      1269.0         0.55          1.5 
      1270.0         0.50          1.4 
      1271.0         0.50          1.8 
      1272.0         0.43          1.6 
      1273.0         0.43          1.9 
      1274.0         0.47          1.6 
      1275.0         0.37          1.6 
      1276.0         0.37          1.6 
      1277.0         0.45          2.1 
      1278.0         0.40          2.0 
      1279.0         0.40          1.9 
      1280.0         0.47          2.1 
      1281.0         0.47          1.9 
      1282.0         0.37          1.9 
      1283.0         0.47          2.4 
      1284.0         0.47          2.4 
      1285.0         0.45          1.7 
      1286.0         0.50          1.7 
      1287.0         0.33          0.8 
      1288.0         0.37          1.4 
      1289.0         0.37          1.7 
      1290.0         0.37          1.7 
      1291.0         0.43          1.3 
      1292.0         0.30          2.2 
      1293.0         0.62          2.2 
      1294.0         6.73          3.3 
      1295.0         0.33          1.7 
      1296.0         0.27          2.2 
      1297.0         0.30          1.8 
      1298.0         0.47          2.1 
      1299.0         0.47          1.6 
      1300.0         0.50          1.9 
      1301.0         0.47          2.1 
      1302.0         0.42          2.2 
      1303.0         0.40          2.3 
      1304.0         0.50          2.3 
      1305.0         0.50          2.4 
      1306.0         0.47          2.4 
      1307.0         0.50          2.5 
      1308.0         0.37          2.9 
      1309.0         0.37          2.5 
      1310.0         0.48          2.8 
      1311.0         0.43          3.0 
      1312.0         0.30          2.5 
      1313.0         0.30          2.2 
      1314.0         0.40          2.3 
      1315.0         0.63          2.1 
      1316.0         0.27          2.4 
      1317.0         0.37          2.6 
      1318.0         0.42          2.3 
      1319.0         0.30          2.4 
      1320.0         0.27          2.0 
      1321.0         0.23          2.2 
      1322.0         0.30          2.2 
      1323.0         0.33          2.2 
      1324.0         6.57          2.5 
      1325.0         0.53          2.3 
      1326.0         0.40          1.4 
      1327.0         0.37          2.1 
      1328.0         0.37          1.5 
      1329.0         0.38          1.9 
      1330.0         0.33          1.8 
      1331.0         0.33          1.9 
      1332.0         0.40          1.6 
      1333.0         0.37          1.8 
      1334.0         0.50          1.9 
      1335.0         0.43          1.9 
      1336.0         0.30          1.9 
      1337.0         0.40          2.1 
      1338.0         0.55          2.1 
      1339.0         0.50          2.1 
      1340.0         0.47          2.2 
      1341.0         0.50          2.2 
      1342.0         0.50          3.1 
      1343.0         0.50          3.4 
      1344.0         0.48          4.3 
      1345.0         0.50          6.2 
      1346.0         0.50          6.3 
      1347.0         0.43          5.5 
      1348.0         0.50          5.3 
      1349.0         0.47          5.4 
      1350.0         0.50          5.7 
      1351.0         0.48          5.9 
      1352.0         0.40          6.1 
      1353.0         0.53          6.0 
      1354.0         6.00         11.2 
      1355.0         0.43          7.2 
      1356.0         0.40          6.5 
      1357.0         0.33          6.7 
      1358.0         0.30          6.7 
      1359.0         0.37          6.6 
      1360.0         0.30          6.7 
      1361.0         0.33          9.3 
      1362.0         0.40         11.5 
      1363.0         0.38         11.5 
      1364.0         0.50          9.5 
      1365.0         0.50          8.4 
      1366.0         0.40          7.5 
      1367.0         0.43          7.9 
      1368.0         0.37          7.5 
      1369.0         0.47          7.3 
      1370.0         0.38          7.4 
      1371.0         0.30          7.2 
      1372.0         0.33          7.4 
      1373.0         0.37          7.3 
      1374.0         0.43          7.3 
      1375.0         0.43          7.3 
      1376.0         0.37          7.1 
      1377.0         0.27          7.0 
      1378.0         0.30          6.8 
      1379.0         0.47          7.1 
      1380.0         0.48          7.1 
      1381.0         0.30          7.4 
      1382.0         0.27          7.1 
      1383.0         0.20          7.2 
      1384.0         6.87         30.0 
      1385.0         0.30         14.3 
      1386.0         0.27         13.1 
      1387.0         0.20         11.8 
      1388.0         0.27         10.8 
      1389.0         0.27         10.6 
      1390.0         0.30          9.8 
      1391.0         0.20          8.8 
      1392.0         0.18          8.8 
      1393.0         0.20          8.3 
      1394.0         0.23          7.8 
      1395.0         0.20          7.3 
      1396.0         0.17          7.1 
      1397.0         0.30          6.8 
      1398.0         0.47          6.8 
      1399.0         0.50          6.8 
      1400.0         0.53          6.6 
      1401.0         0.53          6.7 
      1402.0         0.52          6.6 
      1403.0         0.53          6.9 
      1404.0         0.53          6.8 
      1405.0         0.53          6.5 
      1406.0         0.43          6.7 
      1407.0         0.47          6.3 
      1408.0         0.37          6.6 
      1409.0         0.38          6.8 
      1410.0         0.33          7.0 
      1411.0         0.43          6.8 
      1412.0         0.33          7.1 
      1413.0         0.40          7.2 
      1414.0         6.00         23.2 
      1415.0         0.37         19.9 
      1416.0         0.33         15.6 
      1417.0         0.33         15.3 
      1418.0         0.23         13.3 
      1419.0         0.33         12.4 
      1420.0         0.33         11.2 
      1421.0         0.23         10.1 
      1422.0         0.25         10.2 
      1423.0         0.20          9.5 
      1424.0         0.30          8.4 
      1425.0         0.30          8.1 
      1426.0         0.27         10.5 
      1427.0         0.23         15.8 
      1428.0         0.17         15.8 
      1429.0         0.27         17.8 
      1430.0         0.30         19.1 
      1431.0         0.27         17.7 
      1432.0         0.37         12.4 
      1433.0         0.23         11.7 
      1434.0         0.23         10.1 
      1435.0         0.35          9.1 
      1436.0         0.40          8.3 
      1437.0         0.23          7.7 
      1438.0         0.27          7.4 
      1439.0         0.20          7.4 
      1440.0         0.30          8.1 
      1441.0         0.23          7.8 
      1442.0         0.17          7.8 
      1443.0         0.27          7.8 
      1444.0         6.47         17.6 
      1445.0         0.27          9.0 
      1446.0         0.30          8.8 
      1447.0         0.33          8.5 
      1448.0         0.33          8.4 
      1449.0         0.42          7.6 
      1450.0         0.37          7.9 
      1451.0         0.30          7.7 
      1452.0         0.40          7.7 
      1453.0         0.33          8.1 
      1454.0         0.40          8.1 
