~Version Information
VERS.                      2.0: CWLS Log ASCII Standard - VERSION 2.0
WRAP.                       NO: One line per depth step
~Well Information Block
STRT.FT               265.0000: 
STOP.FT              1214.0000: 
STEP.FT                 0.2500: 
NULL.                -999.2500: 
COMP.          Pioneer Natural Resources: COMPANY
WELL.          Pacheco 33-27 Tr: WELL
FLD.           Purgatoire River: FIELD
LOC.           2251' FSL & 2342' FEL: LOCATION
PROV.                 Colorado: PROVINCE
CNTY.               Las Animas: COUNTRY
SRVC.                Patterson: SERVICE COMPANY
DATE.          Fri Jun 10 13:29:04 2005: LOG DATE
UWI.           05 071 08384 00: UNIQUE WELL ID
~Curve Information Block
DEPT.FT            0 000 00 00: Depth
SN.Ohm-m                      : IEL Short Normal
SP.mV                         : IEL Spontaneous Potential
DIR.Ohm-m                     : IEL Induction Resistivity
GR.GAPI                       : Gamma Ray
~Parameter Information Block
~A  Depth        SN          SP         DIR          GR     
# ...
   801.0000     20.6191      4.2821     21.7246     57.2412
   801.2500     20.5080      4.2809     21.4945     55.6285
   801.5000     20.3712      4.2428     21.2505     55.1116
   801.7500     20.2769      4.1957     21.0185     55.6341
   802.0000     20.2120      4.1648     20.8336     56.5783
   802.2500     20.0918      4.1606     20.7255     56.7493
   802.5000     19.8647      4.1771     20.7042     56.0675
   802.7500     19.5823      4.1973     20.7525     55.3076
   803.0000     19.3208      4.2021     20.8320     54.4855
   803.2500     19.0775      4.1804     20.9016     54.3323
   803.5000     18.7906      4.1359     20.9368     54.4391
   803.7500     18.4781      4.0848     20.9390     54.5672
   804.0000     18.2966      4.0430     20.9289     54.9646
   804.2500     18.3462      4.0118     20.9284     55.5172
   804.5000     18.5041      3.9731     20.9449     56.5873
   804.7500     18.5880      3.8968     20.9648     57.0973
   805.0000     18.5779      3.7584     20.9595     57.1176
   805.2500     18.5774      3.5551     20.9021     56.6519
   805.5000     18.6407      3.3099     20.7838     55.4307
   805.7500     18.7251      3.0581     20.6231     54.3650
   806.0000     18.7861      2.8276     20.4616     52.7168
   806.2500     18.8378      2.6281     20.3551     51.8990
   806.5000     18.9103      2.4581     20.3633     51.5073
   806.7500     19.0046      2.3198     20.5354     51.8082
   807.0000     19.1120      2.2248     20.8891     52.7063
   807.2500     19.2467      2.1841     21.3916     53.2369
   807.5000     19.4351      2.1960     21.9589     53.3706
   807.7500     19.6764      2.2436     22.4821     52.8857
   808.0000     19.9177      2.3020     22.8745     51.4797
   808.2500     20.1063      2.3489     23.1073     50.3632
   808.5000     20.2759      2.3735     23.2095     49.0020
   808.7500     20.4995      2.3853     23.2408     48.5755
   809.0000     20.7584      2.4127     23.2632     48.7069
   809.2500     20.9638      2.4860     23.3267     49.0827
   809.5000     21.0858      2.6158     23.4586     49.6556
   809.7500     21.2108      2.7835     23.6561     50.0021
   810.0000     21.4485      2.9522     23.8853     50.6870
   810.2500     21.7794      3.0888     24.0938     51.3241
   810.5000     22.0723      3.1819     24.2364     52.3617
   810.7500     22.2522      3.2448     24.3013     52.8904
   811.0000     22.3725      3.3055     24.3215     53.0854
   811.2500     22.5127      3.3893     24.3620     52.7090
   811.5000     22.6648      3.5031     24.4878     51.4866
   811.7500     22.7709      3.6317     24.7275     50.4443
   812.0000     22.8125      3.7466     25.0553     48.9765
   812.2500     22.8299      3.8232     25.4068     48.2769
   812.5000     22.8935      3.8529     25.7188     47.8376
   812.7500     23.0288      3.8416     25.9657     47.8946
   813.0000     23.1592      3.8027     26.1633     48.2357
   813.2500     23.2005      3.7505     26.3437     48.5663
   813.5000     23.1753      3.6965     26.5272     49.3627
   813.7500     23.1408      3.6453     26.7072     50.1544
   814.0000     23.1231      3.5968     26.8572     51.5143
   814.2500     23.1547      3.5542     26.9506     52.2826
   814.5000     23.2386      3.5275     26.9832     52.9615
   814.7500     23.3225      3.5274     26.9806     53.1873
   815.0000     23.3946      3.5541     26.9847     53.6022
   815.2500     23.5151      3.5951     27.0337     54.0870
   815.5000     23.7364      3.6350     27.1468     55.0281
   815.7500     24.0450      3.6678     27.3182     55.5803
   816.0000     24.3730      3.7000     27.5175     55.8138
   816.2500     24.6638      3.7456     27.7028     55.3676
   816.5000     24.9155      3.8180     27.8472     53.9913
   816.7500     25.1348      3.9249     27.9532     53.0697
   817.0000     25.2863      4.0620     28.0346     52.5038
   817.2500     25.3280      4.2126     28.0781     52.8359
   817.5000     25.2533      4.3522     28.0337     54.0955
   817.7500     25.0742      4.4619     27.8534     55.0860
   818.0000     24.8212      4.5426     27.5384     56.1425
   818.2500     24.5612      4.6207     27.1428     56.2812
   818.5000     24.3443      4.7318     26.7323     55.5562
   818.7500     24.1447      4.8947     26.3439     54.6622
   819.0000     23.9061      5.0973     25.9780     53.3236
   819.2500     23.6154      5.3065     25.6159     52.7838
   819.5000     23.3103      5.4893     25.2408     52.8161
   819.7500     23.0445      5.6270     24.8473     53.3446
   820.0000     22.8468      5.7181     24.4393     54.4770
   820.2500     22.7090      5.7723     24.0295     55.2052
   820.5000     22.6159      5.8003     23.6416     56.0891
   820.7500     22.5673      5.8081     23.3124     56.5452
   821.0000     22.5815      5.7979     23.0839     57.0161
   821.2500     22.6768      5.7757     22.9889     57.2068
   821.5000     22.8175      5.7561     23.0373     57.4700
   821.7500     22.9212      5.7615     23.2076     57.6139
   822.0000     22.9600      5.8151     23.4504     57.2383
   822.2500     22.9870      5.9331     23.7056     56.2106
   822.5000     23.0425      6.1176     23.9276     53.5595
   822.7500     23.1023      6.3539     24.1019     51.5621
   823.0000     23.1609      6.6139     24.2359     49.1352
   823.2500     23.2906      6.8698     24.3371     48.1017
   823.5000     23.5379      7.1085     24.4001     47.4279
   823.7500     23.8311      7.3340     24.4119     47.6439
   824.0000     24.0681      7.5553     24.3635     49.2301
   824.2500     24.2424      7.7759     24.2594     51.1172
   824.5000     24.4220      7.9944     24.1183     54.8792
   824.7500     24.6359      8.2095     23.9657     57.9359
   825.0000     24.8407      8.4229     23.8213     63.5134
   825.2500     24.9970      8.6353     23.6922     67.8297
   825.5000     25.1062      8.8417     23.5807     74.3750
   825.7500     25.1406      9.0305     23.4991     78.1304
   826.0000     25.0322      9.1899     23.4698     82.2500
   826.2500     24.7956      9.3169     23.5025     84.0659
   826.5000     24.5556      9.4166     23.5633     85.6612
   826.7500     24.3847      9.4961     23.5663     85.8753
   827.0000     24.2239      9.5603     23.4016     84.5107
   827.2500     24.0297      9.6154     22.9888     82.4870
   827.5000     23.8631      9.6712     22.3196     78.5439
   827.7500     23.7583      9.7368     21.4571     76.0538
   828.0000     23.6251      9.8165     20.4963     73.9539
   828.2500     23.3184      9.9067     19.5209     74.3901
   828.5000     22.7267      9.9958     18.5799     78.5434
   828.7500     21.8030     10.0689     17.6879     83.5986
   829.0000     20.5858     10.1163     16.8374     93.5887
   829.2500     19.2041     10.1392     16.0138    100.8202
   829.5000     17.7981     10.1467     15.2082    110.7092
   829.7500     16.4461     10.1452     14.4232    116.0787
   830.0000     15.2121     10.1343     13.6708    122.4266
   830.2500     14.1654     10.1133     12.9642    126.0124
   830.5000     13.3070     10.0896     12.3112    131.3867
   830.7500     12.5848     10.0788     11.7108    135.3877
   831.0000     11.9688     10.0940     11.1560    142.0716
   831.2500     11.4457     10.1376     10.6394    146.4952
   831.5000     11.0083     10.1987     10.1582    151.9048
   831.7500     10.6585     10.2572      9.7163    154.3503
   832.0000     10.3880     10.2946      9.3212    156.5673
   832.2500     10.2061     10.3098      8.9794    157.4176
   832.5000     10.1204     10.3260      8.6931    158.0663
   832.7500     10.0295     10.3751      8.4595    158.1663
   833.0000      9.7951     10.4712      8.2732    158.1087
   833.2500      9.4640     10.5990      8.1288    158.1629
   833.5000      9.2241     10.7269      8.0219    158.3750
   833.7500      9.1468     10.8272      7.9495    158.1653
   834.0000      9.1392     10.8879      7.9088    156.2303
   834.2500      9.1146     10.9146      7.8957    153.5061
