~Version Information
VERS.                      2.0: CWLS Log ASCII Standard - VERSION 2.0
WRAP.                       NO: One line per depth step
~Well Information Block
STRT.FT               240.0000: 
STOP.FT               966.2000: 
STEP.FT                 0.1000: 
NULL.                -999.2500: 
COMP.          Pioneer Natural Resources: COMPANY
WELL.          New Mexico 21-5: WELL
FLD.           Purgatoire River: FIELD
LOC.           175' FNL & 1700' FWL: LOCATION
PROV.                 Colorado: PROVINCE
CNTY.               Las Animas: COUNTRY
SRVC.                Patterson: SERVICE COMPANY
DATE.          Mon Dec 13 06:55:26 2004: LOG DATE
UWI.           05 071 08234 00: UNIQUE WELL ID
~Curve Information Block
DEPT.FT            0 000 00 00: Depth
DCAL.in                       : CDL Caliper
RHOB.g/cc                     : CDL Bulk Density
RHOC.g/cc                     : CDL Density Correction
DPOR.pu                       : CDL Density Porosity
NPOR.pu                       : Neutron Porosity
GR.GAPI                       : Gamma Ray
~Parameter Information Block
~A  Depth       DCAL        RHOB        RHOC        DPOR        NPOR         GR     
# ...
   844.8000      7.8873      2.5640      0.1074      5.2119     15.9624     50.7758
   844.9000      7.8873      2.5667      0.0823      5.0497     15.5173     56.1463
   845.0000      7.8885      2.5562      0.0723      5.6867     14.7637     56.3849
   845.1000      7.8885      2.5393      0.0507      6.7115     14.2240     51.5155
   845.2000      7.8885      2.5269      0.0271      7.4601     13.9937     48.5282
   845.3000      7.8890      2.5313      0.0167      7.1916     13.9007     48.6481
   845.4000      7.8890      2.5514      0.0742      5.9770     14.0369     48.7289
   845.5000      7.8893      2.5646      0.0755      5.1771     14.4320     49.2968
   845.6000      7.8893      2.5575      0.0602      5.6079     14.8578     51.9201
   845.7000      7.8893      2.5419      0.0500      6.5502     15.0492     54.2520
   845.8000      7.8894      2.5326      0.0396      7.1151     14.7363     55.7163
   845.9000      7.8894      2.5340      0.0279      7.0325     14.2533     57.8537
   846.0000      7.8887      2.5395      0.0589      6.6969     14.4417     59.1099
   846.1000      7.8887      2.5348      0.0605      6.9835     15.1610     56.5429
   846.2000      7.8887      2.5170      0.0403      8.0595     15.4198     52.8196
   846.3000      7.8880      2.5021      0.0236      8.9640     15.1706     53.3770
   846.4000      7.8880      2.5000      0.0372      9.0917     15.2137     55.4916
   846.5000      7.8877      2.5033      0.0584      8.8896     15.4924     53.3401
   846.6000      7.8877      2.5043      0.0326      8.8328     15.1890     48.4742
   846.7000      7.8877      2.5031      0.0530      8.9034     14.2744     45.8490
   846.8000      7.8871      2.5037      0.0173      8.8655     13.6326     46.3658
   846.9000      7.8871      2.5058      0.0455      8.7415     13.7682     47.6232
   847.0000      7.8864      2.5048      0.0498      8.8025     14.3730     49.0425
   847.1000      7.8864      2.4997      0.0746      9.1083     14.8824     50.7459
   847.2000      7.8864      2.4922      0.0446      9.5629     14.6338     51.9469
   847.3000      7.8869      2.4908      0.0120      9.6510     13.9289     53.3883
   847.4000      7.8869      2.5005      0.0242      9.0629     13.8336     54.6795
   847.5000      7.8886      2.5088      0.0613      8.5598     14.2355     54.9162
   847.6000      7.8886      2.5075      0.0174      8.6351     14.4067     54.5805
   847.7000      7.8886      2.5108      0.0335      8.4350     14.2311     53.9564
   847.8000      7.8897      2.5282      0.0619      7.3810     14.1005     54.0343
   847.9000      7.8897      2.5493      0.0808      6.1002     14.0779     57.2984
   848.0000      7.8905      2.5608      0.1084      5.4070     13.9191     63.1386
   848.1000      7.8905      2.5616      0.0692      5.3558     13.8786     66.3947
   848.2000      7.8905      2.5621      0.0795      5.3295     14.0905     65.0269
   848.3000      7.8929      2.5670      0.0559      5.0327     14.1497     64.0668
   848.4000      7.8929      2.5699      0.0946      4.8556     14.0206     66.1953
   848.5000      7.9016      2.5652      0.0609      5.1371     14.0375     65.1310
   848.6000      7.9016      2.5573      0.0492      5.6171     14.0199     59.2608
   848.7000      7.9016      2.5438      0.0999      6.4346     13.6394     56.9845
   848.8000      7.9094      2.5205      0.0262      7.8458     13.3637     59.3595
   848.9000      7.9094      2.5036      0.0069      8.8729     13.5086     58.8699
   849.0000      7.9029      2.5093      0.0240      8.5269     13.8259     55.9130
   849.1000      7.9029      2.5289      0.0639      7.3382     14.4620     54.9929
   849.2000      7.9029      2.5359      0.0840      6.9167     15.5319     54.9989
   849.3000      7.8923      2.5199      0.0574      7.8867     16.4020     53.0336
   849.4000      7.8923      2.4977      0.0636      9.2273     16.7599     48.8375
   849.5000      7.8880      2.4840      0.0123     10.0619     17.0027     44.6194
   849.6000      7.8880      2.4732      0.0328     10.7174     17.1177     43.7113
   849.7000      7.8880      2.4521      0.0344     11.9942     16.7606     44.5223
   849.8000      7.8882      2.4278     -0.0243     13.4682     16.3422     43.8974
   849.9000      7.8882      2.4205      0.0256     13.9105     16.2473     45.0359
   850.0000      7.8882      2.4340      0.0323     13.0924     16.3998     50.1186
   850.1000      7.8882      2.4568      0.0336     11.7079     16.8979     57.3365
   850.2000      7.8882      2.4707      0.0652     10.8672     17.6241     64.4094
   850.3000      7.8870      2.4643      0.0370     11.2561     18.1603     66.6203
   850.4000      7.8870      2.4496      0.0424     12.1446     18.4145     63.4862
   850.5000      7.8869      2.4478      0.0274     12.2532     18.4934     60.7560
   850.6000      7.8869      2.4621      0.0537     11.3867     18.2791     59.5932
   850.7000      7.8869      2.4805      0.0322     10.2718     17.7303     57.6786
   850.8000      7.8877      2.4940      0.0611      9.4574     17.1909     57.2116
   850.9000      7.8877      2.5004      0.0669      9.0681     17.0509     59.1729
   851.0000      7.8875      2.5060      0.0693      8.7262     17.1983     60.4586
   851.1000      7.8875      2.5164      0.0576      8.0946     17.0739     60.2002
   851.2000      7.8875      2.5284      0.0677      7.3699     16.5766     57.5785
   851.3000      7.8887      2.5358      0.0744      6.9242     16.3303     53.5263
   851.4000      7.8887      2.5306      0.0936      7.2372     16.5449     52.5143
   851.5000      7.8958      2.5081      0.0746      8.5970     16.7206     55.5746
   851.6000      7.8958      2.4796      0.0459     10.3289     16.4682     59.4793
   851.7000      7.8958      2.4600      0.0343     11.5125     15.9555     61.9075
   851.8000      7.9016      2.4530      0.0183     11.9403     15.4149     62.9932
   851.9000      7.9016      2.4566      0.0039     11.7211     14.8076     62.1065
   852.0000      7.8946      2.4654      0.0435     11.1856     14.5455     60.5068
   852.1000      7.8946      2.4734      0.0497     10.7059     15.0310     62.3682
   852.2000      7.8946      2.4800      0.0586     10.3021     15.7199     67.1110
   852.3000      7.8887      2.4838      0.0708     10.0747     15.9460     69.7808
   852.4000      7.8887      2.4834      0.0527     10.0952     15.9720     68.2854
   852.5000      7.8891      2.4852      0.0455      9.9872     15.9407     65.5542
   852.6000      7.8891      2.4918      0.0634      9.5870     15.8004     64.7649
   852.7000      7.8891      2.4967      0.0653      9.2908     15.9513     64.7408
   852.8000      7.8897      2.4965      0.0571      9.3048     16.3033     65.2409
   852.9000      7.8897      2.4921      0.0677      9.5667     16.4624     68.6806
   853.0000      7.8908      2.4877      0.0222      9.8349     16.3424     70.0540
   853.1000      7.8908      2.4893      0.0695      9.7411     15.9952     65.4236
   853.2000      7.8908      2.4947      0.0873      9.4148     15.7530     63.0821
   853.3000      7.8915      2.5018      0.0742      8.9842     15.8902     66.2891
   853.4000      7.8915      2.5085      0.0845      8.5753     16.1732     67.8544
   853.5000      7.8888      2.5095      0.0828      8.5179     16.5013     65.8229
   853.6000      7.8888      2.5105      0.0642      8.4561     16.8312     65.6858
   853.7000      7.8888      2.5220      0.0722      7.7591     16.7391     68.0400
   853.8000      7.8863      2.5395      0.0829      6.6977     16.2445     66.1057
   853.9000      7.8863      2.5447      0.1257      6.3797     15.9514     58.0805
   854.0000      7.8856      2.5287      0.0950      7.3489     16.0226     54.1501
   854.1000      7.8856      2.5058      0.0794      8.7397     15.9779     61.3781
   854.2000      7.8856      2.4922      0.0950      9.5608     15.7319     71.3817
   854.3000      7.8859      2.4875      0.0722      9.8474     15.6422     75.2547
