~Version Information
VERS.                                  2.0 : CWLS LAS VERSION
WRAP.                                   NO : WRAPING MODE
SWARE .                 MController 2.5.0J : SOFTWARE VERSION
~Well Information
WELL.                         State 16-43V : WELL
COMP.                       Petrogulf CORP : COMPANY
FLD.                NE/SE Sec 16 T33S R67W : FIELD
LOC.                      Purgatoire River : LOCATION
DATE.                            12/3-4/04 : DATE(S) LOGGED
SRVC.        Blanco Geological Service LLC : SERVICE COMPANY
STAT.                                   CO : STATE
CNTY.                            Las Animas: COUNTY
CTRY.                                  USA : COUNTRY
API.                           05-071-08015: API NUMBER
STRT.FT                             626.00 : START DEPTH
STOP.FT                            2125.00 : STOP DEPTH
STEP.FT                               1.00 : DEPTH INCREMENT
NULL.                                -9999 : NULL VALUE
~Curve information
DEPTH.FT                                   :
ROP.MIN/FT                                 :
GAS.UNITS                                  :
~ASCII Log data
# ...
      1656.0         0.23         33.5
      1657.0         0.27         37.6
      1658.0         0.23         42.4
      1659.0         0.30         44.1
      1660.0         0.30         42.5
      1661.0         0.27         40.1
      1662.0         0.27         36.7
      1663.0         0.32         34.9
      1664.0         0.30         31.5
      1665.0         0.27         29.0
      1666.0         0.30         27.0
      1667.0         0.27         25.9
      1668.0         0.30         23.8
      1669.0         0.27         21.8
      1670.0         0.27         21.7
      1671.0         0.23         20.8
      1672.0         0.20         21.0
      1673.0         0.23         21.4
      1674.0         0.23         20.1
      1675.0         0.28         20.9
      1676.0         0.27         31.0
      1677.0         0.55         47.3
      1678.0         0.40         45.1
      1679.0         0.37         40.4
      1680.0         0.37         39.7
      1681.0         0.27         39.0
      1682.0         0.27         37.4
      1683.0         0.27         36.6
      1684.0         0.23         34.8
      1685.0         0.30         34.1
      1686.0         0.20         33.5
      1687.0         0.25         32.2
      1688.0         0.23         31.0
      1689.0         0.23         29.4
      1690.0         0.20         27.4
      1691.0         0.23         27.2
      1692.0         0.23         24.9
      1693.0         0.20         23.6
      1694.0         0.23         23.8
      1695.0         0.23         21.8
      1696.0         0.23         21.6
      1697.0         0.23         19.6
      1698.0         0.23         20.5
      1699.0         0.20         20.4
      1700.0         0.20         19.6
      1701.0         0.23         19.1
      1702.0         0.25         18.8
      1703.0         0.20         18.2
      1704.0         0.20         18.6
      1705.0         0.20         17.9
      1706.0         0.20         28.8
      1707.0         0.27         31.8
      1708.0         0.23         32.0
      1709.0         0.27         29.9
      1710.0         0.20         30.7
      1711.0         0.23         28.9
      1712.0         0.23         30.5
      1713.0         0.30         33.5
      1714.0         0.45         33.5
      1715.0         0.33         33.9
      1716.0         0.20         33.1
      1717.0         0.17         33.7
      1718.0         0.23         31.3
      1719.0         0.23         29.3
      1720.0         0.27         27.5
      1721.0         0.27         26.2
      1722.0         0.23         25.5
      1723.0         0.20         24.4
      1724.0         0.20         24.7
      1725.0         0.20         23.6
      1726.0         0.13         23.2
      1727.0         0.13         23.3
      1728.0         0.22         24.6
      1729.0         0.13         24.9
      1730.0         0.17         23.2
      1731.0         0.20         23.4
      1732.0         0.23         22.0
      1733.0         0.20         21.5
      1734.0         0.20         23.5
      1735.0         0.33         21.8
      1736.0         0.10         23.2
      1737.0         0.27         28.5
      1738.0         0.20         31.3
      1739.0         0.27         32.9
      1740.0         0.27         31.0
      1741.0         0.23         31.1
      1742.0         0.23         31.3
      1743.0         0.23         31.7
      1744.0         0.30         35.6
      1745.0         0.32         36.0
      1746.0         0.23         36.7
      1747.0         0.30         36.8
      1748.0         0.30         32.9
      1749.0         0.27         31.3
      1750.0         0.27         30.8
      1751.0         0.30         29.6
      1752.0         0.30         27.8
      1753.0         0.30         27.5
      1754.0         0.27         26.7
      1755.0         0.30         25.0
      1756.0         0.27         23.8
      1757.0         0.32         24.0
      1758.0         0.30         23.6
      1759.0         0.30         23.3
      1760.0         0.27         22.2
      1761.0         0.27         19.9
      1762.0         0.27         19.0
      1763.0         0.27         19.4
      1764.0         0.30         18.4
      1765.0         0.27         19.2
      1766.0         0.30         18.3
      1767.0         0.43         26.0
      1768.0         0.38         30.3
      1769.0         0.40         29.1
      1770.0         0.37         31.2
      1771.0         0.33         35.6
      1772.0         0.20         36.2
      1773.0         0.13         37.3
      1774.0         0.17         36.4
      1775.0         0.27         35.1
      1776.0         0.27         34.0
      1777.0         0.30         32.1
      1778.0         0.23         31.0
      1779.0         0.20         32.5
      1780.0         0.28         35.5
      1781.0         0.30         37.6
      1782.0         0.33         36.9
      1783.0         0.27         34.9
      1784.0         0.23         32.8
      1785.0         0.17         31.1
      1786.0         0.17         29.8
      1787.0         0.23         28.6
      1788.0         0.33         25.9
      1789.0         0.30         26.3
      1790.0         0.27         25.8
      1791.0         0.27         26.1
      1792.0         0.27         25.7
      1793.0         0.28         24.1
      1794.0         0.20         24.2
      1795.0         0.23         23.7
      1796.0         0.17         28.8
      1797.0         0.37         31.2
      1798.0         0.40         28.5
      1799.0         0.37         27.7
      1800.0         0.37         34.1
      1801.0         0.37         35.8
      1802.0         0.35         34.0
      1803.0         0.33         34.5
      1804.0         0.37         32.3
      1805.0         0.33         29.3
      1806.0         0.33         28.1
      1807.0         0.33         26.3
      1808.0         0.37         26.8
      1809.0         0.43         23.8
      1810.0         0.27         23.4
      1811.0         0.23         21.6
      1812.0         0.28         22.3
      1813.0         0.30         21.8
      1814.0         0.27         21.3
      1815.0         0.30         19.9
      1816.0         0.27         18.7
      1817.0         0.20         18.3
      1818.0         0.23         19.0
      1819.0         0.30         18.2
      1820.0         0.27         16.7
      1821.0         0.23         17.8
      1822.0         0.23         18.7
      1823.0         0.27         18.4
      1824.0         0.23         18.4
      1825.0         0.28         18.4
      1826.0         0.27         19.2
      1827.0         0.10         20.7
      1828.0         0.43         27.7
      1829.0         0.20         29.7
      1830.0         0.17         30.1
      1831.0         0.17         31.2
      1832.0         0.27         33.0
      1833.0         0.43         31.7
      1834.0         0.30         35.0
      1835.0         0.30         36.5
      1836.0         0.30         39.5
      1837.0         0.23         42.4
      1838.0         0.18         43.2
      1839.0         0.17         42.8
      1840.0         0.23         43.3
      1841.0         0.20         43.0
      1842.0         0.23         43.2
      1843.0         0.20         43.0
      1844.0         0.20         42.9
      1845.0         0.20         41.7
      1846.0         0.17         41.9
      1847.0         0.17         41.7
      1848.0         0.13         40.4
      1849.0         0.20         39.7
      1850.0         0.17         38.5
      1851.0         0.17         37.2
      1852.0         0.20         35.2
      1853.0         0.23         32.5
      1854.0         0.23         31.8
      1855.0         0.25         32.4
      1856.0         0.27         35.5
      1857.0         0.40         30.1
      1858.0         0.30         36.0
      1859.0         0.20         38.8
      1860.0         0.30         39.2
      1861.0         0.30         38.1
