~Version Information
 VERS.                                  2.0 : CWLS LAS VERSION
 WRAP.                                   NO : WRAPING MODE
 SWARE .                 MController 2.5.0J : SOFTWARE VERSION
~Well Information
 WELL.                    Rising Star 22-11 : WELL
 COMP.    Pioneer Natural Resources USA Inc : COMPANY
 FLD.                      Purgatoire River : FIELD
 LOC.                SE/NW Sec 11 T33S R65W : LOCATION
 DATE.                              4/08/05 : DATE(S) LOGGED
 SRVC.       Blanco Geological Services LLC : SERVICE COMPANY
 STAT.                                   CO : STATE
 CNTY.                           Las Animas : COUNTY
 CTRY.                                  USA : COUNTRY
 API.                       05-071-08354-00 : API NUMBER
 STRT.FT                             562.00 : START DEPTH
 STOP.FT                            1000.00 : STOP DEPTH
 STEP.FT                               1.00 : DEPTH INCREMENT
 NULL.                                -9999 : NULL VALUE
~Curve information
 DEPTH.FT                                   :
 ROP.MIN/FT                                 :
 GAS.UNITS                                  :
~ASCII Log data
       562.0         0.12         97.7 
       563.0         9.35         13.3 
       564.0         2.40          6.8 
       565.0         0.37          5.4 
       566.0         0.10          5.3 
       567.0         0.37          5.9 
       568.0         0.23          6.3 
       569.0         0.07          5.9 
       570.0         0.18          5.7 
       571.0         0.23          5.6 
       572.0         0.40          6.2 
       573.0         0.40          5.9 
       574.0         0.13          5.7 
       575.0         0.33          6.2 
       576.0         0.35          6.5 
       577.0         0.27          6.6 
       578.0         0.27          6.6 
       579.0         0.23          6.0 
       580.0         0.17          5.8 
       581.0         0.27          6.6 
       582.0         0.28          7.6 
       583.0         0.23          7.6 
       584.0         0.40          7.5 
       585.0         0.30          7.8 
       586.0         0.27          7.6 
       587.0         0.35          6.6 
       588.0         0.33          6.9 
       589.0         0.33          7.4 
       590.0         0.30          9.0 
       591.0         0.20         23.1 
       592.0         0.20         39.8 
       593.0         0.27         47.0 
       594.0         0.22         46.5 
       595.0         0.43         41.7 
       596.0         4.77         24.0 
       597.0         0.53         37.7 
       598.0         0.22         36.8 
       599.0         0.30         30.1 
       600.0         0.30         21.0 
       601.0         2.77         14.5 
       602.0         0.27         11.7 
       603.0         0.32         12.5 
       604.0         0.30         13.2 
       605.0         0.23         12.5 
       606.0         0.20         11.6 
       607.0         0.23         11.4 
       608.0         0.28         11.5 
       609.0         0.27         11.0 
       610.0         0.23         10.9 
       611.0         0.17         10.8 
       612.0         0.20         11.3 
       613.0         0.17         11.5 
       614.0         0.17         11.1 
       615.0         0.23         10.9 
       616.0         0.17         11.1 
       617.0         0.20         11.1 
       618.0         0.17         12.3 
       619.0         0.17         11.4 
       620.0         0.23         10.6 
       621.0         0.23         10.3 
       622.0         0.17         10.6 
       623.0         0.13         21.9 
       624.0         0.32        119.9 
       625.0         0.47        211.1 
       626.0         1.43       3788.5 
       627.0         0.30       3056.4 
       628.0         0.23       2122.4 
       629.0         0.20       1675.5 
       630.0         0.20       1430.4 
       631.0         0.17       1275.7 
       632.0         0.22       1188.7 
       633.0         0.20       1112.5 
       634.0         0.20       1067.6 
       635.0         0.20       1035.9 
       636.0         0.20       1009.1 
       637.0         0.20        986.2 
       638.0         0.20        980.6 
       639.0         0.20        978.3 
       640.0         0.20        976.4 
       641.0         0.27        976.0 
       642.0         0.20        975.1 
       643.0         0.23        968.5 
       644.0         0.23        952.8 
       645.0         0.20        921.7 
       646.0         0.17        898.5 
       647.0         0.20        881.2 
       648.0         0.22        868.7 
       649.0         0.17        849.8 
       650.0         0.20        822.9 
       651.0         0.20        819.7 
       652.0         0.17        823.3 
       653.0         0.20        818.4 
       654.0         0.20        813.4 
       655.0         0.20        820.0 
       656.0         2.22        811.5 
       657.0         0.13        810.2 
       658.0         0.13        806.3 
       659.0         0.10        799.1 
       660.0         0.23        949.5 
       661.0         0.23       1250.5 
       662.0         0.27       1569.8 
       663.0         0.23       1796.9 
       664.0         0.17       1901.2 
       665.0         0.23       2016.0 
       666.0         0.20       2087.4 
       667.0         0.17       2129.9 
       668.0         0.20       2162.9 
       669.0         0.23       2156.1 
       670.0         0.30       2150.2 
       671.0         0.28       2118.4 
       672.0         0.30       2068.4 
       673.0         0.23       1996.7 
       674.0         0.27       1934.6 
       675.0         0.13       1842.7 
       676.0         0.20       1800.5 
       677.0         0.17       1740.6 
       678.0         0.13       1682.0 
       679.0         0.13       1636.9 
       680.0         0.17       1601.5 
       681.0         0.17       1558.7 
       682.0         0.23       1521.7 
       683.0         0.20       1503.7 
       684.0         0.37       1488.7 
       685.0         0.37       1121.9 
       686.0         1.85       2969.0 
       687.0         0.33       2072.3 
       688.0         0.23       1581.9 
       689.0         0.20       1324.8 
       690.0         0.07       1192.9 
       691.0         0.20       1166.4 
       692.0         0.17       1157.0 
       693.0         0.22       1153.7 
       694.0         0.20       1140.3 
       695.0         0.20       1107.9 
       696.0         0.23       1072.2 
       697.0         0.20       1036.2 
       698.0         0.20       1018.6 
       699.0         0.20       1001.6 
       700.0         0.20        996.3 
       701.0         0.13        992.1 
       702.0         0.13        992.1 
       703.0         0.17        978.7 
       704.0         0.20        973.8 
       705.0         0.20        971.8 
       706.0         0.17        969.5 
       707.0         0.20        963.3 
       708.0         0.27        954.8 
       709.0         0.20        946.9 
       710.0         0.22        945.0 
       711.0         0.20        945.0 
       712.0         0.20        943.3 
       713.0         0.20        935.8 
       714.0         0.47        929.3 
       715.0         0.30       1114.8 
       716.0         1.30       3746.0 
       717.0         0.33       2865.3 
       718.0         0.23       1885.8 
       719.0         0.25       1470.7 
       720.0         0.23       1247.6 
       721.0         0.20       1124.6 
       722.0         0.20       1062.1 
       723.0         0.23       1023.5 
       724.0         0.20        990.8 
       725.0         0.17        970.2 
       726.0         0.10        958.4 
       727.0         0.23       1018.2 
       728.0         0.23       1163.2 
       729.0         0.20       1243.3 
       730.0         0.33       1261.6 
       731.0         0.30       1252.2 
       732.0         0.13       1257.1 
       733.0         0.20       1331.3 
       734.0         0.17       1373.9 
       735.0         0.25       1384.3 
       736.0         0.13       1381.4 
       737.0         0.20       1376.5 
       738.0         0.23       1369.6 
       739.0         0.20       1356.5 
       740.0         0.20       1334.9 
       741.0         0.27       1315.3 
       742.0         2.02       5089.6 
       743.0         0.40       3736.2 
       744.0         0.30       2283.3 
       745.0         0.20       1728.2 
       746.0         0.23       1537.8 
       747.0         0.20       1388.6 
       748.0         0.23       1306.8 
       749.0         0.27       1240.7 
       750.0         0.27       1192.6 
       751.0         0.20       1160.6 
       752.0         0.20       1140.9 
       753.0         0.17       1132.1 
       754.0         0.20       1119.0 
       755.0         0.17       1110.8 
       756.0         0.20       1101.0 
       757.0         0.18       1094.5 
       758.0         0.17       1089.2 
       759.0         0.20       1084.0 
       760.0         0.17       1077.8 
       761.0         0.20       1069.9 
