~Version Information
VERS.                      2.0: CWLS Log ASCII Standard - VERSION 2.0
WRAP.                       NO: One line per depth step
~Well Information Block
STRT.FT               860.0000: 
STOP.FT              2733.7000: 
STEP.FT                 0.1000: 
NULL.                -999.2500: 
COMP.          Pioneer Natural Resources: COMPANY
WELL.          Beacon 11-18 Tr: WELL
FLD.           Purgatoire River: FIELD
LOC.           409' FNL & 203' FWL: LOCATION
PROV.                 Colorado: PROVINCE
CNTY.               Las Animas: COUNTRY
SRVC.                Patterson: SERVICE COMPANY
DATE.          Mon Jan 17 07:36:09 2005: LOG DATE
UWI.           05 071 08251 00: UNIQUE WELL ID
~Curve Information Block
DEPT.FT            0 000 00 00: Depth
DCAL.in                       : CDL Caliper
RHOB.g/cc                     : CDL Bulk Density
RHOC.g/cc                     : CDL Density Correction
DPOR.pu                       : CDL Density Porosity
NPOR.pu                       : Neutron Porosity
GR.GAPI                       : Gamma Ray
~Parameter Information Block
~A  Depth       DCAL        RHOB        RHOC        DPOR        NPOR         GR     
   860.0000      8.1201      2.2595     -0.2586     23.6650     41.6119     76.5387
   860.1000      8.1201      2.2396     -0.2508     24.8754     42.0626     74.4089
   860.2000      8.1201      2.2270     -0.2117     25.6373     42.5775     71.9963
   860.3000      8.1135      2.2160     -0.2693     26.3015     42.6730     72.3359
   860.4000      8.1135      2.2256     -0.2779     25.7232     42.5708     74.9151
   860.5000      8.1164      2.2611     -0.1998     23.5670     42.5540     78.2202
   860.6000      8.1164      2.2940     -0.1924     21.5730     42.6285     81.9700
   860.7000      8.1164      2.3025     -0.1839     21.0626     42.8567     84.3325
   860.8000      8.1205      2.2920     -0.2415     21.6941     43.0531     82.2227
   860.9000      8.1205      2.2844     -0.2385     22.1569     42.8889     76.3699
   861.0000      8.1204      2.2874     -0.1956     21.9728     42.5246     70.4248
   861.1000      8.1204      2.2867     -0.1956     22.0203     42.2799     67.5818
   861.2000      8.1204      2.2686     -0.1886     23.1160     42.0983     68.7169
   861.3000      8.1208      2.2422     -0.2281     24.7162     41.9465     71.1524
   861.4000      8.1208      2.2338     -0.2655     25.2245     42.0585     72.8178
   861.5000      8.1241      2.2504     -0.1999     24.2207     42.4591     75.0680
   861.6000      8.1241      2.2681     -0.1690     23.1470     42.7434     77.9858
   861.7000      8.1241      2.2675     -0.1668     23.1806     42.6763     77.4483
   861.8000      8.1257      2.2567     -0.2171     23.8383     42.5994     71.8592
   861.9000      8.1257      2.2586     -0.2406     23.7184     42.7927     67.7794
   862.0000      8.1235      2.2787     -0.1312     22.5028     43.0076     70.8075
   862.1000      8.1235      2.2991     -0.1491     21.2692     42.9793     76.6794
   862.2000      8.1235      2.3079     -0.1629     20.7310     42.7700     78.5610
   862.3000      8.1204      2.3085     -0.1838     20.6998     42.5664     77.4435
   862.4000      8.1204      2.3083     -0.1823     20.7113     42.4969     77.4590
   862.5000      8.1192      2.3124     -0.1676     20.4604     42.4795     77.2698
   862.6000      8.1192      2.3212     -0.1609     19.9290     42.4210     75.9266
   862.7000      8.1192      2.3305     -0.1321     19.3616     42.4210     76.4121
   862.8000      8.1201      2.3320     -0.1255     19.2703     42.4940     79.0945
   862.9000      8.1201      2.3201     -0.1559     19.9938     42.4668     81.3438
   863.0000      8.1207      2.3059     -0.1964     20.8521     42.3527     80.1759
   863.1000      8.1207      2.2956     -0.1690     21.4758     42.3866     75.6271
   863.2000      8.1207      2.2756     -0.2044     22.6929     42.5979     71.7150
   863.3000      8.1194      2.2480     -0.2489     24.3607     42.7256     69.7067
   863.4000      8.1194      2.2297     -0.2040     25.4747     42.7176     68.9405
   863.5000      8.1197      2.2174     -0.1720     26.2196     42.8475     71.3309
   863.6000      8.1197      2.2132     -0.2535     26.4704     43.0120     77.2086
   863.7000      8.1197      2.2362     -0.2334     25.0760     42.9961     82.1964
   863.8000      8.1245      2.2740     -0.1714     22.7890     42.9614     83.9050
   863.9000      8.1245      2.2877     -0.1585     21.9606     42.8567     85.1771
   864.0000      8.1265      2.2733     -0.2361     22.8324     42.5217     84.5420
   864.1000      8.1265      2.2644     -0.2135     23.3713     42.1952     79.7774
   864.2000      8.1265      2.2764     -0.1783     22.6415     42.0842     76.7669
   864.3000      8.1237      2.2947     -0.1857     21.5348     42.0012     76.4307
   864.4000      8.1237      2.3032     -0.1518     21.0208     41.9016     74.0894
   864.5000      8.1232      2.3020     -0.1531     21.0886     41.9679     71.7141
   864.6000      8.1232      2.3039     -0.1801     20.9774     42.1107     71.6475
   864.7000      8.1232      2.3161     -0.2037     20.2371     42.1261     72.0147
   864.8000      8.1257      2.3290     -0.1309     19.4539     41.9911     72.2546
   864.9000      8.1257      2.3338     -0.1729     19.1658     41.8183     73.6845
   865.0000      8.1273      2.3419     -0.2464     18.6703     41.7780     77.0351
   865.1000      8.1273      2.3562     -0.1382     17.8081     42.0277     81.6748
   865.2000      8.1273      2.3545     -0.1437     17.9077     42.4745     85.8545
   865.3000      8.1273      2.3341     -0.1822     19.1426     42.7879     88.0170
   865.4000      8.1273      2.3193     -0.2189     20.0405     42.7363     87.3603
   865.5000      8.1271      2.3215     -0.1980     19.9111     42.3620     84.5378
   865.6000      8.1271      2.3264     -0.1753     19.6123     41.9310     82.1676
   865.7000      8.1271      2.3143     -0.1676     20.3464     41.7044     81.2943
   865.8000      8.1276      2.2869     -0.2358     22.0038     41.5722     79.6124
   865.9000      8.1276      2.2699     -0.2315     23.0345     41.2874     75.8954
   866.0000      8.1288      2.2735     -0.2241     22.8188     40.9556     73.0418
   866.1000      8.1288      2.2878     -0.2279     21.9537     40.8939     72.6756
   866.2000      8.1288      2.3088     -0.1987     20.6794     41.0952     73.2091
   866.3000      8.1304      2.3379     -0.1964     18.9122     41.2490     72.3742
   866.4000      8.1304      2.3714     -0.1407     16.8835     41.2363     69.0173
   866.5000      8.1309      2.3942     -0.1143     15.5034     41.0358     64.9227
   866.6000      8.1309      2.3907     -0.1588     15.7157     40.6861     61.7398
   866.7000      8.1309      2.3636     -0.1746     17.3589     40.4639     58.9955
   866.8000      8.1312      2.3394     -0.2316     18.8271     40.5109     57.7261
   866.9000      8.1312      2.3495     -0.2448     18.2107     40.6624     58.2292
   867.0000      8.1310      2.3864     -0.1367     15.9740     40.7504     58.8618
   867.1000      8.1310      2.4056     -0.1578     14.8091     40.6885     60.0021
   867.2000      8.1310      2.3888     -0.1751     15.8315     40.4296     62.9333
   867.3000      8.1325      2.3614     -0.2205     17.4920     40.1634     65.5911
   867.4000      8.1325      2.3432     -0.1827     18.5956     40.1579     65.0869
   867.5000      8.1361      2.3250     -0.2147     19.6991     40.3416     62.6677
   867.6000      8.1361      2.3065     -0.2116     20.8201     40.6337     61.6336
   867.7000      8.1361      2.3036     -0.2348     20.9933     41.0445     62.2242
   867.8000      8.1390      2.3195     -0.1866     20.0323     41.3907     63.1238
   867.9000      8.1390      2.3449     -0.2297     18.4935     41.6054     64.6363
   868.0000      8.1372      2.3774     -0.1620     16.5219     41.7963     66.6762
   868.1000      8.1372      2.4124     -0.1630     14.3981     41.7682     66.7697
   868.2000      8.1372      2.4394     -0.1334     12.7637     41.4845     64.6940
   868.3000      8.1361      2.4515     -0.1494     12.0280     41.3142     64.5909
   868.4000      8.1361      2.4502     -0.1424     12.1121     41.3671     67.1234
   868.5000      8.1340      2.4402     -0.1280     12.7168     41.5577     68.7882
   868.6000      8.1340      2.4291     -0.1471     13.3864     41.7819     69.9128
   868.7000      8.1340      2.4237     -0.1686     13.7130     41.8616     72.8288
   868.8000      8.1294      2.4237     -0.2183     13.7132     41.9129     74.2964
   868.9000      8.1294      2.4222     -0.1367     13.8070     42.1220     71.3578
   869.0000      8.1264      2.4191     -0.2107     13.9923     42.0734     69.3386
   869.1000      8.1264      2.4237     -0.2084     13.7144     41.5804     71.1848
   869.2000      8.1264      2.4211     -0.1407     13.8730     41.2619     71.3286
   869.3000      8.1260      2.3945     -0.2153     15.4845     41.3925     68.0004
   869.4000      8.1260      2.3647     -0.2250     17.2882     41.4447     65.3301
   869.5000      8.1273      2.3539     -0.2258     17.9450     41.0813     66.1273
