~Version Information
VERS.                      2.0: CWLS Log ASCII Standard - VERSION 2.0
WRAP.                       NO: One line per depth step
~Well Information Block
STRT.FT               -12.2500: 
STOP.FT              2595.7500: 
STEP.FT                 0.2500: 
NULL.                -999.2500: 
COMP.          Petrogulf Corporation: COMPANY
WELL.            Montoya 1-44V: WELL
FLD.           Purgatoire River: FIELD
LOC.           753' FSL & 990' FEL--: LOCATION
PROV.                       CO: PROVINCE
CNTY.               Las Aniams: COUNTRY
SRVC.          Patterson Wireline: SERVICE COMPANY
DATE.          Mon Jun 13 11:58:10 2005: LOG DATE
UWI.           05 071 08142 00: UNIQUE WELL ID
~Curve Information Block
DEPT.FT            0 000 00 00: Depth
CCL.                          : Casing Collar Locator
TT3.usec                      : CBL 3' Travel Time
AMP3.mV                       : CBL 3' Amplitude
GR.GAPI                       : Gamma Ray
~Parameter Information Block
~A  Depth       CCL         TT3         AMP3         GR     
# ...
   691.2500      0.0000    813.2759     11.4953    162.9524
   691.5000      0.0000    807.2706     11.5233    158.9781
   691.7500      0.0000    800.9246     11.5438    154.7917
   692.0000      0.0000    796.4365     11.5160    152.4491
   692.2500      0.0000    795.1698     11.4442    153.5822
   692.5000      0.0000    795.9785     11.3643    158.1590
   692.7500      0.0000    794.9700     11.3113    164.0120
   693.0000      0.0000    787.7265     11.3009    167.9657
   693.2500      0.0000    773.0540     11.3285    167.8641
   693.5000      0.0000    755.1078     11.3753    164.1997
   693.7500      0.0000    741.1843     11.4144    160.3002
   694.0000      0.0000    736.6332     11.4241    160.1211
   694.2500      0.0000    741.4527     11.4019    164.9836
   694.5000      0.0000    751.2078     11.3676    172.8215
   694.7500      0.0000    760.4733     11.3508    180.2906
   695.0000      0.0000    765.5014     11.3707    184.5534
   695.2500      0.0000    765.1349     11.4270    183.9340
   695.5000      0.0000    760.7148     11.5010    178.7537
   695.7500      0.0000    755.0279     11.5623    171.3590
   696.0000      0.0000    750.4780     11.5887    164.2787
   696.2500      0.0000    747.9219     11.5985    158.6638
   696.5000      0.0000    746.9453     11.6559    154.6404
   696.7500      0.0000    746.6042     11.8314    152.0153
   697.0000      0.0000    745.6314     12.1551    150.3233
   697.2500      0.0000    742.4920     12.5981    149.1696
   697.5000      0.0000    736.2930     13.0792    148.8120
   697.7500      0.0000    728.1335     13.4890    149.7371
   698.0000      0.0000    721.2664     13.7213    151.6470
   698.2500      0.0000    719.4335     13.7003    153.5608
   698.5000      0.0000    724.7494     13.4056    154.9224
   698.7500      0.0000    736.6599     12.8956    155.8117
   699.0000      0.0000    752.5953     12.2938    156.0338
   699.2500      0.0000    770.1340     11.7162    154.8490
   699.5000      0.0000    788.8575     11.1982    151.6259
   699.7500      0.0000    809.3022     10.7055    145.8409
   700.0000      0.0000    829.6161     10.2132    136.5812
   700.2500      0.0000    844.5058      9.7424    123.3399
   700.5000      0.0000    849.1186      9.3190    107.5668
   700.7500      0.0000    843.7977      8.9386     92.6106
   701.0000      0.0000    833.8478      8.6087     81.9621
   701.2500      0.0000    824.7520      8.4027     77.6299
   701.5000      0.0000    818.4091      8.4250     79.3808
   701.7500      0.0000    813.3181      8.7085     84.7742
   702.0000      0.0000    806.8975      9.1731     90.4629
   702.2500      0.0000    797.1872      9.6925     94.4843
   702.5000      0.0000    783.1255     10.1837     97.4572
   702.7500      0.0000    763.8242     10.6322    101.2912
   703.0000      0.0000    738.6496     11.0544    106.8167
   703.2500      0.0000    709.8504     11.4412    112.8994
   703.5000      0.0000    685.3306     11.7366    117.7056
   703.7500      0.0000    675.3934     11.8814    120.3973
   704.0000      0.0000    683.5178     11.8743    121.4943
   704.2500      0.0000    701.8992     11.7699    122.0781
   704.5000      0.0000    718.4066     11.6173    123.0287
   704.7500      0.0000    726.3992     11.4273    124.7038
   705.0000      0.0000    726.7996     11.1992    126.7333
   705.2500      0.0000    723.7861     10.9584    127.9120
   705.5000      0.0000    721.0914     10.7611    126.6907
   705.7500      0.0000    720.9972     10.6673    122.3552
   706.0000      0.0000    724.0981     10.6956    115.6408
   706.2500      0.0000    728.8735     10.7942    107.7587
   706.5000      0.0000    731.9158     10.8764     99.2950
   706.7500      0.0000    728.8475     10.9145     90.7921
   707.0000      0.0000    715.9830     10.9858     83.6191
   707.2500      0.0000    693.3796     11.1859     79.0737
   707.5000      0.0000    667.5125     11.4951     76.9343
   707.7500      0.0000    649.0621     11.7633     75.8593
   708.0000      0.0000    646.6848     11.8429     75.0493
   708.2500      0.0000    664.0068     11.7233     74.8942
   708.5000      0.0000    700.2780     11.5432     76.1458
   708.7500      0.0000    748.2133     11.4871     78.9297
   709.0000      0.0000    792.4970     11.6540     82.6853
   709.2500      0.0000    817.8344     11.9878     86.9506
   709.5000      0.0000    820.8070     12.3289     91.9347
   709.7500      2.0000    812.4311     12.5327     98.2350
   710.0000      2.0000    809.1110     12.5391    106.3783
   710.2500      0.0000    819.5563     12.3574    116.6270
   710.5000      0.0000    837.4803     12.0354    128.5291
   710.7500      0.0000    847.1356     11.6527    140.4235
   711.0000      0.0000    837.9913     11.3050    150.0062
   711.2500      0.0000    813.8712     11.0641    155.6103
   711.5000      0.0000    787.6412     10.9554    156.6549
   711.7500      0.0000    769.5032     10.9534    153.2803
   712.0000      0.0000    761.3813     10.9822    146.4098
   712.2500      0.0000    759.4954     10.9606    138.1867
   712.5000      0.0000    759.3260     10.8672    131.5187
   712.7500      0.0000    758.4788     10.7283    128.5567
   713.0000      0.0000    756.9028     10.5548    129.4853
   713.2500      0.0000    755.5652     10.3365    132.7540
   713.5000      0.0000    754.8333     10.0919    136.3572
   713.7500      0.0000    754.0667      9.8806    138.9187
   714.0000      0.0000    752.6732      9.7622    140.1573
   714.2500      0.0000    751.1967      9.7657    140.9448
   714.5000      0.0000    751.0256      9.8981    142.7021
   714.7500      0.0000    753.1112     10.1614    145.9981
   715.0000      0.0000    756.9879     10.5382    149.7811
   715.2500      0.0000    760.9153     10.9601    152.6849
   715.5000      0.0000    763.0785     11.3126    154.9735
   715.7500      0.0000    762.8687     11.5019    158.3425
   716.0000      0.0000    761.0419     11.5274    163.7327
   716.2500      0.0000    758.7469     11.4817    170.0487
   716.5000      0.0000    756.4815     11.4716    175.2247
   716.7500      0.0000    753.9446     11.5386    178.1741
   717.0000      0.0000    750.8317     11.6469    179.5180
   717.2500      0.0000    747.5346     11.7277    180.4025
   717.5000      0.0000    744.8364     11.7172    180.5938
   717.7500      0.0000    743.1132     11.5674    178.0793
   718.0000      0.0000    742.1847     11.2535    171.1549
   718.2500      0.0000    741.9001     10.7998    160.9264
   718.5000      0.0000    742.5059     10.2966    151.1595
   718.7500      0.0000    744.1312      9.8649    145.3959
   719.0000      0.0000    746.0895      9.5916    144.3759
   719.2500      0.0000    747.2333      9.5124    146.1115
   719.5000      0.0000    747.1311      9.6460    147.9307
   719.7500      0.0000    746.5395     10.0037    148.3926
   720.0000      0.0000    746.6599     10.5529    147.7741
   720.2500      0.0000    748.1140     11.1993    147.2179
   720.5000      0.0000    750.5226     11.8292    147.5007
   720.7500      0.0000    752.8939     12.3718    148.4380
   721.0000      0.0000    754.3890     12.8321    149.2770
   721.2500      0.0000    754.6473     13.2655    149.5246
   721.5000      0.0000    753.5864     13.7104    149.4113
   721.7500      0.0000    751.3992     14.1459    149.6100
   722.0000      0.0000    748.7810     14.5160    150.5813
   722.2500      0.0000    746.6434     14.7762    152.1168
   722.5000      0.0000    745.4733     14.8981    153.3071
   722.7500      0.0000    745.1329     14.8471    152.9471
   723.0000      0.0000    745.1909     14.5800    150.1949
   723.2500      0.0000    745.2946     14.0893    145.1487
   723.5000      0.0000    745.3356     13.4512    138.9764
   723.7500      0.0000    745.4684     12.8084    133.2495
   724.0000      0.0000    746.0472     12.2823    128.6262
   724.2500      0.0000    747.4249     11.8944    124.1591
   724.5000      0.0000    749.5607     11.5732    118.4600
