~Version Information
VERS.                      2.0: CWLS Log ASCII Standard - VERSION 2.0
WRAP.                       NO: One line per depth step
~Well Information Block
STRT.FT                -7.7500: 
STOP.FT              1532.2500: 
STEP.FT                 0.2500: 
NULL.                -999.2500: 
COMP.          Pioneer Natural Resources: COMPANY
WELL.          Big Cat Federal 44-1: WELL
FLD.           Purgatorie River: FIELD
LOC.           197' FSL & 973' FEL--: LOCATION
CNTY.               Las Animas: COUNTY
SRVC.          Patterson Wireline: SERVICE COMPANY
DATE.          Fri Apr 28 12:21:06 2006: LOG DATE
UWI.           05 071 08042 00: UNIQUE WELL ID
STAT.                       CO: STATE
~Curve Information Block
DEPT.FT            0 000 00 00: Depth
CCL.                          : Casing Collar Locator
TT3.usec                      : CBL 3' Travel Time
AMP3.mV                       : CBL 3' Amplitude
GR.GAPI                       : Gamma Ray
~Parameter Information Block
~A  Depth       CCL         TT3         AMP3         GR     
# ...
   494.7500      0.0000    357.2873     18.2424     47.6094
   495.0000      0.0000    374.9758     18.1322     48.5723
   495.2500      0.0000    403.7810     17.9268     48.9616
   495.5000      0.0000    440.1184     17.6310     47.8374
   495.7500      0.0000    478.3329     17.2888     45.2683
   496.0000      0.0000    517.1948     16.9486     42.0353
   496.2500      0.0000    559.0515     16.6321     39.2364
   496.5000      0.0000    602.6730     16.3337     37.8822
   496.7500      0.0000    643.7033     16.0338     38.4058
   497.0000      0.0000    682.0272     15.7141     40.3637
   497.2500      0.0000    720.7944     15.3724     42.6922
   497.5000      0.0000    758.2399     15.0280     44.4783
   497.7500      0.0000    787.4202     14.7087     45.6321
   498.0000      0.0000    804.1271     14.4355     46.7133
   498.2500      0.0000    810.8033     14.2158     48.0044
   498.5000      0.0000    813.0340     14.0410     48.9323
   498.7500      0.0000    814.8864     13.8917     48.6696
   499.0000      0.0000    817.4667     13.7539     47.1848
   499.2500      0.0000    820.2507     13.6312     45.4143
   499.5000      0.0000    822.8346     13.5354     44.3906
   499.7500      0.0000    825.4909     13.4681     44.3627
   500.0000      0.0000    828.4423     13.4219     44.7278
   500.2500      0.0000    831.0872     13.3949     44.6280
   500.5000      0.0000    832.2286     13.3961     43.5446
   500.7500      0.0000    831.2631     13.4398     41.5710
   501.0000      0.0000    828.8999     13.5342     39.3859
   501.2500      0.0000    826.4943     13.6708     38.0316
   501.5000      0.0000    824.9103     13.8245     38.4564
   501.7500      0.0000    824.2004     13.9763     40.9608
   502.0000      0.0000    824.0394     14.1341     45.1070
   502.2500      0.0000    824.1429     14.3199     50.5503
   502.5000      0.0000    824.3964     14.5357     58.0453
   502.7500      0.0000    824.8956     14.7542     69.0580
   503.0000      0.0000    826.0356     14.9411     83.9090
   503.2500      0.0000    828.4466     15.0808    100.6215
   503.5000      0.0000    832.4469     15.1822    116.0673
   503.7500      0.0000    837.1340     15.2704    128.0532
   504.0000      0.0000    840.1617     15.3682    136.0165
   504.2500      0.0000    839.0153     15.4768    140.3309
   504.5000      0.0000    832.7683     15.5749    141.9375
   504.7500      0.0000    822.5057     15.6463    142.5031
   505.0000      0.0000    810.4278     15.7051    143.9569
   505.2500      0.0000    799.0215     15.7831    147.4707
   505.5000      0.0000    790.6068     15.8961    152.9910
   505.7500      0.0000    786.7054     16.0343    159.4280
   506.0000      0.0000    787.2905     16.1836    165.0470
   506.2500      0.0000    790.6350     16.3422    168.2244
   506.5000      0.0000    794.3969     16.5168    168.3986
   506.7500      0.0000    797.4938     16.7137    166.2501
   507.0000      0.0000    800.7261     16.9324    162.9030
   507.2500      0.0000    804.9699     17.1639    159.2716
   507.5000      0.0000    809.3259     17.3974    156.2879
   507.7500      0.0000    812.0128     17.6283    155.1472
   508.0000      0.0000    812.6013     17.8493    156.4498
   508.2500      0.0000    812.2205     18.0345    159.0005
   508.5000      0.0000    811.4957     18.1507    160.2100
   508.7500      0.0000    809.1501     18.1920    158.1609
   509.0000      0.0000    803.2479     18.1906    153.0487
   509.2500      0.0000    793.6257     18.1896    146.5016
   509.5000      0.0000    782.6191     18.2080    140.1023
   509.7500      0.0000    773.3380     18.2288    134.9188
   510.0000      0.0000    767.5856     18.2124    131.9309
   510.2500      0.0000    765.3005     18.1298    132.0172
   510.5000      0.0000    765.1630     17.9894    135.3082
   510.7500      0.0000    765.5846     17.8271    140.8267
   511.0000      0.0000    765.8351     17.6684    146.8587
   511.2500      0.0000    766.4003     17.5123    151.7825
   511.5000      0.0000    767.9628     17.3581    155.0028
   511.7500      0.0000    770.2870     17.2358    157.1388
   512.0000      0.0000    772.4216     17.1945    158.7381
   512.2500      0.0000    773.6447     17.2629    159.0158
   512.5000      0.0000    773.5367     17.4245    156.7750
   512.7500      0.0000    771.0323     17.6283    152.3891
   513.0000      0.0000    763.4319     17.8230    147.8806
   513.2500      0.0000    747.3820     17.9861    145.0790
   513.5000      0.0000    722.8824     18.1225    144.3621
   513.7500      0.0000    696.8696     18.2288    144.9320
   514.0000      0.0000    679.2392     18.2703    145.7642
   514.2500      0.0000    672.4885     18.2174    146.3979
   514.5000      0.0000    668.5220     18.0999    147.0269
   514.7500      0.0000    658.3083     17.9985    147.7872
   515.0000      0.0000    640.2171     17.9714    148.1516
   515.2500      0.0000    617.4696     18.0056    147.3144
   515.5000      0.0000    595.6334     18.0399    145.2104
   515.7500      0.0000    585.6736     18.0195    143.0243
   516.0000      0.0000    599.4944     17.9280    142.3595
   516.2500      0.0000    636.4369     17.7859    143.6864
   516.5000      0.0000    680.3334     17.6291    145.9237
   516.7500      0.0000    713.3403     17.4870    147.7832
   517.0000      0.0000    727.8625     17.3816    149.1156
   517.2500      0.0000    723.7889     17.3440    150.6856
   517.5000      0.0000    699.7789     17.4171    152.9567
   517.7500      0.0000    652.1883     17.6214    155.2675
   518.0000      0.0000    582.6881     17.9170    156.3980
   518.2500      0.0000    504.1193     18.2062    156.1650
   518.5000      0.0000    435.5874     18.3880    155.9984
   518.7500      0.0000    391.3293     18.4181    157.1022
   519.0000      0.0000    375.7489     18.3272    158.2362
   519.2500      0.0000    387.2126     18.1861    156.3034
   519.5000      0.0000    420.5637     18.0555    149.3357
   519.7500      0.0000    463.0596     17.9643    138.6357
   520.0000      0.0000    493.2928     17.9240    128.1417
   520.2500      0.0000    492.9545     17.9439    121.8317
   520.5000      0.0000    462.0356     18.0255    121.4426
   520.7500      0.0000    418.4161     18.1509    126.2058
   521.0000      0.0000    381.6397     18.2871    134.1683
   521.2500      0.0000    359.7620     18.4002    143.4458
   521.5000      0.0000    350.1304     18.4655    152.5050
   521.7500      0.0000    346.9872     18.4733    159.8083
   522.0000      0.0000    346.2959     18.4323    163.6374
   522.2500      0.0000    346.2528     18.3664    162.5923
   522.5000      0.0000    346.2686     18.3066    156.4337
   522.7500      0.0000    346.1757     18.2819    146.4308
   523.0000      0.0000    345.9283     18.3084    134.9788
   523.2500      0.0000    345.5362     18.3787    124.7327
   523.5000      0.0000    344.9469     18.4687    117.5746
   523.7500      0.0000    343.8480     18.5640    113.9642
   524.0000      0.0000    341.6111     18.6747    113.0920
   524.2500      0.0000    337.6945     18.8184    113.5795
   524.5000      0.0000    332.6968     18.9874    114.2527
   524.7500      0.0000    329.4095     19.1326    114.6928
   525.0000      0.0000    332.8019     19.1767    115.2561
   525.2500      0.0000    347.7737     19.0429    116.3759
   525.5000      0.0000    374.6387     18.6807    117.8723
   525.7500      0.0000    406.0927     18.0686    119.1442
   526.0000      0.0000    431.4044     17.2218    119.8370
   526.2500      0.0000    445.7482     16.2345    120.0597
   526.5000      0.0000    454.2320     15.2911    120.0207
   526.7500      0.0000    466.2651     14.5519    119.7142
   527.0000      0.0000    487.4236     14.0246    118.9898
   527.2500      0.0000    515.7736     13.6193    117.6304
   527.5000      0.0000    545.5613     13.2966    115.2193
   527.7500      0.0000    575.1477     13.0802    111.4243
   528.0000      2.0000    607.1022     12.9639    106.7820
