~Version Information
VERS.                      2.0: CWLS Log ASCII Standard - VERSION 2.0
WRAP.                       NO: One line per depth step
~Well Information Block
STRT.FT               553.0000: 
STOP.FT              1576.5000: 
STEP.FT                 0.2500: 
NULL.                -999.2500: 
COMP.          Pioneer Natural Resources: COMPANY
WELL.           Telna 24-22 Tr: WELL
FLD.           Purgatoire River: FIELD
LOC.           748' FSL & 1931' FWL: LOCATION
PROV.                 Colorado: PROVINCE
CNTY.               Las Animas: COUNTRY
SRVC.                Patterson: SERVICE COMPANY
DATE.          Mon May 02 07:15:29 2005: LOG DATE
UWI.           05 071 08304 00: UNIQUE WELL ID
~Curve Information Block
DEPT.FT            0 000 00 00: Depth
DCAL.in                       : CDL Caliper
RHOB.g/cc                     : CDL Bulk Density
RHOC.g/cc                     : CDL Density Correction
DPOR.pu                       : CDL Density Porosity
GR.GAPI                       : Gamma Ray
NPOR.pu                       : Neutron Porosity
~Parameter Information Block
~A  Depth       DCAL        RHOB        RHOC        DPOR         GR         NPOR    
# ...
  1297.0000      7.8601      2.9713      0.3037    -19.4729     87.0716     23.6699
  1297.2500      7.8643      2.8912      0.1864    -14.6160     83.7754     22.4113
  1297.5000      7.8800      2.6978     -0.0018     -2.8954     86.9463     25.9142
  1297.7500      7.8983      2.6354     -0.0044      0.8852     92.5953     26.6941
  1298.0000      7.9049      2.5368      0.0105      6.8593     99.2700     24.4290
  1298.2500      7.9002      2.5305      0.0649      7.2410    110.3755     25.8354
  1298.5000      7.8963      2.4778      0.0280     10.4370    117.4025     26.1414
  1298.7500      7.8981      2.4813      0.0642     10.2261    119.6331     27.1731
  1299.0000      7.9050      2.4140     -0.0263     14.3001    120.6537     23.8029
  1299.2500      7.9145      2.4151     -0.0185     14.2386    128.0979     22.2498
  1299.5000      7.9190      2.3863      0.0191     15.9814    139.2316     26.6442
  1299.7500      7.9176      2.4000      0.0229     15.1543    131.6405     25.4867
  1300.0000      7.9151      2.4392      0.0516     12.7764    127.9081     25.5194
  1300.2500      7.9165      2.4728      0.0574     10.7421    128.8253     24.1201
  1300.5000      7.9214      2.4471     -0.0024     12.2955    136.2590     26.4689
  1300.7500      7.9215      2.4524     -0.0022     11.9770    128.8676     26.1429
  1301.0000      7.9174      2.4783      0.0337     10.4045    119.7554     25.8929
  1301.2500      7.9145      2.4811      0.0501     10.2335    120.5666     24.4627
  1301.5000      7.9134      2.5543      0.0451      5.7993    117.9024     25.8150
  1301.7500      7.9117      2.5568      0.0384      5.6484    112.7094     25.4829
  1302.0000      7.9082      2.5375      0.0366      6.8187    103.2279     27.6216
  1302.2500      7.9047      2.5700      0.0344      4.8485     95.6750     26.4113
  1302.5000      7.9023      2.7227      0.0983     -4.4089     87.8430     23.9040
  1302.7500      7.9028      2.7572      0.0878     -6.4940     85.1602     23.0240
  1303.0000      7.9081      2.6225     -0.0555      1.6671     92.6155     26.3736
  1303.2500      7.9197      2.5233     -0.0642      7.6803     97.8535     26.1784
  1303.5000      7.9410      2.3772     -0.0717     16.5334    125.8980     26.0527
  1303.7500      7.9646      2.3829      0.0816     16.1893    146.6812     26.6572
  1304.0000      7.9667      2.3876      0.0939     15.9048    139.5588     26.8839
  1304.2500      7.9515      2.3755      0.0885     16.6350    130.4627     25.1712
  1304.5000      7.9479      2.3772      0.0592     16.5336    126.4946     24.4259
  1304.7500      7.9619      2.4098     -0.0371     14.5597    141.5764     23.6018
  1305.0000      7.9592      2.5057      0.0984      8.7451    124.1819     25.0578
  1305.2500      7.9265      2.4877      0.0955      9.8389    123.8085     25.4750
  1305.5000      7.8993      2.3769     -0.0344     16.5532    125.1439     24.1513
  1305.7500      7.8909      2.3201     -0.0830     19.9927    141.1019     26.2802
  1306.0000      7.8881      2.3722     -0.0179     16.8355    140.3505     26.4874
  1306.2500      7.8785      2.4122      0.0711     14.4149    139.5516     23.9297
  1306.5000      7.8675      2.3992      0.0772     15.2015    128.8859     25.3507
  1306.7500      7.8660      2.3609     -0.0198     17.5194    127.5998     26.8574
  1307.0000      7.8733      2.4049      0.0326     14.8548    125.5125     26.0655
  1307.2500      7.8845      2.4879      0.1265      9.8261    123.6864     27.5385
  1307.5000      7.9013      2.5287      0.1341      7.3545    128.9584     28.1734
  1307.7500      7.9203      2.5086      0.1024      8.5686    125.8987     28.3670
  1308.0000      7.9274      2.4525      0.0192     11.9689    118.1512     26.3568
  1308.2500      7.9238      2.4088      0.0318     14.6197    116.6765     26.4983
  1308.5000      7.9206      2.4098      0.0667     14.5581    120.6985     26.4824
  1308.7500      7.9169      2.3878      0.0391     15.8882    123.5631     27.7632
  1309.0000      7.9069      2.3794      0.0596     16.3975    126.6808     25.3896
  1309.2500      7.9036      2.4372      0.1278     12.8944    129.8311     27.1298
  1309.5000      7.9194      2.4795      0.1451     10.3354    141.2387     27.5888
  1309.7500      7.9466      2.4709      0.1076     10.8534    151.2877     28.9370
  1310.0000      7.9620      2.4683      0.1492     11.0143    151.0674     27.2481
  1310.2500      7.9608      2.4352      0.0697     13.0197    136.7001     25.5029
  1310.5000      7.9524      2.3747      0.0162     16.6839    138.0556     25.9481
  1310.7500      7.9491      2.3661      0.0098     17.2060    141.3524     29.1615
  1311.0000      7.9469      2.4316      0.0367     13.2387    140.9447     25.1618
  1311.2500      7.9373      2.4628      0.0773     11.3440    141.0748     26.4681
  1311.5000      7.9257      2.4749      0.0366     10.6121    134.2411     24.4702
  1311.7500      7.9206      2.4694      0.0499     10.9483    138.5121     22.6444
  1312.0000      7.9231      2.4026      0.0276     14.9939    145.1340     27.0073
  1312.2500      7.9290      2.3990     -0.0033     15.2146    143.4536     27.3083
  1312.5000      7.9316      2.4208     -0.0097     13.8907    127.0710     24.0751
  1312.7500      7.9293      2.4364      0.0384     12.9477    125.7600     23.5283
  1313.0000      7.9250      2.4561      0.0650     11.7544    127.6910     23.6742
  1313.2500      7.9224      2.4953      0.0507      9.3772    117.3246     22.5904
  1313.5000      7.9218      2.4400      0.0083     12.7273    109.5435     23.3508
  1313.7500      7.9218      2.4573     -0.0099     11.6761    102.3497     20.3034
  1314.0000      7.9200      2.4901      0.0394      9.6905     73.2713     18.6647
  1314.2500      7.9117      2.4790      0.0255     10.3610     55.7427     17.4217
  1314.5000      7.8998      2.4911      0.0394      9.6303     53.3654     12.4789
  1314.7500      7.8980      2.4810      0.0471     10.2435     58.0539     13.3190
  1315.0000      7.9066      2.4390      0.0253     12.7873     64.7062     18.3598
  1315.2500      7.9135      2.4723      0.0598     10.7680     58.7482     19.4598
  1315.5000      7.9097      2.5166      0.0038      8.0840     57.3631     17.5460
  1315.7500      7.8970      2.5549      0.0958      5.7635     54.6096     18.9766
  1316.0000      7.8901      2.5673      0.0683      5.0129     47.6906     16.9894
  1316.2500      7.8969      2.5761      0.0753      4.4787     47.9148     14.4882
  1316.5000      7.9106      2.5331      0.0503      7.0864     39.3961     12.4827
  1316.7500      7.9210      2.5259      0.0132      7.5206     44.4312     13.4702
  1317.0000      7.9235      2.5246      0.0187      7.6011     66.1152     16.3430
  1317.2500      7.9184      2.4865      0.0274      9.9069     66.9313     19.2232
  1317.5000      7.9130      2.4336      0.0080     13.1161     62.3915     18.9974
  1317.7500      7.9105      2.4144     -0.0048     14.2777     68.7884     17.4932
  1318.0000      7.9102      2.4061      0.0152     14.7807     68.2009     15.5849
  1318.2500      7.9119      2.4721      0.0379     10.7803     73.3205     13.0475
  1318.5000      7.9133      2.4340      0.0575     13.0891     67.4290     16.5807
  1318.7500      7.9138      2.3687     -0.0151     17.0461     62.4958     15.0096
  1319.0000      7.9135      2.4036     -0.0053     14.9317     55.0837     17.0441
  1319.2500      7.9118      2.4381      0.0593     12.8450     59.0163     19.0222
  1319.5000      7.9094      2.4677      0.0216     11.0484     86.0856     21.4018
  1319.7500      7.9066      2.4925      0.0481      9.5455    101.4363     22.1823
  1320.0000      7.9046      2.3561      0.0271     17.8123    103.1232     25.4029
  1320.2500      7.9070      2.1261     -0.0466     31.7488    102.6465     27.0028
  1320.5000      7.9155      1.6861     -0.1813     58.4191    111.3868     29.5083
  1320.7500      7.9397      1.4747     -0.1824     71.2319     98.2337     30.3893
