~Version Information
VERS.                      2.0: CWLS Log ASCII Standard - VERSION 2.0
WRAP.                       NO: One line per depth step
~Well Information Block
STRT.FT               234.0000: 
STOP.FT              1773.2000: 
STEP.FT                 0.1000: 
NULL.                -999.2500: 
COMP.          Pioneer Natural Resources: COMPANY
WELL.             Tami J 23-18: WELL
FLD.           Purgatorie River: FIELD
LOC.           2250' FSL & 2400' FWL: LOCATION
PROV.                 Colorado: PROVINCE
CNTY.               Las Animas: COUNTRY
SRVC.                         : SERVICE COMPANY
DATE.          Mon Dec 13 07:02:50 2004: LOG DATE
UWI.           05 071 08073 00: UNIQUE WELL ID
~Curve Information Block
DEPT.FT            0 000 00 00: Depth
LTEN.lb                       : Surface Line Tension
DCAL.in                       : CDL Caliper
RHOB.g/cc                     : CDL Bulk Density
RHOC.g/cc                     : CDL Density Correction
DPOR.pu                       : CDL Density Porosity
GR.GAPI                       : Gamma Ray
NPOR.pu                       : Neutron Porosity
~Parameter Information Block
~A  Depth       LTEN        DCAL        RHOB        RHOC        DPOR         GR         NPOR    
# ...
   847.2000    909.7475      7.9850      2.4434      0.0067     12.5186    125.8722     22.9017
   847.3000    904.4216      7.9785      2.4326      0.0467     13.1783    122.1090     21.7937
   847.4000    904.4216      7.9785      2.3949      0.0790     15.4598    117.2866     20.3900
   847.5000    946.6694      7.9780      2.3062     -0.0028     20.8388    115.1438     18.6883
   847.6000    946.6694      7.9780      2.1866     -0.0116     28.0850    114.7281     17.1325
   847.7000    946.6694      7.9780      2.0684     -0.0677     35.2481    112.5292     16.3144
   847.8000    969.5929      8.0050      1.9577     -0.0401     41.9572    112.1401     16.1534
   847.9000    969.5929      8.0050      1.8552     -0.0500     48.1708    117.4344     16.1821
   848.0000    873.7177      8.0340      1.7878     -0.0792     52.2549    123.3450     16.4604
   848.1000    873.7177      8.0340      1.7694      0.0068     53.3689    123.2228     17.2393
   848.2000    873.7177      8.0340      1.7764      0.0491     52.9431    117.1624     18.2115
   848.3000    850.9564      8.0618      1.8029      0.0609     51.3373    109.6714     19.0343
   848.4000    850.9564      8.0618      1.8720      0.1285     47.1534    107.3879     19.8754
   848.5000    931.0934      8.1534      1.9748      0.3528     40.9222    114.9857     21.0220
   848.6000    931.0934      8.1534      2.0741      0.2835     34.9003    125.1917     22.3822
   848.7000    931.0934      8.1534      2.1515      0.2760     30.2140    126.4418     23.7480
   848.8000    943.3497      8.2753      2.2023      0.2586     27.1357    120.3373     25.1240
   848.9000    943.3497      8.2753      2.2380      0.1630     24.9707    118.4516     26.5185
   849.0000    853.4866      8.2841      2.2812      0.1186     22.3524    124.0907     27.5944
   849.1000    853.4866      8.2841      2.3383      0.0900     18.8879    130.4661     27.8786
   849.2000    853.4866      8.2841      2.4041      0.0997     14.9003    133.5126     27.4942
   849.3000    796.2986      8.1767      2.4628      0.1718     11.3462    134.0920     26.8845
   849.4000    796.2986      8.1767      2.4901      0.1943      9.6882    132.9055     26.2805
   849.5000    894.7194      8.0975      2.4819      0.1734     10.1901    134.0067     25.8400
   849.6000    894.7194      8.0975      2.4571      0.1565     11.6929    141.9364     25.5241
   849.7000    894.7194      8.0975      2.4355      0.1710     13.0006    151.0193     24.9890
   849.8000    931.6492      8.0853      2.4253      0.1323     13.6205    152.1032     23.6920
   849.9000    931.6492      8.0853      2.4207      0.1440     13.8947    146.5961     21.4646
   850.0000    816.8860      8.1343      2.4016      0.1799     15.0557    141.4213     19.0369
   850.1000    816.8860      8.1343      2.3511      0.1379     18.1148    139.4251     17.0175
   850.2000    816.8860      8.1343      2.2684      0.1321     23.1300    138.2363     15.3131
   850.3000    978.5642      8.2272      2.1458      0.1992     30.5563    134.0815     13.9225
   850.4000    978.5642      8.2272      1.9784      0.1316     40.7023    131.6477     13.0693
   850.5000    970.3981      8.3254      1.7959      0.0922     51.7663    135.6261     12.4316
   850.6000    970.3981      8.3254      1.6338      0.0446     61.5906    136.3145     11.7232
   850.7000    970.3981      8.3254      1.5096     -0.0012     69.1133    124.9214     11.4694
   850.8000    827.8474      8.4223      1.4545     -0.0442     72.4538    109.4215     12.1270
   850.9000    827.8474      8.4223      1.5047      0.0180     69.4134    102.1708     13.2004
   851.0000    854.4490      8.4933      1.6396      0.3056     61.2357    103.3195     14.0399
   851.1000    854.4490      8.4933      1.7916      0.3804     52.0248    103.2018     14.8885
   851.2000    854.4490      8.4933      1.9180      0.4215     44.3629     97.3835     16.1772
   851.3000    915.9092      8.5593      2.0179      0.4252     38.3080     89.7310     17.6722
   851.4000    915.9092      8.5593      2.1085      0.3577     32.8174     84.1021     19.0751
   851.5000    866.1737      8.5970      2.1969      0.3193     27.4581     82.4953     20.4168
   851.6000    866.1737      8.5970      2.2657      0.2635     23.2917     84.2428     21.6450
   851.7000    866.1737      8.5970      2.3003      0.1788     21.1923     86.9920     22.5918
   851.8000    835.7465      8.4763      2.3150      0.1375     20.3035     89.8497     23.0654
   851.9000    835.7465      8.4763      2.3357      0.1332     19.0481     92.9157     22.8786
   852.0000    962.6595      8.2567      2.3730      0.1893     16.7858     96.1924     22.3546
   852.1000    962.6595      8.2567      2.4141      0.2430     14.2972    100.7097     21.8626
   852.2000    962.6595      8.2567      2.4398      0.2605     12.7422    106.8909     21.1389
   852.3000    915.3364      8.2401      2.4471      0.2341     12.2968    115.0108     20.1835
   852.4000    915.3364      8.2401      2.4460      0.2117     12.3647    124.7118     19.4185
   852.5000    865.7798      8.4446      2.4365      0.2277     12.9423    132.3026     18.8194
   852.6000    865.7798      8.4446      2.4144      0.1860     14.2811    132.4888     18.2422
   852.7000    865.7798      8.4446      2.3855      0.1734     16.0311    128.6156     17.7858
   852.8000    901.5749      8.6611      2.3537      0.1528     17.9559    130.4346     17.6729
   852.9000    901.5749      8.6611      2.3180      0.1489     20.1197    137.1478     17.8681
   853.0000    945.3310      8.7712      2.2855      0.1111     22.0890    140.7441     18.0158
   853.1000    945.3310      8.7712      2.2720      0.0806     22.9067    137.7780     18.2496
   853.2000    945.3310      8.7712      2.2786      0.1112     22.5079    133.3414     18.8234
   853.3000    899.3012      8.7860      2.2833      0.1663     22.2230    133.4655     19.5597
   853.4000    899.3012      8.7860      2.2652      0.2221     23.3208    136.3844     20.1673
   853.5000    835.5730      8.7621      2.2344      0.1862     25.1865    139.5770     20.3449
   853.6000    835.5730      8.7621      2.2251      0.1264     25.7516    141.6167     20.1339
   853.7000    835.5730      8.7621      2.2443      0.2946     24.5896    139.4201     19.9238
   853.8000    935.6105      8.7638      2.2624      0.2945     23.4920    134.9449     19.9054
   853.9000    935.6105      8.7638      2.2672      0.2566     23.1974    134.9086     20.1650
   854.0000    982.9362      8.8092      2.2764      0.2795     22.6396    139.6126     20.4359
   854.1000    982.9362      8.8092      2.2997      0.3726     21.2315    144.6098     20.2516
   854.2000    982.9362      8.8092      2.3270      0.4401     19.5729    149.2284     19.7989
   854.3000    920.0851      8.8964      2.3514      0.4231     18.0941    151.1148     19.4570
   854.4000    920.0851      8.8964      2.3795      0.3891     16.3937    149.3078     19.2392
   854.5000    871.0710      8.9606      2.4043      0.4193     14.8889    147.2432     19.4110
   854.6000    871.0710      8.9606      2.4058      0.4018     14.8016    143.1908     20.0489
   854.7000    871.0710      8.9606      2.3980      0.3253     15.2726    135.4840     20.4469
   854.8000    874.4995      8.8270      2.4120      0.3654     14.4226    128.7075     20.3888
   854.9000    874.4995      8.8270      2.4389      0.4518     12.7966    124.7733     20.3402
   855.0000    904.6326      8.5336      2.4536      0.4085     11.9008    119.2495     20.3787
   855.1000    904.6326      8.5336      2.4592      0.4218     11.5618    113.5790     20.2689
   855.2000    904.6326      8.5336      2.4680      0.3457     11.0325    114.2244     20.1388
   855.3000    905.5967      8.3313      2.4846      0.3219     10.0240    121.4985     20.4230
   855.4000    905.5967      8.3313      2.5102      0.3641      8.4748    129.7870     20.9110
   855.5000    842.8521      8.2418      2.5443      0.3448      6.4079    134.6677     21.3043
