~Version Information
VERS.                      2.0: CWLS Log ASCII Standard - VERSION 2.0
WRAP.                       NO: One line per depth step
~Well Information Block
STRT.FT               700.0000: 
STOP.FT              1869.5000: 
STEP.FT                 0.2500: 
NULL.                -999.2500: 
COMP.          Petrogulf Corporation: COMPANY
WELL.             State 16-24R: WELL
FLD.           Purgatorie River: FIELD
LOC.           541' FSL & 2371' FWL: LOCATION
PROV.                 Colorado: PROVINCE
CNTY.               Las Animas: COUNTRY
SRVC.                Patterson: SERVICE COMPANY
DATE.          Fri Aug 12 09:07:22 2005: LOG DATE
UWI.                071-08312 : UNIQUE WELL ID
~Curve Information Block
DEPT.FT            0 000 00 00: Depth
SP.mV                         : DIL Spontaneous Potential
RILD.Ohm-m                    : DIL Deep Resistivity
RILM.Ohm-m                    : DIL Medium Resistivity
RLL3.Ohm-m                    : DIL Shallow Resistivity
GR.GAPI                       : Gamma Ray
~Parameter Information Block
~A  Depth        SP         RILD        RILM        RLL3         GR     
# ...
  1400.0000    135.4733     16.6939     20.3109     17.0845     76.2798
  1400.2500    133.1012     15.9764     20.7871     17.0336     72.9073
  1400.5000    131.3549     16.1375     20.0828     17.1376     77.2938
  1400.7500    130.2405     16.6805     19.7819     17.4533     77.1099
  1401.0000    128.1419     16.3743     20.3947     17.4815     76.3927
  1401.2500    125.2135     15.4615     20.1279     17.2168     78.0181
  1401.5000    123.5031     16.1824     19.7224     17.0323     75.3389
  1401.7500    122.6791     16.3662     19.9270     16.8302     81.6822
  1402.0000    120.2369     16.0766     19.5225     16.9195     83.7895
  1402.2500    116.3832     16.7868     19.4491     17.2829     82.9398
  1402.5000    114.9033     16.9300     20.5260     17.7425     77.5409
  1402.7500    114.1408     16.9120     19.9525     18.5542     69.4603
  1403.0000    113.0169     15.9655     20.2227     19.5675     66.6125
  1403.2500    111.7382     17.0410     20.9599     21.0597     59.3184
  1403.5000    110.2175     17.5695     21.6058     22.0389     56.6192
  1403.7500    109.3261     17.1273     21.4809     21.8088     56.7715
  1404.0000    109.2854     17.1351     22.2933     20.5481     64.3241
  1404.2500    108.1309     17.8125     21.9303     19.6860     66.9430
  1404.5000    108.6608     18.0002     21.6764     19.1479     72.2085
  1404.7500    106.5273     18.5198     22.1643     19.4672     78.7564
  1405.0000    106.1926     18.2701     23.4116     20.7731     82.0102
  1405.2500    102.5191     18.4094     22.7527     21.2008     82.8456
  1405.5000    107.8759     18.0699     22.7706     21.1817     85.1733
  1405.7500    106.8709     17.6189     23.2956     21.0144     90.2939
  1406.0000    111.4720     18.0804     23.0292     21.1071     93.8206
  1406.2500    114.0415     19.0769     22.3032     21.2811     96.8742
  1406.5000    120.3230     17.9353     22.8679     20.5523    105.3575
  1406.7500    123.9690     18.2352     23.9398     19.8168    104.3036
  1407.0000    125.9181     18.1484     22.3277     19.1993     88.6240
  1407.2500    128.4320     18.7262     22.0557     19.1646     84.2012
  1407.5000    130.8692     18.2106     22.2704     18.6675     80.4825
  1407.7500    131.2790     18.5280     22.7814     18.4224     73.7288
  1408.0000    131.7153     18.0531     22.5199     18.7776     64.5224
  1408.2500    132.1740     18.3624     22.3035     19.1999     64.8739
  1408.5000    132.6135     18.6491     21.9252     19.8757     61.5436
  1408.7500    134.2929     19.1092     22.4337     20.3203     63.4178
  1409.0000    135.0662     18.4201     22.4653     20.5011     60.4131
  1409.2500    135.2184     18.0647     23.1065     20.4577     62.4185
  1409.5000    134.3229     18.5793     22.9293     20.2958     59.5373
  1409.7500    135.4964     18.7126     22.4955     20.0409     52.8356
  1410.0000    135.2250     18.3414     21.8854     19.6639     58.8050
  1410.2500    134.9514     19.1315     22.8430     19.2657     66.4481
  1410.5000    134.6729     18.1159     22.1638     18.8208     60.1796
  1410.7500    133.9814     18.8882     22.8446     18.5165     61.0190
  1411.0000    133.0932     19.2804     21.7797     18.4597     66.3896
  1411.2500    131.4995     19.0864     22.0818     18.6251     63.1481
  1411.5000    131.1801     18.7584     22.0195     18.7574     62.0967
  1411.7500    130.2987     19.0706     22.8140     19.0323     60.5181
  1412.0000    128.2894     18.5126     23.0004     19.1902     62.6267
  1412.2500    126.8219     18.4108     22.0825     19.3806     59.3068
  1412.5000    124.6134     19.2996     21.4355     19.4277     59.6538
  1412.7500    124.2655     19.0644     22.6046     19.4641     63.7290
  1413.0000    122.8845     18.5361     22.8714     19.4532     63.7646
  1413.2500    120.9566     18.7119     22.5300     19.5163     66.0172
  1413.5000    119.1185     18.8693     22.7392     19.5920     66.2358
  1413.7500    117.7284     18.7464     22.7911     19.6442     61.6681
  1414.0000    115.6554     18.6307     22.0833     19.6065     64.1058
  1414.2500    114.2532     19.2236     23.7603     19.7677     70.5959
  1414.5000    112.7269     19.2795     22.7756     19.9172     71.2772
  1414.7500    112.7298     19.8575     22.3500     20.0830     67.9986
  1415.0000    111.3358     18.9648     22.6850     19.9536     66.8755
  1415.2500    111.4383     20.0341     23.3143     19.7572     65.3892
  1415.5000    110.4116     20.1764     22.9490     19.6729     59.1754
  1415.7500    109.5032     19.4232     23.3477     19.7771     59.5405
  1416.0000    108.3856     19.1036     24.1925     19.9553     64.7532
  1416.2500    107.8081     19.3768     23.0070     20.0110     63.8912
  1416.5000    108.1556     20.0061     22.8156     20.0062     64.8184
  1416.7500    107.5377     18.8600     23.2790     19.9257     65.1730
  1417.0000    108.2153     19.4707     23.3609     19.6965     62.9571
  1417.2500    107.2984     18.9101     23.3684     19.6959     68.1120
  1417.5000    107.5721     19.4100     23.4621     19.9730     71.0579
  1417.7500    106.1972     19.8979     23.0660     20.1572     71.5411
  1418.0000    108.0761     19.7415     22.7784     20.0549     71.9283
  1418.2500    108.4583     19.7550     22.6392     19.7267     66.2751
  1418.5000    108.0040     20.0716     22.5391     19.4851     74.7184
  1418.7500    107.8627     18.9340     22.8009     19.2202     74.8662
  1419.0000    107.7221     19.5783     22.0529     18.8960     69.9972
  1419.2500    108.2302     20.4332     21.9513     18.7545     71.8963
  1419.5000    107.5355     20.3832     23.3941     18.9597     74.6201
  1419.7500    107.3757     19.4390     23.8200     19.6764     67.1629
  1420.0000    107.1830     20.1076     23.7604     21.2052     61.4863
  1420.2500    107.0366     20.4950     23.6043     22.8937     64.9295
  1420.5000    106.0143     20.7516     24.2235     23.3930     66.7993
  1420.7500    106.5126     21.4171     24.3075     22.4620     61.2376
  1421.0000    107.1586     20.6865     24.8170     20.9345     68.0612
  1421.2500    107.5332     21.0825     24.4214     20.6393     68.3365
  1421.5000    107.6784     21.2212     23.8424     20.9094     67.0864
  1421.7500    108.1814     21.2770     23.7691     20.5158     66.4993
  1422.0000    108.3804     22.3858     24.1857     19.4833     71.5901
  1422.2500    108.8581     22.1491     23.8583     19.2664     71.1967
  1422.5000    108.2395     21.8764     25.2350     19.4270     71.1759
  1422.7500    107.7700     22.7825     24.9064     19.6229     71.6016
  1423.0000    107.5396     21.8233     24.3389     19.9269     71.4143
  1423.2500    106.7215     21.5478     24.7156     20.4035     70.1633
  1423.5000    107.3163     20.5842     25.4264     21.2663     64.9185
  1423.7500    107.7439     21.3050     24.9298     22.0595     65.9092
  1424.0000    108.2560     21.2676     25.1555     22.3338     62.1692
  1424.2500    107.6196     21.7340     24.9724     21.9330     59.2317
  1424.5000    107.1790     22.5927     24.6776     21.5542     65.0619
  1424.7500    107.2894     21.9042     25.0486     21.2655     71.2457
  1425.0000    107.2940     21.9476     24.6848     21.1563     61.0562
  1425.2500    107.8284     21.7442     24.8793     21.0542     59.5286
  1425.5000    108.2429     21.3495     24.1431     21.0837     63.1682
  1425.7500    108.2944     22.2632     24.0534     21.1573     63.0457
  1426.0000    108.3406     21.1592     24.2410     21.0721     69.5472
  1426.2500    108.9382     20.9101     24.1703     21.0406     62.6158
  1426.5000    108.9167     21.1152     23.6975     21.1342     58.6578
  1426.7500    108.7773     20.2237     24.6838     21.3274     58.4765
  1427.0000    108.8109     20.0168     24.9818     21.4253     62.4417
  1427.2500    108.8149     20.5641     25.3227     21.5093     61.9155
  1427.5000    108.5622     19.5200     24.4768     21.6249     56.2138
  1427.7500    108.2363     19.7387     24.8544     21.6288     58.0743
