~Version Information
VERS.                      2.0: CWLS Log ASCII Standard - VERSION 2.0
WRAP.                       NO: One line per depth step
~Well Information Block
STRT.FT               528.0000: 
STOP.FT              2251.5000: 
STEP.FT                 0.2500: 
NULL.                -999.2500: 
COMP.          Pioneer Natural Resources: COMPANY
WELL.           Parklane 43-34: WELL
FLD.           Purgatorie River: FIELD
LOC.           1704' FSL & 1119' FEL: LOCATION
PROV.                 Colorado: PROVINCE
CNTY.               Las Animas: COUNTRY
SRVC.                         : SERVICE COMPANY
DATE.          Thu Oct 07 01:37:17 2004: LOG DATE
UWI.           05 071 08162 00: UNIQUE WELL ID
~Curve Information Block
DEPT.FT            0 000 00 00: Depth
LTEN.lb                       : Surface Line Tension
SN.Ohm-m                      : IEL Short Normal
SP.mV                         : IEL Spontaneous Potential
DIR.Ohm-m                     : IEL Induction Resistivity
GR.GAPI                       : Gamma Ray
~Parameter Information Block
~A  Depth       LTEN         SN          SP         DIR          GR     
# ...
   640.0000    669.8561   2000.0000   2000.0000     59.5425     48.1735
   640.2500    671.0501   2000.0000   2000.0000     56.1141     48.7795
   640.5000    671.3594   2000.0000   2000.0000     50.9606     48.6728
   640.7500    669.4684   2000.0000   2000.0000     45.9742     47.9774
   641.0000    666.2984   2000.0000   2000.0000     41.8464     46.5961
   641.2500    664.4738   2000.0000   2000.0000     38.4867     45.8997
   641.5000    665.5991   2000.0000   2000.0000     35.6188     45.8291
   641.7500    668.8466   2000.0000   2000.0000     33.0913     46.6814
   642.0000    672.1162   2000.0000   2000.0000     30.9167     49.6164
   642.2500    673.7642   2000.0000   2000.0000     29.1567     52.8152
   642.5000    673.0980   2000.0000   2000.0000     27.8087     59.4611
   642.7500    670.0634   2000.0000   2000.0000     26.7660     64.8630
   643.0000    665.3463   2000.0000   2000.0000     25.8417     73.6982
   643.2500    660.7253   2000.0000   2000.0000     24.8477     79.6404
   643.5000    658.3491   2000.0000   2000.0000     23.7011     87.8227
   643.7500    659.1671   2000.0000   2000.0000     22.4857     92.2144
   644.0000    662.3168   2000.0000   2000.0000     21.3882     96.2816
   644.2500    665.9306   2000.0000   2000.0000     20.5615     97.1208
   644.5000    668.1897   2000.0000   2000.0000     20.0345     96.4214
   644.7500    668.0771   2000.0000   2000.0000     19.7095     95.7774
   645.0000    665.8354   2000.0000   2000.0000     19.4300     96.2074
   645.2500    662.6754   2000.0000   2000.0000     19.0758     97.3670
   645.5000    659.7700   2000.0000   2000.0000     18.6266     98.7488
   645.7500    657.6119   2000.0000   2000.0000     18.1469     98.6399
   646.0000    656.2612   2000.0000   2000.0000     17.7244     97.3990
   646.2500    655.7916   2000.0000   2000.0000     17.4193     96.8986
   646.5000    656.2966   2000.0000   2000.0000     17.2378     98.0936
   646.7500    657.5222   2000.0000   2000.0000     17.1251    100.2511
   647.0000    658.5776   2000.0000   2000.0000     16.9757    104.3854
   647.2500    658.3399   2000.0000   2000.0000     16.6787    106.7841
   647.5000    656.5368   2000.0000   2000.0000     16.1858    108.6468
   647.7500    654.2360   2000.0000   2000.0000     15.5493    108.6714
   648.0000    652.8920   2000.0000   2000.0000     14.8877    108.0131
   648.2500    653.1307   2000.0000   2000.0000     14.3156    108.0541
   648.5000    654.5950   2000.0000   2000.0000     13.8920    109.7199
   648.7500    656.5523   2000.0000   2000.0000     13.6110    111.7981
   649.0000    658.3751   2000.0000   2000.0000     13.4172    115.9502
   649.2500    659.5986   2000.0000   2000.0000     13.2405    119.4090
   649.5000    659.7169   2000.0000   2000.0000     13.0322    125.5671
   649.7500    658.3376   2000.0000   2000.0000     12.7869    129.7051
   650.0000    655.9766   2000.0000   2000.0000     12.5328    134.1117
   650.2500    654.3928   2000.0000   2000.0000     12.3067    135.2692
   650.5000    655.2896   2000.0000   2000.0000     12.1392    135.6610
   650.7500    658.5864   2000.0000   2000.0000     12.0553    136.6565
   651.0000    662.4500   2000.0000   2000.0000     12.0779    140.9401
   651.2500    665.0542   2000.0000   2000.0000     12.2243    145.1625
   651.5000    665.9820   2000.0000   2000.0000     12.4976    150.8606
   651.7500    665.9884   2000.0000   2000.0000     12.8780    152.5797
   652.0000    665.8857   2000.0000   2000.0000     13.3173    150.5448
   652.2500    665.9703   2000.0000   2000.0000     13.7427    146.3419
   652.5000    666.2864   2000.0000   2000.0000     14.0767    137.4099
   652.7500    666.8641   2000.0000   2000.0000     14.2711    130.6372
   653.0000    667.5338   2000.0000   2000.0000     14.3335    120.0450
   653.2500    667.9443   2000.0000   2000.0000     14.3237    112.9928
   653.5000    667.9597   2000.0000   2000.0000     14.3262    103.5769
   653.7500    667.7806   2000.0000   2000.0000     14.4147     99.2001
   654.0000    667.7206   2000.0000   2000.0000     14.6252     97.3480
   654.2500    668.0838   2000.0000   2000.0000     14.9387     99.6380
   654.5000    669.0687   2000.0000   2000.0000     15.2800    107.2320
   654.7500    670.3966   2000.0000   2000.0000     15.5458    113.6666
   655.0000    671.0891   2000.0000   2000.0000     15.6549    122.8864
   655.2500    670.0018   2000.0000   2000.0000     15.5888    127.7235
   655.5000    666.8582   2000.0000   2000.0000     15.3904    132.3405
   655.7500    662.7559   2000.0000   2000.0000     15.1294    133.7902
   656.0000    659.4424   2000.0000   2000.0000     14.8689    134.0390
   656.2500    657.9549   2000.0000   2000.0000     14.6499    133.1214
   656.5000    658.1671   2000.0000   2000.0000     14.4918    130.4966
   656.7500    659.4926   2000.0000   2000.0000     14.3984    128.4241
   657.0000    661.4576   2000.0000   2000.0000     14.3640    125.8611
   657.2500    663.6116   2000.0000   2000.0000     14.3776    124.6783
   657.5000    665.4825   2000.0000   2000.0000     14.4253    123.0702
   657.7500    666.8035   2000.0000   2000.0000     14.4961    121.7401
   658.0000    667.6618   2000.0000   2000.0000     14.5902    119.5274
   658.2500    668.3857   2000.0000   2000.0000     14.7232    118.3969
   658.5000    669.1751   2000.0000   2000.0000     14.9140    118.0352
   658.7500    669.8338   2000.0000   2000.0000     15.1606    118.7525
   659.0000    670.0223   2000.0000   2000.0000     15.4201    120.5523
   659.2500    669.5133   2000.0000   2000.0000     15.6143    121.7532
   659.5000    668.0471   2000.0000   2000.0000     15.6693    123.2789
   659.7500    665.5049   2000.0000   2000.0000     15.5686    124.0192
   660.0000    662.5432   2000.0000   2000.0000     15.3690    124.0536
   660.2500    660.6182   2000.0000   2000.0000     15.1628    122.9942
   660.5000    660.9609   2000.0000   2000.0000     15.0224    120.1136
   660.7500    663.3618   2000.0000   2000.0000     14.9778    117.9768
   661.0000    666.1551   2000.0000   2000.0000     15.0336    115.4254
   661.2500    667.8047   2000.0000   2000.0000     15.2022    114.4485
   661.5000    668.5030   2000.0000   2000.0000     15.5142    114.2002
   661.7500    669.7390   2000.0000   2000.0000     15.9958    114.6054
   662.0000    672.3092   2000.0000   2000.0000     16.6281    114.7135
   662.2500    675.3440   2000.0000   2000.0000     17.3250    113.3721
   662.5000    677.3922   2000.0000   2000.0000     17.9550    108.5303
   662.7500    677.8553   2000.0000   2000.0000     18.4125    104.3356
   663.0000    677.0329   2000.0000   2000.0000     18.6918     99.5361
   663.2500    675.3602   2000.0000   2000.0000     18.8953     98.5828
   663.5000    673.2213   2000.0000   2000.0000     19.1665    100.5713
   663.7500    671.1896   2000.0000   2000.0000     19.6048    103.3796
   664.0000    669.8650   2000.0000   2000.0000     20.2124    108.2180
   664.2500    669.4189   2000.0000   2000.0000     20.8919    110.9014
   664.5000    669.3422   2000.0000   2000.0000     21.4932    112.3208
   664.7500    668.7956   2000.0000   2000.0000     21.8861    110.7865
   665.0000    667.6288   2000.0000   2000.0000     22.0128    104.9833
   665.2500    666.9609   2000.0000   2000.0000     21.8981     99.8041
   665.5000    668.1603   2000.0000   2000.0000     21.6381     92.4876
   665.7500    671.1974   2000.0000   2000.0000     21.3688     89.1656
   666.0000    674.5449   2000.0000   2000.0000     21.2128     87.7216
   666.2500    676.7966   2000.0000   2000.0000     21.2174     89.1077
   666.5000    677.8602   2000.0000   2000.0000     21.3270     93.5313
   666.7500    678.4940   2000.0000   2000.0000     21.4216     97.0192
   667.0000    679.2908   2000.0000   2000.0000     21.4127    101.7831
   667.2500    680.3692   2000.0000   2000.0000     21.3266    104.5942
   667.5000    681.5323   2000.0000   2000.0000     21.2791    109.0220
   667.7500    682.4423   2000.0000   2000.0000     21.3645    112.3644
