~Version Information
VERS.                      2.0: CWLS Log ASCII Standard - VERSION 2.0
WRAP.                       NO: One line per depth step
~Well Information Block
STRT.FT                -5.2500: 
STOP.FT               769.5000: 
STEP.FT                 0.2500: 
NULL.                -999.2500: 
COMP.          Pioneer Natural Resources: COMPANY
WELL.          HG Duran 34-27 Tr: WELL
FLD.           Purgatorie River: FIELD
LOC.           1076' FSL & 1465' FEL: LOCATION
PROV.                 Colorado: PROVINCE
CNTY.               Las Animas: COUNTRY
SRVC.          Patterson Wireline: SERVICE COMPANY
DATE.          Mon Apr 18 09:19:17 2005: LOG DATE
UWI.           05-071-08218-00: UNIQUE WELL ID
~Curve Information Block
DEPT.FT            0 000 00 00: Depth
CCL.                          : Casing Collar Locator
TT3.usec                      : CBL 3' Travel Time
AMP3.mV                       : CBL 3' Amplitude
GR.GAPI                       : Gamma Ray
~Parameter Information Block
~A  Depth       CCL         TT3         AMP3         GR     
# ...
   329.7500      0.0000   1005.2775      5.4640     95.4488
   330.0000      0.0000   1001.6201      4.9166     84.1722
   330.2500      0.0000   1013.2545      4.4440     78.2981
   330.5000      0.0000   1029.4895      4.0385     77.7750
   330.7500      0.0000   1043.5063      3.7057     80.6512
   331.0000      0.0000   1056.8447      3.4656     83.8719
   331.2500      0.0000   1074.7878      3.3471     84.5858
   331.5000      0.0000   1098.5006      3.3719     81.4688
   331.7500      0.0000   1119.5396      3.5367     75.1718
   332.0000      0.0000   1122.5732      3.8136     67.5913
   332.2500      0.0000   1096.5247      4.1661     60.6900
   332.5000      0.0000   1043.4387      4.5646     55.5962
   332.7500      0.0000    976.5916      4.9925     52.3095
   333.0000      0.0000    912.1811      5.4406     50.1934
   333.2500      0.0000    862.4500      5.8995     49.0280
   333.5000      0.0000    832.7390      6.3593     49.6503
   333.7500      0.0000    822.3004      6.8161     53.4996
   334.0000      0.0000    827.4484      7.2651     61.4696
   334.2500      0.0000    843.3433      7.6863     73.0221
   334.5000      0.0000    862.9999      8.0656     86.1822
   334.7500      0.0000    877.0947      8.4408     98.3950
   335.0000      0.0000    878.3168      8.8997    107.7204
   335.2500      0.0000    867.0001      9.5059    113.5637
   335.5000      0.0000    850.7680     10.2215    116.4069
   335.7500      0.0000    837.4522     10.9079    116.9419
   336.0000      0.0000    829.6383     11.4021    115.5551
   336.2500      0.0000    826.2814     11.6032    112.6638
   336.5000      0.0000    826.6998     11.5066    109.4010
   336.7500      0.0000    831.0470     11.1865    107.5302
   337.0000      0.0000    838.4033     10.7619    108.2049
   337.2500      0.0000    846.1754     10.3544    110.9478
   337.5000      0.0000    851.1246     10.0369    114.1513
   337.7500      0.0000    850.7012      9.8066    116.4149
   338.0000      0.0000    844.3370      9.6194    117.2720
   338.2500      0.0000    833.9510      9.4531    117.2106
   338.5000      0.0000    822.8837      9.3272    117.3456
   338.7500      0.0000    813.9446      9.2542    118.6383
   339.0000      0.0000    808.2071      9.1811    121.0720
   339.2500      0.0000    805.1962      9.0020    123.8258
   339.5000      0.0000    803.8491      8.6418    126.2707
   339.7500      0.0000    803.2825      8.1233    128.3520
   340.0000      0.0000    803.0202      7.5522    129.8503
   340.2500      0.0000    802.8713      7.0531    129.7528
   340.5000      0.0000    802.7755      6.7238    127.0354
   340.7500      0.0000    802.7181      6.6193    122.1925
   341.0000      0.0000    802.6949      6.7427    117.5135
   341.2500      0.0000    802.7085      7.0391    115.3580
   341.5000      0.0000    802.8115      7.4052    116.1080
   341.7500      0.0000    803.2128      7.7190    118.1657
   342.0000      0.0000    804.4410      7.8786    119.8483
   342.2500      0.0000    807.4139      7.8355    120.5814
   342.5000      0.0000    813.1586      7.6079    120.1525
   342.7500      0.0000    822.0972      7.2655    117.9496
   343.0000      0.0000    833.3834      6.9010    113.8724
   343.2500      0.0000    845.0825      6.6089    109.4949
   343.5000      0.0000    855.1844      6.4631    107.1065
   343.7500      0.0000    862.4643      6.4778    107.3376
   344.0000      0.0000    866.4883      6.5820    108.4651
   344.2500      0.0000    867.2515      6.6535    108.1878
   344.5000      0.0000    865.1066      6.6038    105.6267
   344.7500      0.0000    860.8416      6.4486    101.9171
   345.0000      0.0000    855.5760      6.3012     99.5489
   345.2500      0.0000    850.4480      6.2874    100.8186
   345.5000      0.0000    846.1321      6.4513    106.1983
   345.7500      0.0000    842.5657      6.7339    114.0352
   346.0000      0.0000    839.4073      7.0411    121.9386
   346.2500      0.0000    836.8972      7.3326    128.5425
   346.5000      0.0000    836.0450      7.6406    133.8035
   346.7500      0.0000    837.7959      8.0024    137.5901
   347.0000      0.0000    842.1736      8.3857    138.7341
   347.2500      0.0000    848.0997      8.6900    136.2837
   347.5000      0.0000    853.4374      8.8334    131.3128
   347.7500      0.0000    855.3122      8.8399    126.4195
   348.0000      0.0000    851.6534      8.8373    123.4485
   348.2500      0.0000    843.2777      8.9561    122.4349
   348.5000      0.0000    833.9461      9.2259    122.5469
   348.7500      0.0000    827.6677      9.5601    123.2219
   349.0000      0.0000    825.9451      9.8233    124.2327
   349.2500      0.0000    827.4053      9.9093    125.0468
   349.5000      0.0000    829.2255      9.7877    124.5266
   349.7500      0.0000    828.8402      9.5144    121.7142
   350.0000      0.0000    825.5421      9.2035    116.9475
   350.2500      0.0000    821.5986      8.9738    111.6743
   350.5000      0.0000    821.9127      8.9008    106.9374
   350.7500      0.0000    831.9196      9.0077    102.5415
   351.0000      0.0000    854.5835      9.2992     97.8593
   351.2500      0.0000    888.7557      9.7980     92.8434
   351.5000      0.0000    932.0120     10.4971     88.1788
   351.7500      0.0000    986.5750     11.2160     84.9760
   352.0000      0.0000   1059.3024     11.5500     84.2294
   352.2500      0.0000   1151.2352     11.1203     85.9703
   352.5000      0.0000   1249.0793      9.9416     89.0637
   352.7500      0.0000   1332.6417      8.4597     92.3298
   353.0000      0.0000   1390.0271      7.1896     95.6095
   353.2500      0.0000   1421.1707      6.3759     99.3020
   353.5000     -5.0000   1427.8137      5.9878    103.1401
   353.7500      0.0000   1405.1112      5.9204    105.9426
   354.0000      0.0000   1345.0558      6.1373    106.4368
   354.2500      0.0000   1247.9147      6.6469    104.1606
   354.5000      0.0000   1129.5830      7.3887     99.9017
   354.7500      0.0000   1015.5084      8.1762     95.5158
   355.0000      0.0000    925.9797      8.7830     93.1191
   355.2500      0.0000    867.4472      9.0920     94.1243
   355.5000      0.0000    835.7466      9.1416     98.4532
   355.7500      0.0000    824.0356      9.0395    104.1780
   356.0000      0.0000    828.4406      8.8762    108.3611
   356.2500      0.0000    850.7202      8.7121    108.9606
   356.5000      0.0000    896.8452      8.5953    106.0335
   356.7500      0.0000    968.4762      8.5594    101.1902
   357.0000      0.0000   1051.3053      8.6030     96.2617
   357.2500      0.0000   1115.8252      8.6712     92.2173
   357.5000      0.0000   1137.5837      8.6720     88.6511
   357.7500      0.0000   1116.4167      8.5367     84.4163
   358.0000      0.0000   1070.0479      8.2862     79.1555
   358.2500      0.0000   1013.2221      8.0480     73.9635
   358.5000      0.0000    952.2118      8.0063     70.3401
   358.7500      0.0000    894.7117      8.3038     68.8838
   359.0000      0.0000    852.5910      8.9410     69.1074
   359.2500      0.0000    834.5981      9.7427     70.0433
   359.5000      0.0000    841.6715     10.4385     70.8813
   359.7500      0.0000    866.5748     10.8108     71.4370
   360.0000      0.0000    893.7853     10.8010     72.2406
   360.2500      0.0000    904.9398     10.5143     74.1950
   360.5000      0.0000    892.3875     10.1459     78.0634
   360.7500      0.0000    867.4048      9.8717     83.8695
   361.0000      0.0000    851.1322      9.7619     90.3705
   361.2500      0.0000    857.0751      9.7809     95.4393
   361.5000      0.0000    881.9402      9.8635     97.5418
   361.7500      0.0000    910.7293      9.9794     96.7031
   362.0000      0.0000    929.7391     10.1112     93.9585
   362.2500      0.0000    936.8827     10.1908     90.5923
   362.5000      0.0000    940.8219     10.1041     88.0555
   362.7500      0.0000    949.6387      9.7836     87.6935
   363.0000      0.0000    959.6186      9.2869     90.0575
