~Version Information
VERS.                      2.0: CWLS Log ASCII Standard - VERSION 2.0
WRAP.                       NO: One line per depth step
~Well Information Block
STRT.FT                -7.0000: 
STOP.FT              2736.0000: 
STEP.FT                 0.2500: 
NULL.                -999.2500: 
COMP.          Pioneer Natural Resources: COMPANY
WELL.              Getem 21-23: WELL
FLD.           Purgatorie River: FIELD
LOC.           2623' FWL & 790' FNL----: LOCATION
PROV.                       CO: PROVINCE
CNTY.               Las Animas: COUNTRY
SRVC.          Patterson Wireline: SERVICE COMPANY
DATE.          Mon Jun 27 09:57:55 2005: LOG DATE
UWI.           05 071 08411 00: UNIQUE WELL ID
~Curve Information Block
DEPT.FT            0 000 00 00: Depth
CCL.                          : Casing Collar Locator
TT3.usec                      : CBL 3' Travel Time
AMP3.mV                       : CBL 3' Amplitude
GR.GAPI                       : Gamma Ray
~Parameter Information Block
~A  Depth       CCL         TT3         AMP3         GR     
# ...
  1969.5000      0.0000    710.7078      6.0602     86.5455
  1969.7500      0.0000    712.0956      5.9120     86.1139
  1970.0000      0.0000    714.1592      5.7004     86.4948
  1970.2500      0.0000    719.7717      5.5535     86.9004
  1970.5000      0.0000    730.6537      5.5511     87.7416
  1970.7500      0.0000    745.1484      5.6758     90.0514
  1971.0000      0.0000    759.0654      5.8281     93.6602
  1971.2500      0.0000    769.0905      5.9000     96.7232
  1971.5000      0.0000    774.6873      5.8400     97.7449
  1971.7500      0.0000    776.2682      5.6604     97.4254
  1972.0000      0.0000    773.0198      5.4163     97.8366
  1972.2500      0.0000    764.0944      5.1844    100.1989
  1972.5000      0.0000    751.3276      5.0250    103.8875
  1972.7500      0.0000    739.4428      4.9429    107.3630
  1973.0000      0.0000    733.2734      4.8958    109.8974
  1973.2500      0.0000    734.5957      4.8436    112.4508
  1973.5000      0.0000    741.1158      4.7882    116.6403
  1973.7500      0.0000    748.5269      4.7654    122.8756
  1974.0000      0.0000    753.9612      4.8018    129.9567
  1974.2500      0.0000    757.5485      4.8794    136.4421
  1974.5000      0.0000    761.3495      4.9427    141.8206
  1974.7500      0.0000    767.6241      4.9442    146.2390
  1975.0000      0.0000    776.6314      4.8851    149.6949
  1975.2500      0.0000    784.2937      4.8006    152.0312
  1975.5000      0.0000    783.6556      4.7039    153.5182
  1975.7500      0.0000    771.5120      4.5671    154.7692
  1976.0000      0.0000    753.4768      4.3706    155.7775
  1976.2500      0.0000    740.6436      4.1571    155.3714
  1976.5000      0.0000    740.3939      4.0050    152.2004
  1976.7500      0.0000    750.6458      3.9436    146.4783
  1977.0000      0.0000    762.9259      3.9163    140.4490
  1977.2500      0.0000    770.0043      3.8399    136.8155
  1977.5000     -2.0000    769.5285      3.6928    136.7239
  1977.7500      0.0000    761.6470      3.5291    139.3446
  1978.0000      0.0000    746.8455      3.4172    143.0408
  1978.2500      0.0000    727.5924      3.3875    146.4251
  1978.5000      0.0000    709.2280      3.4336    148.4612
  1978.7500      0.0000    696.4408      3.5337    148.4790
  1979.0000      0.0000    689.4115      3.6558    146.5808
  1979.2500      0.0000    684.9407      3.7671    143.6184
  1979.5000      0.0000    680.8770      3.8640    140.4064
  1979.7500      0.0000    678.5972      3.9837    137.0539
  1980.0000      0.0000    681.6396      4.1660    133.1228
  1980.2500      0.0000    692.6271      4.4005    128.4491
  1980.5000      0.0000    710.9115      4.6108    123.8295
  1980.7500      0.0000    732.2161      4.6955    120.6305
  1981.0000      0.0000    750.2512      4.5969    119.3460
  1981.2500      0.0000    759.1552      4.3499    118.6851
  1981.5000      0.0000    755.6826      4.0669    116.5250
  1981.7500      0.0000    740.3993      3.8650    111.7752
  1982.0000      0.0000    716.6125      3.7860    105.0586
  1982.2500      0.0000    688.0357      3.7708     97.8111
  1982.5000      0.0000    658.7787      3.7199     91.4734
  1982.7500      0.0000    635.3544      3.5999     87.7627
  1983.0000      0.0000    625.0703      3.4913     88.5947
  1983.2500      0.0000    629.7809      3.5182     94.4626
  1983.5000      0.0000    643.0278      3.7365    103.1107
  1983.7500      0.0000    655.6826      4.0896    110.8124
  1984.0000      0.0000    663.3392      4.4561    115.0424
  1984.2500      0.0000    667.2223      4.7237    115.5304
  1984.5000      0.0000    669.9146      4.8261    113.2684
  1984.7500      0.0000    672.0810      4.7440    109.5384
  1985.0000      0.0000    672.7301      4.5079    105.9580
  1985.2500      0.0000    671.2327      4.2027    104.3878
  1985.5000      0.0000    668.4517      3.9309    105.6600
  1985.7500      0.0000    666.1630      3.7499    108.3531
  1986.0000      0.0000    665.9304      3.6581    109.6313
  1986.2500      0.0000    668.7983      3.6363    107.7974
  1986.5000      0.0000    675.4865      3.6677    103.8639
  1986.7500      0.0000    686.2912      3.7223    100.5495
  1987.0000      0.0000    700.7095      3.7786    100.0485
  1987.2500      0.0000    717.1348      3.8643    102.8420
  1987.5000      0.0000    732.6321      4.0311    108.2275
  1987.7500      0.0000    743.3005      4.2742    115.5550
  1988.0000      0.0000    746.0388      4.4990    124.8689
  1988.2500      0.0000    740.7087      4.5705    136.4167
  1988.5000      0.0000    730.2098      4.4080    149.5355
  1988.7500      0.0000    718.0562      4.0540    162.2308
  1989.0000      0.0000    706.1150      3.6634    172.2652
  1989.2500      0.0000    694.7509      3.4079    178.6331
  1989.5000      0.0000    684.3984      3.3761    181.5077
  1989.7500      0.0000    676.1647      3.5520    180.9889
  1990.0000      0.0000    671.0512      3.8597    176.8768
  1990.2500      0.0000    669.3872      4.2043    170.1249
  1990.5000      0.0000    671.1723      4.4910    163.5770
  1990.7500      0.0000    676.3832      4.6550    160.1462
  1991.0000      0.0000    684.5311      4.7029    160.3900
  1991.2500      0.0000    694.3778      4.7073    162.5631
  1991.5000      0.0000    704.7216      4.7357    164.7884
  1991.7500      0.0000    715.0516      4.7876    166.2457
  1992.0000      0.0000    724.4804      4.8050    166.3174
  1992.2500      0.0000    730.7614      4.7188    164.0296
  1992.5000      0.0000    732.7051      4.4802    159.1817
  1992.7500      0.0000    733.9062      4.0902    153.2157
  1993.0000      0.0000    741.2819      3.6343    148.1984
  1993.2500      0.0000    757.9969      3.2601    145.4173
  1993.5000      0.0000    778.8443      3.0828    145.1963
  1993.7500      0.0000    793.8922      3.1054    147.1417
  1994.0000      0.0000    796.3579      3.2371    150.0514
  1994.2500      0.0000    786.6517      3.3825    152.3432
  1994.5000      0.0000    769.9442      3.5146    153.1926
  1994.7500      0.0000    751.3777      3.6700    153.0386
  1995.0000      0.0000    734.0371      3.8755    152.7129
  1995.2500      0.0000    720.1351      4.0943    152.3084
  1995.5000      0.0000    711.8944      4.2624    151.2794
  1995.7500      0.0000    710.0403      4.3608    149.5584
  1996.0000      0.0000    712.1814      4.4223    148.0821
  1996.2500      0.0000    714.1397      4.4863    147.9205
  1996.5000      0.0000    713.2512      4.5720    148.9740
  1996.7500      0.0000    709.9016      4.6785    149.8493
  1997.0000      0.0000    706.2905      4.7875    149.3152
  1997.2500      0.0000    704.4498      4.8782    147.7758
  1997.5000      0.0000    705.0051      4.9468    146.8802
  1997.7500      0.0000    707.0820      4.9951    147.7812
  1998.0000      0.0000    709.2485      5.0086    150.2147
  1998.2500      0.0000    710.6077      4.9717    153.0244
  1998.5000      0.0000    710.9554      4.9031    154.9745
  1998.7500      0.0000    710.0649      4.8397    155.1865
  1999.0000      0.0000    707.0245      4.7760    153.6049
  1999.2500      0.0000    700.5847      4.6595    151.3728
  1999.5000      0.0000    690.9341      4.4724    150.2189
  1999.7500      0.0000    681.4147      4.2823    150.8543
  2000.0000      0.0000    677.2001      4.1708    152.1367
  2000.2500      0.0000    680.8736      4.1283    152.1244
  2000.5000      0.0000    689.8506      4.0744    149.6867
  2000.7500      0.0000    699.0248      3.9824    145.0893
  2001.0000      0.0000    705.1639      3.9293    139.7568
  2001.2500      0.0000    708.1722      3.9947    135.8000
  2001.5000      0.0000    709.3904      4.1550    135.2632
  2001.7500      0.0000    709.9114      4.3195    139.1411
  2002.0000      0.0000    710.1868      4.4432    146.5054
  2002.2500      0.0000    710.3168      4.5455    154.4599
  2002.5000      0.0000    710.3093      4.6234    159.5993
  2002.7500      0.0000    710.1826      4.6161    160.0947
