~Version Information
VERS.                      2.0: CWLS Log ASCII Standard - VERSION 2.0
WRAP.                       NO: One line per depth step
~Well Information Block
STRT.FT               472.0000: 
STOP.FT              2428.5000: 
STEP.FT                 0.1000: 
NULL.                -999.2500: 
COMP.          Pioneer Natural Resources: COMPANY
WELL.          Flying Horse 12-11: WELL
FLD.           Purgatoire River: FIELD
LOC.           2428' FNL & 308' FWL: LOCATION
PROV.                 Colorado: PROVINCE
CNTY.               Las Animas: COUNTRY
SRVC.                Patterson: SERVICE COMPANY
DATE.          Mon May 30 06:06:20 2005: LOG DATE
UWI.           05 071 08378 00: UNIQUE WELL ID
~Curve Information Block
DEPT.FT            0 000 00 00: Depth
DCAL.in                       : CDL Caliper
RHOB.g/cc                     : CDL Bulk Density
RHOC.g/cc                     : CDL Density Correction
DPOR.pu                       : CDL Density Porosity
GR.GAPI                       : Gamma Ray
NPOR.pu                       : Neutron Porosity
~Parameter Information Block
~A  Depth       DCAL        RHOB        RHOC        DPOR         GR         NPOR    
# ...
  1115.2000      8.0276      2.6902      0.0525     -2.4344     57.9411     23.8440
  1115.3000      7.9963      2.6683     -0.0248     -1.1068     56.1449     23.6548
  1115.4000      7.9963      2.6514     -0.0005     -0.0853     57.0369     22.8510
  1115.5000      8.0108      2.6478      0.0421      0.1349     58.4083     21.8108
  1115.6000      8.0108      2.6510      0.0042     -0.0605     57.5503     20.9946
  1115.7000      8.0108      2.6530      0.0498     -0.1815     54.9674     20.5765
  1115.8000      8.0510      2.6459      0.0110      0.2511     55.5979     20.6179
  1115.9000      8.0510      2.6403      0.0412      0.5902     59.3059     20.8679
  1116.0000      8.0308      2.6507      0.0239     -0.0432     61.2063     20.8667
  1116.1000      8.0308      2.6698      0.0404     -1.2022     61.3885     20.5268
  1116.2000      8.0308      2.6798      0.0654     -1.8061     59.9080     20.0419
  1116.3000      8.0500      2.6712      0.0262     -1.2827     55.1609     19.6981
  1116.4000      8.0500      2.6512     -0.0152     -0.0739     50.2428     19.6392
  1116.5000      8.0816      2.6265     -0.0389      1.4225     47.2019     19.5605
  1116.6000      8.0816      2.5896     -0.0650      3.6633     45.3844     19.2865
  1116.7000      8.0816      2.5436     -0.0318      6.4486     46.2179     19.0365
  1116.8000      8.1108      2.5141     -0.0774      8.2336     50.1366     19.0278
  1116.9000      8.1108      2.5196     -0.0800      7.9058     54.2423     19.2755
  1117.0000      8.1037      2.5485     -0.0087      6.1538     55.7227     19.5649
  1117.1000      8.1037      2.5742     -0.0057      4.5927     53.3231     19.7300
  1117.2000      8.1037      2.5751      0.0511      4.5392     50.6487     19.6994
  1117.3000      8.0543      2.5540     -0.0118      5.8198     54.0839     19.7458
  1117.4000      8.0543      2.5410     -0.0182      6.6031     64.8566     20.2721
  1117.5000      8.0539      2.5469      0.1033      6.2465     76.6028     20.9197
  1117.6000      8.0539      2.5533      0.0735      5.8607     81.9275     21.3000
  1117.7000      8.0539      2.5565      0.0733      5.6644     82.5993     21.6321
  1117.8000      8.0059      2.5580      0.1015      5.5777     84.4006     21.9368
  1117.9000      8.0059      2.5594     -0.0205      5.4937     86.9000     21.8598
  1118.0000      7.9977      2.5831      0.0243      4.0548     87.5618     21.4418
  1118.1000      7.9977      2.6258      0.1247      1.4644     86.1331     21.1715
  1118.2000      7.9977      2.6524      0.0955     -0.1464     84.6935     21.2116
  1118.3000      8.0143      2.6483      0.1679      0.1002     84.4312     21.5390
  1118.4000      8.0143      2.6249      0.1169      1.5186     85.5276     22.2030
  1118.5000      7.9944      2.5977      0.0983      3.1677     87.6286     22.7655
  1118.6000      7.9944      2.5691      0.0860      4.9021     88.5062     22.8409
  1118.7000      7.9944      2.5365      0.0246      6.8783     87.9423     22.7171
  1118.8000      7.9879      2.5118     -0.0258      8.3772     88.1517     22.6045
  1118.9000      7.9879      2.5087      0.0140      8.5661     90.1689     22.4158
  1119.0000      7.9923      2.5210      0.0150      7.8178     91.8717     22.1708
  1119.1000      7.9923      2.5348      0.0129      6.9839     91.3839     22.0680
  1119.2000      7.9923      2.5458      0.0296      6.3157     91.2150     22.1607
  1119.3000      7.9924      2.5443      0.1075      6.4050     93.6276     22.1573
  1119.4000      7.9924      2.5253      0.0503      7.5561     94.5184     21.8688
  1119.5000      8.0008      2.5061      0.0387      8.7240     90.6326     21.4482
  1119.6000      8.0008      2.4825      0.0823     10.1538     86.9553     20.9402
  1119.7000      8.0008      2.4367      0.0086     12.9296     88.3292     20.4137
  1119.8000      8.0235      2.3917     -0.0082     15.6538     94.8917     20.3530
  1119.9000      8.0235      2.3786      0.0194     16.4487    105.8056     21.2154
  1120.0000      8.0227      2.3968      0.0401     15.3469    116.4744     22.5304
  1120.1000      8.0227      2.4329      0.0857     13.1573    119.9683     23.1721
  1120.2000      8.0227      2.4722      0.1417     10.7732    117.9004     22.9314
  1120.3000      8.0271      2.4950      0.1833      9.3913    118.1031     22.4996
  1120.4000      8.0271      2.4942      0.1619      9.4401    123.5741     22.3256
  1120.5000      8.0267      2.4850      0.1851      9.9985    128.4188     22.3989
  1120.6000      8.0267      2.4800      0.1491     10.3028    130.0601     22.4774
  1120.7000      8.0267      2.4777      0.1602     10.4425    134.9738     22.4152
  1120.8000      8.0798      2.4593      0.2186     11.5606    140.7648     22.3265
  1120.9000      8.0798      2.4094      0.1293     14.5791    139.7885     22.4700
  1121.0000      8.1194      2.3473      0.1214     18.3448    137.8533     22.6489
  1121.1000      8.1194      2.3056      0.0162     20.8745    141.9153     22.5667
  1121.2000      8.1194      2.2981      0.0333     21.3274    148.5876     22.7646
  1121.3000      8.1364      2.3135      0.0940     20.3929    152.3378     23.7342
  1121.4000      8.1364      2.3399      0.0946     18.7967    151.8976     25.0590
  1121.5000      8.2226      2.3751      0.2069     16.6596    150.0764     26.1272
  1121.6000      8.2226      2.4112      0.1867     14.4699    148.9523     26.9338
  1121.7000      8.2226      2.4375      0.1977     12.8780    144.3517     27.7706
  1121.8000      8.1940      2.4521      0.1745     11.9937    135.1269     28.3201
  1121.9000      8.1940      2.4623      0.1488     11.3776    127.0191     28.2375
  1122.0000      8.0545      2.4735      0.1156     10.6944    125.6177     27.9244
  1122.1000      8.0545      2.4937      0.0538      9.4713    132.7865     28.0316
  1122.2000      8.0545      2.5272      0.0700      7.4429    139.8850     28.5829
  1122.3000      8.0540      2.5577      0.0751      5.5940    138.6243     28.7952
  1122.4000      8.0540      2.5735      0.0266      4.6379    133.7438     28.2960
  1122.5000      8.1144      2.5776      0.0481      4.3855    131.5131     27.6264
  1122.6000      8.1144      2.5685      0.0287      4.9389    131.6412     27.3959
  1122.7000      8.1144      2.5530      0.0341      5.8817    130.6429     27.7430
  1122.8000      8.1280      2.5525     -0.0007      5.9100    129.1263     28.1430
  1122.9000      8.1280      2.5737      0.0281      4.6234    130.4323     28.1220
  1123.0000      8.1221      2.6014      0.0625      2.9435    133.6383     27.9766
  1123.1000      8.1221      2.6252      0.0510      1.5055    134.5941     28.1441
  1123.2000      8.1221      2.6465      0.0592      0.2136    131.0009     28.3594
  1123.3000      8.1124      2.6558      0.1142     -0.3535    125.1185     28.2069
  1123.4000      8.1124      2.6377      0.0831      0.7459    119.5983     27.7171
  1123.5000      8.0913      2.6049     -0.0002      2.7354    113.5970     27.0535
  1123.6000      8.0913      2.5826      0.0350      4.0849    108.8600     26.4738
  1123.7000      8.0913      2.5721      0.0286      4.7235    106.4293     26.0052
  1123.8000      8.1145      2.5598     -0.0110      5.4644    102.5562     25.3865
  1123.9000      8.1145      2.5442     -0.0392      6.4109     97.9185     24.7381
  1124.0000      8.1083      2.5435     -0.0106      6.4520     95.5699     24.5525
  1124.1000      8.1083      2.5654      0.0548      5.1261     94.9548     24.9449
  1124.2000      8.1083      2.5904      0.0283      3.6112     94.8299     25.5499
  1124.3000      8.0512      2.6084      0.0379      2.5209     95.2153     26.0473
  1124.4000      8.0512      2.6287      0.0345      1.2883     96.6150     26.2383
  1124.5000      8.0316      2.6545      0.0409     -0.2715     99.6688     26.0322
  1124.6000      8.0316      2.6709      0.1353     -1.2683    103.1905     25.6641
  1124.7000      8.0316      2.6618      0.1428     -0.7163    105.8512     25.2555
