~Version Information
 VERS.                                  2.0 : CWLS LAS VERSION
 WRAP.                                   NO : WRAPING MODE
 SWARE .                 MController 2.5.0E : SOFTWARE VERSION
~Well Information
 WELL.                         Burson 8-31r : WELL
 COMP.                      Petrogulf CORP. : COMPANY
 FLD.                       Purgatory River : FIELD
 LOC.                        NWNE 8 33S 67W : LOCATION
 DATE.                         4/28-4/29/04 : DATE(S) LOGGED
 SRVC.                                  BGS : SERVICE COMPANY
 STAT.                             Colorado : STATE
 CNTY.                           Las Animas : COUNTY
 CTRY.                        United States : COUNTRY
 API.                       05-071-08039-00 : API NUMBER
 STRT.FT                              41.00 : START DEPTH
 STOP.FT                            2225.00 : STOP DEPTH
 STEP.FT                               1.00 : DEPTH INCREMENT
 NULL.                                -9999 : NULL VALUE
~Curve information
 DEPTH.FT                                   :
 ROP.MIN/FT                                 :
 GAS.UNITS                                  :
~ASCII Log data
# ...
      441.00        0.067          0.0 
      442.00        0.400          0.0 
      443.00        0.500          0.0 
      444.00        0.333          0.0 
      445.00        0.433          0.0 
      446.00        2.550          0.0 
      447.00        0.567          0.0 
      448.00        0.267          0.0 
      449.00        0.333          0.0 
      450.00        0.383          0.0 
      451.00        0.333          0.0 
      452.00        0.367          0.0 
      453.00        0.333          0.0 
      454.00        0.400        103.1 
      455.00        0.400          7.0 
      456.00        0.367          6.7 
      457.00        0.333          6.7 
      458.00        0.400          7.2 
      459.00        0.450          7.3 
      460.00        0.400          7.0 
      461.00        0.533          7.2 
      462.00        0.400          6.9 
      463.00        0.633          7.2 
      464.00        0.433          7.1 
      465.00        0.333          7.0 
      466.00        0.400          7.1 
      467.00        0.450          7.1 
      468.00        0.333          7.3 
      469.00        0.367          6.7 
      470.00        0.333          7.2 
      471.00        0.367          7.3 
      472.00        0.333          7.1 
      473.00        0.367          6.6 
      474.00        0.333          7.2 
      475.00        0.300          7.1 
      476.00        4.333          7.2 
      477.00        0.267          6.5 
      478.00        0.233          6.6 
      479.00        0.233          6.9 
      480.00        0.300          6.9 
      481.00        0.333          6.5 
      482.00        0.400          7.1 
      483.00        0.367          6.9 
      484.00        0.400          7.0 
      485.00        0.350          7.0 
      486.00        0.333          7.1 
      487.00        0.300          6.6 
      488.00        0.333          7.2 
      489.00        0.333          7.0 
      490.00        0.333          6.8 
      491.00        0.333          7.1 
      492.00        0.367          6.6 
      493.00        0.333          7.2 
      494.00        0.300          7.1 
      495.00        0.383          6.6 
      496.00        0.367          6.7 
      497.00        0.333          6.8 
      498.00        0.367          7.1 
      499.00        0.500          6.7 
      500.00        0.433          6.9 
      501.00        0.533          7.1 
      502.00        0.500          6.7 
      503.00        0.317          7.3 
      504.00        0.500          7.0 
      505.00        0.200          6.4 
      506.00        3.583          7.1 
      507.00        0.267          6.7 
      508.00        0.233          6.6 
      509.00        0.300          7.1 
      510.00        0.300          6.7 
      511.00        0.367          6.7 
      512.00        0.333          6.7 
      513.00        0.383          6.5 
      514.00        0.400          6.7 
      515.00        0.433          6.8 
      516.00        0.433          6.9 
      517.00        0.500          6.8 
      518.00        0.367          7.0 
      519.00        0.400          6.6 
      520.00        0.400          6.6 
      521.00        0.417          6.7 
      522.00        0.367          6.5 
      523.00        0.333          6.3 
      524.00        0.333          6.7 
      525.00        0.333          6.3 
      526.00        0.300          6.4 
      527.00        0.333          6.6 
      528.00        0.400          6.8 
      529.00        0.333          6.2 
      530.00        0.300          6.3 
      531.00        0.283          6.3 
      532.00        0.267          6.8 
      533.00        0.333          6.7 
      534.00        0.500          6.8 
      535.00        0.500          6.3 
      536.00        1.367          6.5 
      537.00        0.300          6.4 
      538.00        0.283          6.6 
      539.00        0.333          6.2 
      540.00        0.367          6.6 
      541.00        0.333          6.6 
      542.00        0.400          6.7 
      543.00        0.400          6.4 
      544.00        0.500          6.6 
      545.00        0.467          6.4 
      546.00        0.550         10.7 
      547.00        0.500         11.5 
      548.00        0.400          9.7 
      549.00        0.400          8.6 
      550.00        0.333          7.7 
      551.00        0.367          7.4 
      552.00        0.333          7.1 
      553.00        0.367          6.6 
      554.00        0.483          7.0 
      555.00        0.433          6.6 
      556.00        0.433          6.7 
      557.00        0.400          6.5 
      558.00        0.333          6.6 
      559.00        0.367          6.8 
      560.00        0.333          6.7 
      561.00        0.333          6.8 
      562.00        0.367          6.4 
      563.00        0.383          6.1 
      564.00        0.333          6.8 
      565.00        0.433          6.5 
      566.00        2.850          6.7 
      567.00        0.500          6.3 
      568.00        0.333          6.5 
      569.00        0.300          6.5 
      570.00        0.367          6.3 
      571.00        0.300          6.8 
      572.00        0.267          6.3 
      573.00        0.300          6.1 
      574.00        0.300          6.8 
      575.00        0.417          6.8 
      576.00        0.400          6.6 
      577.00        0.333          6.6 
      578.00        0.333          6.3 
      579.00        0.333          6.5 
      580.00        0.333          7.0 
      581.00        0.267          6.4 
      582.00        0.200          6.8 
      583.00        0.300          6.3 
      584.00        0.400          6.6 
      585.00        0.333          7.0 
      586.00        0.317          7.3 
      587.00        0.233          7.7 
      588.00        0.367          7.5 
      589.00        0.367          6.9 
      590.00        0.467          7.3 
      591.00        0.367          7.3 
      592.00        0.367          7.0 
      593.00        0.567          7.3 
      594.00        0.383          6.7 
      595.00        0.300          7.1 
      596.00        3.183          7.2 
      597.00        0.400          6.9 
      598.00        0.333          6.6 
      599.00        0.367          6.9 
      600.00        0.367          6.8 
      601.00        0.333          6.4 
      602.00        0.233          6.5 
      603.00        0.267          7.0 
      604.00        0.333          6.6 
      605.00        0.333          7.1 
      606.00        0.383          6.9 
      607.00        0.433          7.1 
      608.00        0.300          6.7 
      609.00        0.267          6.6 
      610.00        0.333          6.9 
      611.00        0.300          6.8 
      612.00        0.167          6.5 
      613.00        0.333          7.1 
      614.00        0.333          7.2 
      615.00        0.400          6.6 
      616.00        0.317          6.8 
      617.00        0.367          6.5 
      618.00        0.267          7.2 
      619.00        0.367          7.3 
      620.00        0.400          6.8 
      621.00        0.400          6.4 
      622.00        0.367          6.7 
      623.00        0.367          6.9 
      624.00        0.367          7.0 
      625.00        0.300          6.6 
      626.00        4.200          7.1 
      627.00        0.333          7.1 
      628.00        0.267          7.3 
      629.00        0.367          6.9 
      630.00        0.433          6.7 
      631.00        0.367          7.2 
      632.00        0.367          7.2 
      633.00        0.367          7.3 
      634.00        0.383          7.5 
      635.00        0.333          7.6 
      636.00        0.367          7.5 
      637.00        0.333          7.2 
      638.00        0.367          7.8 
      639.00        0.333          7.2 
      640.00        0.400          7.6 
