~Version Information
VERS.                      2.0: CWLS Log ASCII Standard - VERSION 2.0
WRAP.                       NO: One line per depth step
~Well Information Block
STRT.FT               -13.5000: 
STOP.FT              2092.5000: 
STEP.FT                 0.2500: 
NULL.                -999.2500: 
COMP.          Petrogulf Corporation: COMPANY
WELL.          Robinson 15-11V: WELL
FLD.           Purgatorie River: FIELD
LOC.           226' FNL & 592' FWL--: LOCATION
CNTY.               Las Animas: COUNTY
SRVC.                         : SERVICE COMPANY
DATE.          Tue Aug 17 13:05:46 2004: LOG DATE
UWI.                          : UNIQUE WELL ID
STAT.                       CO: STATE
~Curve Information Block
DEPT.FT            0 000 00 00: Depth
CCL.                          : Casing Collar Locator
TT3.usec                      : CBL 3' Travel Time
AMP3.mV                       : CBL 3' Amplitude
GR.GAPI                       : Gamma Ray
~Parameter Information Block
~A  Depth       CCL         TT3         AMP3         GR     
# ...
  1795.5000      0.0000    332.7166     15.1100     80.9781
  1795.7500      0.0000    319.4702     15.7740     87.2648
  1796.0000      0.0000    314.7582     16.1546     95.4055
  1796.2500      0.0000    313.5030     16.2924    101.7910
  1796.5000      0.0000    313.3932     16.2291    104.6316
  1796.7500      0.0000    313.6189     15.9823    105.1019
  1797.0000      0.0000    313.9709     15.5736    105.3086
  1797.2500      0.0000    314.4854     15.0381    105.9355
  1797.5000      0.0000    315.3996     14.4034    106.6185
  1797.7500      0.0000    317.2037     13.6958    107.5065
  1798.0000      0.0000    320.6472     12.9585    108.9910
  1798.2500      0.0000    326.3603     12.2348    110.4318
  1798.5000      0.0000    334.0221     11.5504    110.5173
  1798.7500      0.0000    341.7654     10.9340    108.9387
  1799.0000      0.0000    346.7969     10.4377    106.8659
  1799.2500      0.0000    347.1761     10.1136    105.6022
  1799.5000      0.0000    343.4232      9.9720    105.3591
  1799.7500      0.0000    338.5209      9.9523    105.6703
  1800.0000      0.0000    336.0017      9.9345    106.3341
  1800.2500      0.0000    337.4039      9.8163    107.3010
  1800.5000      0.0000    341.3234      9.6111    108.2236
  1800.7500      0.0000    345.0578      9.4461    108.8759
  1801.0000      0.0000    347.0961      9.4423    109.6612
  1801.2500      0.0000    347.6790      9.6199    111.1697
  1801.5000      0.0000    347.1574      9.9164    113.4955
  1801.7500      0.0000    344.8051     10.2437    116.1145
  1802.0000      0.0000    339.8331     10.5076    118.0919
  1802.2500      0.0000    332.9708     10.6263    118.5425
  1802.5000      0.0000    326.2570     10.5901    117.3255
  1802.7500      0.0000    321.3667     10.5123    115.2547
  1803.0000      0.0000    318.5737     10.5799    113.3495
  1803.2500      0.0000    317.1689     10.8981    111.8411
  1803.5000      0.0000    316.3899     11.3710    109.9621
  1803.7500      0.0000    315.8658     11.7644    106.7929
  1804.0000      0.0000    315.5223     11.8971    102.4129
  1804.2500      0.0000    315.3507     11.7618     98.2404
  1804.5000      0.0000    315.3112     11.4880     96.0416
  1804.7500      0.0000    315.3707     11.2326     96.3226
  1805.0000      0.0000    315.5760     11.0994     97.7413
  1805.2500      0.0000    316.3608     11.1098     98.3125
  1805.5000      0.0000    319.1499     11.2061     96.9666
  1805.7500      0.0000    326.9839     11.2775     93.5915
  1806.0000      0.0000    343.5641     11.2096     88.1236
  1806.2500      0.0000    369.1989     10.9434     80.5582
  1806.5000      0.0000    396.4104     10.5013     71.7955
  1806.7500      0.0000    412.4261      9.9619     63.7383
  1807.0000      0.0000    409.8685      9.4052     58.2807
  1807.2500      0.0000    394.6848      8.8736     56.3148
  1807.5000      0.0000    382.0020      8.3809     57.4455
  1807.7500      0.0000    386.0532      7.9442     60.2440
  1808.0000      0.0000    414.6881      7.5842     62.7393
  1808.2500      0.0000    468.4101      7.2988     63.0874
  1808.5000      0.0000    539.3774      7.0648     60.3809
  1808.7500      0.0000    612.3528      6.8533     55.1959
  1809.0000      0.0000    671.2687      6.6238     49.2551
  1809.2500      0.0000    707.5961      6.3267     44.2827
  1809.5000      0.0000    723.0489      5.9398     41.1045
  1809.7500      0.0000    725.3719      5.5011     39.7751
  1810.0000      0.0000    722.2220      5.0856     40.2975
  1810.2500      0.0000    718.0211      4.7372     42.9025
  1810.5000      0.0000    714.3011      4.4314     47.6192
  1810.7500      0.0000    711.3048      4.1322     53.8193
  1811.0000      0.0000    708.9688      3.8732     60.2841
  1811.2500      0.0000    707.0742      3.7490     65.5788
  1811.5000      0.0000    705.1639      3.8142     68.5480
  1811.7500      0.0000    702.7282      4.0065     69.1486
  1812.0000      0.0000    699.7149      4.1767     68.9811
  1812.2500      0.0000    696.9492      4.2015     70.2799
  1812.5000      0.0000    695.7460      4.0709     73.9054
  1812.7500      0.0000    696.7720      3.8771     78.6157
  1813.0000      0.0000    699.3662      3.7298     82.3918
  1813.2500      0.0000    702.1506      3.6759     84.0265
  1813.5000      0.0000    704.1378      3.6836     83.4252
  1813.7500      0.0000    705.1511      3.7015     81.0902
  1814.0000      0.0000    705.4854      3.7220     77.8638
  1814.2500      0.0000    705.4296      3.7744     74.7599
  1814.5000      0.0000    705.0313      3.8772     72.3814
  1814.7500      0.0000    704.0922      4.0204     70.4921
  1815.0000      0.0000    702.3670      4.1770     68.5131
  1815.2500      0.0000    699.9946      4.3130     66.3809
  1815.5000      0.0000    697.9285      4.3907     64.6653
  1815.7500      0.0000    697.8121      4.3833     63.8642
  1816.0000      0.0000    701.2817      4.2944     63.7165
  1816.2500      0.0000    709.4016      4.1611     63.3669
  1816.5000      0.0000    722.3430      4.0385     62.3313
  1816.7500      0.0000    738.4989      3.9789     60.9408
  1817.0000      0.0000    753.7164      4.0043     59.4605
  1817.2500      0.0000    762.6812      4.0848     57.3383
  1817.5000      0.0000    762.0990      4.1515     54.1906
  1817.7500      0.0000    752.5597      4.1525     51.2568
  1818.0000      0.0000    737.6749      4.1088     50.9991
  1818.2500      0.0000    722.1735      4.1107     55.0350
  1818.5000      0.0000    710.3124      4.2462     62.6370
  1818.7500      0.0000    704.6241      4.5321     71.1422
  1819.0000      0.0000    705.4184      4.9121     77.7556
  1819.2500      0.0000    711.4558      5.3131     81.1569
  1819.5000      0.0000    721.0984      5.6915     81.8364
  1819.7500      0.0000    732.8303      6.0408     81.4738
  1820.0000      0.0000    744.9436      6.3869     82.0795
  1820.2500      0.0000    754.9821      6.7856     85.0807
  1820.5000      0.0000    759.3961      7.2897     90.5215
  1820.7500      0.0000    753.0618      7.8991     96.9793
  1821.0000      0.0000    729.9358      8.5563    102.3226
  1821.2500      0.0000    688.2032      9.1804    104.7452
  1821.5000      0.0000    638.3018      9.6834    103.6168
  1821.7500      0.0000    602.8422      9.9744     99.7184
  1822.0000      0.0000    601.3547      9.9886     94.6087
  1822.2500      0.0000    632.9992      9.7286     89.7468
  1822.5000      0.0000    677.7579      9.2843     86.2230
  1822.7500      0.0000    714.7106      8.8067     84.9120
  1823.0000      0.0000    736.0327      8.4255     86.2996
  1823.2500      0.0000    745.2389      8.1639     90.1102
  1823.5000      0.0000    748.0200      7.9505     95.3327
  1823.7500      0.0000    747.1064      7.7316    100.3847
  1824.0000      0.0000    743.1160      7.5494    103.2483
  1824.2500      0.0000    736.8662      7.4894    102.3280
  1824.5000      0.0000    729.7291      7.5652     97.8777
  1824.7500      0.0000    722.4766      7.6910     92.2387
  1825.0000      0.0000    714.8725      7.7653     88.1691
  1825.2500      0.0000    706.8171      7.7540     86.9517
  1825.5000      0.0000    699.3030      7.6847     88.0762
  1825.7500      0.0000    693.3447      7.5856     90.2268
  1826.0000      0.0000    687.5754      7.4568     92.1765
  1826.2500      0.0000    677.7372      7.2894     93.0249
  1826.5000      0.0000    660.3668      7.0837     92.3261
  1826.7500      0.0000    638.2597      6.8512     90.2763
  1827.0000      0.0000    621.0354      6.6114     87.4803
  1827.2500      0.0000    617.5126      6.3877     84.5225
  1827.5000      0.0000    626.8572      6.1930     82.0129
  1827.7500      2.0000    639.0919      6.0166     80.6959
  1828.0000      2.0000    643.9246      5.8331     80.9090
  1828.2500      0.0000    637.4157      5.6396     82.0760
  1828.5000      0.0000    621.6909      5.4896     83.1876
  1828.7500      0.0000    602.2459      5.4645     83.6787
