~Version Information
VERS.                      2.0: CWLS Log ASCII Standard - VERSION 2.0
WRAP.                       NO: One line per depth step
~Well Information Block
STRT.FT                 0.7500: 
STOP.FT              2144.0000: 
STEP.FT                 0.2500: 
NULL.                -999.2500: 
COMP.          Petrogulf Corporation: COMPANY
WELL.            Montoya 1-44R: WELL
FLD.           Purgatorie River: FIELD
LOC.           658' FSL & 1052' FWL: LOCATION
CNTY.               Las Animas: COUNTY
SRVC.                         : SERVICE COMPANY
DATE.          Tue Nov 30 08:31:55 2004: LOG DATE
UWI.           05 071 08239 00: UNIQUE WELL ID
STAT.                 Colorado: STATE
~Curve Information Block
DEPT.FT            0 000 00 00: Depth
TT3.usec                      : CBL 3' Travel Time
AMP3.mV                       : CBL 3' Amplitude
GR.GAPI                       : Gamma Ray
CCL.                          : Casing Collar Locator
~Parameter Information Block
~A  Depth       TT3         AMP3         GR         CCL     
# ...
  1139.7500    743.9970      9.2298     75.4210      0.0000
  1140.0000    744.2349      9.3370     77.4640      0.0000
  1140.2500    744.5466      9.4081     78.9941      0.0000
  1140.5000    744.9412      9.4516     79.6449      0.0000
  1140.7500    745.4334      9.4864     79.3919      0.0000
  1141.0000    746.0009      9.5231     78.4698      0.0000
  1141.2500    746.5723      9.5541     77.2091      0.0000
  1141.5000    747.0980      9.5608     75.8423      0.0000
  1141.7500    747.6661      9.5254     74.3914      0.0000
  1142.0000    748.5835      9.4357     72.7267      0.0000
  1142.2500    750.2823      9.2846     70.7559      0.0000
  1142.5000    752.9720      9.0754     68.6119      0.0000
  1142.7500    756.3707      8.8302     66.6817      0.0000
  1143.0000    760.0950      8.5860     65.4382      0.0000
  1143.2500    764.3526      8.3774     65.1551      0.0000
  1143.5000    769.6384      8.2202     65.6972      0.0000
  1143.7500    775.4262      8.1112     66.5642      0.0000
  1144.0000    779.8405      8.0416     67.1819      0.0000
  1144.2500    781.2164      8.0079     67.2193      0.0000
  1144.5000    779.6039      8.0140     66.7280      0.0000
  1144.7500    776.2413      8.0611     66.0359      0.0000
  1145.0000    771.8824      8.1380     65.4911      0.0000
  1145.2500    766.3952      8.2220     65.2196      0.0000
  1145.5000    759.9764      8.2890     65.0415      0.0000
  1145.7500    753.8903      8.3209     64.6054      0.0000
  1146.0000    749.6580      8.3012     63.6737      0.0000
  1146.2500    748.0589      8.2105     62.3430      0.0000
  1146.5000    749.1475      8.0234     61.0429      0.0000
  1146.7500    752.6165      7.7031     60.3313      0.0000
  1147.0000    757.5993      7.2021     60.6811      0.0000
  1147.2500    762.3965      6.5018     62.3674      0.0000
  1147.5000    765.0735      5.6687     65.4390      0.0000
  1147.7500    764.6348      4.8501     69.7236      0.0000
  1148.0000    761.5776      4.1884     74.8812      0.0000
  1148.2500    757.4337      3.7415     80.5053      0.0000
  1148.5000    753.8660      3.4815     86.2184      0.0000
  1148.7500    751.7219      3.3461     91.6674      0.0000
  1149.0000    750.1341      3.2778     96.4437      0.0000
  1149.2500    746.3796      3.2340    100.0747      0.0000
  1149.5000    737.5035      3.1841    102.1860      0.0000
  1149.7500    723.1785      3.1124    102.7337      0.0000
  1150.0000    707.2596      3.0212    102.0889      0.0000
  1150.2500    696.0145      2.9276    100.8933      0.0000
  1150.5000    694.0657      2.8492     99.7958      0.0000
  1150.7500    701.2353      2.7931     99.2392      0.0000
  1151.0000    712.5029      2.7559     99.3712      0.0000
  1151.2500    720.9022      2.7319    100.0417      0.0000
  1151.5000    721.4035      2.7178    100.8822      0.0000
  1151.7500    713.4338      2.7133    101.4851      0.0000
  1152.0000    700.6841      2.7221    101.6437      0.0000
  1152.2500    688.5989      2.7532    101.4715      0.0000
  1152.5000    681.4919      2.8148    101.2618      0.0000
  1152.7500    681.2610      2.9002    101.1582      0.0000
  1153.0000    687.7193      2.9830    100.8811      0.0000
  1153.2500    699.2020      3.0438     99.7459      0.0000
  1153.5000    713.0943      3.1068     97.0233      0.0000
  1153.7500    726.9033      3.2361     92.4340      0.0000
  1154.0000    739.5212      3.4765     86.4387      0.0000
  1154.2500    751.2790      3.8042     80.0815      0.0000
  1154.5000    762.5460      4.1424     74.4857      0.0000
  1154.7500    772.3606      4.4231     70.3613     -3.0000
  1155.0000    778.6794      4.6374     67.8171     -3.0000
  1155.2500    780.1797      4.8344     66.5210      0.0000
  1155.5000    777.7200      5.0611     65.9980      0.0000
  1155.7500    774.0443      5.2903     65.8890      0.0000
  1156.0000    772.5582      5.4286     66.0699      0.0000
  1156.2500    776.7180      5.4175     66.6249      0.0000
  1156.5000    789.4113      5.3046     67.7059      0.0000
  1156.7500    810.7557      5.1989     69.3776      0.0000
  1157.0000    835.7188      5.1757     71.5470      0.0000
  1157.2500    855.5231      5.2274     74.0227      0.0000
  1157.5000    863.2169      5.2840     76.6534      0.0000
  1157.7500    857.7309      5.2838     79.4543      0.0000
  1158.0000    842.4264      5.2404     82.6287      0.0000
  1158.2500    821.7246      5.2424     86.4703      0.0000
  1158.5000    800.2079      5.3833     91.1945      0.0000
  1158.7500    782.6214      5.6912     96.7736      0.0000
  1159.0000    772.4338      6.1271    102.8335      0.0000
  1159.2500    770.3120      6.6358    108.7007      0.0000
  1159.5000    773.9487      7.1864    113.6157      0.0000
  1159.7500    778.7801      7.7720    117.0404      0.0000
  1160.0000    779.7227      8.4067    118.8542      0.0000
  1160.2500    774.1803      9.1488    119.3175      0.0000
  1160.5000    763.8221     10.1004    118.9261      0.0000
  1160.7500    752.8046     11.3337    118.3166      0.0000
  1161.0000    744.6531     12.7835    118.1963      0.0000
  1161.2500    741.3793     14.2250    119.1459      0.0000
  1161.5000    744.1685     15.3847    121.3234      0.0000
  1161.7500    752.6927     16.0899    124.3839      0.0000
  1162.0000    763.6253     16.3274    127.7757      0.0000
  1162.2500    771.6951     16.1938    131.1736      0.0000
  1162.5000    773.3842     15.8185    134.5853      0.0000
  1162.7500    769.3013     15.3157    138.0310      0.0000
  1163.0000    762.8558     14.7706    141.2028      0.0000
  1163.2500    757.2237     14.2441    143.5320      0.0000
  1163.5000    753.6848     13.7700    144.6438      0.0000
  1163.7500    751.9603     13.3445    144.7339      0.0000
  1164.0000    751.2437     12.9305    144.4460      0.0000
  1164.2500    750.8777     12.4928    144.3190      0.0000
  1164.5000    750.5801     12.0410    144.3075      0.0000
  1164.7500    750.4758     11.6308    143.8310      0.0000
  1165.0000    751.0992     11.3223    142.2906      0.0000
  1165.2500    753.2342     11.1372    139.5788      0.0000
  1165.5000    757.3164     11.0533    136.1443      0.0000
  1165.7500    762.6154     11.0318    132.6326      0.0000
  1166.0000    767.3213     11.0417    129.5334      0.0000
  1166.2500    770.1067     11.0605    127.1275      0.0000
  1166.5000    771.5076     11.0599    125.6223      0.0000
  1166.7500    772.9754     11.0079    125.1564      0.0000
  1167.0000    774.5560     10.8938    125.6052      0.0000
  1167.2500    774.4219     10.7420    126.4518      0.0000
  1167.5000    771.0054     10.5915    126.9453      0.0000
  1167.7500    764.9206     10.4648    126.4770      0.0000
  1168.0000    758.4003     10.3618    124.8775      0.0000
  1168.2500    753.2810     10.2728    122.4242      0.0000
  1168.5000    749.9106     10.1899    119.6228      0.0000
  1168.7500    747.6422     10.1089    116.9170      0.0000
  1169.0000    745.8054     10.0247    114.4821      0.0000
  1169.2500    744.1440      9.9270    112.1646      0.0000
  1169.5000    742.7025      9.8029    109.5947      0.0000
  1169.7500    741.5823      9.6457    106.3903      0.0000
  1170.0000    740.8107      9.4603    102.3718      0.0000
  1170.2500    740.3279      9.2603     97.6557      0.0000
  1170.5000    740.0425      9.0625     92.5770      0.0000
  1170.7500    739.8901      8.8836     87.5170      0.0000
  1171.0000    739.8624      8.7379     82.7910      0.0000
  1171.2500    739.9893      8.6369     78.6786      0.0000
  1171.5000    740.3100      8.5880     75.4750      0.0000
  1171.7500    740.8610      8.5853     73.4601      0.0000
  1172.0000    741.7016      8.5999     72.8269      0.0000
  1172.2500    743.0049      8.5896     73.6892      0.0000
  1172.5000    745.2101      8.5305     76.1575      0.0000
  1172.7500    749.0484      8.4351     80.3496      0.0000
  1173.0000    755.1606      8.3315     86.2593      0.0000
