~Version Information
 VERS.                                  2.0 : CWLS LAS VERSION
 WRAP.                                   NO : WRAPING MODE
 SWARE .                 MController 2.5.0N : SOFTWARE VERSION
~Well Information
 WELL.                   Uintah 21-27 Tr CH : WELL
 COMP.    Pioneer Natural Resources USA Inc : COMPANY
 FLD.                      Purgatoire River : FIELD
 LOC.                NE/NW Sec 27 T33S R67W : LOCATION
 DATE.                         5/14-16/2005 : DATE(S) LOGGED
 SRVC.       Blanco Geological Services LLC : SERVICE COMPANY
 STAT.                                   CO : STATE
 CNTY.                           Las Animas : COUNTY
 CTRY.                                  USA : COUNTRY
 API.                       05-071-08311-00 : API NUMBER
 STRT.FT                             394.00 : START DEPTH
 STOP.FT                            1538.00 : STOP DEPTH
 STEP.FT                               1.00 : DEPTH INCREMENT
 NULL.                                -9999 : NULL VALUE
~Curve information
 DEPTH.FT                                   :
 ROP.MIN/FT                                 :
 GAS.UNITS                                  :
~ASCII Log data
# ...
       594.0         0.53        614.7 
       595.0         0.50        615.8 
       596.0         0.57        616.4 
       597.0         0.53        617.0 
       598.0         0.52        617.8 
       599.0         0.63        619.2 
       600.0         0.63        618.4 
       601.0         0.50        618.7 
       602.0         0.53        619.2 
       603.0         4.07        780.1 
       604.0         0.70        768.3 
       605.0         0.43        709.3 
       606.0         0.47        673.1 
       607.0         0.53        649.0 
       608.0         0.60        644.5 
       609.0         0.55        650.7 
       610.0         0.57        658.2 
       611.0         0.47        666.1 
       612.0         0.60        676.2 
       613.0         0.63        686.3 
       614.0         0.85        696.4 
       615.0         0.80        697.8 
       616.0         0.90        701.2 
       617.0         0.92        700.6 
       618.0       162.58       8357.8 
       619.0         1.00        665.0 
       620.0         0.40        669.2 
       621.0         0.37        668.3 
       622.0         0.73        671.4 
       623.0         0.82        673.4 
       624.0         0.77        670.3 
       625.0         1.00        669.2 
       626.0         0.78        667.5 
       627.0         0.67        669.5 
       628.0         0.63        670.0 
       629.0         0.80        670.0 
       630.0         0.63        670.6 
       631.0         0.72        671.4 
       632.0         4.72       1116.7 
       633.0         0.57        744.2 
       634.0         0.70        706.8 
       635.0         0.65        685.2 
       636.0         0.57        679.0 
       637.0         0.63        677.3 
       638.0         0.77        677.9 
       639.0         0.70        675.9 
       640.0         0.92        678.7 
       641.0         0.67        684.1 
       642.0         0.67        692.2 
       643.0         0.87        700.4 
       644.0         1.02        710.7 
       645.0         0.93        729.8 
       646.0         0.57        729.0 
       647.0         0.70        731.5 
       648.0        94.03       9227.6 
       649.0         0.77        884.0 
       650.0         1.05        845.2 
       651.0         1.10        831.5 
       652.0         0.97        852.5 
       653.0         1.05        866.0 
       654.0         1.03        871.6 
       655.0         0.90        870.2 
       656.0         1.08        870.5 
       657.0         1.13        866.0 
       658.0         0.98        869.4 
       659.0         0.97        867.1 
       660.0         0.90        862.4 
       661.0         1.42        861.8 
       662.0         1.77       1384.3 
       663.0         1.03       1382.3 
       664.0         1.02       1013.1 
       665.0         1.23        910.6 
       666.0         0.97        871.6 
       667.0         1.02        875.8 
       668.0         1.00        880.0 
       669.0         1.00        873.6 
       670.0         1.25        869.1 
       671.0         1.00        859.5 
       672.0         1.20        861.5 
       673.0        35.80       9284.4 
       674.0        53.07       9334.1 
       675.0         0.98       1075.7 
       676.0         0.67       1034.2 
       677.0         0.77        968.2 
       678.0         0.85        919.9 
       679.0         0.73        925.0 
       680.0         0.83        931.7 
       681.0         0.93        928.1 
       682.0         0.95        902.8 
       683.0         0.87        907.8 
       684.0         0.87        914.0 
       685.0         0.87        917.1 
       686.0         0.92        916.8 
       687.0         0.73        925.2 
       688.0       166.27       9625.8 
       689.0         0.90       1277.6 
       690.0         0.27       1236.3 
       691.0         0.32       1234.1 
       692.0         0.57       1242.2 
       693.0         0.67       1256.3 
       694.0         0.60       1243.3 
       695.0         0.67       1229.6 
       696.0         0.72       1228.7 
       697.0         0.90       1221.4 
       698.0         0.77       1214.1 
       699.0         0.87       1217.0 
       700.0         1.02       1215.0 
       701.0         0.97       1224.0 
       702.0         0.83       1228.2 
       703.0         0.88       1229.0 
       704.0         0.90       1148.7 
       705.0         0.93       1161.1 
       706.0         0.75       1178.2 
       707.0         0.83       1186.4 
       708.0         1.23       1164.7 
       709.0         0.70       1180.7 
       710.0         0.68       1208.8 
       711.0         0.97       1214.1 
       712.0         0.80       1206.6 
       713.0       120.28       9652.7 
       714.0         0.70       1314.1 
       715.0         0.97       1303.7 
       716.0         0.82       1282.7 
       717.0         1.13       1284.6 
       718.0         0.97       1280.1 
       719.0         0.82       1291.9 
       720.0         0.97       1290.8 
       721.0         0.83       1286.3 
       722.0         0.95       1284.3 
       723.0         0.90       1283.8 
       724.0         0.80       1283.2 
       725.0         0.77       1286.9 
       726.0       116.95      10125.0 
       727.0         1.22        440.0 
       728.0         0.30        202.1 
       729.0         0.30        209.2 
       730.0         0.30        208.6 
       731.0         0.27        201.4 
       732.0         0.27        207.4 
       733.0         0.33        222.4 
       734.0         0.80        301.4 
       735.0         0.88        279.8 
       736.0         0.87        218.7 
       737.0         0.73        226.2 
       738.0         0.70        223.5 
       739.0       496.47       9138.9 
       740.0         0.35        472.9 
       741.0         0.33        475.2 
       742.0         0.33        480.0 
       743.0         0.33        481.1 
       744.0         0.40        482.8 
       745.0         0.23        482.5 
       746.0         2.05        965.4 
       747.0         0.40       1306.5 
       748.0         0.27       1201.2 
       749.0         0.30       1005.8 
       750.0         0.30        788.0 
       751.0         0.40        659.9 
       752.0         0.33        630.2 
       753.0         0.68        588.6 
       754.0         0.30        481.1 
       755.0         0.37        495.1 
       756.0         0.23        496.5 
       757.0         0.20        492.0 
       758.0         0.20        486.4 
       759.0         0.60        478.3 
       760.0         0.27        440.0 
       761.0         0.23        139.6 
       762.0         0.23        148.7 
       763.0         0.17        149.5 
       764.0         0.23        148.8 
       765.0         0.20        152.1 
       766.0         0.25        154.4 
       767.0         0.53        154.3 
       768.0         0.27        117.8 
       769.0         0.20        132.0 
       770.0         0.20        145.2 
       771.0         0.23        149.2 
       772.0         0.20        149.0 
       773.0         0.20        147.0 
       774.0         0.20        144.8 
       775.0         0.23        143.6 
       776.0         2.85        181.0 
       777.0         0.23        259.5 
       778.0         0.27        443.6 
       779.0         0.47       1295.3 
       780.0         0.22       1216.4 
       781.0         0.13       1082.5 
       782.0         0.13        993.5 
       783.0         0.17        905.9 
       784.0         0.13        799.2 
       785.0         0.13        738.3 
       786.0         0.13        694.7 
       787.0         0.17        668.1 
       788.0         0.17        644.5 
       789.0         0.17        622.0 
       790.0         0.20        599.6 
       791.0         0.23        573.2 
       792.0         0.20        569.8 
       793.0         0.17        561.4 
