~Version Information
VERS.                      2.0: CWLS Log ASCII Standard - VERSION 2.0
WRAP.                       NO: One line per depth step
~Well Information Block
STRT.FT               390.0000: 
STOP.FT               902.2000: 
STEP.FT                 0.1000: 
NULL.                -999.2500: 
COMP.          Pioneer Natural Resources: COMPANY
WELL.              Venom 32-22: WELL
FLD.           Purgatoire River: FIELD
LOC.           2307' FNL & 2024' FEL----: LOCATION
PROV.                 Colorado: PROVINCE
CNTY.               Las Animas: COUNTRY
SRVC.                Patterson: SERVICE COMPANY
DATE.          Wed May 11 08:31:39 2005: LOG DATE
UWI.           05 071 08361 00: UNIQUE WELL ID
~Curve Information Block
DEPT.FT            0 000 00 00: Depth
DCAL.in                       : CDL Caliper
RHOB.g/cc                     : CDL Bulk Density
RHOC.g/cc                     : CDL Density Correction
DPOR.pu                       : CDL Density Porosity
NPOR.pu                       : Neutron Porosity
GR.GAPI                       : Gamma Ray
~Parameter Information Block
~A  Depth       DCAL        RHOB        RHOC        DPOR        NPOR         GR     
# ...
   774.0000      7.9171      2.5471      0.0791      6.2367     23.3752     79.8671
   774.1000      7.9171      2.5350      0.0743      6.9703     23.0344     85.7707
   774.2000      7.9171      2.5230      0.0398      7.6971     22.6148     93.0255
   774.3000      7.9292      2.5127      0.0790      8.3190     22.4908     96.9591
   774.4000      7.9292      2.5089      0.0286      8.5537     22.2218     94.9728
   774.5000      7.9384      2.5177      0.0453      8.0165     21.6876     87.8302
   774.6000      7.9384      2.5313      0.0334      7.1968     21.6924     82.2478
   774.7000      7.9384      2.5369      0.0530      6.8523     22.3487     81.8108
   774.8000      7.9472      2.5331      0.0521      7.0826     22.7982     82.8761
   774.9000      7.9472      2.5273      0.0192      7.4378     22.7872     83.1770
   775.0000      7.9570      2.5279      0.0684      7.4000     22.7751     82.7488
   775.1000      7.9570      2.5288      0.0739      7.3437     22.9216     79.5231
   775.2000      7.9570      2.5180      0.0675      8.0006     22.9798     75.6991
   775.3000      7.9624      2.5001      0.0086      9.0820     22.4675     75.9809
   775.4000      7.9624      2.4831      0.0304     10.1131     21.5872     78.5804
   775.5000      7.9626      2.4633      0.0345     11.3135     21.1103     77.9682
   775.6000      7.9626      2.4479      0.0261     12.2493     21.1112     74.3596
   775.7000      7.9626      2.4488      0.0225     12.1948     21.2790     73.7647
   775.8000      7.9599      2.4631      0.0162     11.3279     21.4464     76.0691
   775.9000      7.9599      2.4796      0.0587     10.3296     21.6329     75.6475
   776.0000      7.9587      2.4882      0.0465      9.8043     21.8375     71.8926
   776.1000      7.9587      2.4921      0.0636      9.5720     21.9657     68.3260
   776.2000      7.9587      2.5001      0.0573      9.0854     22.1577     67.9980
   776.3000      7.9600      2.5056      0.0768      8.7511     22.5884     70.7148
   776.4000      7.9600      2.4953      0.0396      9.3771     23.2456     73.8941
   776.5000      7.9644      2.4681      0.0627     11.0234     23.6798     76.2747
   776.6000      7.9644      2.4361      0.0276     12.9635     23.4706     79.8754
   776.7000      7.9644      2.4199      0.0261     13.9424     23.0333     85.7034
   776.8000      7.9668      2.4246      0.0705     13.6614     22.7943     90.8191
   776.9000      7.9668      2.4298      0.0819     13.3462     22.5836     90.4410
   777.0000      7.9652      2.4226      0.0497     13.7843     22.1686     85.8855
   777.1000      7.9652      2.4128      0.0510     14.3733     21.9179     84.8635
   777.2000      7.9652      2.4070      0.0627     14.7292     22.2186     89.4805
   777.3000      7.9646      2.3996      0.0484     15.1763     22.7879     92.7506
   777.4000      7.9646      2.3909      0.0309     15.7059     23.3527     88.9710
   777.5000      7.9661      2.3851      0.0215     16.0527     23.7602     82.2025
   777.6000      7.9661      2.3830      0.0383     16.1804     24.0217     80.3921
   777.7000      7.9661      2.3815      0.0703     16.2747     24.2728     85.0113
   777.8000      7.9659      2.3779      0.0363     16.4925     24.5890     94.0387
   777.9000      7.9659      2.3748      0.0285     16.6770     24.9863    102.8961
   778.0000      7.9647      2.3772      0.0518     16.5362     24.9552    104.3923
   778.1000      7.9647      2.3861      0.0453     15.9918     24.3928     98.6689
   778.2000      7.9647      2.3982      0.0439     15.2588     23.8930     90.8145
   778.3000      7.9642      2.4047      0.0622     14.8647     23.6087     86.7980
   778.4000      7.9642      2.4056      0.0248     14.8129     23.5828     91.2392
   778.5000      7.9634      2.4071      0.0771     14.7236     23.9994     99.5462
   778.6000      7.9634      2.4080      0.0359     14.6697     24.4976    104.3241
   778.7000      7.9634      2.4126      0.0587     14.3856     24.5069    104.8010
   778.8000      7.9608      2.4213      0.0494     13.8581     24.0814    105.3930
   778.9000      7.9608      2.4259      0.0553     13.5798     23.7343    103.2176
   779.0000      7.9525      2.4278      0.0298     13.4692     23.5271     96.1211
   779.1000      7.9525      2.4318      0.0993     13.2264     23.1892     94.1487
   779.2000      7.9525      2.4371      0.0555     12.9020     22.7443    101.0989
   779.3000      7.9429      2.4443      0.0871     12.4691     22.4983    110.1511
   779.4000      7.9429      2.4547      0.0371     11.8357     22.5954    120.4517
   779.5000      7.9393      2.4646      0.1105     11.2361     22.9232    129.4217
   779.6000      7.9393      2.4658      0.0766     11.1607     23.1896    127.9431
   779.7000      7.9393      2.4595      0.0902     11.5446     23.2559    118.2280
   779.8000      7.9414      2.4502      0.0570     12.1083     23.2086    110.3984
   779.9000      7.9414      2.4411      0.0405     12.6582     23.0956    107.5188
   780.0000      7.9480      2.4337      0.0477     13.1110     23.0564    105.9227
   780.1000      7.9480      2.4231      0.0609     13.7494     23.1337    103.3748
   780.2000      7.9480      2.4170     -0.0031     14.1214     23.0208    102.2592
   780.3000      7.9577      2.4285      0.0536     13.4247     22.8773    101.6307
   780.4000      7.9577      2.4444      0.0888     12.4623     22.8026     95.6696
   780.5000      7.9629      2.4471      0.0664     12.2991     22.3895     87.8367
   780.6000      7.9629      2.4388      0.0132     12.7992     21.7166     86.7312
   780.7000      7.9629      2.4281      0.0381     13.4466     21.2641     89.7073
   780.8000      7.9617      2.4199      0.0312     13.9469     21.0066     88.8054
   780.9000      7.9617      2.4140      0.0445     14.3026     20.5237     85.7275
   781.0000      7.9601      2.4156      0.0025     14.2082     19.9428     84.5109
   781.1000      7.9601      2.4312      0.0281     13.2604     19.6753     83.1444
   781.2000      7.9601      2.4516      0.0794     12.0225     19.9392     83.9624
   781.3000      7.9601      2.4643      0.0430     11.2573     20.7153     91.3271
   781.4000      7.9601      2.4652      0.1134     11.2018     21.4950     99.3705
   781.5000      7.9600      2.4568      0.0124     11.7117     21.8255    100.6906
   781.6000      7.9600      2.4517      0.0441     12.0207     21.8083     97.0677
   781.7000      7.9600      2.4548      0.0505     11.8333     21.8280     93.2455
   781.8000      7.9619      2.4581      0.0383     11.6303     22.0612     90.7346
   781.9000      7.9619      2.4575      0.0390     11.6695     22.7067     89.1872
   782.0000      7.9648      2.4567      0.0325     11.7133     23.5898     87.6393
   782.1000      7.9648      2.4578      0.0646     11.6488     23.9476     86.3623
   782.2000      7.9648      2.4537      0.0666     11.8994     23.5725     87.0967
   782.3000      7.9655      2.4394      0.0530     12.7663     23.1478     90.1051
   782.4000      7.9655      2.4165      0.0420     14.1494     23.0905     93.1417
   782.5000      7.9649      2.3915      0.0092     15.6672     23.2385     90.5513
   782.6000      7.9649      2.3777      0.0048     16.5038     23.6284     82.1606
   782.7000      7.9649      2.3843      0.0481     16.1050     24.1795     80.1893
   782.8000      7.9662      2.4019      0.0638     15.0366     24.4908     89.0994
   782.9000      7.9662      2.4133      0.0634     14.3469     24.4825     94.7154
   783.0000      7.9697      2.4139      0.0402     14.3095     24.4333     89.5943
   783.1000      7.9697      2.4119      0.0176     14.4282     24.7548     82.9625
   783.2000      7.9697      2.4095      0.0392     14.5733     25.6129     82.2190
   783.3000      7.9710      2.4016      0.0256     15.0560     26.5267     87.9421
   783.4000      7.9710      2.3893      0.0397     15.7970     26.8615     97.1226
   783.5000      7.9673      2.3788      0.0265     16.4343     26.5721    101.8582
