~Version Information
VERS.                      2.0: CWLS Log ASCII Standard - VERSION 2.0
WRAP.                       NO: One line per depth step
~Well Information Block
STRT.FT               -11.0000: 
STOP.FT              1896.2500: 
STEP.FT                 0.2500: 
NULL.                -999.2500: 
COMP.          Pioneer Natural Resources: COMPANY
WELL.            Summers 21-19: WELL
FLD.           Purgatoire River: FIELD
LOC.           900' FNL & 1950' FWL--: LOCATION
PROV.                 Colorado: PROVINCE
CNTY.               Las Animas: COUNTRY
SRVC.                Patterson: SERVICE COMPANY
DATE.          Thu Oct 20 15:06:00 2005: LOG DATE
UWI.           05 071 08315 00: UNIQUE WELL ID
~Curve Information Block
DEPT.FT            0 000 00 00: Depth
GR.GAPI                       : Gamma Ray
CCL.                          : Casing Collar Locator
TT3.usec                      : CBL 3' Travel Time
AMP3.mV                       : CBL 3' Amplitude
~Parameter Information Block
~A  Depth        GR         CCL         TT3         AMP3    
# ...
   357.5000     95.3116      0.0000    745.7411      6.4817
   357.7500     97.5206      0.0000    748.9268      6.5439
   358.0000     97.4230      0.0000    750.2946      6.5876
   358.2500     95.5525      0.0000    748.2170      6.6035
   358.5000     92.9604      0.0000    742.7015      6.5905
   358.7500     90.7918      0.0000    735.8806      6.5569
   359.0000     89.6867      0.0000    730.1846      6.5166
   359.2500     89.4913      0.0000    726.5826      6.4816
   359.5000     89.6701      0.0000    724.6741      6.4522
   359.7500     89.9649      0.0000    723.8223      6.4177
   360.0000     90.5943      0.0000    723.9535      6.3696
   360.2500     91.8519      0.0000    725.7799      6.3141
   360.5000     93.5609      0.0000    730.5307      6.2661
   360.7500     95.0006      0.0000    738.9778      6.2334
   361.0000     95.5258      0.0000    750.0858      6.2104
   361.2500     95.1404      0.0000    760.8584      6.1828
   361.5000     94.2317      0.0000    768.3045      6.1379
   361.7500     92.9737      0.0000    771.6745      6.0738
   362.0000     91.5700      0.0000    772.4957      6.0025
   362.2500     91.0111      0.0000    772.8237      5.9407
   362.5000     92.7315      0.0000    774.0465      5.8961
   362.7500     97.0619      0.0000    776.9093      5.8684
   363.0000    102.4931      0.0000    781.6214      5.8577
   363.2500    106.6940      0.0000    787.4816      5.8656
   363.5000    107.9058      0.0000    792.8375      5.8870
   363.7500    105.7130      0.0000    796.1163      5.9099
   364.0000    101.2628      0.0000    797.1493      5.9199
   364.2500     96.5667      0.0000    797.4154      5.9039
   364.5000     92.9285      0.0000    798.8755      5.8571
   364.7500     90.2228      0.0000    802.5266      5.7927
   365.0000     87.9232      0.0000    807.8375      5.7373
   365.2500     86.2075      0.0000    812.9528      5.7085
   365.5000     85.6243      0.0000    815.2219      5.7034
   365.7500     86.1576      0.0000    812.3606      5.7092
   366.0000     87.0879      0.0000    804.0792      5.7202
   366.2500     87.6401      0.0000    792.6921      5.7406
   366.5000     87.5737      0.0000    781.7434      5.7794
   366.7500     87.1084      0.0000    773.8148      5.8420
   367.0000     86.3758      0.0000    769.6409      5.9225
   367.2500     85.2217      0.0000    768.9713      6.0029
   367.5000     83.6503      0.0000    771.6963      6.0668
   367.7500     82.0321      0.0000    777.7230      6.1123
   368.0000     80.5726      0.0000    785.7963      6.1485
   368.2500     78.9785      0.0000    793.0942      6.1818
   368.5000     77.0599      0.0000    796.8109      6.2110
   368.7500     75.3482      0.0000    796.4215      6.2337
   369.0000     74.7086      0.0000    794.3098      6.2477
   369.2500     75.5261      0.0000    794.1356      6.2486
   369.5000     77.5199      0.0000    798.1220      6.2347
   369.7500     80.1204      0.0000    805.0630      6.2132
   370.0000     82.6978      0.0000    810.9340      6.1930
   370.2500     84.5445      0.0000    811.9182      6.1722
   370.5000     85.0136      0.0000    806.9405      6.1425
   370.7500     83.8650      0.0000    797.4913      6.1024
   371.0000     81.4994      0.0000    785.8404      6.0611
   371.2500     78.8194      0.0000    774.0005      6.0334
   371.5000     76.7460      0.0000    763.7433      6.0329
   371.7500     75.7067      0.0000    756.4523      6.0623
   372.0000     75.6007      0.0000    752.6999      6.1075
   372.2500     76.3929      0.0000    752.3603      6.1467
   372.5000     78.6100      0.0000    755.0428      6.1690
   372.7500     82.8726      0.0000    759.8978      6.1804
   373.0000     88.8939      0.0000    765.0627      6.1949
   373.2500     95.1946      0.0000    768.2971      6.2227
   373.5000     99.8068      0.0000    769.0559      6.2636
   373.7500    101.1874      0.0000    769.5242      6.3078
   374.0000     98.8698      0.0000    772.5240      6.3472
   374.2500     93.6939      0.0000    778.0543      6.3839
   374.5000     87.2472      0.0000    782.5239      6.4280
   374.7500     80.9043      0.0000    781.9858      6.4879
   375.0000     75.5773      0.0000    775.9456      6.5615
   375.2500     72.0107      0.0000    767.5156      6.6293
   375.5000     70.4746      0.0000    760.2792      6.6611
   375.7500     70.3115      0.0000    755.8794      6.6398
   376.0000     70.6406      0.0000    754.4800      6.5760
   376.2500     71.4561      0.0000    756.4426      6.4942
   376.5000     73.3989      0.0000    762.4669      6.4047
   376.7500     76.7741      0.0000    771.3818      6.2880
   377.0000     81.5197      0.0000    777.9222      6.1075
   377.2500     87.6482      0.0000    774.4335      5.8442
   377.5000     94.6849      0.0000    756.9904      5.5139
   377.7500    101.0270      0.0000    730.3062      5.1385
   378.0000    105.0132      0.0000    705.4315      4.7172
   378.2500    106.5121      0.0000    691.7659      4.2583
   378.5000    106.5043      0.0000    691.1082      3.8250
   378.7500    105.4407      0.0000    698.4158      3.5052
   379.0000    103.0357      0.0000    706.9487      3.3386
   379.2500     99.3747      2.0000    712.9392      3.2994
   379.5000     95.3446      0.0000    716.8400      3.3410
   379.7500     92.0923      0.0000    721.3258      3.4449
   380.0000     90.4092      0.0000    728.9427      3.6348
   380.2500     90.3300      0.0000    741.2670      3.9494
   380.5000     91.1258      0.0000    758.3997      4.3889
   380.7500     91.8952      0.0000    778.1143      4.8887
   381.0000     92.1855      0.0000    796.2615      5.3585
   381.2500     91.9968      0.0000    808.9942      5.7399
   381.5000     91.5526      0.0000    814.8439      6.0163
   381.7500     91.3262      0.0000    814.7734      6.1938
   382.0000     91.8825      0.0000    810.5251      6.2926
   382.2500     93.2856      0.0000    803.2684      6.3404
   382.5000     94.8376      0.0000    794.2386      6.3617
   382.7500     95.6579      0.0000    786.2740      6.3712
   383.0000     95.4357      0.0000    783.1872      6.3755
   383.2500     94.6404      0.0000    786.4433      6.3793
   383.5000     94.2769      0.0000    793.0034      6.3900
   383.7500     95.3288      0.0000    797.7212      6.4171
   384.0000     97.7885      0.0000    798.2266      6.4610
   384.2500    100.0644      0.0000    796.7939      6.5039
   384.5000     99.9692      0.0000    796.9782      6.5122
   384.7500     96.6911      0.0000    799.2889      6.4564
   385.0000     91.6000      0.0000    801.3781      6.3293
   385.2500     87.0493      0.0000    802.0375      6.1446
   385.5000     84.6856      0.0000    803.0695      5.9239
   385.7500     85.0051      0.0000    806.4752      5.6898
   386.0000     87.9225      0.0000    811.2041      5.4634
   386.2500     92.9033      0.0000    813.6542      5.2584
   386.5000     98.4883      0.0000    810.7534      5.0742
   386.7500    102.6299      0.0000    802.2941      4.9016
   387.0000    104.1844      0.0000    791.1594      4.7362
   387.2500    103.6326      0.0000    781.4641      4.5857
   387.5000    101.8644      0.0000    775.9401      4.4645
   387.7500     98.8930      0.0000    775.0956      4.3862
   388.0000     94.4093      0.0000    778.6439      4.3596
   388.2500     89.0356      0.0000    786.2061      4.3881
   388.5000     84.2018      0.0000    795.6716      4.4675
   388.7500     80.9183      0.0000    802.4297      4.5846
   389.0000     79.1303      0.0000    802.3898      4.7185
   389.2500     78.2521      0.0000    796.1105      4.8486
   389.5000     78.0586      0.0000    788.9856      4.9635
   389.7500     78.8502      0.0000    786.8607      5.0614
   390.0000     80.7401      0.0000    791.3505      5.1438
   390.2500     83.1277      0.0000    798.6661      5.2102
   390.5000     85.1049      0.0000    802.2228      5.2569
   390.7500     86.1189      0.0000    796.8624      5.2760
