~Version Information
VERS.                      2.0: CWLS Log ASCII Standard - VERSION 2.0
WRAP.                       NO: One line per depth step
~Well Information Block
STRT.FT               546.0000: 
STOP.FT              1771.5000: 
STEP.FT                 0.1000: 
NULL.                -999.2500: 
COMP.          Petrogulf Corporation: COMPANY
WELL.             McLeod 9-42R: WELL
FLD.           Purgatorie River: FIELD
LOC.           1748' FNL & 372' FEL: LOCATION
PROV.                 Colorado: PROVINCE
CNTY.               Las Animas: COUNTRY
SRVC.                Patterson: SERVICE COMPANY
DATE.          Tue Aug 16 11:11:38 2005: LOG DATE
UWI.                071 08092 : UNIQUE WELL ID
~Curve Information Block
DEPT.FT            0 000 00 00: Depth
DCAL.in                       : CDL Caliper
RHOB.g/cc                     : CDL Bulk Density
RHOC.g/cc                     : CDL Density Correction
DPOR.pu                       : CDL Density Porosity
GR.GAPI                       : Gamma Ray
NPOR.pu                       : Neutron Porosity
~Parameter Information Block
~A  Depth       DCAL        RHOB        RHOC        DPOR         GR         NPOR    
# ...
  1726.8000      7.7446      2.5991      0.0561      3.0821    159.4835     20.3940
  1726.9000      7.7446      2.5982      0.1024      3.1420    165.8301     19.5700
  1727.0000      7.8011      2.5984      0.0883      3.1263    174.8530     19.1819
  1727.1000      7.8011      2.5921      0.0516      3.5110    187.7083     19.2559
  1727.2000      7.8011      2.5875      0.0637      3.7854    200.4273     19.3835
  1727.3000      7.8531      2.5918      0.0755      3.5277    209.8409     19.3351
  1727.4000      7.8531      2.5979      0.0855      3.1558    213.4359     19.1483
  1727.5000      7.8398      2.5965      0.0602      3.2431    210.8518     18.8560
  1727.6000      7.8398      2.5903      0.0762      3.6166    204.2965     18.4591
  1727.7000      7.8398      2.5862      0.0777      3.8686    194.6474     17.9689
  1727.8000      7.8164      2.5885      0.0385      3.7300    181.6959     17.5969
  1727.9000      7.8164      2.5971      0.1022      3.2065    167.7238     17.4708
  1728.0000      7.7992      2.6075      0.0787      2.5750    156.9299     17.8302
  1728.1000      7.7992      2.6210      0.0653      1.7603    150.3925     20.5314
  1728.2000      7.7992      2.6353      0.0908      0.8926    141.6421     29.2840
  1728.3000      7.7730      2.6374      0.0768      0.7652    127.3002     42.5810
  1728.4000      7.7730      2.6209      0.0822      1.7610    112.8652     51.3506
  1728.5000      7.8100      2.5987      0.0488      3.1079    102.5683     54.1833
  1728.6000      7.8100      2.5878      0.0496      3.7686     95.9942     54.7089
  1728.7000      7.8100      2.5888      0.0589      3.7112     91.2990     54.7640
  1728.8000      7.8272      2.5902      0.0945      3.6216     87.6097     54.7671
  1728.9000      7.8272      2.5852      0.0651      3.9274     84.5341   -999.2500
  1729.0000      7.8246      2.5785      0.0325      4.3311     82.0138   -999.2500
  1729.1000      7.8246      2.5752      0.0624      4.5326     80.3433   -999.2500
  1729.2000      7.8246      2.5712      0.0697      4.7739     78.1811   -999.2500
  1729.3000      7.8582      2.5704      0.0388      4.8258     75.5652   -999.2500
  1729.4000      7.8582      2.5803      0.0674      4.2243     74.9532   -999.2500
  1729.5000      7.8528      2.5928      0.0904      3.4666     75.5196   -999.2500
  1729.6000      7.8528      2.5912      0.1090      3.5620     75.2728   -999.2500
  1729.7000      7.8528      2.5718      0.0971      4.7407     74.6986   -999.2500
  1729.8000      7.8098      2.5524      0.0139      5.9168     73.6096   -999.2500
  1729.9000      7.8098      2.5475      0.0726      6.2145     71.7002   -999.2500
  1730.0000      7.8320      2.5530      0.0273      5.8776     70.8162   -999.2500
  1730.1000      7.8320      2.5676      0.0571      4.9966     71.5004   -999.2500
  1730.2000      7.8320      2.5881      0.0848      3.7533     71.1956   -999.2500
  1730.3000      7.8533      2.5991      0.1054      3.0819     69.1391   -999.2500
  1730.4000      7.8533      2.5905      0.0994      3.6076     65.9711   -999.2500
  1730.5000      7.7961      2.5758      0.0752      4.4941     62.2899   -999.2500
  1730.6000      7.7961      2.5851      0.0061      3.9327     59.2034   -999.2500
  1730.7000      7.7961      2.6240      0.1219      1.5782     57.5076   -999.2500
  1730.8000      7.7913      2.6599      0.1866     -0.6006     57.3645   -999.2500
  1730.9000      7.7913      2.6703      0.1532     -1.2298     57.4842   -999.2500
  1731.0000      7.7620      2.6606      0.1812     -0.6412     56.5964   -999.2500
  1731.1000      7.7620      2.6411      0.1478      0.5399     55.2184   -999.2500
  1731.2000      7.7620      2.6241      0.0595      1.5689     53.8843   -999.2500
  1731.3000      7.7032      2.6164      0.1024      2.0370     52.3686   -999.2500
  1731.4000      7.7032      2.6128      0.0581      2.2522     51.5397   -999.2500
  1731.5000      7.7274      2.6199      0.0328      1.8242     51.9026   -999.2500
  1731.6000      7.7274      2.6425      0.0938      0.4566     51.6748   -999.2500
  1731.7000      7.7274      2.6617      0.1046     -0.7064     48.5122   -999.2500
  1731.8000      7.8592      2.6593      0.1090     -0.5613     43.3416   -999.2500
  1731.9000      7.8592      2.6360      0.0867      0.8472     40.5290   -999.2500
  1732.0000      7.7971      2.6057      0.1003      2.6848     42.6559   -999.2500
  1732.1000      7.7971      2.5828      0.0758      4.0733     46.2132   -999.2500
  1732.2000      7.7971      2.5707      0.0786      4.8037     47.4605   -999.2500
  1732.3000      7.7493      2.5588      0.0849      5.5262     48.9171   -999.2500
  1732.4000      7.7493      2.5457      0.0307      6.3234     52.1415   -999.2500
  1732.5000      7.7304      2.5469      0.0473      6.2499     53.5046   -999.2500
  1732.6000      7.7304      2.5644      0.0888      5.1876     51.9410   -999.2500
  1732.7000      7.7304      2.5847      0.0916      3.9590     50.0384   -999.2500
  1732.8000      7.6703      2.6020      0.1019      2.9081     49.3281   -999.2500
  1732.9000      7.6703      2.6165      0.1348      2.0328     49.7022   -999.2500
  1733.0000      7.6273      2.6231      0.1487      1.6277     50.3884   -999.2500
  1733.1000      7.6273      2.6211      0.1361      1.7511     51.0140   -999.2500
  1733.2000      7.6273      2.6111      0.1691      2.3582     51.9061   -999.2500
  1733.3000      7.6626      2.5872      0.1332      3.8090     52.7699   -999.2500
  1733.4000      7.6626      2.5554      0.0562      5.7359     53.8595   -999.2500
  1733.5000      7.7102      2.5336      0.1056      7.0525     55.8565   -999.2500
  1733.6000      7.7102      2.5292      0.0865      7.3240     58.0508   -999.2500
  1733.7000      7.7102      2.5361      0.0677      6.9043     58.6491   -999.2500
  1733.8000      7.8093      2.5494      0.0515      6.0969     53.2755   -999.2500
  1733.9000      7.8093      2.5707      0.0551      4.8047     38.3650   -999.2500
  1734.0000      7.8416      2.5926      0.1291      3.4774     19.1894   -999.2500
  1734.1000      7.8416      2.6006      0.1156      2.9949      5.9846   -999.2500
  1734.2000      7.8416      2.5959      0.1053      3.2800      1.0820   -999.2500
  1734.3000      7.8192      2.5898      0.1083      3.6459      0.1084   -999.2500
  1734.4000      7.8192      2.5853      0.1079      3.9226      0.0057   -999.2500
  1734.5000      7.8344      2.5762      0.0960      4.4755      0.0000   -999.2500
  1734.6000      7.8344      2.5580      0.0850      5.5754   -999.2500   -999.2500
  1734.7000      7.8344      2.5386      0.0749      6.7503   -999.2500   -999.2500
  1734.8000      7.8725      2.5345      0.0322      7.0012   -999.2500   -999.2500
  1734.9000      7.8725      2.5452      0.1016      6.3542   -999.2500   -999.2500
  1735.0000      7.9020      2.5470      0.1054      6.2440   -999.2500   -999.2500
  1735.1000      7.9020      2.5288      0.0671      7.3460   -999.2500   -999.2500
  1735.2000      7.9020      2.5063      0.0872      8.7107   -999.2500   -999.2500
  1735.3000      7.9008      2.4965      0.0587      9.3051   -999.2500   -999.2500
  1735.4000      7.9008      2.5027      0.0690      8.9269   -999.2500   -999.2500
  1735.5000      7.8544      2.5164      0.0803      8.0942   -999.2500   -999.2500
  1735.6000      7.8544      2.5266      0.0867      7.4795   -999.2500   -999.2500
  1735.7000      7.8544      2.5310      0.1102      7.2140   -999.2500   -999.2500
  1735.8000      7.8218      2.5369      0.0767      6.8539   -999.2500   -999.2500
  1735.9000      7.8218      2.5461      0.1199      6.2970   -999.2500   -999.2500
  1736.0000      7.8092      2.5464      0.0868      6.2796   -999.2500   -999.2500
  1736.1000      7.8092      2.5313      0.0964      7.1927   -999.2500   -999.2500
  1736.2000      7.8092      2.5088      0.0664      8.5597   -999.2500   -999.2500
  1736.3000      7.8343      2.4956      0.0147      9.3551   -999.2500   -999.2500
