~Version Information
 VERS.                                  2.0 : CWLS LAS VERSION
 WRAP.                                   NO : WRAPING MODE
 SWARE .                 MController 2.5.0J : SOFTWARE VERSION
~Well Information
 WELL.                        Desoto 13-7TR : WELL
 COMP.        Pioneer Natural Resources Inc : COMPANY
 FLD.                      Purgatoire River : FIELD
 LOC.                 NW/SW Sec 7 T32S R66W : LOCATION
 DATE.                           1/13-14/05 : DATE(S) LOGGED
 SRVC.       Blanco Geological Services LLC : SERVICE COMPANY
 STAT.                                   CO : STATE
 CNTY.                           Las Animas : COUNTY
 CTRY.                                  USA : COUNTRY
 API.                          05-071-08216 : API NUMBER
 STRT.FT                             945.00 : START DEPTH
 STOP.FT                            2785.00 : STOP DEPTH
 STEP.FT                               1.00 : DEPTH INCREMENT
 NULL.                                -9999 : NULL VALUE
~Curve information
 DEPTH.FT                                   :
 ROP.MIN/FT                                 :
 GAS.UNITS                                  :
~ASCII Log data
# ...
      2545.0         0.32        205.5 
      2546.0         0.33        206.5 
      2547.0         0.33        206.3 
      2548.0         0.30        208.9 
      2549.0         0.27        206.7 
      2550.0         0.27        203.0 
      2551.0         0.30        201.4 
      2552.0         0.35        201.3 
      2553.0         0.27        199.8 
      2554.0         0.37        194.7 
      2555.0         0.37        181.1 
      2556.0         0.47        184.0 
      2557.0         0.43        159.8 
      2558.0         0.47        158.8 
      2559.0         0.43        162.4 
      2560.0         0.28        162.7 
      2561.0         0.30        161.8 
      2562.0         0.33        158.3 
      2563.0         0.30        156.0 
      2564.0         0.33        159.8 
      2565.0         0.33        161.6 
      2566.0         0.27        164.7 
      2567.0         0.30        253.4 
      2568.0         0.27        253.4 
      2569.0         0.43        290.5 
      2570.0         0.40        330.5 
      2571.0         0.35        339.2 
      2572.0         0.33        354.1 
      2573.0         0.37        354.0 
      2574.0         0.27        336.5 
      2575.0         0.33        318.5 
      2576.0         0.27        303.3 
      2577.0         0.43        295.6 
      2578.0         0.40        272.0 
      2579.0         0.33        227.9 
      2580.0         0.33        212.8 
      2581.0         0.35        197.4 
      2582.0         0.33        196.4 
      2583.0         0.27        192.9 
      2584.0         0.27        192.5 
      2585.0         0.27        191.2 
      2586.0         0.30        185.4 
      2587.0         0.33        181.7 
      2588.0         0.33        177.3 
      2589.0         0.27        172.0 
      2590.0         0.27        167.3 
      2591.0         0.27        164.4 
      2592.0         0.28        159.2 
      2593.0         0.27        155.9 
      2594.0         0.27        155.7 
      2595.0         0.27        158.4 
      2596.0         0.23        165.1 
      2597.0         0.23        121.4 
      2598.0         0.27        147.4 
      2599.0         0.23        147.4 
      2600.0         0.27        174.0 
      2601.0         0.27        203.7 
      2602.0         0.40        259.7 
      2603.0         0.30        287.1 
      2604.0         0.38        310.9 
      2605.0         0.27        315.3 
      2606.0         0.40        314.4 
      2607.0         0.47        304.3 
      2608.0         0.38        280.6 
      2609.0         0.33        259.4 
      2610.0         0.30        233.0 
      2611.0         0.37        209.6 
      2612.0         0.47        187.5 
      2613.0         0.43        174.1 
      2614.0         0.57        175.3 
      2615.0         0.43        176.1 
      2616.0         0.45        174.2 
      2617.0         0.43        169.0 
      2618.0         0.43        164.6 
      2619.0         0.50        157.7 
      2620.0         0.50        156.1 
      2621.0         0.40        157.3 
      2622.0         0.40        158.3 
      2623.0         0.40        158.6 
      2624.0         0.45        158.4 
      2625.0         0.40        157.3 
      2626.0         0.43        155.5 
      2627.0         0.43        153.8 
      2628.0         0.43        152.9 
      2629.0         0.40        188.4 
      2630.0         0.47        206.8 
      2631.0         0.42        242.3 
      2632.0         0.37        267.2 
      2633.0         0.37        281.7 
      2634.0         0.47        306.9 
      2635.0         0.53        318.9 
      2636.0         0.33        318.0 
      2637.0         0.27        310.0 
      2638.0         0.43        296.1 
      2639.0         0.40        265.6 
      2640.0         0.37        237.9 
      2641.0         0.35        216.9 
      2642.0         0.30        197.3 
      2643.0         0.30        191.5 
      2644.0         0.43        186.7 
      2645.0         0.53        183.5 
      2646.0         0.47        176.7 
      2647.0         0.50        172.1 
      2648.0         0.43        161.9 
      2649.0         0.45        158.7 
      2650.0         0.40        155.5 
      2651.0         0.50        153.0 
      2652.0         0.47        150.8 
      2653.0         0.43        150.5 
      2654.0         0.40        151.2 
      2655.0         0.43        151.3 
      2656.0         0.40        151.8 
      2657.0         0.42        152.8 
      2658.0         0.43        155.8 
      2659.0         0.40        167.6 
      2660.0         0.43        224.3 
      2661.0         0.50        267.6 
      2662.0         0.47        309.0 
      2663.0         0.37        320.7 
      2664.0         0.27        320.3 
      2665.0         0.28        312.8 
      2666.0         0.37        299.8 
      2667.0         0.40        278.1 
      2668.0         0.33        247.4 
      2669.0         0.30        220.8 
      2670.0         0.33        198.7 
      2671.0         0.30        165.9 
      2672.0         0.27        164.7 
      2673.0         0.23        161.0 
      2674.0         0.30        167.6 
      2675.0         0.27        175.3 
      2676.0         0.30        177.0 
      2677.0         0.32        181.3 
      2678.0         0.27        180.3 
      2679.0         0.27        174.7 
      2680.0         0.43        173.8 
      2681.0         0.37        157.5 
      2682.0         0.30        153.7 
      2683.0         0.27        153.5 
      2684.0         0.30        153.5 
      2685.0         0.27        152.8 
      2686.0         0.30        151.9 
      2687.0         0.32        114.5 
      2688.0         0.30        127.7 
      2689.0         0.30        150.3 
      2690.0         0.30        179.3 
      2691.0         0.30        220.0 
      2692.0         0.30        267.8 
      2693.0         0.33        295.0 
      2694.0         0.30        304.9 
      2695.0         0.27        325.3 
      2696.0         0.27        325.8 
      2697.0         0.33        321.2 
      2698.0         0.23        306.5 
      2699.0         0.27        300.5 
      2700.0         0.23        277.7 
      2701.0         0.27        272.9 
      2702.0         0.33        245.2 
      2703.0         0.42        220.2 
      2704.0         0.37        184.3 
      2705.0         0.33        169.4 
      2706.0         0.37        164.1 
      2707.0         0.33        165.2 
      2708.0         0.37        165.8 
      2709.0         0.33        165.8 
      2710.0         0.33        164.1 
      2711.0         0.33        160.3 
      2712.0         0.30        153.2 
      2713.0         0.38        153.2 
      2714.0         0.33        155.2 
      2715.0         0.30        155.3 
      2716.0         0.30        154.9 
      2717.0         0.30        196.3 
      2718.0         0.33        224.7 
      2719.0         0.37        259.4 
      2720.0         0.37        299.6 
      2721.0         0.33        330.8 
      2722.0         0.33        346.6 
      2723.0         0.38        351.4 
      2724.0         0.37        348.4 
      2725.0         0.33        327.7 
      2726.0         0.27        295.8 
      2727.0         0.37        292.6 
      2728.0         0.40        265.2 
      2729.0         0.30        220.4 
      2730.0         0.27        212.5 
      2731.0         0.32        189.8 
      2732.0         0.33        175.4 
      2733.0         0.43        173.8 
      2734.0         0.40        172.4 
      2735.0         0.40        171.0 
      2736.0         0.33        168.3 
      2737.0         0.33        165.0 
      2738.0         0.30        160.4 
      2739.0         0.33        154.5 
      2740.0         0.32        153.5 
      2741.0         0.37        154.2 
      2742.0         0.30        155.0 
      2743.0         0.33        154.9 
      2744.0         0.33        156.3 
