~Version Information
VERS.                      2.0: CWLS Log ASCII Standard - VERSION 2.0
WRAP.                       NO: One line per depth step
~Well Information Block
STRT.FT                -5.7500: 
STOP.FT              1965.7500: 
STEP.FT                 0.2500: 
NULL.                -999.2500: 
COMP.          Pioneer Natural Resources: COMPANY
WELL.          Easton 12-30 Tr: WELL
FLD.           Purgatorie River: FIELD
LOC.           549' FWL & 2416' FNL--: LOCATION
PROV.                       CO: PROVINCE
CNTY.               Las Animas: COUNTRY
SRVC.          Patterson Wireline: SERVICE COMPANY
DATE.          Mon Jun 06 16:13:03 2005: LOG DATE
UWI.           05 071 08379 00: UNIQUE WELL ID
~Curve Information Block
DEPT.FT            0 000 00 00: Depth
CCL.                          : Casing Collar Locator
TT3.usec                      : CBL 3' Travel Time
AMP3.mV                       : CBL 3' Amplitude
GR.GAPI                       : Gamma Ray
~Parameter Information Block
~A  Depth       CCL         TT3         AMP3         GR     
# ...
   630.7500      0.0000    337.8566     15.4094    116.9216
   631.0000      0.0000    321.4621     15.5372    119.5031
   631.2500      0.0000    313.7572     15.6845    124.5727
   631.5000      0.0000    310.9684     15.7863    130.2086
   631.7500      0.0000    310.2148     15.8001    134.6424
   632.0000      0.0000    310.1195     15.7223    137.3670
   632.2500      0.0000    310.2037     15.5901    139.3710
   632.5000      0.0000    310.3470     15.4576    141.6265
   632.7500      0.0000    310.5849     15.3608    143.7837
   633.0000      0.0000    311.3659     15.3022    145.0961
   633.2500      0.0000    314.0593     15.2640    145.8447
   633.5000      0.0000    321.4538     15.2233    146.8393
   633.7500      0.0000    336.7440     15.1524    147.9114
   634.0000      0.0000    359.7094     15.0224    147.6439
   634.2500      0.0000    383.0434     14.8198    144.8293
   634.5000      0.0000    395.5251     14.5570    140.1650
   634.7500      0.0000    392.2245     14.2650    136.2283
   635.0000      0.0000    380.3316     13.9846    135.3154
   635.2500      0.0000    373.0427     13.7597    137.4882
   635.5000      0.0000    378.9455     13.6213    141.0278
   635.7500      0.0000    396.7613     13.5675    144.2353
   636.0000      0.0000    416.4694     13.5656    146.1774
   636.2500      0.0000    425.8531     13.5775    146.2766
   636.5000      0.0000    420.5496     13.5835    144.1825
   636.7500      0.0000    409.1184     13.5870    140.1615
   637.0000      0.0000    405.8571     13.6037    135.3923
   637.2500      0.0000    417.1240     13.6481    131.8730
   637.5000      0.0000    434.4208     13.7243    131.5475
   637.7500      0.0000    441.1755     13.8255    134.7966
   638.0000      0.0000    427.4983     13.9420    139.8400
   638.2500      0.0000    398.1109     14.0657    144.0947
   638.5000      0.0000    365.9538     14.1865    145.9926
   638.7500      0.0000    340.9239     14.2889    145.2828
   639.0000      0.0000    325.6999     14.3583    142.2242
   639.2500      0.0000    318.7521     14.3882    137.4495
   639.5000      0.0000    317.9915     14.3789    132.4112
   639.7500      0.0000    322.0040     14.3278    128.9244
   640.0000      0.0000    329.5220     14.2306    127.9140
   640.2500      0.0000    339.1090     14.0940    129.0488
   640.5000      0.0000    350.4296     13.9420    131.6054
   640.7500      0.0000    366.8376     13.8004    135.1718
   641.0000      0.0000    396.2638     13.6802    139.4239
   641.2500      0.0000    447.1283     13.5782    143.6609
   641.5000      0.0000    520.2748     13.4900    146.8483
   641.7500      0.0000    604.2844     13.4194    148.1304
   642.0000      0.0000    680.6796     13.3743    147.4054
   642.2500      0.0000    735.0583     13.3529    145.5668
   642.5000      0.0000    763.9353     13.3382    144.0763
   642.7500      0.0000    773.0959     13.3091    144.1612
   643.0000      0.0000    771.3509     13.2574    146.1631
   643.2500      0.0000    765.4223     13.1895    149.2755
   643.5000      0.0000    758.8113     13.1181    151.8003
   643.7500      0.0000    753.2319     13.0561    152.1847
   644.0000      0.0000    749.4000     13.0163    150.4091
   644.2500      0.0000    746.4503     13.0080    148.2505
   644.5000      0.0000    741.2261     13.0356    147.8695
   644.7500      0.0000    729.5719     13.0955    150.2350
   645.0000      0.0000    710.8500     13.1709    154.7725
   645.2500      0.0000    692.3231     13.2272    159.7988
   645.5000      0.0000    685.8671     13.2249    163.2115
   645.7500      0.0000    697.1058     13.1448    163.4874
   646.0000      0.0000    719.7365     12.9975    160.5532
   646.2500      0.0000    742.6104     12.8079    155.6978
   646.5000      0.0000    759.4904     12.6006    150.6728
   646.7500      0.0000    770.1796     12.4004    146.6919
   647.0000      0.0000    775.8389     12.2334    143.8075
   647.2500      0.0000    776.4599     12.1189    141.2251
   647.5000      0.0000    771.9337     12.0636    138.4509
   647.7500      0.0000    763.6313     12.0599    136.0720
   648.0000      0.0000    754.2438     12.0880    135.2339
   648.2500      0.0000    745.7829     12.1219    136.1994
   648.5000      0.0000    737.3058     12.1400    137.3503
   648.7500      0.0000    723.9921     12.1324    135.9828
   649.0000      0.0000    697.9443     12.1016    130.6041
   649.2500      0.0000    651.7829     12.0557    122.5358
   649.5000      0.0000    585.3881     12.0009    115.1061
   649.7500      0.0000    510.6312     11.9443    111.1457
   650.0000      0.0000    447.0797     11.9004    111.1197
   650.2500      0.0000    411.7429     11.8855    113.2030
   650.5000      0.0000    413.0467     11.9029    114.9165
   650.7500      0.0000    450.9564     11.9381    115.0597
   651.0000      0.0000    516.5172     11.9702    114.4504
   651.2500      0.0000    591.0014     11.9872    114.7338
   651.5000      0.0000    651.2377     11.9904    116.5072
   651.7500      0.0000    680.5703     11.9899    118.8302
   652.0000      0.0000    676.8104     11.9972    120.2765
   652.2500      0.0000    652.8475     12.0216    119.9339
   652.5000      0.0000    631.0150     12.0624    117.5295
   652.7500      0.0000    632.2510     12.1004    113.4364
   653.0000      0.0000    663.6458     12.1037    109.1049
   653.2500      0.0000    713.1730     12.0533    107.0783
   653.5000      0.0000    758.3060     11.9598    109.4713
   653.7500      0.0000    782.7789     11.8487    115.8099
   654.0000      0.0000    785.9409     11.7343    122.7351
   654.2500      0.0000    777.3256     11.6113    126.4444
   654.5000      0.0000    765.8166     11.4732    125.7221
   654.7500      0.0000    755.4016     11.3333    122.7950
   655.0000      0.0000    747.4724     11.2227    121.4175
   655.2500      0.0000    743.0739     11.1660    123.8038
   655.5000      0.0000    742.5964     11.1596    128.9189
   655.7500      0.0000    745.4514     11.1754    133.8580
   656.0000      0.0000    750.9945     11.1861    136.8657
   656.2500      0.0000    759.4285     11.1876    138.3711
   656.5000      0.0000    771.0128     11.1989    139.0582
   656.7500      0.0000    784.2713     11.2401    138.2434
   657.0000      0.0000    795.2369     11.3090    134.9787
   657.2500      0.0000    798.8743     11.3804    129.8033
   657.5000      0.0000    791.8647     11.4248    124.2791
   657.7500      0.0000    774.9806     11.4292    119.2821
   658.0000      0.0000    753.2632     11.4033    114.6290
   658.2500      0.0000    733.2688     11.3710    109.9589
   658.5000      0.0000    719.2778     11.3533    105.2475
   658.7500      0.0000    711.7123     11.3537    100.8999
   659.0000      0.0000    708.5676     11.3561     97.8481
   659.2500      0.0000    707.7794     11.3309     97.0773
   659.5000      0.0000    708.6603     11.2366     98.7961
   659.7500      0.0000    712.3483     11.0189    102.6594
   660.0000      0.0000    721.3876     10.6208    108.8406
   660.2500      0.0000    737.8340     10.0142    118.0844
   660.5000      0.0000    760.3497      9.2307    130.1655
   660.7500      0.0000    783.3304      8.3609    142.4864
   661.0000      0.0000    800.2548      7.5110    150.8111
   661.2500      0.0000    808.4380      6.7517    152.1502
   661.5000      0.0000    810.4218      6.0990    147.3082
   661.7500      0.0000    811.4748      5.5391    140.3210
   662.0000      0.0000    816.1110      5.0624    135.3453
   662.2500      0.0000    825.6747      4.6777    134.1932
   662.5000      0.0000    837.9719      4.4021    136.3462
   662.7500      0.0000    849.2664      4.2471    140.4441
   663.0000      0.0000    857.2250      4.2240    145.5717
   663.2500      0.0000    862.5490      4.3598    151.4768
   663.5000      0.0000    868.2153      4.6939    157.7757
   663.7500      0.0000    876.8421      5.2442    163.2294
   664.0000      0.0000    887.9980      5.9707    166.3297
