~Version Information
VERS.                      2.0: CWLS Log ASCII Standard - VERSION 2.0
WRAP.                       NO: One line per depth step
~Well Information Block
STRT.FT               652.0000: 
STOP.FT              1880.5000: 
STEP.FT                 0.2500: 
NULL.                -999.2500: 
COMP.          Pioneer Natural Resources: COMPANY
WELL.          Corkscrew 33-12 Tr: WELL
FLD.           Purgatoire River: FIELD
LOC.           1870' FSL & 1706' FEL: LOCATION
PROV.                 Colorado: PROVINCE
CNTY.               Las Animas: COUNTRY
SRVC.                Patterson: SERVICE COMPANY
DATE.          Mon Mar 28 22:58:28 2005: LOG DATE
UWI.           05 071 08295 00: UNIQUE WELL ID
~Curve Information Block
DEPT.FT            0 000 00 00: Depth
SN.Ohm-m                      : IEL Short Normal
SP.mV                         : IEL Spontaneous Potential
DIR.Ohm-m                     : IEL Induction Resistivity
GR.GAPI                       : Gamma Ray
~Parameter Information Block
~A  Depth        SN          SP         DIR          GR     
# ...
  1456.0000     14.0253      7.7034     12.6267     90.5080
  1456.2500     15.3155      7.3820     12.7299     81.0197
  1456.5000     17.1248      7.1168     12.8868     69.2056
  1456.7500     19.3967      6.8827     13.1047     63.7769
  1457.0000     21.8169      6.6447     13.3640     59.4631
  1457.2500     23.9085      6.3810     13.6200     58.6378
  1457.5000     25.3303      6.0952     13.8180     59.5422
  1457.7500     26.0257      5.8136     13.9131     61.3714
  1458.0000     26.0837      5.5724     13.8835     66.1552
  1458.2500     25.5449      5.4040     13.7302     70.9328
  1458.5000     24.3907      5.3262     13.4695     80.8997
  1458.7500     22.6768      5.3366     13.1267     89.5733
  1459.0000     20.5779      5.4110     12.7350    105.1468
  1459.2500     18.3210      5.5098     12.3334    116.1561
  1459.5000     16.1077      5.5925     11.9589    130.6982
  1459.7500     14.0341      5.6337     11.6363    137.6031
  1460.0000     12.1133      5.6287     11.3709    143.1138
  1460.2500     10.4119      5.5841     11.1501    144.1639
  1460.5000      9.1037      5.5021     10.9538    142.9137
  1460.7500      8.3885      5.3811     10.7717    140.2750
  1461.0000      8.3871      5.2337     10.6149    133.3571
  1461.2500      9.0884      5.0934     10.5141    127.1120
  1461.5000     10.3529      4.9884     10.5042    116.9461
  1461.7500     11.9269      4.9145     10.6097    110.5971
  1462.0000     13.4931      4.8418     10.8407    102.1226
  1462.2500     14.8124      4.7449     11.1995     96.6854
  1462.5000     15.8241      4.6165     11.6883     88.0022
  1462.7500     16.5881      4.4589     12.3050     81.9936
  1463.0000     17.1878      4.2756     13.0302     73.9121
  1463.2500     17.6900      4.0795     13.8136     69.9179
  1463.5000     18.1391      3.8988     14.5772     66.3730
  1463.7500     18.5540      3.7676     15.2406     65.2098
  1464.0000     18.9166      3.7119     15.7580     64.2570
  1464.2500     19.1744      3.7420     16.1378     63.9161
  1464.5000     19.2876      3.8539     16.4300     64.0432
  1464.7500     19.2802      4.0295     16.6927     64.4850
  1465.0000     19.2366      4.2397     16.9629     64.6207
  1465.2500     19.2400      4.4547     17.2471     63.5839
  1465.5000     19.3078      4.6571     17.5304     60.1229
  1465.7500     19.3980      4.8497     17.7932     57.2666
  1466.0000     19.4746      5.0492     18.0236     53.7164
  1466.2500     19.5332      5.2741     18.2165     52.2669
  1466.5000     19.5717      5.5336     18.3600     51.2621
  1466.7500     19.5672      5.8200     18.4208     51.0229
  1467.0000     19.4878      6.1073     18.3502     50.7628
  1467.2500     19.3368      6.3567     18.1164     50.5105
  1467.5000     19.1676      6.5323     17.7435     50.2921
  1467.7500     19.0329      6.6195     17.3188     50.6666
  1468.0000     18.9457      6.6339     16.9564     52.5079
  1468.2500     18.9004      6.6136     16.7435     54.4023
  1468.5000     18.8916      6.5984     16.7070     57.2181
  1468.7500     18.8939      6.6129     16.8080     58.5445
  1469.0000     18.8502      6.6619     16.9632     59.5732
  1469.2500     18.7201      6.7391     17.0843     59.8598
  1469.5000     18.5251      6.8360     17.1157     59.9919
  1469.7500     18.3287      6.9451     17.0517     59.8694
  1470.0000     18.1972      7.0547     16.9218     59.2808
  1470.2500     18.1671      7.1453     16.7620     58.6485
  1470.5000     18.2176      7.1903     16.5915     57.5208
  1470.7500     18.2822      7.1640     16.4082     56.7563
  1471.0000     18.3016      7.0525     16.2018     55.6314
  1471.2500     18.2571      6.8638     15.9750     54.8114
  1471.5000     18.1603      6.6315     15.7529     53.3864
  1471.7500     18.0381      6.4063     15.5721     52.4677
  1472.0000     17.9208      6.2345     15.4600     51.6336
  1472.2500     17.8220      6.1348     15.4236     51.5726
  1472.5000     17.7377      6.0888     15.4567     52.0619
  1472.7500     17.6652      6.0522     15.5551     52.6475
  1473.0000     17.6103      5.9795     15.7219     53.8336
  1473.2500     17.5806      5.8466     15.9565     54.8414
  1473.5000     17.5850      5.6582     16.2340     56.7537
  1473.7500     17.6239      5.4403     16.4961     58.2590
  1474.0000     17.6738      5.2258     16.6653     60.3550
  1474.2500     17.7077      5.0423     16.6809     61.1399
  1474.5000     17.7280      4.9071     16.5358     60.7085
  1474.7500     17.7594      4.8253     16.2847     59.3206
  1475.0000     17.8190      4.7875     16.0166     56.3104
  1475.2500     17.9030      4.7693     15.8147     54.3318
  1475.5000     17.9885      4.7417     15.7281     52.1158
  1475.7500     18.0476      4.6872     15.7669     51.1668
  1476.0000     18.0644      4.6099     15.9099     50.4686
  1476.2500     18.0413      4.5296     16.1195     50.5675
  1476.5000     17.9929      4.4653     16.3544     51.4106
  1476.7500     17.9329      4.4260     16.5773     52.0102
  1477.0000     17.8642      4.4128     16.7567     52.3436
  1477.2500     17.7847      4.4275     16.8692     52.3420
  1477.5000     17.6970      4.4756     16.9053     53.0356
  1477.7500     17.6068      4.5604     16.8764     54.4926
  1478.0000     17.5155      4.6751     16.8115     58.0467
  1478.2500     17.4269      4.8015     16.7426     60.5619
  1478.5000     17.3552      4.9156     16.6894     62.9004
  1478.7500     17.3221      4.9930     16.6558     63.0431
  1479.0000     17.3445      5.0159     16.6368     61.7611
  1479.2500     17.4099      4.9831     16.6265     60.6846
  1479.5000     17.4712      4.9177     16.6184     59.5724
  1479.7500     17.4914      4.8559     16.6039     59.1174
  1480.0000     17.4767      4.8275     16.5766     58.3759
  1480.2500     17.4574      4.8437     16.5444     57.7390
  1480.5000     17.4651      4.8996     16.5371     56.9577
  1480.7500     17.5325      4.9773     16.5972     56.8544
  1481.0000     17.6900      5.0500     16.7572     57.3378
  1481.2500     17.9344      5.0919     17.0179     57.7552
  1481.5000     18.2162      5.0926     17.3423     57.8529
  1481.7500     18.4858      5.0622     17.6705     57.3458
  1482.0000     18.7305      5.0221     17.9443     55.7446
  1482.2500     18.9559      4.9907     18.1280     54.3425
  1482.5000     19.1712      4.9802     18.2133     52.2765
  1482.7500     19.3927      5.0026     18.2126     51.1282
  1483.0000     19.6336      5.0682     18.1536     49.7863
  1483.2500     19.8959      5.1700     18.0785     49.1343
  1483.5000     20.1705      5.2766     18.0386     48.5443
  1483.7500     20.4364      5.3551     18.0822     48.3027
  1484.0000     20.6665      5.4018     18.2376     47.7557
  1484.2500     20.8418      5.4432     18.5019     47.1810
  1484.5000     20.9619      5.5085     18.8401     46.4885
  1484.7500     21.0586      5.6034     19.1992     46.5609
  1485.0000     21.1965      5.7075     19.5300     47.6404
  1485.2500     21.4381      5.7913     19.8068     48.6592
  1485.5000     21.8078      5.8360     20.0312     49.8149
  1485.7500     22.2932      5.8393     20.2238     50.0904
  1486.0000     22.8620      5.8081     20.4145     49.9489
  1486.2500     23.4769      5.7469     20.6341     49.8165
  1486.5000     24.1283      5.6511     20.9051     50.1510
  1486.7500     24.8382      5.5115     21.2256     50.8819
  1487.0000     25.6050      5.3259     21.5573     52.3986
  1487.2500     26.3817      5.1104     21.8299     53.1894
  1487.5000     27.0922      4.9016     21.9675     53.3407
  1487.7500     27.6331      4.7429     21.9286     52.8230
  1488.0000     27.9107      4.6661     21.7337     51.9466
  1488.2500     27.8968      4.6823     21.4570     51.6861
  1488.5000     27.6105      4.7849     21.1853     51.5704
  1488.7500     27.0756      4.9518     20.9743     51.2249
  1489.0000     26.3463      5.1439     20.8303     50.0134
  1489.2500     25.5256      5.3196     20.7235     49.1483
