~Version Information
 VERS.                                  2.0 : CWLS LAS VERSION
 WRAP.                                   NO : WRAPING MODE
 SWARE .                 MController 2.5.0J : SOFTWARE VERSION
~Well Information
 WELL.                       Lavedure 7-44R : WELL
 COMP.                Petrogulf Corporation : COMPANY
 FLD.                      Purgatoire River : FIELD
 LOC.                 SE/SE Sec 7 T33S R67W : LOCATION
 DATE.                             09/23/05 : DATE(S) LOGGED
 SRVC.       BLANCO Geological Services LLC : SERVICE COMPANY
 STAT.                                   CO : STATE
 CNTY.                           Las Animas : COUNTY
 CTRY.                                  USA : COUNTRY
 API.                       05-071-08090-00 : API NUMBER
 STRT.FT                             828.00 : START DEPTH
 STOP.FT                            2020.00 : STOP DEPTH
 STEP.FT                               1.00 : DEPTH INCREMENT
 NULL.                                -9999 : NULL VALUE
~Curve information
 DEPTH.FT                                   :
 ROP.MIN/FT                                 :
 GAS.UNITS                                  :
~ASCII Log data
       828.0     -9999.00          1.2 
       829.0         8.63          1.8 
       830.0         0.17          1.5 
       831.0         0.33          1.8 
       832.0         0.13          1.7 
       833.0         0.10          1.5 
       834.0         0.13          1.7 
       835.0         0.07          1.5 
       836.0         0.42          1.8 
       837.0         0.27          1.5 
       838.0         0.40          1.6 
       839.0         0.43          1.5 
       840.0         0.20          1.5 
       841.0         0.10          1.3 
       842.0         0.10          1.4 
       843.0         0.13          1.3 
       844.0         0.13          1.5 
       845.0         0.10          1.5 
       846.0         0.07          1.6 
       847.0         0.10          1.3 
       848.0         0.07          1.6 
       849.0         0.10          1.5 
       850.0         0.07          1.5 
       851.0         0.10          1.6 
       852.0         0.13          1.4 
       853.0         0.07          1.4 
       854.0         0.10          1.5 
       855.0         0.07          1.4 
       856.0         0.10          1.5 
       857.0         0.23          1.6 
       858.0         0.13          1.6 
       859.0         0.10          1.4 
       860.0         0.12          1.5 
       861.0         0.07          1.6 
       862.0         0.17          1.4 
       863.0         0.10          1.3 
       864.0         0.17          1.5 
       865.0         0.10          1.3 
       866.0         0.13          1.4 
       867.0         2.82          1.7 
       868.0         0.27          1.5 
       869.0         0.30          1.4 
       870.0         0.40          1.6 
       871.0         0.32          1.4 
       872.0         0.30          1.7 
       873.0         0.30          1.7 
       874.0         0.33          1.6 
       875.0         0.20          1.6 
       876.0         0.20          2.6 
       877.0         0.27          4.1 
       878.0         0.23          4.4 
       879.0         0.23          4.7 
       880.0         0.27          4.7 
       881.0         0.32          4.4 
       882.0         0.30          4.3 
       883.0         0.30          3.9 
       884.0         0.43          4.3 
       885.0         0.30         20.5 
       886.0         0.33         92.9 
       887.0         0.30         91.7 
       888.0         0.27         50.8 
       889.0         0.40         23.2 
       890.0         0.23          7.0 
       891.0         0.20          3.7 
       892.0         0.18          2.7 
       893.0         0.17          1.9 
       894.0         0.17          1.7 
       895.0         0.20          1.8 
       896.0         0.27          1.9 
       897.0         1.53          2.7 
       898.0         0.33          2.3 
       899.0         0.23          2.7 
       900.0         0.27          2.5 
       901.0         0.28          2.7 
       902.0         0.27          2.8 
       903.0         0.27          2.9 
       904.0         0.30          3.1 
       905.0         0.30          3.2 
       906.0         0.27          3.4 
       907.0         0.27          3.4 
       908.0         0.33          3.4 
       909.0         0.27          3.2 
       910.0         0.37          3.4 
       911.0         0.30          3.4 
       912.0         0.35          3.2 
       913.0         0.30          3.3 
       914.0         0.37          6.5 
       915.0         0.13          9.1 
       916.0         0.13         11.0 
       917.0         0.10         11.9 
       918.0         0.07         13.1 
       919.0         0.10         13.7 
       920.0         0.10         13.7 
       921.0         0.07         13.1 
       922.0         0.10         12.5 
       923.0         0.07         11.0 
       924.0         0.13         10.4 
       925.0         0.13          8.1 
       926.0         0.27          6.1 
       927.0         1.25          8.5 
       928.0         0.23          7.0 
       929.0         0.10          6.1 
       930.0         0.13          5.6 
       931.0         0.53          5.3 
       932.0         0.47          4.7 
       933.0         0.20          4.2 
       934.0         0.17          4.2 
       935.0         0.17          4.2 
       936.0         0.20          3.9 
       937.0         0.20          4.3 
       938.0         0.17          4.9 
       939.0         0.20          5.7 
       940.0         0.15          5.8 
       941.0         0.13          5.4 
       942.0         0.13          5.1 
       943.0         0.17          4.9 
       944.0         0.13          4.6 
       945.0         0.20          4.8 
       946.0         0.33          4.3 
       947.0         0.30          4.1 
       948.0         0.30          4.5 
       949.0         0.13          4.6 
       950.0         0.23          4.5 
       951.0         0.30          4.2 
       952.0         0.23          4.0 
       953.0         0.23          4.0 
       954.0         0.23          4.0 
       955.0         0.22          3.5 
       956.0         0.27          3.7 
       957.0         4.32          8.0 
       958.0         0.27          4.6 
       959.0         0.33          4.3 
       960.0         0.30          4.1 
       961.0         0.23          4.0 
       962.0         0.17          4.0 
       963.0         0.23          4.4 
       964.0         0.20          3.9 
       965.0         0.28          3.9 
       966.0         0.27          3.8 
       967.0         0.23          4.2 
       968.0         0.23          3.8 
       969.0         0.23          3.6 
       970.0         0.23          3.4 
       971.0         0.27          3.3 
       972.0         0.23          3.4 
       973.0         0.27          3.3 
       974.0         0.23          3.2 
       975.0         0.20          3.3 
       976.0         0.23          3.6 
       977.0         0.23          3.4 
       978.0         0.25          3.4 
       979.0         0.23          3.5 
       980.0         0.23          3.2 
       981.0         0.23          3.3 
       982.0         0.23          3.6 
       983.0         0.23          3.7 
       984.0         0.20          6.4 
       985.0         0.23          6.8 
       986.0         0.20          6.2 
       987.0         2.05          6.0 
       988.0         0.23          4.1 
       989.0         0.37          4.0 
       990.0         0.23          3.6 
       991.0         0.27          3.7 
       992.0         0.20          3.5 
       993.0         0.27          3.1 
       994.0         0.28          3.4 
       995.0         0.20          3.3 
       996.0         0.20          3.4 
       997.0         0.27          3.5 
       998.0         0.27          3.2 
       999.0         0.30          3.2 
      1000.0         0.23          3.0 
      1001.0         0.27          3.2 
      1002.0         0.23          3.1 
      1003.0         0.23          2.8 
      1004.0         0.20          3.0 
      1005.0         0.23          3.1 
      1006.0         0.20          3.8 
      1007.0         0.18          4.7 
      1008.0         0.20          5.2 
      1009.0         0.17          5.1 
      1010.0         0.20          4.6 
      1011.0         0.23          4.3 
      1012.0         0.20          3.8 
      1013.0         0.23          3.4 
      1014.0         0.27          3.3 
      1015.0         0.27          3.8 
      1016.0         0.20          3.2 
      1017.0         2.88          7.4 
      1018.0         0.33          3.4 
      1019.0         0.30          3.4 
      1020.0         0.28          3.6 
      1021.0         0.23          3.4 
      1022.0         0.30          3.7 
      1023.0         0.20          3.5 
      1024.0         0.20          3.5 
      1025.0         0.20          3.6 
      1026.0         0.20          3.7 
      1027.0         0.23          3.4 
