~Version Information
VERS.                      2.0: CWLS Log ASCII Standard - VERSION 2.0
WRAP.                       NO: One line per depth step
~Well Information Block
STRT.FT               875.6000: 
STOP.FT              2510.0000: 
STEP.FT                 0.1000: 
NULL.                -999.2500: 
COMP.          Petrogulf Corporation: COMPANY
WELL.          Collister 17-31 V: WELL
FLD.           Purgatoire River: FIELD
LOC.           910' FNL & 1594' FEL: LOCATION
PROV.                 Colorado: PROVINCE
CNTY.               Las Animas: COUNTRY
SRVC.                Patterson: SERVICE COMPANY
DATE.          Fri Dec 12 13:49:30 2003: LOG DATE
UWI.                          : UNIQUE WELL ID
~Curve Information Block
DEPT.FT            0 000 00 00: Depth
DCAL.in                       : CDL Caliper
DPOR.pu                       : CDL Density Porosity
NPOR.pu                       : Neutron Porosity
RHOB.g/cc                     : CDL Bulk Density
RHOC.g/cc                     : CDL Density Correction
GR.GAPI                       : Gamma Ray
~Parameter Information Block
~A  Depth       DCAL        DPOR        NPOR        RHOB        RHOC         GR     
# ...
  1538.0000      8.1209      4.7480     26.2700      2.5717      0.0377    153.7421
  1538.1000      8.1209      3.3103     26.0761      2.5954      0.0488    157.4843
  1538.2000      8.1209      2.0208     25.4342      2.6167      0.2032    160.7802
  1538.3000      8.1187      2.9127     24.7234      2.6019      0.1375    163.5055
  1538.4000      8.1187      5.0060     24.4494      2.5674      0.0751    166.3698
  1538.5000      8.1238      6.6982     24.8497      2.5395      0.0989    170.2824
  1538.6000      8.1238      7.9317     25.4716      2.5191      0.0534    171.9215
  1538.7000      8.1238      8.6324     25.6992      2.5076      0.0423    170.5430
  1538.8000      8.1370      8.9099     25.4378      2.5030      0.0485    171.1698
  1538.9000      8.1370      9.4990     25.2407      2.4933      0.0300    174.3158
  1539.0000      8.1308     10.2030     25.5114      2.4817      0.0284    172.7912
  1539.1000      8.1308     10.3538     26.0071      2.4792      0.0283    165.1066
  1539.2000      8.1308      9.8514     26.4606      2.4875     -0.0272    157.0627
  1539.3000      8.1395      8.8135     26.8804      2.5046      0.0055    154.2454
  1539.4000      8.1395      8.2595     27.3073      2.5137      0.0882    158.6599
  1539.5000      8.1311      9.5049     27.7421      2.4932      0.0582    166.9870
  1539.6000      8.1311     11.2891     28.0072      2.4637     -0.0475    173.9358
  1539.7000      8.1311     11.3932     27.7640      2.4620      0.0486    178.0013
  1539.8000      8.1266     10.5925     27.2586      2.4752      0.0676    180.1479
  1539.9000      8.1266     10.8278     26.5959      2.4713      0.0961    180.0769
  1540.0000      8.1226     11.3445     24.8781      2.4628      0.0102    175.4696
  1540.1000      8.1226      9.7980     21.7322      2.4883      0.0493    165.2426
  1540.2000      8.1226      6.1615     18.1909      2.5483      0.1348    154.2764
  1540.3000      8.1258      3.2109     15.3310      2.5970      0.1986    144.8056
  1540.4000      8.1258      3.1140     12.9015      2.5986      0.1527    131.5503
  1540.5000      8.1178      4.7334     10.4007      2.5719      0.1376    116.9718
  1540.6000      8.1178      5.9873      8.4146      2.5512      0.1101    109.0603
  1540.7000      8.1178      6.9530      7.6407      2.5353      0.0797    108.3014
  1540.8000      8.1293      9.0802      7.9078      2.5002      0.0757    107.5905
  1540.9000      8.1293     13.0610      8.7640      2.4345      0.0225    104.5751
  1541.0000      8.1312     18.6896     10.4566      2.3416      0.0151    102.6644
  1541.1000      8.1312     25.3606     13.2710      2.2316      0.0416    100.9936
  1541.2000      8.1312     32.1444     16.2558      2.1196     -0.0510     98.8095
  1541.3000      8.1409     39.3436     18.1683      2.0008     -0.0410     98.2789
  1541.4000      8.1409     47.5033     19.4874      1.8662     -0.1330    100.4788
  1541.5000      8.1122     53.2416     21.0475      1.7715     -0.2352    104.8824
  1541.6000      8.1122     52.0932     22.4374      1.7905     -0.0605    108.6461
  1541.7000      8.1122     44.4732     23.1721      1.9162      0.1631    110.6071
  1541.8000      8.1007     34.0479     23.6183      2.0882      0.3487    115.4015
  1541.9000      8.1007     24.2843     24.1686      2.2493      0.4386    122.4857
  1542.0000      8.1040     17.9871     24.5326      2.3532      0.4826    127.5158
  1542.1000      8.1040     15.5606     24.3725      2.3932      0.3584    135.4241
  1542.2000      8.1040     14.1410     24.0975      2.4167      0.2878    147.5516
  1542.3000      8.2142     11.7846     24.1817      2.4556      0.2817    152.8124
  1542.4000      8.2142     10.0756     24.6459      2.4838      0.2791    146.4887
  1542.5000      8.2504     10.0815     25.4263      2.4837      0.0652    140.9945
  1542.6000      8.2504     10.0126     26.3498      2.4848      0.0625    145.8059
  1542.7000      8.2504      9.0053     27.0828      2.5014      0.0938    153.8719
  1542.8000      8.1828      8.1566     27.5527      2.5154      0.0956    157.4481
  1542.9000      8.1828      8.0192     28.0541      2.5177      0.0719    157.4446
  1543.0000      8.1823      7.9329     28.5425      2.5191      0.0649    156.8340
  1543.1000      8.1823      7.3589     28.7018      2.5286      0.0875    157.0927
  1543.2000      8.1823      6.5801     28.5138      2.5414      0.0857    157.7917
  1543.3000      8.2154      5.6541     28.2360      2.5567      0.0999    157.8791
  1543.4000      8.2154      4.7129     28.0623      2.5722      0.1595    156.6167
  1543.5000      8.1865      4.2713     27.7019      2.5795      0.1913    151.2777
  1543.6000      8.1865      3.8616     26.7354      2.5863      0.1013    143.3734
  1543.7000      8.1865      3.1140     25.6290      2.5986      0.1966    139.2545
  1543.8000      8.1579      2.9597     25.1938      2.6012      0.1735    138.1915
  1543.9000      8.1579      3.6597     25.1310      2.5896      0.1605    139.0372
  1544.0000      8.1522      4.2547     24.8209      2.5798      0.1556    143.1622
  1544.1000      8.1522      3.7491     24.4873      2.5881      0.1116    146.0447
  1544.2000      8.1522      2.4091     24.5398      2.6103      0.1491    141.0802
  1544.3000      8.1345      1.4569     24.6106      2.6260      0.1550    132.3375
  1544.4000      8.1345      1.5506     24.0397      2.6244      0.1612    127.2032
  1544.5000      8.1293      2.8004     23.3316      2.6038      0.1010    124.8102
  1544.6000      8.1293      4.8096     23.3870      2.5706      0.0822    123.7163
  1544.7000      8.1293      6.3032     23.8098      2.5460     -0.0115    124.8699
  1544.8000      8.1181      6.3041     23.6984      2.5460      0.0490    128.1752
  1544.9000      8.1181      5.9272     23.0438      2.5522      0.0969    131.9321
  1545.0000      8.0931      6.3032     22.5264      2.5460      0.1083    136.8558
  1545.1000      8.0931      6.5338     22.5194      2.5422      0.0764    142.5257
  1545.2000      8.0931      5.5707     23.0496      2.5581      0.0775    142.9469
  1545.3000      8.0817      4.1198     23.7556      2.5820      0.1280    136.1432
  1545.4000      8.0817      3.8648     23.9547      2.5862      0.1136    129.4014
  1545.5000      8.0926      5.1751     23.5448      2.5646      0.0201    129.7225
  1545.6000      8.0926      6.8424     23.1790      2.5371      0.0432    134.7629
  1545.7000      8.0926      7.6625     23.3131      2.5236     -0.0239    137.7878
  1545.8000      8.1124      7.0911     23.4772      2.5330      0.0979    137.9683
  1545.9000      8.1124      6.2222     23.3388      2.5473      0.1139    139.2375
  1546.0000      8.1116      6.5043     23.3033      2.5427      0.1091    145.1645
  1546.1000      8.1116      7.1559     23.6072      2.5319      0.0528    153.8012
  1546.2000      8.1116      6.5467     24.0447      2.5420      0.1032    159.0857
  1546.3000      8.1233      5.0751     24.4557      2.5663      0.0926    159.4977
  1546.4000      8.1233      4.0307     24.8552      2.5835      0.1127    154.8735
  1546.5000      8.1135      3.6107     25.2228      2.5904      0.1422    148.2615
  1546.6000      8.1135      3.2130     25.4165      2.5970      0.0993    146.4920
  1546.7000      8.1135      2.5455     25.7011      2.6080      0.1541    147.6812
  1546.8000      8.1168      2.3102     26.5106      2.6119      0.1150    145.9073
  1546.9000      8.1168      3.1472     27.4959      2.5981      0.0946    138.9671
  1547.0000      8.1246      4.9313     28.1707      2.5686      0.0431    129.5920
  1547.1000      8.1246      6.9152     28.8175      2.5359      0.0555    124.8556
  1547.2000      8.1246      7.9338     30.0942      2.5191      0.0800    124.7228
  1547.3000      8.1444      7.4996     31.8951      2.5263      0.0554    125.3074
  1547.4000      8.1444      6.4526     33.1563      2.5435      0.0778    128.9940
  1547.5000      8.1353      6.2822     33.3897      2.5463      0.0748    139.1846
