~Version Information
VERS.                      2.0: CWLS Log ASCII Standard - VERSION 2.0
WRAP.                       NO: One line per depth step
~Well Information Block
STRT.FT                 0.7500: 
STOP.FT              2144.0000: 
STEP.FT                 0.2500: 
NULL.                -999.2500: 
COMP.          Petrogulf Corporation: COMPANY
WELL.            Montoya 1-44R: WELL
FLD.           Purgatorie River: FIELD
LOC.           658' FSL & 1052' FWL: LOCATION
CNTY.               Las Animas: COUNTY
SRVC.                         : SERVICE COMPANY
DATE.          Tue Nov 30 08:31:55 2004: LOG DATE
UWI.           05 071 08239 00: UNIQUE WELL ID
STAT.                 Colorado: STATE
~Curve Information Block
DEPT.FT            0 000 00 00: Depth
TT3.usec                      : CBL 3' Travel Time
AMP3.mV                       : CBL 3' Amplitude
GR.GAPI                       : Gamma Ray
CCL.                          : Casing Collar Locator
~Parameter Information Block
~A  Depth       TT3         AMP3         GR         CCL     
# ...
   268.7500    595.7725     19.2509    111.7843      0.0000
   269.0000    485.8274     20.3229    114.0914      0.0000
   269.2500    412.6971     20.8066    114.2837      0.0000
   269.5000    375.2532     20.9236    112.7595      0.0000
   269.7500    363.8474     20.9255    110.1835      0.0000
   270.0000    371.8912     20.9461    107.3451      0.0000
   270.2500    398.5209     21.0007    104.8759      0.0000
   270.5000    440.2547     21.0617    103.0190      0.0000
   270.7500    481.4753     21.1320    101.6217      0.0000
   271.0000    498.9747     21.2534    100.3240      0.0000
   271.2500    481.1159     21.4482     98.7636      0.0000
   271.5000    439.4636     21.6689     96.6895      0.0000
   271.7500    397.2371     21.8129     94.0330      0.0000
   272.0000    370.0592     21.7825     90.9859      0.0000
   272.2500    361.0349     21.5430     88.0006      0.0000
   272.5000    369.3322     21.1531     85.5963      0.0000
   272.7500    396.9807     20.7446     84.0448      0.0000
   273.0000    444.6627     20.4497     83.1872      0.0000
   273.2500    500.9648     20.3376     82.5751      0.0000
   273.5000    540.3864     20.4171     81.8185      0.0000
   273.7500    539.8161     20.6747     80.8380      0.0000
   274.0000    499.3491     21.0789     79.8272      0.0000
   274.2500    442.2632     21.5564     78.9909      0.0000
   274.5000    394.0898     21.9993     78.3274      0.0000
   274.7500    365.4561     22.3196     77.6336      0.0000
   275.0000    352.9505     22.4892     76.6916      0.0000
   275.2500    348.9893     22.5291     75.4636      0.0000
   275.5000    348.2152     22.4723     74.1628      0.0000
   275.7500    348.2746     22.3410     73.1623      0.0000
   276.0000    348.5435     22.1467     72.8020      0.0000
   276.2500    349.0800     21.9020     73.1648      0.0000
   276.5000    350.6751     21.6240     73.9848      0.0000
   276.7500    355.8307     21.3289     74.7860      0.0000
   277.0000    369.8271     21.0242     75.1735      0.0000
   277.2500    399.0049     20.7072     75.0781      0.0000
   277.5000    444.0316     20.3776     74.7559      0.0000
   277.7500    493.6324     20.0605     74.5589      0.0000
   278.0000    530.5147     19.8030     74.6852      0.0000
   278.2500    547.1625     19.6411     75.0959      0.0000
   278.5000    549.7704     19.5762     75.6201      0.0000
   278.7500    543.2358     19.5864     76.0761      0.0000
   279.0000    522.0388     19.6494     76.2981      0.0000
   279.2500    482.2589     19.7489     76.0956      0.0000
   279.5000    433.6391     19.8663     75.2673      0.0000
   279.7500    392.3979     19.9813     73.7114      0.0000
   280.0000    367.0777     20.0844     71.5410      0.0000
   280.2500    355.5530     20.1874     69.0594      0.0000
   280.5000    351.6519     20.3110     66.5879      0.0000
   280.7500    350.7044     20.4618     64.2859      0.0000
   281.0000    350.6193     20.6207     62.1382      0.0000
   281.2500    350.7564     20.7549     60.1092      0.0000
   281.5000    350.9429     20.8439     58.3107      0.0000
   281.7500    351.0602     20.8933     57.0020      0.0000
   282.0000    351.0480     20.9280     56.4175      0.0000
   282.2500    350.9337     20.9754     56.5949      0.0000
   282.5000    350.8067     21.0558     57.3246      0.0000
   282.7500    350.7403     21.1775     58.2218      0.0000
   283.0000    350.7453     21.3347     58.8346      0.0000
   283.2500    350.7796     21.5141     58.7891      0.0000
   283.5000    350.7903     21.6948     57.9966      0.0000
   283.7500    350.7591     21.8305     56.8222      0.0000
   284.0000    350.7072     21.8594     56.0450      0.0000
   284.2500    350.6461     21.7624     56.5377      0.0000
   284.5000    350.5352     21.6093     58.8356      0.0000
   284.7500    350.3132     21.5171     62.8627      0.0000
   285.0000    349.9687     21.5565     67.9629      0.0000
   285.2500    349.5622     21.7001     73.1670      0.0000
   285.5000    349.1845     21.8556     77.5099      0.0000
   285.7500    348.9002     21.9409     80.3311      0.0000
   286.0000    348.7185     21.9363     81.5151      0.0000
   286.2500    348.6065     21.8731     81.5722      0.0000
   286.5000    348.5320     21.7791     81.4022      0.0000
   286.7500    348.4882     21.6486     81.8144      0.0000
   287.0000    348.4733     21.4717     83.1414      0.0000
   287.2500    348.4651     21.2830     85.2534      0.0000
   287.5000    348.4298     21.1557     87.9252      0.0000
   287.7500    348.3486     21.1399     91.1838      0.0000
   288.0000    348.2310     21.2099     95.2665      0.0000
   288.2500    348.1143     21.2774    100.2219      0.0000
   288.5000    348.0544     21.2500    105.5572      0.0000
   288.7500    348.1062     21.0753    110.3667      0.0000
   289.0000    348.2998     20.7491    113.8848      0.0000
   289.2500    348.6244     20.3117    115.9384      0.0000
   289.5000    349.0240     19.8396    116.8545      0.0000
   289.7500    349.4106     19.4169    116.9905      0.0000
   290.0000    349.6975     19.0940    116.4449      0.0000
   290.2500    349.8377     18.8722    115.1953      0.0000
   290.5000    349.8904     18.7232    113.3619      0.0000
   290.7500    350.1339     18.6106    111.2498      0.0000
   291.0000    351.6151     18.4969    109.1655      0.0000
   291.2500    357.6562     18.3467    107.2851      0.0000
   291.5000    375.8128     18.1411    105.6940      0.0000
   291.7500    417.4279     17.8952    104.4705      0.0000
   292.0000    489.7635     17.6649    103.6464      0.0000
   292.2500    583.1237     17.5323    103.1047      0.0000
   292.5000    667.6299     17.5697    102.5878      0.0000
   292.7500    709.8803     17.8061    101.8468      0.0000
   293.0000    695.0928     18.2324    100.8064      0.0000
   293.2500    632.9424     18.8300     99.6034      0.0000
   293.5000    547.6697     19.5680     98.4978      0.0000
   293.7500    465.6309     20.3644     97.7485      0.0000
   294.0000    405.0208     21.0847     97.4830      0.0000
   294.2500    370.1871     21.6122     97.5912      0.0000
   294.5000    354.6369     21.9204     97.7267      0.0000
   294.7500    349.2658     22.0664     97.5026      0.0000
   295.0000    347.8772     22.1335     96.7773      0.0000
   295.2500    347.6613     22.1996     95.7797      0.0000
   295.5000    347.6465     22.3348     94.9238      0.0000
   295.7500    347.5976     22.5755     94.4592      0.0000
   296.0000    347.4880     22.8734     94.2427      0.0000
   296.2500    347.3972     23.0939     93.8221      0.0000
   296.5000    347.3832     23.1062     92.7606      0.0000
   296.7500    347.4379     22.8999     90.9440      0.0000
   297.0000    347.5105     22.6004     88.6689      0.0000
   297.2500    347.5599     22.3635     86.4499      0.0000
   297.5000    347.5861     22.2688     84.6881      0.0000
   297.7500    347.6237     22.3051     83.4250      0.0000
   298.0000    347.7061     22.4189     82.3648      0.0000
   298.2500    347.8240     22.5611     81.1450      0.0000
   298.5000    347.9178     22.7117     79.6245      0.0000
   298.7500    347.9276     22.8816     77.9427      0.0000
   299.0000    347.8538     23.0907     76.3358      0.0000
   299.2500    347.7597     23.3403     74.9036      0.0000
   299.5000    347.7109     23.6103     73.5115      0.0000
   299.7500    347.7202     23.8711     71.8606      0.0000
   300.0000    347.7433     24.0873     69.6527      0.0000
   300.2500    347.7193     24.2235     66.7605      0.0000
   300.5000    347.6177     24.2762     63.3124      0.0000
   300.7500    347.4685     24.2928     59.6342      0.0000
   301.0000    347.3644     24.3219     56.0912      0.0000
   301.2500    347.5287     24.3322     52.9688      0.0000
   301.5000    348.4881     24.2039     50.4785      0.0000
   301.7500    351.2193     23.8194     48.8348      0.0000
   302.0000    356.7593     23.1549     48.2573      0.0000
