~Version Information
VERS.                      2.0: CWLS Log ASCII Standard - VERSION 2.0
WRAP.                       NO: One line per depth step
~Well Information Block
STRT.FT                 0.7500: 
STOP.FT              2144.0000: 
STEP.FT                 0.2500: 
NULL.                -999.2500: 
COMP.          Petrogulf Corporation: COMPANY
WELL.            Montoya 1-44R: WELL
FLD.           Purgatorie River: FIELD
LOC.           658' FSL & 1052' FWL: LOCATION
CNTY.               Las Animas: COUNTY
SRVC.                         : SERVICE COMPANY
DATE.          Tue Nov 30 08:31:55 2004: LOG DATE
UWI.           05 071 08239 00: UNIQUE WELL ID
STAT.                 Colorado: STATE
~Curve Information Block
DEPT.FT            0 000 00 00: Depth
TT3.usec                      : CBL 3' Travel Time
AMP3.mV                       : CBL 3' Amplitude
GR.GAPI                       : Gamma Ray
CCL.                          : Casing Collar Locator
~Parameter Information Block
~A  Depth       TT3         AMP3         GR         CCL     
# ...
  1407.7500    509.7381     14.7561    100.3376      0.0000
  1408.0000    439.1771     16.0230    101.0067      0.0000
  1408.2500    390.8699     17.1814    102.3531      0.0000
  1408.5000    365.1458     18.2095    104.0917      0.0000
  1408.7500    354.6606     19.1231    106.1038      0.0000
  1409.0000    352.1364     19.8885    108.4060      0.0000
  1409.2500    354.6212     20.3521    111.0145      0.0000
  1409.5000    364.0870     20.3103    113.7988      0.0000
  1409.7500    385.5645     19.6950    116.4609      0.0000
  1410.0000    422.2159     18.6730    118.6284      0.0000
  1410.2500    468.7668     17.5304    119.9762      0.0000
  1410.5000    510.6928     16.4766    120.3316      0.0000
  1410.7500    534.0409     15.5779    119.7835      0.0000
  1411.0000    537.2980     14.8307    118.7387      0.0000
  1411.2500    531.1078     14.2390    117.8193      0.0000
  1411.5000    526.2714     13.8156    117.6358      0.0000
  1411.7500    524.7053     13.5414    118.5462      0.0000
  1412.0000    521.7215     13.3475    120.4908      0.0000
  1412.2500    513.5007     13.1469    122.9525      0.0000
  1412.5000    501.1172     12.8876    125.0996      0.0000
  1412.7500    488.9774     12.5790    126.1686      0.0000
  1413.0000    480.4713     12.2772    125.8901      0.0000
  1413.2500    475.1021     12.0497    124.6660      0.0000
  1413.5000    469.7018     11.9418    123.3452      0.0000
  1413.7500    461.6194     11.9585    122.7881      0.0000
  1414.0000    450.3733     12.0699    123.5043      0.0000
  1414.2500    437.1084     12.2278    125.4987      0.0000
  1414.5000    423.6390     12.3792    128.3090      0.0000
  1414.7500    412.3025     12.4724    131.2119      0.0000
  1415.0000    406.1610     12.4647    133.5433      0.0000
  1415.2500    408.1711     12.3396    135.0100      0.0000
  1415.5000    419.3038     12.1198    135.8054      0.0000
  1415.7500    437.5581     11.8541    136.4304      0.0000
  1416.0000    458.8675     11.5819    137.3360      0.0000
  1416.2500    478.6625     11.3150    138.6389      0.0000
  1416.5000    493.3727     11.0539    140.0634      0.0000
  1416.7500    501.9353     10.8144    141.0821      0.0000
  1417.0000    505.9912     10.6323    141.2045      0.0000
  1417.2500    507.9563     10.5506    140.3005      0.0000
  1417.5000    509.3167     10.5993    138.7427      0.0000
  1417.7500    511.1159     10.7761    137.2302      0.0000
  1418.0000    515.1016     11.0399    136.3782      0.0000
  1418.2500    523.4075     11.3396    136.3864      0.0000
  1418.5000    537.5961     11.6652    136.9589      0.0000
  1418.7500    558.5795     12.0655    137.4848      0.0000
  1419.0000    586.2502     12.6057    137.3285      0.0000
  1419.2500    617.3839     13.3082    136.0997      0.0000
  1419.5000    643.3027     14.1467    133.7663      0.0000
  1419.7500    650.9440     15.1057    130.5682      0.0000
  1420.0000    628.9908     16.2369    126.8550      0.0000
  1420.2500    576.3674     17.6260    123.0003      0.0000
  1420.5000    506.1938     19.2784    119.3887      0.0000
  1420.7500    439.2656     21.0391    116.3840      0.0000
  1421.0000    391.0863     22.6406    114.2718      0.0000
  1421.2500    364.5857     23.8361    113.2307      0.0000
  1421.5000    353.9542     24.5031    113.3394      0.0000
  1421.7500    352.8078     24.6450    114.5649      0.0000
  1422.0000    358.8308     24.3130    116.7150      0.0000
  1422.2500    372.8585     23.5456    119.3974      0.0000
  1422.5000    394.3399     22.3945    122.0534      0.0000
  1422.7500    417.7878     20.9899    124.1280      0.0000
  1423.0000    436.1689     19.5321    125.3296      0.0000
  1423.2500    449.8847     18.1990    125.8382      0.0000
  1423.5000    468.6635     17.0756    126.2387      0.0000
  1423.7500    500.4731     16.1725    127.1430      0.0000
  1424.0000    541.6537     15.4782    128.7550      0.0000
  1424.2500    582.3855     14.9698    130.7605      0.0000
  1424.5000    617.9398     14.5868    132.6411      0.0000
  1424.7500    648.7036     14.2339    134.1052      0.0000
  1425.0000    672.4784     13.8311    135.2466      0.0000
  1425.2500    682.9543     13.3596    136.3374      0.0000
  1425.5000    674.5999     12.8604    137.5366      0.0000
  1425.7500    646.0969     12.3938    138.7838      0.0000
  1426.0000    601.5749     11.9975    139.8819      0.0000
  1426.2500    550.8464     11.6718    140.6114      0.0000
  1426.5000    506.0671     11.3944    140.7856      0.0000
  1426.7500    475.5476     11.1415    140.2839      0.0000
  1427.0000    461.0081     10.8978    139.1102      0.0000
  1427.2500    460.9597     10.6599    137.4073      0.0000
  1427.5000    475.2114     10.4414    135.3996      0.0000
  1427.7500    504.8689     10.2691    133.3163      0.0000
  1428.0000    547.8051     10.1659    131.3609      0.0000
  1428.2500    595.5381     10.1308    129.7293      0.0000
  1428.5000    636.8130     10.1377    128.6189      0.0000
  1428.7500    664.8745     10.1552    128.2037      0.0000
  1429.0000    680.2254     10.1707    128.5678      0.0000
  1429.2500    686.8789     10.1920    129.5753      0.0000
  1429.5000    688.5496     10.2278    130.7787      0.0000
  1429.7500    688.8525     10.2722    131.5321      0.0000
  1430.0000    692.0167     10.3112    131.3482      0.0000
  1430.2500    700.6101     10.3352    130.2247      0.0000
  1430.5000    712.8823     10.3412    128.6390      0.0000
  1430.7500    723.6628     10.3260    127.2215      0.0000
  1431.0000    728.0091     10.2801    126.4216      0.0000
  1431.2500    724.2426     10.1885    126.3900      0.0000
  1431.5000    714.6855     10.0411    127.0254      0.0000
  1431.7500    704.1927      9.8441    128.0625      0.0000
  1432.0000    697.2158      9.6193    129.1450      0.0000
  1432.2500    695.4996      9.3920    129.9304      0.0000
  1432.5000    698.1926      9.1822    130.1958      0.0000
  1432.7500    703.1381      9.0011    129.8876      0.0000
  1433.0000    707.3350      8.8493    129.1174      0.0000
  1433.2500    706.9124      8.7179    128.1296      0.0000
  1433.5000    698.0492      8.5920    127.2373      0.0000
  1433.7500    678.8135      8.4559    126.7138      0.0000
  1434.0000    650.6594      8.2983    126.6682      0.0000
  1434.2500    618.3549      8.1166    126.9373      0.0000
  1434.5000    588.5660      7.9179    127.0954      0.0000
  1434.7500    567.9611      7.7155    126.6199      0.0000
  1435.0000    561.4641      7.5197    125.1889      0.0000
  1435.2500    571.5381      7.3159    122.9089      0.0000
  1435.5000    598.0529      7.0461    120.2513      0.0000
  1435.7500    636.8112      6.6339    117.7246      0.0000
  1436.0000    677.9567      6.0568    115.5211      0.0000
  1436.2500    709.2144      5.3914    113.3865      0.0000
  1436.5000    723.5999      4.7703    110.7462      0.0000
  1436.7500    723.4406      4.2887    106.9930      0.0000
  1437.0000    714.8912      3.9544    101.8125      0.0000
  1437.2500    698.6840      3.7130     95.3964      0.0000
  1437.5000    669.1754      3.5079     88.3819      0.0000
  1437.7500    625.0550      3.3149     81.5756      0.0000
  1438.0000    579.2149      3.1331     75.6465      0.0000
  1438.2500    553.1351      2.9580     70.9587      0.0000
  1438.5000    559.1016      2.7827     67.5506      0.0000
  1438.7500    589.5948      2.6262     65.2098      0.0000
  1439.0000    625.3007      2.5400     63.6034      0.0000
  1439.2500    651.3174      2.5627     62.4148      0.0000
  1439.5000    664.5811      2.6625     61.4237      0.0000
  1439.7500    669.5863      2.7417     60.5006      0.0000
  1440.0000    671.4329      2.7147     59.6001      0.0000
  1440.2500    672.8729      2.5833     58.8053      0.0000
  1440.5000    674.8011      2.4444     58.3492      0.0000
  1440.7500    677.6837      2.4369     58.5030      0.0000
  1441.0000    682.5574      2.6699     59.3547      0.0000
