~Version Information
VERS.                      2.0: CWLS Log ASCII Standard - VERSION 2.0
WRAP.                       NO: One line per depth step
~Well Information Block
STRT.FT               500.0000: 
STOP.FT              2732.5000: 
STEP.FT                 0.2500: 
NULL.                -999.2500: 
COMP.          Pioneer Natural Resources: COMPANY
WELL.          Dude Canyon 22-32: WELL
FLD.           Purgatoire River: FIELD
LOC.           1662' FNL & 2446' FWL----: LOCATION
PROV.                 Colorado: PROVINCE
CNTY.               Las Animas: COUNTRY
SRVC.                Patterson: SERVICE COMPANY
DATE.          Thu Mar 10 07:15:42 2005: LOG DATE
UWI.           05 071 08257 00: UNIQUE WELL ID
~Curve Information Block
DEPT.FT            0 000 00 00: Depth
DIR.Ohm-m                     : IEL Induction Resistivity
GR.GAPI                       : Gamma Ray
SN.Ohm-m                      : IEL Short Normal
SP.mV                         : IEL Spontaneous Potential
~Parameter Information Block
~A  Depth       DIR          GR          SN          SP     
# ...
  1371.0000     21.7942    141.6970     25.9010     68.8766
  1371.2500     22.0147    144.2727     25.9359     69.1336
  1371.5000     22.2106    144.6584     25.9492     69.3265
  1371.7500     22.3645    143.4516     25.9710     69.4029
  1372.0000     22.4970    140.9823     26.0360     69.3293
  1372.2500     22.6620    139.3411     26.1771     69.0913
  1372.5000     22.9299    136.5363     26.4358     68.6901
  1372.7500     23.3725    133.8983     26.8818     68.1360
  1373.0000     24.0527    128.4691     27.6044     67.4430
  1373.2500     25.0139    124.4324     28.6606     66.6263
  1373.5000     26.2648    119.5475     30.0204     65.7031
  1373.7500     27.7561    117.9749     31.5540     64.6952
  1374.0000     29.3475    118.4661     33.0572     63.6319
  1374.2500     30.7876    120.0174     34.2936     62.5499
  1374.5000     31.7644    122.1014     35.0581     61.4924
  1374.7500     32.0514    122.2884     35.2510     60.5059
  1375.0000     31.6525    120.6612     34.9179     59.6381
  1375.2500     30.7980    119.3536     34.2166     58.9326
  1375.5000     29.7925    119.4391     33.3381     58.4239
  1375.7500     28.8606    121.7009     32.4326     58.1296
  1376.0000     28.0860    128.2275     31.5730     58.0463
  1376.2500     27.4346    133.6933     30.7570     58.1496
  1376.5000     26.8127    140.9229     29.9393     58.4001
  1376.7500     26.1277    143.6383     29.0789     58.7514
  1377.0000     25.3253    143.6865     28.1753     59.1588
  1377.2500     24.4020    141.7204     27.2713     59.5842
  1377.5000     23.4045    137.9177     26.4277     59.9992
  1377.7500     22.4217    135.7893     25.6983     60.3852
  1378.0000     21.5622    133.8586     25.1203     60.7325
  1378.2500     20.9217    133.4768     24.7086     61.0365
  1378.5000     20.5558    134.1796     24.4527     61.2921
  1378.7500     20.4680    135.1156     24.3281     61.4879
  1379.0000     20.6075    136.0492     24.3128     61.6016
  1379.2500     20.8759    135.9625     24.3872     61.6025
  1379.5000     21.1494    135.0942     24.5242     61.4622
  1379.7500     21.3227    134.3047     24.6911     61.1699
  1380.0000     21.3566    132.7508     24.8652     60.7463
  1380.2500     21.2899    131.4613     25.0371     60.2464
  1380.5000     21.2024    129.8024     25.1958     59.7505
  1380.7500     21.1626    129.3109     25.3109     59.3441
  1381.0000     21.2003    129.3016     25.3328     59.0978
  1381.2500     21.3127    129.2049     25.2094     59.0534
  1381.5000     21.4833    128.5044     24.9159     59.2205
  1381.7500     21.6921    128.2410     24.4829     59.5811
  1382.0000     21.9086    129.6680     24.0028     60.0977
  1382.2500     22.0800    132.0473     23.5934     60.7213
  1382.5000     22.1340    136.5126     23.3313     61.3998
  1382.7500     22.0035    139.2231     23.2065     62.0850
  1383.0000     21.6566    142.6248     23.1368     62.7389
  1383.2500     21.1139    144.7983     23.0255     63.3363
  1383.5000     20.4465    148.1337     22.8219     63.8625
  1383.7500     19.7589    150.1823     22.5535     64.3082
  1384.0000     19.1618    152.6057     22.3150     64.6625
  1384.2500     18.7417    153.6895     22.2232     64.9096
  1384.5000     18.5428    154.5069     22.3601     65.0303
  1384.7500     18.5641    154.6178     22.7348     65.0070
  1385.0000     18.7702    154.1472     23.2836     64.8308
  1385.2500     19.1055    153.0813     23.9114     64.5057
  1385.5000     19.5117    149.7792     24.5451     64.0499
  1385.7500     19.9466    146.6051     25.1575     63.4923
  1386.0000     20.3969    141.2622     25.7512     62.8683
  1386.2500     20.8777    137.6682     26.3250     62.2143
  1386.5000     21.4158    132.4073     26.8554     61.5653
  1386.7500     22.0265    129.1371     27.3095     60.9544
  1387.0000     22.6980    125.2165     27.6744     60.4157
  1387.2500     23.3842    123.7623     27.9667     59.9848
  1387.5000     24.0037    123.8834     28.2008     59.6977
  1387.7500     24.4469    125.2655     28.3430     59.5859
  1388.0000     24.6001    127.6419     28.3020     59.6719
  1388.2500     24.3900    128.0865     27.9715     59.9665
  1388.5000     23.8215    125.2945     27.2984     60.4703
  1388.7500     22.9762    120.9022     26.3399     61.1755
  1389.0000     21.9742    111.8030     25.2622     62.0660
  1389.2500     20.9336    105.7613     24.2595     63.1132
  1389.5000     19.9493    100.4412     23.4389     64.2720
  1389.7500     19.0857    100.9654     22.7760     65.4794
  1390.0000     18.3734    107.7912     22.1811     66.6587
  1390.2500     17.8079    114.7803     21.6024     67.7304
  1390.5000     17.3563    125.3012     21.0689     68.6252
  1390.7500     16.9725    130.6880     20.6591     69.2944
  1391.0000     16.6205    135.2614     20.4458     69.7147
  1391.2500     16.2950    136.3467     20.4617     69.8860
  1391.5000     16.0296    136.2132     20.6973     69.8248
  1391.7500     15.8864    135.1850     21.1255     69.5570
  1392.0000     15.9382    131.5079     21.7305     69.1130
  1392.2500     16.2529    127.0368     22.5288     68.5260
  1392.5000     16.8857    116.8858     23.5813     67.8363
  1392.7500     17.8771    108.0478     24.9984     67.0969
  1393.0000     19.2528     92.7779     26.9237     66.3785
  1393.2500     21.0231     82.1733     29.4800     65.7650
  1393.5000     23.1811     67.1124     32.6839     65.3354
  1393.7500     25.6973     58.2307     36.3641     65.1372
  1394.0000     28.5053     47.5256     40.1646     65.1651
  1394.2500     31.4847     42.7629     43.7005     65.3607
  1394.5000     34.4584     39.9828     46.7924     65.6401
  1394.7500     37.2314     40.9016     49.5559     65.9383
  1395.0000     39.6590     45.0533     52.2232     66.2479
  1395.2500     41.6896     48.4958     54.8769     66.6265
  1395.5000     43.3349     52.7186     57.3654     67.1672
  1395.7500     44.5953     54.1571     59.4485     67.9464
  1396.0000     45.4179     54.3858     60.9823     68.9777
  1396.2500     45.7349     54.3533     61.9572     70.1968
  1396.5000     45.5514     56.8987     62.3771     71.4822
  1396.7500     44.9993     61.7089     62.1316     72.6970
  1397.0000     44.3050     74.0304     61.0307     73.7280
  1397.2500     43.7055     84.5568     59.0114     74.5065
  1397.5000     43.3848    100.4196     56.3212     75.0074
  1397.7500     43.4511    109.0405     53.4879     75.2368
  1398.0000     43.9415    117.0057     51.0943     75.2179
  1398.2500     44.8283    118.8954     49.5379     74.9827
  1398.5000     46.0256    117.8846     48.9240     74.5674
  1398.7500     47.3986    115.8660     49.1072     74.0102
  1399.0000     48.7795    112.8842     49.8145     73.3496
  1399.2500     49.9882    111.6658     50.7695     72.6209
  1399.5000     50.8682    110.9470     51.7753     71.8544
  1399.7500     51.3442    110.5462     52.7550     71.0739
  1400.0000     51.4736    108.7964     53.7430     70.2968
  1400.2500     51.4461    106.5749     54.8217     69.5337
  1400.5000     51.5118    102.2064     56.0261     68.7893
  1400.7500     51.8746     99.2390     57.2740     68.0623
  1401.0000     52.6064     95.7079     58.3732     67.3497
  1401.2500     53.6084     94.3295     59.1031     66.6543
  1401.5000     54.6350     93.8412     59.3137     65.9977
  1401.7500     55.3797     94.2741     58.9772     65.4332
  1402.0000     55.5905     95.1449     58.1647     65.0496
  1402.2500     55.1517     95.3955     56.9796     64.9544
  1402.5000     54.0923     95.0195     55.4991     65.2347
  1402.7500     52.5279     94.4422     53.7599     65.9089
  1403.0000     50.5870     93.6393     51.7834     66.8950
  1403.2500     48.3646     93.5101     49.6096     68.0197
  1403.5000     45.9237     94.5940     47.3154     69.0713
  1403.7500     43.3275     96.5450     45.0005     69.8722
  1404.0000     40.6607    101.6136     42.7463     70.3331
  1404.2500     38.0152    106.1787     40.5859     70.4630
