~Version Information
VERS.                      2.0: CWLS Log ASCII Standard - VERSION 2.0
WRAP.                       NO: One line per depth step
~Well Information Block
STRT.FT               640.0000: 
STOP.FT               927.0000: 
STEP.FT                 0.1000: 
NULL.                -999.2500: 
COMP.          Pioneer Natural Resources: COMPANY
WELL.          Claim Jumper 41-22: WELL
FLD.           Purgatoire River: FIELD
LOC.           1120' FNL & 977' FEL: LOCATION
PROV.                 Colorado: PROVINCE
CNTY.               Las Animas: COUNTRY
SRVC.                Patterson: SERVICE COMPANY
DATE.          Thu Jun 23 08:35:14 2005: LOG DATE
UWI.           05-071-08405-00: UNIQUE WELL ID
~Curve Information Block
DEPT.FT            0 000 00 00: Depth
DCAL.in                       : CDL Caliper
RHOB.g/cc                     : CDL Bulk Density
RHOC.g/cc                     : CDL Density Correction
DPOR.pu                       : CDL Density Porosity
GR.GAPI                       : Gamma Ray
NPOR.pu                       : Neutron Porosity
~Parameter Information Block
~A  Depth       DCAL        RHOB        RHOC        DPOR         GR         NPOR    
# ...
   908.8000      7.8730      2.6276      0.1269      1.3578   -999.2500     25.2771
   908.9000      7.8730      2.6417      0.1570      0.5057   -999.2500     24.9842
   909.0000      7.8725      2.6362      0.1399      0.8355   -999.2500     24.7329
   909.1000      7.8725      2.6323      0.0940      1.0710   -999.2500     24.9946
   909.2000      7.8725      2.6474      0.1159      0.1603   -999.2500     25.4309
   909.3000      7.8664      2.6523      0.1916     -0.1397   -999.2500     25.4770
   909.4000      7.8664      2.6322      0.0958      1.0777   -999.2500     25.1849
   909.5000      7.8604      2.6127      0.1411      2.2627   -999.2500     25.0301
   909.6000      7.8604      2.6038      0.1002      2.7974   -999.2500     25.0044
   909.7000      7.8604      2.5977      0.1388      3.1697   -999.2500     24.9514
   909.8000      7.8571      2.5938      0.1136      3.4086   -999.2500     24.9401
   909.9000      7.8571      2.5988      0.1031      3.1044   -999.2500     24.8935
   910.0000      7.8532      2.6119      0.1582      2.3082   -999.2500     24.6494
   910.1000      7.8532      2.6232      0.1378      1.6217   -999.2500     24.3041
   910.2000      7.8532      2.6180      0.2049      1.9413   -999.2500     24.2556
   910.3000      7.8488      2.5870      0.1296      3.8158   -999.2500     24.5260
   910.4000      7.8488      2.5522      0.0730      5.9302   -999.2500     24.7299
   910.5000      7.8497      2.5399      0.1180      6.6738   -999.2500     25.1711
   910.6000      7.8497      2.5525      0.0385      5.9101   -999.2500     27.7575
   910.7000      7.8497      2.5792      0.1083      4.2938   -999.2500     35.3439
   910.8000      7.8538      2.6018      0.1179      2.9193   -999.2500     46.0395
   910.9000      7.8538      2.6107      0.1550      2.3823   -999.2500     53.0970
   911.0000      7.8502      2.6159      0.1637      2.0690   -999.2500     55.4914
   911.1000      7.8502      2.6337      0.1877      0.9894   -999.2500     55.9491
   911.2000      7.8502      2.6558      0.2140     -0.3503   -999.2500     55.9973
   911.3000      7.8404      2.6534      0.2147     -0.2065   -999.2500     56.0000
   911.4000      7.8404      2.6192      0.1549      1.8692   -999.2500   -999.2500
   911.5000      7.8414      2.5770      0.0694      4.4247   -999.2500   -999.2500
   911.6000      7.8414      2.5512      0.0761      5.9879   -999.2500   -999.2500
   911.7000      7.8414      2.5451      0.1159      6.3600   -999.2500   -999.2500
   911.8000      7.8522      2.5500      0.1016      6.0583   -999.2500   -999.2500
   911.9000      7.8522      2.5561      0.1561      5.6921   -999.2500   -999.2500
   912.0000      7.8545      2.5522      0.1249      5.9285   -999.2500   -999.2500
   912.1000      7.8545      2.5327      0.1064      7.1083   -999.2500   -999.2500
   912.2000      7.8545      2.5067      0.0605      8.6838   -999.2500   -999.2500
   912.3000      7.8468      2.4965      0.0692      9.3020   -999.2500   -999.2500
   912.4000      7.8468      2.5096      0.1018      8.5097   -999.2500   -999.2500
   912.5000      7.8356      2.5349      0.1242      6.9755   -999.2500   -999.2500
   912.6000      7.8356      2.5676      0.1450      4.9912   -999.2500   -999.2500
   912.7000      7.8356      2.6048      0.1742      2.7421   -999.2500   -999.2500
   912.8000      7.8316      2.6395      0.1864      0.6390   -999.2500   -999.2500
   912.9000      7.8316      2.6648      0.2242     -0.8963   -999.2500   -999.2500
   913.0000      7.8305      2.6749      0.2060     -1.5096   -999.2500   -999.2500
   913.1000      7.8305      2.6701      0.1796     -1.2173   -999.2500   -999.2500
   913.2000      7.8305      2.6494      0.1761      0.0340   -999.2500   -999.2500
   913.3000      7.8321      2.6173      0.1514      1.9831   -999.2500   -999.2500
   913.4000      7.8321      2.5910      0.1091      3.5746   -999.2500   -999.2500
   913.5000      7.8370      2.5746      0.1631      4.5704   -999.2500   -999.2500
   913.6000      7.8370      2.5584      0.1054      5.5497   -999.2500   -999.2500
   913.7000      7.8370      2.5497      0.0666      6.0795   -999.2500   -999.2500
   913.8000      7.8434      2.5574      0.1091      5.6129   -999.2500   -999.2500
   913.9000      7.8434      2.5747      0.0887      4.5640   -999.2500   -999.2500
   914.0000      7.8519      2.5966      0.1287      3.2357   -999.2500   -999.2500
   914.1000      7.8519      2.6256      0.1291      1.4802   -999.2500   -999.2500
   914.2000      7.8519      2.6551      0.1609     -0.3107   -999.2500   -999.2500
   914.3000      7.8562      2.6695      0.1563     -1.1804   -999.2500   -999.2500
   914.4000      7.8562      2.6624      0.1250     -0.7503   -999.2500   -999.2500
   914.5000      7.8513      2.6423      0.1302      0.4653   -999.2500   -999.2500
   914.6000      7.8513      2.6300      0.0882      1.2105   -999.2500   -999.2500
   914.7000      7.8513      2.6391      0.1142      0.6614   -999.2500   -999.2500
   914.8000      7.8485      2.6561      0.1033     -0.3710   -999.2500   -999.2500
   914.9000      7.8485      2.6604      0.1293     -0.6292   -999.2500   -999.2500
   915.0000      7.8533      2.6504      0.0923     -0.0230   -999.2500   -999.2500
   915.1000      7.8533      2.6337      0.1175      0.9854   -999.2500   -999.2500
   915.2000      7.8533      2.6140      0.0644      2.1793   -999.2500   -999.2500
   915.3000      7.8588      2.5989      0.0963      3.0980   -999.2500   -999.2500
   915.4000      7.8588      2.5887      0.0926      3.7163   -999.2500   -999.2500
   915.5000      7.8600      2.5781      0.0843      4.3600   -999.2500   -999.2500
   915.6000      7.8600      2.5669      0.0910      5.0356   -999.2500   -999.2500
   915.7000      7.8600      2.5578      0.0984      5.5866   -999.2500   -999.2500
   915.8000      7.8566      2.5553      0.0798      5.7380   -999.2500   -999.2500
   915.9000      7.8566      2.5593      0.0501      5.4991   -999.2500   -999.2500
   916.0000      7.8516      2.5597      0.1004      5.4746   -999.2500   -999.2500
   916.1000      7.8516      2.5500      0.0728      6.0625   -999.2500   -999.2500
   916.2000      7.8516      2.5400      0.0449      6.6664   -999.2500   -999.2500
   916.3000      7.8426      2.5400      0.0650      6.6675   -999.2500   -999.2500
   916.4000      7.8426      2.5436      0.1308      6.4503   -999.2500   -999.2500
   916.5000      7.8305      2.5424      0.1039      6.5185   -999.2500   -999.2500
   916.6000      7.8305      2.5503      0.0602      6.0434   -999.2500   -999.2500
   916.7000      7.8305      2.5827      0.1312      4.0810   -999.2500   -999.2500
   916.8000      7.8261      2.6269      0.1667      1.4016   -999.2500   -999.2500
   916.9000      7.8261      2.6566      0.1751     -0.3973   -999.2500   -999.2500
   917.0000      7.8342      2.6592      0.1701     -0.5560   -999.2500   -999.2500
   917.1000      7.8342      2.6474      0.1359      0.1589   -999.2500   -999.2500
   917.2000      7.8342      2.6449      0.1865      0.3095   -999.2500   -999.2500
   917.3000      7.8409      2.6522      0.1785     -0.1330   -999.2500   -999.2500
   917.4000      7.8409      2.6466      0.1831      0.2049   -999.2500   -999.2500
   917.5000      7.8366      2.6195      0.1350      1.8464   -999.2500   -999.2500
   917.6000      7.8366      2.5874      0.0771      3.7936   -999.2500   -999.2500
   917.7000      7.8366      2.5706      0.0292      4.8136   -999.2500   -999.2500
   917.8000      7.8377      2.5728      0.0563      4.6792   -999.2500   -999.2500
   917.9000      7.8377      2.5794      0.0780      4.2763   -999.2500   -999.2500
   918.0000      7.8503      2.5833      0.0421      4.0435   -999.2500   -999.2500
   918.1000      7.8503      2.5924      0.0924      3.4921   -999.2500   -999.2500
   918.2000      7.8503      2.6017      0.1059      2.9302   -999.2500   -999.2500
   918.3000      7.8630      2.5973      0.0779      3.1938   -999.2500   -999.2500
