~Version Information
VERS.                      2.0: CWLS Log ASCII Standard - VERSION 2.0
WRAP.                       NO: One line per depth step
~Well Information Block
STRT.FT                -8.2500: 
STOP.FT              2239.2500: 
STEP.FT                 0.2500: 
NULL.                -999.2500: 
COMP.          Pioneer Natural Resources: COMPANY
WELL.            Moo Moo 31-36: WELL
FLD.           Purgatorie River: FIELD
LOC.           612' FNL & 2326' FEL--: LOCATION
PROV.                       CO: PROVINCE
CNTY.               Las Animas: COUNTRY
SRVC.          Patterson Wireline: SERVICE COMPANY
DATE.          Thu Jun 23 10:04:07 2005: LOG DATE
UWI.           05 071 08395 00: UNIQUE WELL ID
~Curve Information Block
DEPT.FT            0 000 00 00: Depth
CCL.                          : Casing Collar Locator
TT3.usec                      : CBL 3' Travel Time
AMP3.mV                       : CBL 3' Amplitude
GR.GAPI                       : Gamma Ray
~Parameter Information Block
~A  Depth       CCL         TT3         AMP3         GR     
# ...
   862.7500      0.0000    832.1287      4.9653    105.6723
   863.0000      0.0000    828.5842      5.0733    100.6024
   863.2500      0.0000    826.5958      5.2034     96.0976
   863.5000      0.0000    826.0499      5.2551     94.4961
   863.7500      0.0000    826.7339      5.1657     97.0074
   864.0000      0.0000    828.9312      4.9790    102.2796
   864.2500      0.0000    833.1060      4.8200    107.6325
   864.5000      0.0000    839.1142      4.7997    111.3107
   864.7500      0.0000    845.8247      4.9318    113.3021
   865.0000      0.0000    851.6605      5.1328    114.4332
   865.2500      0.0000    855.5221      5.2969    115.3483
   865.5000      0.0000    857.0969      5.3691    116.5662
   865.7500      0.0000    856.4643      5.3564    118.9088
   866.0000      0.0000    853.8666      5.2928    122.9421
   866.2500      0.0000    850.0427      5.2050    127.8339
   866.5000      0.0000    846.3130      5.1059    131.4773
   866.7500      0.0000    843.6399      5.0034    132.1264
   867.0000      0.0000    841.2506      4.9067    129.7275
   867.2500      0.0000    836.3727      4.8272    125.7054
   867.5000      0.0000    825.9271      4.7776    121.9502
   867.7500      0.0000    809.5245      4.7670    119.9957
   868.0000      0.0000    790.9373      4.7879    120.4477
   868.2500      0.0000    775.2816      4.8047    122.6957
   868.5000      0.0000    764.0252      4.7661    125.3408
   868.7500      0.0000    754.0913      4.6463    127.1796
   869.0000      0.0000    742.5803      4.4792    127.8933
   869.2500      0.0000    731.1803      4.3439    127.9163
   869.5000      0.0000    725.1527      4.3107    127.7229
   869.7500      0.0000    728.7145      4.3990    127.1759
   870.0000      0.0000    741.6331      4.5779    125.5584
   870.2500      0.0000    759.4959      4.7945    122.3818
   870.5000      0.0000    776.7252      5.0018    118.3363
   870.7500      0.0000    789.6088      5.1727    115.3650
   871.0000      0.0000    797.6383      5.2969    115.3863
   871.2500      0.0000    802.9268      5.3717    118.5831
   871.5000      0.0000    807.8932      5.3955    123.0090
   871.7500      0.0000    813.0933      5.3711    126.0091
   872.0000      0.0000    817.4477      5.3089    125.9802
   872.2500      0.0000    820.0890      5.2230    123.0590
   872.5000      0.0000    821.2379      5.1235    118.7786
   872.7500      0.0000    821.6508      5.0105    115.1100
   873.0000      0.0000    821.8887      4.8816    113.1806
   873.2500      0.0000    822.1500      4.7524    112.6347
   873.5000      0.0000    822.4095      4.6697    112.5455
   873.7500      0.0000    822.6121      4.6911    112.9720
   874.0000      0.0000    822.7829      4.8376    115.0439
   874.2500      0.0000    823.0205      5.0659    119.1219
   874.5000      0.0000    823.4624      5.2868    123.2523
   874.7500      0.0000    824.3006      5.4089    124.1133
   875.0000      0.0000    825.8689      5.3777    119.7063
   875.2500      0.0000    828.6542      5.1985    110.8655
   875.5000      0.0000    832.9558      4.9420    100.1156
   875.7500      0.0000    838.2179      4.7173     89.5415
   876.0000      0.0000    842.6023      4.6155     79.9144
   876.2500      0.0000    843.6354      4.6568     71.2958
   876.5000      0.0000    839.9849      4.7896     63.8105
   876.7500      0.0000    832.9929      4.9373     57.7849
   877.0000      0.0000    826.1203      5.0431     53.6001
   877.2500      0.0000    822.3164      5.0853     51.4910
   877.5000      0.0000    821.9165      5.0704     51.1559
   877.7500      0.0000    823.1833      5.0230     51.6325
   878.0000      0.0000    824.3405      4.9684     51.8433
   878.2500      0.0000    824.6997      4.9108     51.2148
   878.5000      0.0000    824.4070      4.8333     49.8074
   878.7500      0.0000    823.8380      4.7255     48.2204
   879.0000      0.0000    823.3069      4.6063     47.4212
   879.2500      0.0000    823.0210      4.5137     48.1394
   879.5000      0.0000    823.0699      4.4733     50.1372
   879.7500      0.0000    823.4140      4.4827     52.3844
   880.0000      0.0000    823.9016      4.5222     54.0722
   880.2500      0.0000    824.3771      4.5760     55.1862
   880.5000      0.0000    824.8344      4.6372     56.1691
   880.7500      0.0000    825.5215      4.6954     57.5304
   881.0000      0.0000    826.9592      4.7299     59.8551
   881.2500      0.0000    829.8565      4.7228     63.7158
   881.5000      0.0000    834.7920      4.6779     69.2527
   881.7500      0.0000    841.6454      4.6214     75.9480
   882.0000      0.0000    849.2697      4.5804     82.8711
   882.2500      0.0000    855.9848      4.5602     88.9428
   882.5000      0.0000    860.5739      4.5467     92.9065
   882.7500      0.0000    862.7943      4.5299     93.4005
   883.0000      0.0000    863.0483      4.5276     89.5786
   883.2500      0.0000    861.7355      4.5843     82.0231
   883.5000      0.0000    858.8693      4.7384     72.9051
   883.7500      0.0000    854.2555      4.9771     64.7948
   884.0000      0.0000    848.3687      5.2178     59.1028
   884.2500      0.0000    843.2381      5.3485     55.6147
   884.5000      0.0000    841.7942      5.3101     53.2655
   884.7500      0.0000    845.3875      5.1526     51.1299
   885.0000      0.0000    852.0799      5.0011     48.8802
   885.2500      0.0000    858.2050      4.9558     46.8165
   885.5000      0.0000    861.5110      5.0289     45.6393
   885.7500      0.0000    862.2662      5.1646     45.9709
   886.0000     -2.0000    861.9189      5.2996     47.9909
   886.2500      0.0000    861.6940      5.4011     51.6830
   886.5000      0.0000    862.1884      5.4751     57.3172
   886.7500      0.0000    863.2344      5.5530     65.2335
   887.0000      0.0000    863.7051      5.6497     74.9225
   887.2500      0.0000    861.9944      5.7222     84.6876
   887.5000      0.0000    857.2750      5.6955     92.5883
   887.7500      0.0000    850.0508      5.5466     97.4701
   888.0000      0.0000    841.0295      5.3364     98.9451
   888.2500      0.0000    829.8475      5.1425     96.9645
   888.5000      0.0000    815.8207      4.9919     91.8695
   888.7500      0.0000    799.8430      4.8729     84.5336
   889.0000      0.0000    784.5988      4.7852     76.0661
   889.2500      0.0000    772.8176      4.7580     67.4944
   889.5000      0.0000    766.0427      4.8228     59.8951
   889.7500      0.0000    764.7665      4.9714     54.5423
   890.0000      0.0000    768.4103      5.1426     52.4990
   890.2500      0.0000    774.8361      5.2538     53.9556
   890.5000      0.0000    780.9579      5.2569     57.9859
   890.7500      0.0000    784.7847      5.1720     62.9208
   891.0000      0.0000    786.7282      5.0729     66.9867
   891.2500      0.0000    788.3490      5.0438     68.8155
   891.5000      0.0000    789.9313      5.1377     67.8905
   891.7500      0.0000    789.9535      5.3572     64.8608
   892.0000      0.0000    787.0302      5.6595     61.2111
   892.2500      0.0000    781.7097      5.9768     58.2403
   892.5000      0.0000    776.0382      6.2432     56.3909
   892.7500      0.0000    771.7314      6.4135     55.6516
   893.0000      0.0000    769.0846      6.4697     56.4812
   893.2500      0.0000    767.2623      6.4166     60.0762
   893.5000      0.0000    765.1273      6.2748     67.4323
   893.7500      0.0000    761.8531      6.0705     78.0352
   894.0000      0.0000    757.2204      5.8263     89.8047
   894.2500      0.0000    751.5956      5.5659    100.5858
   894.5000      0.0000    745.7023      5.3297    109.3238
   894.7500      0.0000    740.5245      5.1812    115.6408
   895.0000      0.0000    737.4216      5.1856    119.1114
   895.2500      0.0000    737.9186      5.3713    119.6115
   895.5000      0.0000    742.8244      5.6971    117.9328
   895.7500      0.0000    751.2418      6.0528    115.4507
   896.0000      0.0000    760.7518      6.3040    113.3316
