~Version Information
VERS.                      2.0: CWLS Log ASCII Standard - VERSION 2.0
WRAP.                       NO: One line per depth step
~Well Information Block
STRT.FT               952.6000: 
STOP.FT              2511.5000: 
STEP.FT                 0.1000: 
NULL.                -999.2500: 
COMP.          Petrogulf Corporation: COMPANY
WELL.             Royal 8-33 V: WELL
FLD.           Purgatoire River: FIELD
LOC.           2365' FSL & 2336' FEL: LOCATION
PROV.                 Colorado: PROVINCE
CNTY.               Las Animas: COUNTRY
SRVC.                Patterson: SERVICE COMPANY
DATE.          Fri Dec 05 09:15:49 2003: LOG DATE
UWI.                          : UNIQUE WELL ID
~Curve Information Block
DEPT.FT            0 000 00 00: Depth
DCAL.in                       : CDL Caliper
RHOB.g/cc                     : CDL Bulk Density
RHOC.g/cc                     : CDL Density Correction
DPOR.pu                       : CDL Density Porosity
GR.GAPI                       : Gamma Ray
NPOR.pu                       : Neutron Porosity
~Parameter Information Block
~A  Depth       DCAL        RHOB        RHOC        DPOR         GR         NPOR    
# ...
  1375.0000      8.3404      2.6397      0.1729      0.6228    134.2095     25.4963
  1375.1000      8.3404      2.6642      0.2029     -0.8597    137.6635     25.7043
  1375.2000      8.3404      2.6507      0.2168     -0.0430    138.5749     25.7582
  1375.3000      8.1764      2.6099      0.1347      2.4329    138.6637     25.9495
  1375.4000      8.1764      2.5655      0.1057      5.1235    137.8895     26.3172
  1375.5000      8.1921      2.5227      0.1291      7.7139    140.0308     26.4554
  1375.6000      8.1921      2.4819      0.0436     10.1899    138.9844     26.4195
  1375.7000      8.1921      2.4595      0.0285     11.5472    129.4444     26.3822
  1375.8000      8.2907      2.4569      0.0620     11.7045    122.4173     26.2519
  1375.9000      8.2907      2.4528      0.0964     11.9508    126.1153     26.1930
  1376.0000      8.2924      2.4457      0.0141     12.3799    133.3038     26.4847
  1376.1000      8.2924      2.4565      0.0316     11.7296    134.9502     27.0202
  1376.2000      8.2924      2.4846      0.0714     10.0221    131.1778     27.5805
  1376.3000      8.3042      2.5124      0.1225      8.3396    127.4862     27.9704
  1376.4000      8.3042      2.5341      0.1187      7.0240    128.7403     28.0756
  1376.5000      8.3151      2.5524      0.1429      5.9159    135.8078     28.0461
  1376.6000      8.3151      2.5594      0.1483      5.4891    144.9885     27.9157
  1376.7000      8.3151      2.5477      0.1153      6.1998    150.9429     27.7118
  1376.8000      8.3048      2.5239      0.0704      7.6434    147.7575     27.7468
  1376.9000      8.3048      2.4899      0.1217      9.7033    138.1035     28.2812
  1377.0000      8.2414      2.4446      0.0785     12.4502    131.3491     29.0822
  1377.1000      8.2414      2.4035      0.1165     14.9369    127.4028     29.5788
  1377.2000      8.2414      2.3747      0.1104     16.6865    119.7748     29.5862
  1377.3000      8.2585      2.3462      0.1315     18.4140    109.6345     29.6575
  1377.4000      8.2585      2.3204      0.0938     19.9754    104.6334     30.1787
  1377.5000      8.2763      2.3167      0.1162     20.1999    107.3266     30.6983
  1377.6000      8.2763      2.3304      0.1964     19.3670    114.5256     30.4371
  1377.7000      8.2763      2.3366      0.2275     18.9966    123.4119     29.2960
  1377.8000      8.3058      2.3359      0.2103     19.0343    129.3448     28.2304
  1377.9000      8.3058      2.3495      0.2948     18.2129    127.0765     27.9495
  1378.0000      8.3972      2.3882      0.2364     15.8644    119.5903     28.0859
  1378.1000      8.3972      2.4499      0.3001     12.1255    116.0647     28.1811
  1378.2000      8.3972      2.5146      0.2919      8.2057    118.8956     28.3298
  1378.3000      8.4598      2.5517      0.2835      5.9561    123.5396     28.7714
  1378.4000      8.4598      2.5433      0.2040      6.4654    125.4880     29.3016
  1378.5000      8.4967      2.5071      0.1171      8.6596    121.5036     29.3144
  1378.6000      8.4967      2.4753      0.1076     10.5891    116.5558     28.7216
  1378.7000      8.4967      2.4560      0.1379     11.7563    118.6955     28.3095
  1378.8000      8.4235      2.4365      0.1425     12.9405    124.1046     28.5725
  1378.9000      8.4235      2.4073      0.1361     14.7108    126.9853     28.8508
  1379.0000      8.5293      2.3783      0.0607     16.4675    128.6880     28.5995
  1379.1000      8.5293      2.3755      0.0960     16.6364    130.1744     28.4947
  1379.2000      8.5293      2.4090      0.1510     14.6061    132.3321     28.9680
  1379.3000      8.5048      2.4606      0.2141     11.4783    134.3380     29.4856
  1379.4000      8.5048      2.5120      0.2458      8.3660    134.3920     29.5403
  1379.5000      8.5761      2.5580      0.3352      5.5774    137.2518     29.2249
  1379.6000      8.5761      2.5996      0.3364      3.0566    144.4153     29.1029
  1379.7000      8.5761      2.6398      0.3466      0.6183    148.5469     29.5179
  1379.8000      8.5691      2.6759      0.3792     -1.5716    146.4659     29.9888
  1379.9000      8.5691      2.6985      0.3701     -2.9423    140.9204     29.6821
  1380.0000      8.5780      2.6981      0.3364     -2.9158    131.3788     29.0355
  1380.1000      8.5780      2.6713      0.2853     -1.2919    120.4139     29.0744
  1380.2000      8.5780      2.6186      0.2804      1.9001    117.3409     29.7745
  1380.3000      8.4577      2.5398      0.2571      6.6813    119.4644     30.5744
  1380.4000      8.4577      2.4447      0.2622     12.4422    116.7531     31.3115
  1380.5000      8.4373      2.3473      0.1838     18.3483    114.9539     31.9223
  1380.6000      8.4373      2.2463      0.1234     24.4651    119.4262     32.0470
  1380.7000      8.4373      2.1440     -0.0191     30.6688    119.9394     31.5889
  1380.8000      8.3226      2.0625     -0.0606     35.6034    113.1665     31.0514
  1380.9000      8.3226      2.0076     -0.0356     38.9347    107.3082     31.2379
  1381.0000      8.3033      1.9554     -0.0458     42.0945    104.8538     32.1252
  1381.1000      8.3033      1.8974      0.0410     45.6132    101.2377     32.5034
  1381.2000      8.3033      1.8602     -0.0211     47.8649     95.8764     31.9402
  1381.3000      8.3248      1.8668      0.1424     47.4695     93.2210     31.2334
  1381.4000      8.3248      1.8905      0.1727     46.0321     93.1975     30.8191
  1381.5000      8.3154      1.8964      0.1500     45.6700     93.2382     30.6441
  1381.6000      8.3154      1.8947      0.0298     45.7730     94.0138     30.3386
  1381.7000      8.3154      1.9236      0.0730     44.0237     94.7505     29.5661
  1381.8000      8.3143      2.0016      0.1547     39.2959     92.7900     28.9987
  1381.9000      8.3143      2.1200      0.1820     32.1202     90.3881     29.2709
  1382.0000      8.2121      2.2609      0.2240     23.5811     92.6579     29.7004
  1382.1000      8.2121      2.3928      0.4113     15.5884    101.4769     29.5318
  1382.2000      8.2121      2.4763      0.4823     10.5270    111.4207     28.9237
  1382.3000      8.2973      2.4994      0.4456      9.1274    116.8941     28.2754
  1382.4000      8.2973      2.4861      0.3472      9.9350    120.6060     27.7890
  1382.5000      8.4136      2.4640      0.2821     11.2757    124.7360     27.4871
  1382.6000      8.4136      2.4444      0.2005     12.4627    127.3034     27.2120
  1382.7000      8.4136      2.4347      0.1585     13.0496    127.3699     26.7109
  1382.8000      8.4323      2.4373      0.2148     12.8898    127.6630     26.1883
  1382.9000      8.4323      2.4460      0.1880     12.3646    129.5690     25.9798
  1383.0000      8.5732      2.4603      0.2045     11.4959    132.6817     25.9595
  1383.1000      8.5732      2.4866      0.1576      9.9031    136.5521     26.0262
  1383.2000      8.5732      2.5254      0.1641      7.5544    134.0811     26.0854
  1383.3000      8.6276      2.5609      0.1664      5.3978    122.4405     25.9723
  1383.4000      8.6276      2.5724      0.2087      4.7051    110.4281     25.7306
  1383.5000      8.7642      2.5613      0.1514      5.3730    106.1372     25.5275
  1383.6000      8.7642      2.5495      0.1772      6.0933    112.7652     25.4044
  1383.7000      8.7642      2.5455      0.1608      6.3329    125.4555     25.2291
  1383.8000      8.6424      2.5417      0.1952      6.5623    135.9669     24.8006
  1383.9000      8.6424      2.5448      0.0410      6.3781    142.9813     24.2837
  1384.0000      8.2045      2.5716      0.1264      4.7525    147.8350     24.0453
  1384.1000      8.2045      2.6025      0.1552      2.8805    149.1340     23.9074
  1384.2000      8.2045      2.6071      0.1373      2.5991    145.6068     23.8187
  1384.3000      8.1456      2.5865      0.1032      3.8515    139.4310     24.1455
  1384.4000      8.1456      2.5516      0.0327      5.9641    137.7245     24.8613
  1384.5000      8.1477      2.5168      0.0552      8.0735    141.8952     25.6550
