~Version Information
VERS.                      2.0: CWLS Log ASCII Standard - VERSION 2.0
WRAP.                       NO: One line per depth step
~Well Information Block
STRT.FT               375.0000: 
STOP.FT              2637.0000: 
STEP.FT                 0.1000: 
NULL.                -999.2500: 
COMP.          Pioneer Natural Resources: COMPANY
WELL.            Cortina 23-25: WELL
FLD.           Purgatoire River: FIELD
LOC.           2344' FWL & 2526' FSL----: LOCATION
PROV.                 Colorado: PROVINCE
CNTY.               Las Animas: COUNTRY
SRVC.                Patterson: SERVICE COMPANY
DATE.          Thu Mar 24 07:44:45 2005: LOG DATE
UWI.           05 071 08340 00: UNIQUE WELL ID
~Curve Information Block
DEPT.FT            0 000 00 00: Depth
DCAL.in                       : CDL Caliper
DPOR.pu                       : CDL Density Porosity
NPOR.pu                       : Neutron Porosity
RHOB.g/cc                     : CDL Bulk Density
RHOC.g/cc                     : CDL Density Correction
GR.GAPI                       : Gamma Ray
~Parameter Information Block
~A  Depth       DCAL        DPOR        NPOR        RHOB        RHOC         GR     
# ...
  2467.8000      7.8568     10.7306     25.5489      2.4729      0.0373    101.8774
  2467.9000      7.8568     11.6582     26.0443      2.4576      0.0292    104.1163
  2468.0000      7.8567     12.4665     25.7044      2.4443     -0.0087    115.6787
  2468.1000      7.8567     12.3503     24.9626      2.4462      0.0182    119.6467
  2468.2000      7.8567     11.5656     24.8534      2.4592      0.0119    113.6696
  2468.3000      7.8578     10.5501     25.1354      2.4759      0.0046    120.2414
  2468.4000      7.8578      9.2724     25.2916      2.4970      0.0191    135.8726
  2468.5000      7.8565      7.7553     25.4598      2.5220      0.0717    140.6559
  2468.6000      7.8565      6.4410     25.8081      2.5437      0.0538    137.1611
  2468.7000      7.8565      6.0395     26.0566      2.5503      0.1127    133.5831
  2468.8000      7.8531      6.7870     25.8375      2.5380      0.0919    131.0468
  2468.9000      7.8531      7.7455     25.3117      2.5222      0.0573    131.7725
  2469.0000      7.8514      8.0555     25.2128      2.5171      0.0895    129.7725
  2469.1000      7.8514      8.0542     25.9382      2.5171      0.0760    118.1565
  2469.2000      7.8514      7.9758     26.7234      2.5184      0.0604    104.7105
  2469.3000      7.8523      7.3703     26.3959      2.5284      0.0721    103.0038
  2469.4000      7.8523      6.3231     25.2941      2.5457      0.1071    116.6844
  2469.5000      7.8543      5.8198     24.6091      2.5540      0.1285    135.8976
  2469.6000      7.8543      6.4125     24.2295      2.5442      0.0947    145.4206
  2469.7000      7.8543      7.4965     23.5663      2.5263      0.0740    140.0902
  2469.8000      7.8534      8.1497     22.7880      2.5155      0.0017    125.0018
  2469.9000      7.8534      8.1045     22.4744      2.5163      0.0735    106.3666
  2470.0000      7.8437      7.6525     22.7496      2.5237      0.0296     92.1064
  2470.1000      7.8437      6.8867     23.1395      2.5364      0.0778     88.2225
  2470.2000      7.8437      6.3281     23.3598      2.5456      0.0754     92.8578
  2470.3000      7.8316      6.6163     23.6625      2.5408      0.0565    100.7016
  2470.4000      7.8316      7.3786     24.0911      2.5283      0.0315    104.7254
  2470.5000      7.8279      7.6123     24.2531      2.5244      0.0460    102.9227
  2470.6000      7.8279      6.7780     23.7566      2.5382      0.0796     99.7175
  2470.7000      7.8279      5.2570     22.9974      2.5633      0.0879     98.6140
  2470.8000      7.8303      4.0231     22.9944      2.5836      0.0795    104.0523
  2470.9000      7.8303      3.7876     23.8967      2.5875      0.0987    114.1147
  2471.0000      7.8390      4.6044     24.8354      2.5740      0.0662    118.6321
  2471.1000      7.8390      5.9110     25.0467      2.5525      0.0775    115.7771
  2471.2000      7.8390      6.8857     24.5881      2.5364      0.0356    113.2662
  2471.3000      7.8489      6.8639     24.3201      2.5367      0.0432    111.3103
  2471.4000      7.8489      5.8610     24.8371      2.5533      0.0229    106.9454
  2471.5000      7.8527      4.9841     25.5240      2.5678      0.0958    102.6672
  2471.6000      7.8527      5.2210     25.9086      2.5639      0.0083     97.9996
  2471.7000      7.8527      6.2447     26.2573      2.5470      0.0683     96.4864
  2471.8000      7.8535      7.6690     26.3985      2.5235      0.0580    106.7100
  2471.9000      7.8535      8.8219     26.1484      2.5044      0.0115    123.5335
  2472.0000      7.8540      9.0740     26.1191      2.5003      0.0280    138.0954
  2472.1000      7.8540      9.2244     26.8078      2.4978      0.0423    142.1514
  2472.2000      7.8540      9.9797     27.4891      2.4853      0.0151    127.0277
  2472.3000      7.8548     11.0640     27.3926      2.4674      0.0369    104.0780
  2472.4000      7.8548     12.3332     26.9248      2.4465      0.0209     88.8805
  2472.5000      7.8572     13.9336     26.7195      2.4201      0.0239     83.1782
  2472.6000      7.8572     16.1572     27.0355      2.3834     -0.0099     88.4846
  2472.7000      7.8572     19.7748     27.8118      2.3237      0.0322    104.2457
  2472.8000      7.8584     25.0238     28.6190      2.2371     -0.0179    116.1563
  2472.9000      7.8584     30.0415     29.0122      2.1543     -0.1012    111.8126
  2473.0000      7.8566     32.7617     28.9526      2.1094     -0.0739    100.7584
  2473.1000      7.8566     33.3601     28.7588      2.0996     -0.0122     97.3765
  2473.2000      7.8566     32.7605     28.4395      2.1095     -0.0368    102.0469
  2473.3000      7.8536     30.9609     27.5981      2.1391     -0.0013    111.7328
  2473.4000      7.8536     28.1137     26.2923      2.1861      0.0497    132.4975
  2473.5000      7.8523     24.9773     25.1846      2.2379      0.1114    161.4598
  2473.6000      7.8523     22.0113     24.5675      2.2868      0.1451    178.9260
  2473.7000      7.8523     19.3955     24.1134      2.3300      0.1829    183.2656
  2473.8000      7.8539     17.4163     23.8565      2.3626      0.1831    181.2978
  2473.9000      7.8539     15.8843     24.0505      2.3879      0.0911    168.7537
  2474.0000      7.8557     14.2830     24.4129      2.4143      0.0563    148.1481
  2474.1000      7.8557     12.5312     24.6822      2.4432      0.0314    124.9750
  2474.2000      7.8557     10.7880     24.9888      2.4720      0.0172    107.7427
  2474.3000      7.8561      9.2961     25.1341      2.4966      0.0660    104.3117
  2474.4000      7.8561      8.2168     24.8309      2.5144      0.0416    106.5121
  2474.5000      7.8560      7.7204     24.3020      2.5226      0.0792    104.9107
  2474.6000      7.8560      8.0347     23.8125      2.5174      0.0482    101.0589
  2474.7000      7.8560      8.6958     23.4745      2.5065      0.0285    102.1973
  2474.8000      7.8556      9.1075     23.3197      2.4997      0.0590    115.9026
  2474.9000      7.8556      9.0303     23.2538      2.5010      0.0405    134.5660
  2475.0000      7.8564      8.6791     23.1620      2.5068      0.0819    136.4920
  2475.1000      7.8564      8.7315     23.0500      2.5059      0.0837    116.8497
  2475.2000      7.8564      8.8471     22.6980      2.5040      0.0203     95.7583
  2475.3000      7.8566      8.2628     21.6100      2.5137      0.0665     85.2538
  2475.4000      7.8566      7.5753     20.0536      2.5250      0.0741     77.4623
  2475.5000      7.8569      7.0259     18.9858      2.5341      0.0477     68.3902
  2475.6000      7.8569      6.1007     18.5832      2.5493      0.0566     66.1320
  2475.7000      7.8569      5.0303     18.2944      2.5670      0.0627     72.9900
  2475.8000      7.8584      4.2151     18.0810      2.5805      0.0651     72.3741
  2475.9000      7.8584      3.8064     18.3373      2.5872      0.0846     58.1957
  2476.0000      7.8579      3.7392     19.0310      2.5883      0.0565     48.3275
  2476.1000      7.8579      3.4435     19.4440      2.5932      0.0677     54.3846
  2476.2000      7.8579      2.9121     19.1339      2.6020      0.0569     70.9124
  2476.3000      7.8540      2.9236     18.5165      2.6018      0.0839     84.4881
  2476.4000      7.8540      3.1162     17.9500      2.5986      0.0048     84.3687
  2476.5000      7.8495      2.3091     17.5415      2.6119      0.0403     75.6806
  2476.6000      7.8495      1.1138     17.3513      2.6316      0.0757     71.4544
  2476.7000      7.8495      1.2012     17.3542      2.6302      0.1043     71.7930
  2476.8000      7.8445      2.2918     17.5549      2.6122     -0.0076     71.8642
  2476.9000      7.8445      2.7428     17.7502      2.6047      0.0502     75.3259
  2477.0000      7.8376      2.8441     17.8846      2.6031      0.0889     82.0807
  2477.1000      7.8376      3.5787     17.9037      2.5910      0.0217     86.6812
  2477.2000      7.8376      4.3499     17.5027      2.5782      0.0325     87.8352
  2477.3000      7.8346      4.7285     17.2125      2.5720      0.0368     93.7604
