~Version Information
 VERS.                                  2.0 : CWLS LAS VERSION
 WRAP.                                   NO : WRAPING MODE
 SWARE .                 MController 2.5.0J : SOFTWARE VERSION
~Well Information
 WELL.                         Squeal 11-26 : WELL
 COMP.    Pioneer Natural Resources USA Inc : COMPANY
 FLD.                      Purgatoire River : FIELD
 LOC.                NW/NW Sec 26 T32S R67W : LOCATION
 DATE.                         6/13-14/2005 : DATE(S) LOGGED
 SRVC.       Blanco Geological Services LLC : SERVICE COMPANY
 STAT.                                   CO : STATE
 CNTY.                           Las Animas : COUNTY
 CTRY.                                  USA : COUNTRY
 API.                       05-071-08404-00 : API NUMBER
 STRT.FT                             285.00 : START DEPTH
 STOP.FT                            2760.00 : STOP DEPTH
 STEP.FT                               1.00 : DEPTH INCREMENT
 NULL.                                -9999 : NULL VALUE
~Curve information
 DEPTH.FT                                   :
 ROP.MIN/FT                                 :
 GAS.UNITS                                  :
~ASCII Log data
# ...
       685.0         0.30          8.9 
       686.0         0.28          9.0 
       687.0         0.27          8.9 
       688.0         0.27          9.2 
       689.0         0.27          9.3 
       690.0        10.15         15.8 
       691.0         0.43          8.6 
       692.0         0.40          9.0 
       693.0         0.30          8.8 
       694.0         0.30          8.8 
       695.0         0.23          8.9 
       696.0         0.40          8.8 
       697.0         0.32          8.9 
       698.0         0.33          8.9 
       699.0         0.27          8.9 
       700.0         0.27          9.0 
       701.0         0.27          8.9 
       702.0         0.30          8.9 
       703.0         0.30          9.2 
       704.0         0.30          9.1 
       705.0         0.37          9.3 
       706.0         0.17          9.1 
       707.0         0.30          9.3 
       708.0         0.27          9.2 
       709.0         0.28          9.1 
       710.0         0.30          9.4 
       711.0         0.33          9.0 
       712.0         0.53          9.3 
       713.0         0.43          9.2 
       714.0         0.50          9.2 
       715.0         0.43          9.1 
       716.0         0.43          9.3 
       717.0         0.42          9.0 
       718.0         0.60          9.7 
       719.0         0.53          9.5 
       720.0         5.90         11.3 
       721.0         0.40          9.4 
       722.0         0.50          9.4 
       723.0         0.70          9.7 
       724.0         0.73         10.1 
       725.0         0.33          9.6 
       726.0         0.42          9.7 
       727.0         0.53          9.8 
       728.0         0.33          9.4 
       729.0         0.33          9.7 
       730.0         0.60          9.6 
       731.0         0.63          9.3 
       732.0         0.30          9.2 
       733.0         0.28          9.2 
       734.0         0.50          9.5 
       735.0         0.47          9.3 
       736.0         0.30          9.4 
       737.0         0.20          9.6 
       738.0         0.27          9.5 
       739.0         0.30          9.5 
       740.0         0.30          9.6 
       741.0         0.47         10.0 
       742.0         0.78          9.7 
       743.0         0.83         10.0 
       744.0         0.73          9.7 
       745.0         0.53          9.8 
       746.0         0.47          9.6 
       747.0         0.50          9.7 
       748.0         0.48          9.8 
       749.0         0.47          9.8 
       750.0        10.68         15.1 
       751.0         0.47         10.2 
       752.0         0.27         10.0 
       753.0         0.27         10.1 
       754.0         0.30         10.0 
       755.0         0.33         10.2 
       756.0         0.32         10.0 
       757.0         0.23          9.9 
       758.0         0.23          9.8 
       759.0         0.27          9.7 
       760.0         0.30          9.7 
       761.0         0.30          9.7 
       762.0         0.23          9.7 
       763.0         0.17         10.1 
       764.0         0.40          9.7 
       765.0         0.95         10.0 
       766.0         0.70          9.8 
       767.0         0.23          9.8 
       768.0         0.30          9.7 
       769.0         0.37         10.2 
       770.0         0.37          9.6 
       771.0         0.33          9.7 
       772.0         0.30          9.3 
       773.0         0.17          9.1 
       774.0         0.17          9.0 
       775.0         0.17          9.3 
       776.0         0.25          9.2 
       777.0         0.23          9.4 
       778.0         0.27          9.7 
       779.0         0.23          9.7 
       780.0         5.38         15.6 
       781.0         0.43          9.6 
       782.0         0.45          9.6 
       783.0         0.40          9.8 
       784.0         0.37          9.9 
       785.0         0.33          9.4 
       786.0         0.70          9.7 
       787.0         0.23          9.4 
       788.0         0.13          9.5 
       789.0         0.13          9.4 
       790.0         0.23          9.4 
       791.0         0.23         10.0 
       792.0         0.28          9.8 
       793.0         0.33          9.9 
       794.0         0.60         10.4 
       795.0         0.47         10.0 
       796.0         0.33          9.9 
       797.0         0.40         10.1 
       798.0         0.40         10.1 
       799.0         0.43          9.9 
       800.0         0.52         10.7 
       801.0         0.73         10.2 
       802.0         0.60         10.2 
       803.0         0.70         10.4 
       804.0         0.43         10.2 
       805.0         0.43         10.5 
       806.0         0.62         10.1 
       807.0         0.53         10.1 
       808.0         0.57         10.2 
       809.0         0.43         10.7 
       810.0        11.40         15.2 
       811.0         0.53         10.2 
       812.0         0.47         10.3 
       813.0         0.27         10.2 
       814.0         0.37         10.4 
       815.0         0.37         10.3 
       816.0         0.40         10.7 
       817.0         0.50         10.3 
       818.0         0.52         10.6 
       819.0         0.43         10.5 
       820.0         0.23         10.1 
       821.0         0.33         10.2 
       822.0         0.40         10.2 
       823.0         0.43         10.4 
       824.0         0.50         10.6 
       825.0         0.33         10.1 
       826.0         0.58         10.4 
       827.0         0.37         10.8 
       828.0         0.30         10.2 
       829.0         0.23         10.4 
       830.0         0.40         10.5 
       831.0         0.37         10.4 
       832.0         0.50         10.2 
       833.0         0.70         10.6 
       834.0         0.62         10.4 
       835.0         0.50         10.4 
       836.0         0.30         10.6 
       837.0         0.13         10.1 
       838.0         0.13         10.0 
       839.0         0.17         10.5 
       840.0         7.27         14.8 
       841.0         0.80         11.2 
       842.0         0.82         10.9 
       843.0         0.70         10.8 
       844.0         0.73         10.9 
       845.0         1.20         11.0 
       846.0         0.65         10.7 
       847.0         0.73         11.1 
       848.0         0.50         10.5 
       849.0         0.50         10.7 
       850.0         0.53         10.7 
       851.0         0.63         10.7 
       852.0         0.52         10.6 
       853.0         0.37         10.7 
       854.0         0.27         10.5 
       855.0         0.33         11.0 
       856.0         0.67         10.8 
       857.0         0.57         10.7 
       858.0         0.50         10.6 
       859.0         0.37         10.6 
       860.0         0.45         10.5 
       861.0         0.47         11.1 
       862.0         0.33         10.4 
       863.0         0.40         10.8 
       864.0         0.20         10.3 
       865.0         0.27         10.2 
       866.0         0.33         10.5 
       867.0         0.30         10.4 
       868.0         0.27         10.7 
       869.0         0.27         11.5 
       870.0        13.92         14.3 
       871.0         0.33         10.8 
       872.0         0.33         10.3 
       873.0         0.77         10.6 
       874.0         0.23          9.9 
       875.0         0.20          9.8 
       876.0         0.27          9.7 
       877.0         0.33          9.8 
       878.0         0.42          9.8 
       879.0         0.40         10.1 
       880.0         0.33          9.3 
       881.0         0.23          9.5 
       882.0         0.27          9.2 
       883.0         0.30          9.4 
       884.0         0.33          9.5 
