~Version Information
 VERS.                                  2.0 : CWLS LAS VERSION
 WRAP.                                   NO : WRAPING MODE
 SWARE .                 MController 2.5.0E : SOFTWARE VERSION
~Well Information
 WELL.                      Robinson 15-11v : WELL
 COMP.                       Petrogulf Corp : COMPANY
 FLD.                      Purgatoire River : FIELD
 LOC.                NW/NW Sec 15 T33S R67W : LOCATION
 DATE.                               8/3/04 : DATE(S) LOGGED
 SRVC.       Blanco Geological Services LLC : SERVICE COMPANY
 STAT.                                   CO : STATE
 CNTY.                           Las Animas : COUNTY
 CTRY.                                  USA : COUNTRY
 API.                       05-071-08027-00 : API NUMBER
 STRT.FT                             588.00 : START DEPTH
 STOP.FT                            2101.00 : STOP DEPTH
 STEP.FT                               1.00 : DEPTH INCREMENT
 NULL.                                -9999 : NULL VALUE
~Curve information
 DEPTH.FT                                   :
 ROP.MIN/FT                                 :
 GAS.UNITS                                  :
~ASCII Log data
      588.00    -9999.000          1.3 
      589.00       40.900        101.3 
      590.00        0.383          8.2 
      591.00        0.167          9.6 
      592.00        0.200          9.0 
      593.00        0.133          7.6 
      594.00        0.133          6.4 
      595.00        0.133          5.9 
      596.00        0.300          5.1 
      597.00        0.267          5.2 
      598.00        0.233          6.9 
      599.00        0.167          8.4 
      600.00        0.133         10.7 
      601.00        0.100         12.6 
      602.00        0.100         13.6 
      603.00        0.100         14.8 
      604.00        0.100         15.8 
      605.00        0.100         16.4 
      606.00        0.100         16.1 
      607.00        0.100         16.2 
      608.00        0.067         15.2 
      609.00        0.167         16.0 
      610.00        0.200         14.9 
      611.00        0.217         13.2 
      612.00        0.167         12.6 
      613.00        0.167         11.0 
      614.00        0.167         10.4 
      615.00        0.167          9.7 
      616.00        0.167          9.1 
      617.00        0.200          9.2 
      618.00        0.167          7.7 
      619.00        0.200          7.1 
      620.00        0.233          6.5 
      621.00        0.167          5.3 
      622.00        0.200          4.7 
      623.00        0.200          4.7 
      624.00        0.167          4.9 
      625.00        1.683         20.8 
      626.00        0.300         12.5 
      627.00        0.233         10.4 
      628.00        0.100          9.2 
      629.00        0.133          9.3 
      630.00        0.200          9.1 
      631.00        0.267          8.3 
      632.00        0.133          6.6 
      633.00        0.133          6.7 
      634.00        0.167          6.7 
      635.00        0.167          6.1 
      636.00        0.100          6.3 
      637.00        0.167          5.1 
      638.00        0.133          5.5 
      639.00        0.200          5.4 
      640.00        0.133          5.1 
      641.00        0.117          5.4 
      642.00        0.133          4.4 
      643.00        0.133          4.5 
      644.00        0.133          4.8 
      645.00        0.133          4.9 
      646.00        0.133          5.0 
      647.00        0.133          4.8 
      648.00        0.133          4.3 
      649.00        0.167          3.9 
      650.00        0.133          3.8 
      651.00        0.133          3.2 
      652.00        0.300          3.1 
      653.00        0.167          3.2 
      654.00        0.200          3.2 
      655.00        0.167          3.1 
      656.00        1.450         14.3 
      657.00        0.367         11.4 
      658.00        0.367          8.2 
      659.00        0.167          6.9 
      660.00        0.167          5.9 
      661.00        0.133          5.8 
      662.00        0.100          5.6 
      663.00        0.167          4.9 
      664.00        0.233          4.1 
      665.00        0.133          4.6 
      666.00        0.200          3.8 
      667.00        0.167          3.8 
      668.00        0.167          3.9 
      669.00        0.167          3.9 
      670.00        0.133          3.5 
      671.00        0.133          3.6 
      672.00        0.133          4.1 
      673.00        0.150          3.7 
      674.00        0.133          3.7 
      675.00        0.133          4.3 
      676.00        0.133          4.2 
      677.00        0.100          3.2 
      678.00        0.100          3.8 
      679.00        0.167          3.5 
      680.00        0.200          3.5 
      681.00        0.100          3.2 
      682.00        0.133          3.2 
      683.00        0.133          2.1 
      684.00        0.133          2.7 
      685.00        0.133          2.5 
      686.00        1.783         12.5 
      687.00        0.300          8.6 
      688.00        0.200          6.1 
      689.00        0.200          6.1 
      690.00        0.167          4.9 
      691.00        0.167          4.2 
      692.00        0.200          4.8 
      693.00        0.133          7.5 
      694.00        0.167         12.0 
      695.00        0.167         18.2 
      696.00        0.200         23.7 
      697.00        0.167         26.8 
      698.00        0.100         27.5 
      699.00        0.133         27.6 
      700.00        0.100         28.6 
      701.00        0.133         28.4 
      702.00        0.133         28.3 
      703.00        0.133         27.1 
      704.00        0.167         26.3 
      705.00        0.167         26.0 
      706.00        0.150         26.1 
      707.00        0.167         25.2 
      708.00        0.167         23.7 
      709.00        0.200         21.6 
      710.00        0.167         19.2 
      711.00        0.167         16.8 
      712.00        0.167         15.0 
      713.00        0.133         12.5 
      714.00        0.133         12.4 
      715.00        0.167         13.0 
      716.00        2.917         90.9 
      717.00        0.200         23.1 
      718.00        0.167         19.8 
      719.00        0.167         16.8 
      720.00        0.167         14.2 
      721.00        0.133         12.5 
      722.00        0.167         11.7 
      723.00        0.167         11.7 
      724.00        0.133         10.1 
      725.00        0.167         10.1 
      726.00        0.133          9.8 
      727.00        0.167          8.8 
      728.00        0.133          8.8 
      729.00        0.167          8.9 
      730.00        0.183          8.1 
      731.00        0.133          8.8 
      732.00        0.167          8.3 
      733.00        0.133          8.0 
      734.00        0.133          8.8 
      735.00        0.133          9.0 
      736.00        0.133          7.8 
      737.00        0.100          7.1 
      738.00        0.133          6.8 
      739.00        0.100          6.7 
      740.00        0.133          6.5 
      741.00        0.133          5.3 
      742.00        0.167          5.5 
      743.00        0.133          4.6 
      744.00        0.133          5.0 
      745.00        0.133          5.6 
      746.00        2.050         28.6 
      747.00        0.267         17.4 
      748.00        0.200         13.1 
      749.00        0.167         11.5 
      750.00        0.200         10.5 
      751.00        0.200          8.9 
      752.00        0.200          8.1 
      753.00        0.167          7.6 
      754.00        0.133          7.0 
      755.00        0.133          7.4 
      756.00        0.133          7.6 
      757.00        0.167          6.9 
      758.00        0.167          6.8 
      759.00        0.167          6.5 
      760.00        0.133          7.1 
      761.00        0.183          8.8 
      762.00        0.167         10.9 
      763.00        0.167         12.3 
      764.00        0.167         13.7 
      765.00        0.167         14.2 
      766.00        0.133         13.9 
      767.00        0.100         14.0 
      768.00        0.167         13.9 
      769.00        0.167         12.9 
      770.00        0.300         13.6 
      771.00        0.233         11.9 
      772.00        0.233         11.7 
      773.00        0.233          9.9 
      774.00        0.200          9.7 
      775.00        0.233          9.9 
      776.00        2.017         51.4 
      777.00        0.333         30.4 
      778.00        0.233         21.5 
      779.00        0.233         17.5 
      780.00        0.200         15.7 
      781.00        0.200         14.2 
      782.00        0.167         12.8 
      783.00        0.200         11.4 
      784.00        0.200         10.6 
      785.00        0.283         10.3 
      786.00        0.200         10.3 
      787.00        0.133         10.2 
