~Version Information
VERS.                      2.0: CWLS Log ASCII Standard - VERSION 2.0
WRAP.                       NO: One line per depth step
~Well Information Block
STRT.FT               577.8000: 
STOP.FT              2445.8000: 
STEP.FT                 0.1000: 
NULL.                -999.2500: 
COMP.          Petrogulf Corporation: COMPANY
WELL.             State 16-32V: WELL
FLD.           Purgatorie River: FIELD
LOC.           1599' FNL & 1783' FEL: LOCATION
CNTY.               Las Animas: COUNTY
SRVC.                         : SERVICE COMPANY
DATE.          Thu Jun 05 16:36:04 2003: LOG DATE
UWI.           05 071 07726 00: UNIQUE WELL ID
STAT.                 Colorado: STATE
~Curve Information Block
DEPT.FT            0 000 00 00: Depth
DCAL.in                       : Caliper from Density Tool
RHOB.g/cc                     : Bulk Density
RHOC.g/cc                     : Density Correction
DPOR.pu                       : Density Porosity
GR.GAPI                       : Gamma Ray
NPOR.pu                       : Neutron Porosity
~Parameter Information Block
~A  Depth       DCAL        RHOB        RHOC        DPOR         GR         NPOR    
# ...
   837.0000      8.1724      2.5965      0.0508      3.2396    166.1185     28.9381
   837.1000      8.1724      2.5965      0.0508      3.2396    165.7443     28.8778
   837.2000      8.1724      2.5965      0.0508      3.2396    165.2226     28.7987
   837.3000      8.1565      2.5918      0.0572      3.5267    164.5955     28.7083
   837.4000      8.1565      2.5918      0.0572      3.5267    163.9079     28.6124
   837.5000      8.1542      2.5787      0.0594      4.3198    163.2038     28.5149
   837.6000      8.1542      2.5787      0.0594      4.3198    162.5191     28.4182
   837.7000      8.1542      2.5787      0.0594      4.3198    161.8797     28.3236
   837.8000      8.1569      2.5533      0.0593      5.8626    161.3036     28.2320
   837.9000      8.1569      2.5533      0.0593      5.8626    160.7975     28.1445
   838.0000      8.1700      2.5365      0.0570      6.8762    160.3619     28.0628
   838.1000      8.1700      2.5365      0.0570      6.8762    159.9919     27.9884
   838.2000      8.1700      2.5365      0.0570      6.8762    159.6772     27.9226
   838.3000      8.1483      2.5145      0.0503      8.2093    159.4046     27.8661
   838.4000      8.1483      2.5145      0.0503      8.2093    159.1582     27.8186
   838.5000      8.0584      2.5021      0.0440      8.9658    158.9213     27.7786
   838.6000      8.0584      2.5021      0.0440      8.9658    158.6766     27.7434
   838.7000      8.0584      2.5021      0.0440      8.9658    158.4083     27.7096
   838.8000      8.0174      2.4872      0.0334      9.8661    158.1010     27.6729
   838.9000      8.0174      2.4872      0.0334      9.8661    157.7410     27.6288
   839.0000      8.0560      2.4810      0.0274     10.2453    157.3204     27.5726
   839.1000      8.0560      2.4810      0.0274     10.2453    156.8346     27.5004
   839.2000      8.0560      2.4810      0.0274     10.2453    156.2890     27.4095
   839.3000      8.0413      2.4786      0.0220     10.3867    155.7008     27.3000
   839.4000      8.0413      2.4786      0.0220     10.3867    155.1006     27.1755
   839.5000      8.0004      2.4815      0.0209     10.2093    154.5306     27.0432
   839.6000      8.0004      2.4815      0.0209     10.2093    154.0379     26.9144
   839.7000      8.0004      2.4815      0.0209     10.2093    153.6672     26.8028
   839.8000      8.0178      2.4907      0.0212      9.6527    153.4530     26.7231
   839.9000      8.0178      2.4907      0.0212      9.6527    153.4074     26.6884
   840.0000      8.0567      2.4992      0.0218      9.1396    153.5171     26.7082
   840.1000      8.0567      2.4992      0.0218      9.1396    153.7428     26.7863
   840.2000      8.0567      2.4992      0.0218      9.1396    154.0253     26.9209
   840.3000      8.0501      2.5157      0.0233      8.1367    154.2966     27.1036
   840.4000      8.0501      2.5157      0.0233      8.1367    154.4922     27.3216
   840.5000      8.0416      2.5297      0.0257      7.2894    154.5629     27.5595
   840.6000      8.0416      2.5297      0.0257      7.2894    154.4820     27.8007
   840.7000      8.0416      2.5297      0.0257      7.2894    154.2481     28.0293
   840.8000      8.0849      2.5528      0.0325      5.8918    153.8838     28.2314
   840.9000      8.0849      2.5528      0.0325      5.8918    153.4285     28.3948
   841.0000      8.0880      2.5656      0.0389      5.1175    152.9310     28.5094
   841.1000      8.0880      2.5656      0.0389      5.1175    152.4442     28.5670
   841.2000      8.0880      2.5656      0.0389      5.1175    152.0168     28.5608
   841.3000      8.0257      2.5721      0.0492      4.7194    151.6929     28.4858
   841.4000      8.0257      2.5721      0.0492      4.7194    151.5075     28.3390
   841.5000      7.9904      2.5650      0.0547      5.1496    151.4877     28.1207
   841.6000      7.9904      2.5650      0.0547      5.1496    151.6506     27.8346
   841.7000      7.9904      2.5650      0.0547      5.1496    152.0070     27.4891
   841.8000      8.0416      2.5393      0.0594      6.7118    152.5574     27.0972
   841.9000      8.0416      2.5393      0.0594      6.7118    153.2902     26.6760
   842.0000      8.1429      2.5170      0.0603      8.0622    154.1865     26.2454
   842.1000      8.1429      2.5170      0.0603      8.0622    155.2169     25.8266
   842.2000      8.1429      2.5170      0.0603      8.0622    156.3455     25.4396
   842.3000      8.2638      2.4867      0.0597      9.8993    157.5323     25.1010
   842.4000      8.2638      2.4867      0.0597      9.8993    158.7377     24.8227
   842.5000      8.3754      2.4739      0.0597     10.6743    159.9238     24.6099
   842.6000      8.3754      2.4739      0.0597     10.6743    161.0562     24.4624
   842.7000      8.3754      2.4739      0.0597     10.6743    162.1064     24.3741
   842.8000      8.4145      2.4708      0.0625     10.8588    163.0474     24.3356
   842.9000      8.4145      2.4708      0.0625     10.8588    163.8546     24.3353
   843.0000      8.4308      2.4793      0.0669     10.3469    164.5018     24.3617
   843.1000      8.4308      2.4793      0.0669     10.3469    164.9596     24.4049
   843.2000      8.4308      2.4793      0.0669     10.3469    165.1983     24.4574
   843.3000      8.4742      2.5015      0.0762      8.9975    165.1892     24.5147
   843.4000      8.4742      2.5015      0.0762      8.9975    164.9103     24.5744
   843.5000      8.4796      2.5170      0.0819      8.0633    164.3502     24.6363
   843.6000      8.4796      2.5170      0.0819      8.0633    163.5153     24.7005
   843.7000      8.4796      2.5170      0.0819      8.0633    162.4332     24.7675
   843.8000      8.4835      2.5314      0.0861      7.1892    161.1517     24.8368
   843.9000      8.4835      2.5314      0.0861      7.1892    159.7348     24.9069
   844.0000      8.4924      2.5323      0.0848      7.1317    158.2604     24.9753
   844.1000      8.4924      2.5323      0.0848      7.1317    156.8111     25.0391
   844.2000      8.4924      2.5323      0.0848      7.1317    155.4665     25.0956
   844.3000      8.4303      2.5222      0.0781      7.7431    154.2962     25.1430
   844.4000      8.4303      2.5222      0.0781      7.7431    153.3563     25.1817
   844.5000      8.2849      2.5113      0.0724      8.4074    152.6821     25.2133
   844.6000      8.2849      2.5113      0.0724      8.4074    152.2893     25.2413
   844.7000      8.2849      2.5113      0.0724      8.4074    152.1731     25.2703
   844.8000      8.1825      2.4948      0.0650      9.4031    152.3113     25.3050
   844.9000      8.1825      2.4948      0.0650      9.4031    152.6691     25.3492
   845.0000      8.1610      2.4864      0.0614      9.9143    153.2009     25.4055
   845.1000      8.1610      2.4864      0.0614      9.9143    153.8611     25.4742
   845.2000      8.1610      2.4864      0.0614      9.9143    154.6036     25.5535
   845.3000      8.1774      2.4790      0.0581     10.3637    155.3891     25.6395
   845.4000      8.1774      2.4790      0.0581     10.3637    156.1853     25.7265
   845.5000      8.1831      2.4771      0.0567     10.4792    156.9664     25.8079
   845.6000      8.1831      2.4771      0.0567     10.4792    157.7103     25.8770
   845.7000      8.1831      2.4771      0.0567     10.4792    158.3985     25.9274
   845.8000      8.1741      2.4768      0.0549     10.4999    159.0107     25.9541
   845.9000      8.1741      2.4768      0.0549     10.4999    159.5259     25.9541
   846.0000      8.1702      2.4769      0.0538     10.4909    159.9253     25.9268
   846.1000      8.1702      2.4769      0.0538     10.4909    160.1919     25.8742
   846.2000      8.1702      2.4769      0.0538     10.4909    160.3144     25.8007
   846.3000      8.1565      2.4763      0.0521     10.5288    160.2887     25.7127
   846.4000      8.1565      2.4763      0.0521     10.5288    160.1199     25.6177
   846.5000      8.1235      2.4752      0.0507     10.5938    159.8194     25.5235
