~Version Information
VERS.                      2.0: CWLS Log ASCII Standard - VERSION 2.0
WRAP.                       NO: One line per depth step
~Well Information Block
STRT.FT                 0.0000: 
STOP.FT              1916.0000: 
STEP.FT                 0.1000: 
NULL.                -999.2500: 
COMP.          Pioneer Natural Resources: COMPANY
WELL.          Blackjack 32-11 Tr: WELL
FLD.           Purgatorie River: FIELD
LOC.           2066' FNL & 1453' FEL: LOCATION
PROV.                 Colorado: PROVINCE
CNTY.               Las Animas: COUNTRY
SRVC.                Patterson: SERVICE COMPANY
DATE.          Tue Aug 16 12:08:23 2005: LOG DATE
UWI.                          : UNIQUE WELL ID
~Curve Information Block
DEPT.FT            0 000 00 00: Depth
DCAL.in                       : CDL Caliper
RHOB.g/cc                     : CDL Bulk Density
RHOC.g/cc                     : CDL Density Correction
DPOR.pu                       : CDL Density Porosity
GR.GAPI                       : Gamma Ray
NPOR.pu                       : Neutron Porosity
~Parameter Information Block
~A  Depth       DCAL        RHOB        RHOC        DPOR         GR         NPOR    
# ...
   249.6000     16.3722      1.4569      2.2925     -0.0239    103.9887     23.0145
   249.7000     16.3722      1.4712      2.3225     -0.0236    101.4055     22.8994
   249.8000     16.3754      1.4954      2.3445     -0.0231    103.4400     22.5580
   249.9000     16.3754      1.5170      2.3855     -0.0227    106.5360     22.5614
   250.0000     16.3746      1.5281      2.3900     -0.0225    105.9703     23.0078
   250.1000     16.3746      1.5321      2.3592     -0.0224    102.4528     23.4258
   250.2000     16.3746      1.5351      2.3744     -0.0223     99.7991     23.2907
   250.3000     16.3759      1.5381      2.3679     -0.0222    100.9064     22.6674
   250.4000     16.3759      1.5411      2.3717     -0.0222    104.3561     22.1889
   250.5000     16.3776      1.5426      2.3870     -0.0222    104.8055     22.2727
   250.6000     16.3776      1.5423      2.3422     -0.0222    101.7533     22.6799
   250.7000     16.3776      1.5434      2.4007     -0.0221    100.7758     22.8192
   250.8000     16.3783      1.5505      2.3402     -0.0220    105.4477     22.6740
   250.9000     16.3783      1.5681      2.3874     -0.0216    112.9277     22.6820
   251.0000     16.3731      1.5893      2.3999     -0.0212    116.3054     22.7264
   251.1000     16.3731      1.5987      2.4362     -0.0210    114.3493     22.5227
   251.2000     16.3731      1.5904      2.4149     -0.0212    111.2526     22.3156
   251.3000     16.3716      1.5739      2.3835     -0.0215    109.8648     22.4757
   251.4000     16.3716      1.5639      2.3731     -0.0217    109.7816     23.0601
   251.5000     16.3750      1.5679      2.3616     -0.0217    107.6555     23.6636
   251.6000     16.3750      1.5853      2.3968     -0.0213    103.4667     23.8336
   251.7000     16.3750      1.6060      2.4405     -0.0209    101.8223     23.4837
   251.8000     16.3735      1.6133      2.4534     -0.0207    103.9026     22.9938
   251.9000     16.3735      1.5973      2.4193     -0.0211    106.3867     22.7209
   252.0000     16.3765      1.5668      2.3857     -0.0217    106.5219     22.5931
   252.1000     16.3765      1.5461      2.3282     -0.0221    105.2757     22.3215
   252.2000     16.3765      1.5503      2.3739     -0.0220    105.2404     21.9550
   252.3000     16.3733      1.5678      2.3922     -0.0217    105.9812     22.2833
   252.4000     16.3733      1.5844      2.3946     -0.0213    106.4647     23.5654
   252.5000     16.3742      1.5995      2.4207     -0.0210    106.5463     25.0650
   252.6000     16.3742      1.6127      2.4120     -0.0208    105.2664     26.4827
   252.7000     16.3742      1.6230      2.4175     -0.0206    104.0002     27.8437
   252.8000     16.3757      1.6384      2.3645     -0.0202    104.1993     28.9087
   252.9000     16.3757      1.6711      2.3856     -0.0196    102.8605     29.7132
   253.0000     16.3752      1.7212      2.4281     -0.0186     97.3990     30.5829
   253.1000     16.3752      1.7732      2.4806     -0.0175     95.0851     31.4433
   253.2000     16.3752      1.8096      2.5044     -0.0168    100.8449     32.0375
   253.3000     16.3708      1.8260      2.4858     -0.0165    105.9641     32.2078
   253.4000     16.3708      1.8322      2.4573     -0.0164    106.3489     31.5316
   253.5000     16.3763      1.8336      2.5013     -0.0163    104.9515     30.1470
   253.6000     16.3763      1.8231      2.5158     -0.0165    102.4173     28.8222
   253.7000     16.3763      1.7971      2.4800     -0.0171     99.1317     27.8137
   253.8000     16.3737      1.7599      2.4431     -0.0178     99.1246     26.8715
   253.9000     16.3737      1.7187      2.4244     -0.0186    105.5504     26.0236
   254.0000     16.3673      1.6824      2.4286     -0.0194    110.7758     25.5268
   254.1000     16.3673      1.6563      2.4372     -0.0199    105.1947     24.9026
   254.2000     16.3673      1.6391      2.4165     -0.0202     96.7210     23.7688
   254.3000     16.3714      1.6301      2.4106     -0.0204     96.9044     22.9811
   254.4000     16.3714      1.6303      2.4003     -0.0204    101.9753     22.9530
   254.5000     16.3781      1.6372      2.4341     -0.0203    105.4347     23.0444
   254.6000     16.3781      1.6456      2.4288     -0.0201    109.3192     22.9789
   254.7000     16.3781      1.6563      2.4476     -0.0199    114.1956     23.0234
   254.8000     16.3674      1.6721      2.4379     -0.0196    115.6159     23.2572
   254.9000     16.3674      1.6875      2.4831     -0.0193    112.5500     23.6130
   255.0000     16.3754      1.6925      2.4592     -0.0192    105.2906     23.9976
   255.1000     16.3754      1.6888      2.4569     -0.0192     95.7540     24.0978
   255.2000     16.3754      1.6803      2.4718     -0.0194     91.6657     23.9440
   255.3000     16.3713      1.6680      2.4318     -0.0197     94.9689     23.9262
   255.4000     16.3713      1.6601      2.4059     -0.0198     97.1239     24.1926
   255.5000     16.3688      1.6655      2.4407     -0.0197     93.9654     24.3632
   255.6000     16.3688      1.6811      2.4279     -0.0194     93.3118     24.2037
   255.7000     16.3688      1.6952      2.4785     -0.0191     99.3188     23.9975
   255.8000     16.3743      1.7026      2.4383     -0.0190    106.4300     23.8627
   255.9000     16.3743      1.7098      2.4757     -0.0188    110.1483     23.7740
   256.0000     16.3712      1.7180      2.4770     -0.0186    110.7149     23.6590
   256.1000     16.3712      1.7201      2.4802     -0.0186    109.7049     23.4015
   256.2000     16.3712      1.7137      2.4600     -0.0187    107.2355     23.1659
   256.3000     16.3781      1.7009      2.4755     -0.0190    104.8449     23.0918
   256.4000     16.3781      1.6883      2.4413     -0.0192    103.9016     22.9298
   256.5000     16.3686      1.6866      2.4433     -0.0193    104.1331     22.5210
   256.6000     16.3686      1.6980      2.4410     -0.0190    106.0203     21.8173
   256.7000     16.3686      1.7120      2.4798     -0.0188    108.4884     21.0728
   256.8000     16.3745      1.7174      2.4794     -0.0187    110.7093     20.8812
   256.9000     16.3745      1.7133      2.4915     -0.0187    112.6857     21.2918
   257.0000     16.3727      1.7055      2.4765     -0.0189    112.9298     21.9206
   257.1000     16.3727      1.6999      2.4727     -0.0190    110.9469     22.7022
   257.2000     16.3727      1.6996      2.4464     -0.0190    111.3038     23.5301
   257.3000     16.3718      1.7030      2.4782     -0.0190    117.0269     23.9858
   257.4000     16.3718      1.7036      2.4665     -0.0189    123.6988     24.0123
   257.5000     16.3760      1.6974      2.4754     -0.0191    125.4825     24.0035
   257.6000     16.3760      1.6877      2.4419     -0.0193    121.7498     24.2300
   257.7000     16.3760      1.6792      2.4689     -0.0194    119.4598     24.7882
   257.8000     16.3708      1.6735      2.4311     -0.0195    123.1734     25.4855
   257.9000     16.3708      1.6762      2.4285     -0.0195    129.1095     25.8373
   258.0000     16.3748      1.6880      2.4683     -0.0193    133.2647     25.7771
   258.1000     16.3748      1.6964      2.4778     -0.0191    134.7494     25.8115
   258.2000     16.3748      1.6951      2.4601     -0.0191    136.7364     25.9547
   258.3000     16.3742      1.6929      2.4427     -0.0192    141.9744     25.8635
   258.4000     16.3742      1.6967      2.4664     -0.0191    145.8089     25.5799
   258.5000     16.3826      1.7043      2.4744     -0.0189    143.5712     25.3451
   258.6000     16.3826      1.7133      2.4749     -0.0187    138.7794     25.4506
   258.7000     16.3826      1.7242      2.4734     -0.0185    135.6821     25.8747
   258.8000     16.3811      1.7331      2.4984     -0.0183    133.2042     26.3946
   258.9000     16.3811      1.7354      2.4999     -0.0183    129.6873     26.9008
   259.0000     16.3791      1.7369      2.4510     -0.0183    128.6463     27.0377
   259.1000     16.3791      1.7443      2.4977     -0.0181    130.0443     26.6237
