~Version Information
VERS.                      2.0: CWLS Log ASCII Standard - VERSION 2.0
WRAP.                       NO: One line per depth step
~Well Information Block
STRT.FT               185.5000: 
STOP.FT              2039.2500: 
STEP.FT                 0.2500: 
NULL.                -999.2500: 
COMP.          Petrogulf Corporation: COMPANY
WELL.            Montoya 7-12R: WELL
FLD.           Purgatorie River: FIELD
LOC.           1769' FNL & 658' FWL--: LOCATION
PROV.                       CO: PROVINCE
CNTY.               Las Animas: COUNTRY
SRVC.                         : SERVICE COMPANY
DATE.          Wed Feb 09 09:05:42 2005: LOG DATE
UWI.         005 071 08240  : UNIQUE WELL ID
~Curve Information Block
DEPT.FT            0 000 00 00: Depth
CCL.                          : Casing Collar Locator
CCLRT.                        : CCLRT
TT3.usec                      : CBL 3' Travel Time
AMP3.mV                       : CBL 3' Amplitude
GR.GAPI                       : Gamma Ray
~Parameter Information Block
~A  Depth       CCL        CCLRT        TT3         AMP3         GR     
# ...
  2005.5000      0.0000   -999.2500    684.3541      5.3678     60.6017
  2005.7500      0.0000   -999.2500    686.6509      5.5991     70.3436
  2006.0000      0.0000   -999.2500    691.6149      5.8026     81.8164
  2006.2500      0.0000   -999.2500    695.7817      5.9932     92.4512
  2006.5000      0.0000   -999.2500    696.6574      6.1609     99.1128
  2006.7500      0.0000   -999.2500    694.1042      6.2868     99.6532
  2007.0000      0.0000   -999.2500    689.8547      6.3845     94.4353
  2007.2500      0.0000   -999.2500    686.3912      6.5184     86.5439
  2007.5000      0.0000   -999.2500    685.9177      6.7600     80.0877
  2007.7500      0.0000   -999.2500    689.2137      7.1320     77.6685
  2008.0000      0.0000   -999.2500    694.8845      7.6014     79.2679
  2008.2500      0.0000   -999.2500    700.0021      8.1010     83.2062
  2008.5000      0.0000   -999.2500    701.8700      8.5352     87.5445
  2008.7500      0.0000   -999.2500    699.6182      8.7807     90.6206
  2009.0000      0.0000   -999.2500    694.7436      8.7207     91.2684
  2009.2500      0.0000   -999.2500    690.1771      8.3165     89.3611
  2009.5000      0.0000   -999.2500    688.0585      7.6541     85.8961
  2009.7500      0.0000   -999.2500    687.9802      6.9051     81.9154
  2010.0000      0.0000   -999.2500    687.7907      6.2281     77.3163
  2010.2500      0.0000   -999.2500    686.1385      5.6994     71.2661
  2010.5000      0.0000   -999.2500    683.7270      5.3089     63.9307
  2010.7500      0.0000   -999.2500    682.2845      4.9960     57.1631
  2011.0000      0.0000   -999.2500    683.1473      4.6948     53.0099
  2011.2500      0.0000   -999.2500    686.9309      4.3687     51.8634
  2011.5000      0.0000   -999.2500    693.7090      4.0202     52.4670
  2011.7500      0.0000   -999.2500    702.6200      3.6755     53.4048
  2012.0000      0.0000   -999.2500    711.1346      3.3563     54.1549
  2012.2500      0.0000   -999.2500    715.4701      3.0604     54.8682
  2012.5000      0.0000   -999.2500    712.8353      2.7708     55.6705
  2012.7500      0.0000   -999.2500    703.6337      2.4932     56.2357
  2013.0000      0.0000   -999.2500    691.2145      2.2755     55.8336
  2013.2500      0.0000   -999.2500    679.6469      2.1657     53.8684
  2013.5000      0.0000   -999.2500    671.7938      2.1523     50.5947
  2013.7500      0.0000   -999.2500    668.3964      2.1684     47.2065
  2014.0000      0.0000   -999.2500    667.7553      2.1522     45.0580
  2014.2500      0.0000   -999.2500    666.4807      2.0871     44.7990
  2014.5000      0.0000   -999.2500    661.6122      1.9943     46.1226
  2014.7500      0.0000   -999.2500    652.7521      1.9119     48.1101
  2015.0000      0.0000   -999.2500    642.4700      1.8722     49.7579
  2015.2500      0.0000   -999.2500    634.5601      1.8782     50.3648
  2015.5000      0.0000   -999.2500    631.4877      1.9025     49.8776
  2015.7500      0.0000   -999.2500    633.0310      1.9150     49.2875
  2016.0000      0.0000   -999.2500    637.1139      1.9095     50.4784
  2016.2500      0.0000   -999.2500    641.8887      1.9050     54.9204
  2016.5000      0.0000   -999.2500    647.0715      1.9323     62.2137
  2016.7500      0.0000   -999.2500    653.4088      2.0136     70.1960
  2017.0000      0.0000   -999.2500    661.1055      2.1367     76.5457
  2017.2500      0.0000   -999.2500    669.0538      2.2550     80.0574
  2017.5000      0.0000   -999.2500    675.6485      2.3204     80.5745
  2017.7500      0.0000   -999.2500    680.1080      2.3084     78.3372
  2018.0000      0.0000   -999.2500    682.8251      2.2170     73.7299
  2018.2500      0.0000   -999.2500    684.7144      2.0701     67.3423
  2018.5000      0.0000   -999.2500    686.4547      1.9263     59.8842
  2018.7500      0.0000   -999.2500    688.1018      1.8504     52.1417
  2019.0000      0.0000   -999.2500    689.0892      1.8594     45.1647
  2019.2500      0.0000   -999.2500    688.6205      1.9192     40.1961
  2019.5000      0.0000   -999.2500    686.2660      1.9995     37.9344
  2019.7500      0.0000   -999.2500    682.2908      2.1056     37.8866
  2020.0000      0.0000   -999.2500    677.7368      2.2575     38.8696
  2020.2500      0.0000   -999.2500    674.3463      2.4685     40.2958
  2020.5000      0.0000   -999.2500    673.7958      2.7570     42.6028
  2020.7500      0.0000   -999.2500    676.4355      3.1676     46.1723
  2021.0000      0.0000   -999.2500    680.8947      3.7692     50.1720
  2021.2500      0.0000   -999.2500    684.6363      4.6232     52.9210
  2021.5000      0.0000   -999.2500    684.0614      5.7466     53.3962
  2021.7500      0.0000   -999.2500    673.8282      7.1096     52.1257
  2022.0000      0.0000   -999.2500    647.1605      8.6614     50.5350
  2022.2500      0.0000   -999.2500    599.4567     10.3256     49.6171
  2022.5000      0.0000   -999.2500    534.7997     11.9437     49.3322
  2022.7500      0.0000   -999.2500    469.9565     13.2501     49.0391
  2023.0000      0.0000   -999.2500    429.0490     13.9595     48.1470
  2023.2500      0.0000   -999.2500    429.9104     13.9288     46.4503
  2023.5000      0.0000   -999.2500    472.4305     13.2530     44.1438
  2023.7500      0.0000   -999.2500    538.5814     12.1991     41.6323
  2024.0000      0.0000   -999.2500    604.1472     11.0375     39.3349
  2024.2500      0.0000   -999.2500    652.3752      9.9133     37.7453
  2024.5000      0.0000   -999.2500    679.0710      8.8445     37.4106
  2024.7500      0.0000   -999.2500    688.3875      7.8085     38.4975
  2025.0000      0.0000   -999.2500    686.6644      6.8163     40.2978
  2025.2500      0.0000   -999.2500    679.5214      5.9222     41.1911
  2025.5000      0.0000   -999.2500    671.5635      5.1854     39.2045
  2025.7500      0.0000   -999.2500    666.2210      4.6258     33.1937
  2026.0000      0.0000   -999.2500    665.0896      4.2080     24.0425
  2026.2500      0.0000   -999.2500    667.6873      3.8749     14.4559
  2026.5000      0.0000   -999.2500    672.2562      3.6051      7.0628
  2026.7500      0.0000   -999.2500    677.1392      3.4234      2.7643
  2027.0000      0.0000   -999.2500    681.5601      3.3393      0.8582
  2027.2500      0.0000   -999.2500    685.3235      3.2919      0.2100
  2027.5000      0.0000   -999.2500    688.0156      3.1839      0.0400
  2027.7500      0.0000   -999.2500    688.6702      2.9719      0.0058
  2028.0000      0.0000   -999.2500    686.5592      2.7057      0.0000
  2028.2500      0.0000   -999.2500    682.5958      2.4727   -999.2500
  2028.5000      0.0000   -999.2500    679.5127      2.3224   -999.2500
  2028.7500      0.0000   -999.2500    679.9032      2.2463   -999.2500
  2029.0000      0.0000   -999.2500    683.8785      2.2105   -999.2500
  2029.2500      0.0000   -999.2500    688.8356      2.1918   -999.2500
  2029.5000      0.0000   -999.2500    691.5953      2.1885   -999.2500
  2029.7500      0.0000   -999.2500    690.6751      2.2075   -999.2500
  2030.0000      0.0000   -999.2500    686.0747      2.2500   -999.2500
  2030.2500      0.0000   -999.2500    676.3188      2.3094   -999.2500
  2030.5000      0.0000   -999.2500    654.7034      2.3743   -999.2500
  2030.7500      0.0000   -999.2500    608.4467      2.4196   -999.2500
  2031.0000      0.0000   -999.2500    525.0959      2.4052   -999.2500
  2031.2500      0.0000   -999.2500    405.3228      2.3041   -999.2500
  2031.5000      0.0000   -999.2500    270.2602      2.1361   -999.2500
  2031.7500      0.0000   -999.2500    151.3180      1.9599   -999.2500
  2032.0000      0.0000   -999.2500     69.6495      1.8277   -999.2500
  2032.2500      0.0000   -999.2500     25.9556      1.7536   -999.2500
  2032.5000      0.0000   -999.2500      7.7453      1.7221   -999.2500
  2032.7500      0.0000   -999.2500      1.8339      1.7118   -999.2500
  2033.0000      0.0000   -999.2500      0.3394      1.7091   -999.2500
  2033.2500      0.0000   -999.2500      0.0451      1.7086   -999.2500
