~Version Information
 VERS.                                  2.0 : CWLS LAS VERSION
 WRAP.                                   NO : WRAPING MODE
 SWARE .                 MController 2.5.0N : SOFTWARE VERSION
~Well Information
 WELL.                    Corkscrew 33-12Tr : WELL
 COMP.    Pioneer Natural Resources USA Inc : COMPANY
 FLD.                      Purgatoire River : FIELD
 LOC.                   NW/SE Sec T33S R67W : LOCATION
 DATE.                      3/23-25,28/2005 : DATE(S) LOGGED
 SRVC.       Blanco Geological Services LLC : SERVICE COMPANY
 STAT.                                   CO : STATE
 CNTY.                           Las Animas : COUNTY
 CTRY.                                  USA : COUNTRY
 API.                       05-071-08295-00 : API NUMBER
 STRT.FT                             609.00 : START DEPTH
 STOP.FT                            1871.00 : STOP DEPTH
 STEP.FT                               1.00 : DEPTH INCREMENT
 NULL.                                -9999 : NULL VALUE
~Curve information
 DEPTH.FT                                   :
 ROP.MIN/FT                                 :
 GAS.UNITS                                  :
~ASCII Log data
       609.0     -9999.00          4.3 
       610.0         3.08          6.5 
       611.0         0.50          6.3 
       612.0         0.25          6.7 
       613.0         0.58          6.0 
       614.0         0.25          6.5 
       615.0         0.83          6.4 
       616.0         0.50          6.5 
       617.0         0.50          6.1 
       618.0         0.33          6.1 
       619.0         0.25          6.3 
       620.0         0.50          6.8 
       621.0         0.25          5.8 
       622.0         0.33          6.0 
       623.0         0.50          6.5 
       624.0         0.25          6.0 
       625.0         0.33          6.4 
       626.0         0.50          6.2 
       627.0         0.50          6.6 
       628.0         0.83          6.7 
       629.0         0.25          6.9 
       630.0         0.58          6.6 
       631.0         0.50          6.9 
       632.0         0.83          6.9 
       633.0         0.50          6.7 
       634.0         0.83          6.3 
       635.0         0.67          6.5 
       636.0         2.92          6.6 
       637.0         2.17        110.2 
       638.0         2.17          7.4 
       639.0         1.55          7.7 
       640.0         1.25          7.8 
       641.0         2.17          8.3 
       642.0         1.58          8.2 
       643.0         0.83          7.8 
       644.0         2.42          8.1 
       645.0         1.83          7.8 
       646.0         2.42          8.0 
       647.0         2.42          7.8 
       648.0         1.92          8.0 
       649.0         1.58          7.7 
       650.0         0.83          7.8 
       651.0         0.25          7.4 
       652.0         0.50          7.9 
       653.0         0.58          7.8 
       654.0         0.25          7.9 
       655.0         0.50          7.5 
       656.0         0.58          7.7 
       657.0         0.50          7.4 
       658.0         0.58          8.1 
       659.0         0.50          7.4 
       660.0         0.58          7.5 
       661.0         0.50          7.4 
       662.0         0.83          8.0 
       663.0         0.50          7.3 
       664.0         0.58          7.2 
       665.0         0.50          8.1 
       666.0         0.25          7.3 
       667.0         0.58          8.2 
       668.0         0.50          7.8 
       669.0         0.50          8.0 
       670.0         0.33          7.5 
       671.0         0.75          7.8 
       672.0         0.58          7.8 
       673.0         0.50          7.8 
       674.0         0.58          7.6 
       675.0         0.50          8.0 
       676.0         3.50          8.4 
       677.0         1.33          8.0 
       678.0         0.50          7.5 
       679.0         1.33          7.7 
       680.0         1.67          8.1 
       681.0         1.33          7.9 
       682.0         1.08          7.9 
       683.0         1.08          7.6 
       684.0         1.00          7.5 
       685.0         1.67          8.0 
       686.0         0.50          8.1 
       687.0         1.33          7.7 
       688.0         1.33          7.6 
       689.0         0.83          7.6 
       690.0         0.50          7.2 
       691.0         0.83          7.7 
       692.0         0.83          7.1 
       693.0         1.08          7.5 
       694.0         0.75          7.2 
       695.0         1.33          7.5 
       696.0         1.33          7.3 
       697.0         1.33          7.1 
       698.0         0.83          6.7 
       699.0         1.58          6.7 
       700.0         1.08          6.4 
       701.0         1.33          6.4 
       702.0         1.08          6.4 
       703.0         0.75          6.5 
       704.0         0.83          6.5 
       705.0         1.33          6.4 
       706.0         0.25          6.2 
       707.0         1.67          6.5 
       708.0         1.08          6.7 
       709.0         0.50          6.5 
       710.0         1.33          7.2 
       711.0         1.17          7.1 
       712.0         1.33          6.5 
       713.0         1.33          7.0 
       714.0         0.83          7.1 
       715.0         1.33          7.4 
       716.0         0.83          7.8 
       717.0         1.08          7.5 
       718.0         0.75          7.2 
       719.0         1.33          7.2 
       720.0         0.58          7.2 
       721.0         0.75          7.4 
       722.0         0.58          7.2 
       723.0         0.25          6.7 
       724.0         0.83          6.7 
       725.0         0.50          7.0 
       726.0         0.58          7.4 
       727.0         0.75          7.6 
       728.0         0.83          7.7 
       729.0         0.50          6.9 
       730.0         1.08          7.0 
       731.0         0.25          7.3 
       732.0         1.08          7.1 
       733.0         1.08          7.2 
       734.0         0.25          6.5 
       735.0         1.33          6.6 
       736.0         1.08          6.4 
       737.0         0.58          6.1 
       738.0         1.25          4.9 
       739.0         1.08          4.8 
       740.0         0.50          4.4 
       741.0         1.33          5.0 
       742.0         0.58          4.7 
       743.0         1.08          5.2 
       744.0         0.25          5.1 
       745.0         1.08          5.4 
       746.0         0.25          5.5 
       747.0         1.08        337.8 
       748.0         0.58         20.2 
       749.0         1.00         10.3 
       750.0         0.58          5.3 
       751.0         0.67          5.4 
       752.0         1.00          7.7 
       753.0         0.58          7.8 
       754.0         0.50          7.7 
       755.0         0.67          7.4 
       756.0         0.58          7.4 
       757.0         0.75          8.2 
       758.0         0.58          8.6 
       759.0         0.92          5.0 
       760.0         1.08          5.3 
       761.0         1.08          5.6 
       762.0         1.08          5.0 
       763.0         0.83          5.1 
       764.0         0.50          5.2 
       765.0         0.83          5.2 
       766.0         0.50          5.6 
       767.0         0.58          5.6 
       768.0         0.50          6.7 
       769.0         0.58          7.8 
       770.0         0.53          8.0 
       771.0         0.53          7.1 
       772.0         0.62          7.6 
       773.0         0.53          7.8 
       774.0         0.53          7.8 
       775.0         0.80          7.6 
       776.0         0.80          7.4 
       777.0         0.82          7.9 
       778.0         1.13          6.3 
       779.0         0.80          6.3 
       780.0         1.08          6.0 
       781.0         1.33          8.5 
       782.0         1.20          7.6 
       783.0         1.18          6.5 
       784.0         1.53          5.8 
       785.0         1.35          6.0 
       786.0         0.80          5.9 
       787.0         0.80          5.5 
       788.0         0.53          5.4 
       789.0         0.80          5.7 
       790.0         0.82          5.5 
       791.0         1.33          5.6 
       792.0         1.07          7.0 
       793.0         0.55          7.5 
       794.0         1.07          5.3 
       795.0         1.07          6.0 
       796.0         1.35          5.9 
       797.0         1.07          6.8 
       798.0         1.47          7.1 
       799.0         1.35          7.3 
       800.0         1.07          7.6 
       801.0         1.07          6.9 
       802.0         0.27          6.8 
       803.0         0.82          7.9 
       804.0         0.80          5.5 
       805.0         0.80          5.7 
       806.0         0.87          5.5 
       807.0         0.55          5.7 
       808.0         0.53          5.3 
