~Version Information
VERS.                      2.0: CWLS Log ASCII Standard - VERSION 2.0
WRAP.                       NO: One line per depth step
~Well Information Block
STRT.FT                -8.5000: 
STOP.FT              1968.0000: 
STEP.FT                 0.2500: 
NULL.                -999.2500: 
COMP.          Pioneer Natural Resources: COMPANY
WELL.           Firehawk 34-26: WELL
FLD.           Purgatorie River: FIELD
LOC.           1196' FSL & 1595' FEL--: LOCATION
STAT.                       CO: State
CNTY.               Las Animas: COUNTY
CTRY. USA : Country
SECT. 26 : Section
TOWN. 32S : Township
RANG. 66W : Range 
SRVC.          Patterson Wireline: SERVICE COMPANY
DATE.          Tue Oct 25 14:45:07 2005: LOG DATE
API.           05 071 08389 00: UNIQUE WELL ID
~Curve Information Block
DEPT.FT            0 000 00 00: Depth
CCL.                          : Casing Collar Locator
TT3.usec                      : CBL 3' Travel Time
AMP3.mV                       : CBL 3' Amplitude
GR.GAPI                       : Gamma Ray
~Parameter Information Block
~A  Depth       CCL         TT3         AMP3         GR     
    -8.5000   -999.2500   -999.2500   -999.2500     93.4056
    -8.2500   -999.2500   -999.2500   -999.2500     91.1638
    -8.0000   -999.2500   -999.2500   -999.2500     88.4408
    -7.7500   -999.2500   -999.2500   -999.2500     87.4139
    -7.5000   -999.2500   -999.2500   -999.2500     88.6557
    -7.2500   -999.2500   -999.2500   -999.2500     90.8594
    -7.0000   -999.2500   -999.2500   -999.2500     92.4028
    -6.7500   -999.2500   -999.2500   -999.2500     92.9787
    -6.5000   -999.2500   -999.2500   -999.2500     93.4660
    -6.2500   -999.2500   -999.2500   -999.2500     94.5498
    -6.0000   -999.2500   -999.2500   -999.2500     96.1363
    -5.7500   -999.2500   -999.2500   -999.2500     98.0771
    -5.5000   -999.2500   -999.2500   -999.2500    100.6572
    -5.2500   -999.2500   -999.2500   -999.2500    103.9569
    -5.0000   -999.2500   -999.2500   -999.2500    107.0572
    -4.7500   -999.2500   -999.2500   -999.2500    108.3840
    -4.5000   -999.2500   -999.2500   -999.2500    107.1228
    -4.2500   -999.2500   -999.2500   -999.2500    104.1623
    -4.0000   -999.2500   -999.2500   -999.2500    101.2200
    -3.7500   -999.2500   -999.2500   -999.2500     99.0622
    -3.5000   -999.2500   1170.0000     -0.3805     97.0879
    -3.2500   -999.2500   1170.0000     -0.3843     94.5761
    -3.0000   -999.2500   1170.0000     -0.3869     91.6791
    -2.7500   -999.2500   1170.0000     -0.3869     89.1375
    -2.5000   -999.2500   1170.0000     -0.3851     87.5800
    -2.2500   -999.2500   1170.0000     -0.3822     87.2630
    -2.0000   -999.2500   1170.0000     -0.3785     87.9538
    -1.7500   -999.2500   1170.0000     -0.3736     88.6011
    -1.5000   -999.2500   1170.0000     -0.3684     87.3042
    -1.2500   -999.2500   1170.0000     -0.3647     82.3203
    -1.0000   -999.2500   1170.0000     -0.3637     73.6669
    -0.7500   -999.2500   1170.0000     -0.3650     63.5499
    -0.5000   -999.2500   1170.0000     -0.3670     54.8060
    -0.2500   -999.2500   1170.0000     -0.3678     48.9189
     0.0000   -999.2500   1170.0000     -0.3660     45.5208
     0.2500   -999.2500   1170.0000     -0.3607     43.2957
     0.5000   -999.2500   1170.0000     -0.3425     37.8362
     0.7500   -999.2500   1170.0000     -0.3362     33.9745
     1.0000   -999.2500   1170.0000     -0.3355     30.4741
     1.2500   -999.2500   1170.0000     -0.3396     28.9339
     1.5000   -999.2500   1170.0000     -0.3464     30.4075
     1.7500     -2.0000   1170.0000     -0.3543     34.4274
     2.0000      0.0000   1170.0000     -0.3630     39.0041
     2.2500      0.0000   1170.0000     -0.3724     41.9892
     2.5000      0.0000   1170.0000     -0.3829     42.9285
     2.7500      0.0000   1170.0000     -0.3940     43.4528
     3.0000      0.0000   1170.0000     -0.4032     45.5046
     3.2500      0.0000   1170.0000     -0.4078     49.3572
     3.5000      0.0000   1170.0000     -0.4070     53.5675
     3.7500      0.0000   1170.0000     -0.4019     56.4099
     4.0000      0.0000   1170.0000     -0.3946     57.0093
     4.2500      0.0000   1170.0000     -0.3865     55.6312
     4.5000      0.0000   1170.0000     -0.3788     53.5573
     4.7500      0.0000   1170.0000     -0.3739     52.6434
     5.0000      0.0000   1170.0000     -0.3748     54.3716
     5.2500      0.0000   1170.0000     -0.3830     58.6905
     5.5000      0.0000   1170.0000     -0.3966     63.5244
     5.7500      0.0000   1170.0000     -0.4108     65.8445
     6.0000      0.0000   1170.0000     -0.4198     63.8770
     6.2500      0.0000   1170.0000     -0.4196     58.4780
     6.5000      0.0000   1170.0000     -0.4098     52.4540
     6.7500      0.0000   1170.0000     -0.3933     48.7180
     7.0000      0.0000   1170.0000     -0.3738     48.6403
     7.2500      0.0000   1170.0000     -0.3546     51.2034
     7.5000      0.0000   1169.9402     -0.3335     53.5210
     7.7500      0.0000   1169.5504     -0.2926     52.9297
     8.0000      0.0000   1167.5714     -0.1490     49.2503
     8.2500      0.0000   1159.7456      0.3733     44.9724
     8.5000      0.0000   1135.6462      1.9485     43.1228
     8.7500      0.0000   1077.8525      5.7430     44.9068
     9.0000      0.0000    969.9227     13.0026     48.9507
     9.2500      0.0000    812.9674     24.0284     52.3459
     9.5000      0.0000    635.2366     37.3494     52.6254
     9.7500      0.0000    478.5361     50.2221     49.4341
    10.0000      0.0000    370.9789     60.2926     44.7179
    10.2500      0.0000    313.5226     66.8257     41.3864
    10.5000      0.0000    289.6547     70.4900     41.6224
    10.7500      0.0000    281.9646     72.3728     45.8791
    11.0000      0.0000    280.0620     73.3209     52.7867
    11.2500      0.0000    279.7173     73.8436     59.9361
    11.5000      0.0000    279.6867     74.2166     65.0991
    11.7500      0.0000    279.7100     74.5571     67.0897
    12.0000      0.0000    279.7339     74.8765     65.9799
    12.2500      0.0000    279.7595     75.0892     62.8354
    12.5000      0.0000    279.7837     74.9463     59.1447
    12.7500      0.0000    279.8107     74.0045     56.1870
    13.0000      0.0000    279.8708     71.7819     54.7225
    13.2500      0.0000    280.0306     68.0286     55.0343
    13.5000      0.0000    280.4041     62.8828     56.9204
    13.7500      0.0000    281.2018     56.8131     59.5145
    14.0000      0.0000    282.8454     50.4207     61.4738
    14.2500      0.0000    286.0156     44.2020     61.7936
    14.5000      0.0000    291.3799     38.3953     60.5270
    14.7500      0.0000    299.0058     33.0287     58.6427
    15.0000      0.0000    308.3328     28.0933     57.1947
    15.2500      0.0000    319.3812     23.6379     56.6501
    15.5000      0.0000    334.3842     19.7347     56.8535
    15.7500      0.0000    357.0009     16.4307     57.4279
    16.0000      0.0000    387.7545     13.7544     58.2225
    16.2500      0.0000    419.8781     11.7289     59.5273
    16.5000      0.0000    443.0559     10.3430     61.7863
    16.7500      0.0000    453.4342      9.5090     64.9253
    17.0000      0.0000    456.4123      9.0691     68.0845
    17.2500      0.0000    456.8923      8.8554     70.2447
    17.5000      0.0000    451.7241      8.7472     70.9570
    17.7500      0.0000    436.1121      8.6832     70.4189
    18.0000      0.0000    413.0241      8.6425     69.2769
    18.2500      0.0000    391.2901      8.6210     68.3282
    18.5000      0.0000    376.9658      8.6180     67.8157
    18.7500      0.0000    369.9788      8.6307     66.8311
    19.0000      0.0000    367.2961      8.6518     64.0068
    19.2500      0.0000    366.4013      8.6706     59.3157
    19.5000      0.0000    366.1801      8.6809     54.8181
    19.7500      0.0000    366.2734      8.6868     52.8883
    20.0000      0.0000    366.4978      8.6990     53.8276
    20.2500      0.0000    366.6970      8.7203     55.7810
    20.5000      0.0000    366.8960      8.7391     56.7809
    20.7500      0.0000    367.5928      8.7390     56.3139
    21.0000      0.0000    370.1959      8.7133     54.9706
    21.2500      0.0000    377.4716      8.6690     53.2093
    21.5000      0.0000    392.8474      8.6220     50.9730
    21.7500      0.0000    417.5078      8.5885     48.4414
    22.0000      0.0000    447.6577      8.5800     46.5835
    22.2500      0.0000    476.8653      8.5997     46.4953
    22.5000      0.0000    501.8279      8.6420     48.2708
    22.7500      0.0000    522.6300      8.6940     50.7633
    23.0000      0.0000    537.6147      8.7386     52.4261
    23.2500      0.0000    544.4069      8.7602     52.3942
    23.5000      0.0000    546.1730      8.7530     51.0879
    23.7500      0.0000    548.5142      8.7254     49.9471
    24.0000      0.0000    549.1310      8.6940     50.4194
    24.2500      0.0000    539.7961      8.6710     52.9378
    24.5000      0.0000    520.0021      8.6562     56.6122
    24.7500      0.0000    499.3390      8.6445     59.7888
