~Version Information
VERS.                      2.0: CWLS Log ASCII Standard - VERSION 2.0
WRAP.                       NO: One line per depth step
~Well Information Block
STRT.FT                -9.7500: 
STOP.FT              2374.2500: 
STEP.FT                 0.2500: 
NULL.                -999.2500: 
COMP.          Pioneer Natural Resources: COMPANY
WELL.            Chevron 13-13: WELL
FLD.           Purgatorie River: FIELD
LOC.           1560' FSL & 711' FWL--: LOCATION
CNTY.               Las Animas: COUNTY
SRVC.          Superior Well Services: SERVICE COMPANY
DATE.          Wed Apr 11 08:47:55 2007: LOG DATE
UWI.           05 071 08319 00: UNIQUE WELL ID
STAT.                       CO: STATE
~Curve Information Block
DEPT.FT            0 000 00 00: Depth
CCL.                          : Casing Collar Locator
TT3.usec                      : CBL 3' Travel Time
AMP3.mV                       : CBL 3' Amplitude
GR.GAPI                       : Gamma Ray
~Parameter Information Block
~A  Depth       CCL         TT3         AMP3         GR     
# ...
   157.7500      0.0000    261.9460     82.6537     55.2990
   158.0000      0.0000    261.9435     82.6917     58.3144
   158.2500      0.0000    261.9474     82.7303     60.0053
   158.5000      0.0000    261.9547     82.7423     59.8814
   158.7500      0.0000    261.9625     82.7475     58.5167
   159.0000      0.0000    261.9713     82.7985     56.9769
   159.2500      0.0000    261.9838     82.9270     56.0509
   159.5000      0.0000    262.0038     83.1101     56.1315
   159.7500      0.0000    262.0321     83.3021     57.5677
   160.0000      0.0000    262.0635     83.4766     60.6877
   160.2500      0.0000    262.0875     83.6184     65.2253
   160.5000      0.0000    262.0967     83.7018     69.7698
   160.7500      0.0000    262.0922     83.7209     72.2528
   161.0000      0.0000    262.0810     83.7217     71.4741
   161.2500      0.0000    262.0703     83.7653     68.0831
   161.5000      0.0000    262.0636     83.8589     63.8326
   161.7500      0.0000    262.0611     83.9484     60.1666
   162.0000      0.0000    262.0621     83.9760     57.7790
   162.2500      0.0000    262.0658     83.9335     57.1327
   162.5000      0.0000    262.0711     83.8666     58.8428
   162.7500      0.0000    262.0759     83.8387     63.3179
   163.0000      0.0000    262.0789     83.8855     70.0322
   163.2500      0.0000    262.0807     83.9899     77.3689
   163.5000      0.0000    262.0842     84.0914     83.4410
   163.7500      0.0000    262.0902     84.1245     87.1833
   164.0000      0.0000    262.0979     84.0643     88.7103
   164.2500      0.0000    262.1050     83.9510     88.9204
   164.5000      0.0000    262.1083     83.8668     88.9835
   164.7500      0.0000    262.1042     83.8749     89.9732
   165.0000      0.0000    262.0910     83.9759     92.5123
   165.2500      0.0000    262.0711     84.1195     96.4693
   165.5000      0.0000    262.0489     84.2436    100.9432
   165.7500      0.0000    262.0305     84.2995    104.6525
   166.0000      0.0000    262.0215     84.2689    106.5434
   166.2500      0.0000    262.0240     84.1722    106.2409
   166.5000      0.0000    262.0334     84.0462    104.1808
   166.7500      0.0000    262.0421     83.9116    101.4814
   167.0000      0.0000    262.0458     83.7793     99.4215
   167.2500      0.0000    262.0472     83.6716     98.5180
   167.5000      0.0000    262.0517     83.6056     97.9740
   167.7500      0.0000    262.0605     83.5678     96.3493
   168.0000      0.0000    262.0673     83.5322     92.9045
   168.2500      0.0000    262.0639     83.4955     88.3400
   168.5000      0.0000    262.0493     83.4714     84.3780
   168.7500      0.0000    262.0319     83.4608     82.6653
   169.0000      0.0000    262.0223     83.4489     83.9170
   169.2500      0.0000    262.0230     83.4341     87.8383
   169.5000      0.0000    262.0261     83.4408     93.7638
   169.7500      0.0000    262.0211     83.4911    101.3021
   170.0000      0.0000    262.0047     83.5679    110.1312
   170.2500      0.0000    261.9813     83.6248    119.0736
   170.5000      0.0000    261.9565     83.6329    125.8814
   170.7500      0.0000    261.9346     83.6091    128.5564
   171.0000      0.0000    261.9206     83.5941    126.9256
   171.2500      0.0000    261.9190     83.6143    122.5287
   171.5000      0.0000    261.9275     83.6609    116.9833
   171.7500      0.0000    261.9370     83.6955    110.9365
   172.0000      0.0000    261.9398     83.6782    104.6198
   172.2500      0.0000    261.9365     83.6003     98.6805
   172.5000      0.0000    261.9336     83.4937     93.7058
   172.7500      0.0000    261.9381     83.4074     89.1036
   173.0000      0.0000    261.9532     83.3726     83.2811
   173.2500      0.0000    261.9771     83.3853     75.3295
   173.5000      0.0000    262.0034     83.4196     66.2602
   173.7500      0.0000    262.0244     83.4647     58.2873
   174.0000      0.0000    262.0338     83.5374     53.0913
   174.2500      0.0000    262.0295     83.6464     51.0064
   174.5000      0.0000    262.0155     83.7572     51.3933
   174.7500      0.0000    262.0001     83.8196     53.0196
   175.0000      0.0000    261.9902     83.8257     54.2209
   175.2500      0.0000    261.9863     83.8171     53.5875
   175.5000      0.0000    261.9832     83.8319     50.9152
   175.7500      0.0000    261.9763     83.8628     47.3026
   176.0000      0.0000    261.9669     83.8733     44.3112
   176.2500      0.0000    261.9603     83.8429     43.1310
   176.5000      0.0000    261.9621     83.7769     44.1448
   176.7500      0.0000    261.9822     83.6252     46.7682
   177.0000      0.0000    262.0496     83.1495     49.7774
   177.2500      0.0000    262.2292     81.8400     52.2282
   177.5000      0.0000    262.6172     79.0780     54.1643
   177.7500      0.0000    263.2914     74.6505     56.2901
   178.0000      0.0000    264.2345     69.2561     58.9050
   178.2500      0.0000    265.3003     64.2735     61.3327
   178.5000      0.0000    266.2742     60.7827     62.6771
   178.7500      0.0000    266.9904     58.9019     63.0344
   179.0000      0.0000    267.4044     58.0848     63.3821
   179.2500      0.0000    267.5750     57.7563     64.1507
   179.5000      0.0000    267.5964     57.5805     64.5487
   179.7500      2.0000    267.5394     57.4520     63.6812
   180.0000      0.0000    267.4262     57.4894     61.8962
   180.2500      0.0000    267.2314     58.0600     60.6207
   180.5000      0.0000    266.8944     59.7156     60.9900
   180.7500      0.0000    266.3426     62.9110     62.8150
   181.0000      0.0000    265.5300     67.5349     64.9118
   181.2500      0.0000    264.4907     72.6785     66.3859
   181.5000      0.0000    263.3676     77.1095     67.3730
   181.7500      0.0000    262.3645     80.0964     68.6803
   182.0000      0.0000    261.6375     81.7237     71.2657
   182.2500      0.0000    261.2207     82.5149     75.9316
   182.5000      0.0000    261.0451     82.9440     82.8148
   182.7500      0.0000    261.0114     83.2552     91.1753
   183.0000      0.0000    261.0390     83.5147    100.1319
   183.2500      0.0000    261.0769     83.7092    109.2481
   183.5000      0.0000    261.1015     83.8199    117.8674
   183.7500      0.0000    261.1111     83.8562    124.3824
   184.0000      0.0000    261.1157     83.8388    127.1364
   184.2500      0.0000    261.1225     83.7784    126.1850
   184.5000      0.0000    261.1315     83.6750    123.5830
   184.7500      0.0000    261.1392     83.5293    121.7272
   185.0000      0.0000    261.1442     83.3479    121.6148
   185.2500      0.0000    261.1474     83.1544    122.5445
   185.5000      0.0000    261.1513     83.0018    123.1717
   185.7500      0.0000    261.1598     82.9540    123.1165
   186.0000      0.0000    261.1758     83.0356    123.6562
   186.2500      0.0000    261.1992     83.1983    126.4139
   186.5000      0.0000    261.2273     83.3399    131.2496
   186.7500      0.0000    261.2585     83.3754    135.8466
   187.0000      0.0000    261.2920     83.3089    137.4080
   187.2500      0.0000    261.3259     83.2344    134.5524
   187.5000      0.0000    261.3571     83.2481    127.8938
   187.7500      0.0000    261.3827     83.3634    119.2190
   188.0000      0.0000    261.4018     83.5202    110.0759
   188.2500      0.0000    261.4159     83.6600    100.9234
   188.5000      0.0000    261.4276     83.7776     91.4187
   188.7500      0.0000    261.4384     83.9086     81.4254
   189.0000      0.0000    261.4474     84.0796     71.8969
   189.2500      0.0000    261.4550     84.2675     64.9238
   189.5000      0.0000    261.4630     84.4109     62.6625
   189.7500      0.0000    261.4737     84.4711     65.7485
   190.0000      0.0000    261.4878     84.4691     72.4579
   190.2500      0.0000    261.5053     84.4455     79.5055
   190.5000      0.0000    261.5279     84.4058     83.8351
   190.7500      0.0000    261.5564     84.3296     83.8969
   191.0000      0.0000    261.5876     84.2149     79.7857
