~Version Information
VERS.                      2.0: CWLS Log ASCII Standard - VERSION 2.0
WRAP.                       NO: One line per depth step
~Well Information Block
STRT.FT               620.0000: 
STOP.FT              2663.2500: 
STEP.FT                 0.2500: 
NULL.                -999.2500: 
COMP.          Evergreen Operating Corporation: COMPANY
WELL.             Carbon 34-21: WELL
FLD.           Purgatoire River: FIELD
LOC.           56' FSL & 2304' FEL: LOCATION
PROV.                 Colorado: PROVINCE
CNTY.               Las Animas: COUNTRY
SRVC.                Patterson: SERVICE COMPANY
DATE.          Mon Sep 13 11:41:04 2004: LOG DATE
UWI.           05 071 08117 00: UNIQUE WELL ID
~Curve Information Block
DEPT.FT            0 000 00 00: Depth
DIR.Ohm-m                     : IEL Induction Resistivity
SN.Ohm-m                      : IEL Short Normal
SP.mV                         : IEL Spontaneous Potential
GR.GAPI                       : Gamma Ray
~Parameter Information Block
~A  Depth       DIR          SN          SP          GR     
# ...
  2362.0000      7.1572      7.9448    134.9049    141.5842
  2362.2500      7.4883      8.2567    134.5951    137.7272
  2362.5000      7.8311      8.3949    134.4491    129.9507
  2362.7500      8.1553      8.3444    134.4727    121.7709
  2363.0000      8.4369      8.2233    134.6346    104.3971
  2363.2500      8.6695      8.2492    134.8743     91.5064
  2363.5000      8.8672      8.6278    135.1186     76.3340
  2363.7500      9.0555      9.4408    135.3020     71.9368
  2364.0000      9.2564     10.6075    135.3876     74.7134
  2364.2500      9.4779     11.9392    135.3811     80.6058
  2364.5000      9.7108     13.2367    135.3334     89.9036
  2364.7500      9.9338     14.3604    135.3314     94.0945
  2365.0000     10.1238     15.2396    135.4806     96.6219
  2365.2500     10.2667     15.8526    135.8853     96.5188
  2365.5000     10.3636     16.2204    136.6279     95.1369
  2365.7500     10.4288     16.4061    137.7518     94.3938
  2366.0000     10.4827     16.4976    139.2479     95.9998
  2366.2500     10.5411     16.5718    141.0506    100.0458
  2366.5000     10.6093     16.6657    143.0461    110.1528
  2366.7500     10.6801     16.7687    145.0959    117.9275
  2367.0000     10.7370     16.8351    147.0683    127.9463
  2367.2500     10.7608     16.8042    148.8687    132.4021
  2367.5000     10.7360     16.6256    150.4585    135.2914
  2367.7500     10.6564     16.2792    151.8561    135.0325
  2368.0000     10.5279     15.7752    153.1216    132.6587
  2368.2500     10.3666     15.1379    154.3319    130.6362
  2368.5000     10.1926     14.3934    155.5557    127.9208
  2368.7500     10.0236     13.5714    156.8382    126.3294
  2369.0000      9.8718     12.7101    158.1986    123.4864
  2369.2500      9.7455     11.8527    159.6394    120.8411
  2369.5000      9.6498     11.0414    161.1575    115.9455
  2369.7500      9.5852     10.3190    162.7499    112.6380
  2370.0000      9.5446      9.7373    164.4113    108.3625
  2370.2500      9.5102      9.3550    166.1263    106.1950
  2370.5000      9.4561      9.2062    167.8643    104.5624
  2370.7500      9.3571      9.2585    169.5829    104.9006
  2371.0000      9.2019      9.4164    171.2382    107.3436
  2371.2500      9.0001      9.5850    172.7977    109.7922
  2371.5000      8.7771      9.7277    174.2488    114.1473
  2371.7500      8.5620      9.8611    175.5985    117.3827
  2372.0000      8.3784     10.0113    176.8686    122.1956
  2372.2500      8.2423     10.1873    178.0893    124.6817
  2372.5000      8.1634     10.3822    179.2984    125.8808
  2372.7500      8.1475     10.5829    180.5461    124.4709
  2373.0000      8.1957     10.7743    181.9001    119.5402
  2373.2500      8.3030     10.9409    183.4452    115.5442
  2373.5000      8.4582     11.0697    185.2715    110.7170
  2373.7500      8.6448     11.1531    187.4500    108.7256
  2374.0000      8.8445     11.1913    190.0044    106.5549
  2374.2500      9.0414     11.1968    192.8894    104.8362
  2374.5000      9.2237     11.1993    195.9894    101.5990
  2374.7500      9.3848     11.2419    199.1392     99.5211
  2375.0000      9.5236     11.3656    202.1635     97.4836
  2375.2500      9.6449     11.5900    204.9173     96.9241
  2375.5000      9.7590     11.9065    207.3136     96.5158
  2375.7500      9.8798     12.2875    209.3280     96.1236
  2376.0000     10.0192     12.6979    210.9872     95.7637
  2376.2500     10.1811     13.0972    212.3507     96.3586
  2376.5000     10.3570     13.4423    213.4988     98.8537
  2376.7500     10.5314     13.7007    214.5317    100.7670
  2377.0000     10.6926     13.8683    215.5724    101.7933
  2377.2500     10.8418     13.9725    216.7644    100.4652
  2377.5000     10.9912     14.0536    218.2552     95.6928
  2377.7500     11.1520     14.1361    220.1649     91.3108
  2378.0000     11.3235     14.2087    222.5518     84.3904
  2378.2500     11.4907     14.2242    225.3901     80.6570
  2378.5000     11.6298     14.1163    228.5759     77.9980
  2378.7500     11.7172     13.8332    231.9611     78.1907
  2379.0000     11.7368     13.3765    235.4032     79.9867
  2379.2500     11.6839     12.8242    238.8070     81.4865
  2379.5000     11.5648     12.3135    242.1393     84.0229
  2379.7500     11.3935     11.9864    245.4141     85.9252
  2380.0000     11.1877     11.9256    248.6593     88.8071
  2380.2500     10.9645     12.1161    251.8870     90.5912
  2380.5000     10.7394     12.4525    255.0821     92.6068
  2380.7500     10.5276     12.7942    258.2133     92.8055
  2381.0000     10.3487     13.0411    261.2529     90.4247
  2381.2500     10.2251     13.1790    264.1925     87.7053
  2381.5000     10.1746     13.2589    267.0463     84.8816
  2381.7500     10.1999     13.3353    269.8406     85.0880
  2382.0000     10.2842     13.4178    272.6007     87.9450
  2382.2500     10.3983     13.4737    275.3431     90.1551
  2382.5000     10.5142     13.4677    278.0742     91.7754
  2382.7500     10.6157     13.3983    280.7948     91.1817
  2383.0000     10.6989     13.2986    283.5038     88.3093
  2383.2500     10.7651     13.2088    286.1971     86.1088
  2383.5000     10.8160     13.1494    288.8653     84.3119
  2383.7500     10.8524     13.1138    291.4918     84.5558
  2384.0000     10.8760     13.0814    294.0552     86.4284
  2384.2500     10.8904     13.0379    296.5347     88.0603
  2384.5000     10.8998     12.9837    298.9165     90.4340
  2384.7500     10.9073     12.9284    301.1976     91.8203
  2385.0000     10.9146     12.8808    303.3854     93.6441
  2385.2500     10.9213     12.8430    305.4947     94.8171
  2385.5000     10.9260     12.8065    307.5428     96.4293
  2385.7500     10.9271     12.7541    309.5456     97.1737
  2386.0000     10.9244     12.6716    311.5155     97.7393
  2386.2500     10.9191     12.5594    313.4624     97.9648
  2386.5000     10.9122     12.4322    315.3937     98.1550
  2386.7500     10.9033     12.3059    317.3141     98.1035
  2387.0000     10.8886     12.1878    319.2212     98.3447
  2387.2500     10.8611     12.0785    321.0997     99.4798
  2387.5000     10.8130     11.9780    322.9173    103.2483
  2387.7500     10.7385     11.8895    324.6244    106.4925
  2388.0000     10.6381     11.8186    326.1587    110.3825
  2388.2500     10.5183     11.7700    327.4547    111.5817
  2388.5000     10.3904     11.7422    328.4535    111.9462
  2388.7500     10.2671     11.7238    329.1127    112.2951
  2389.0000     10.1608     11.6986    329.4146    113.9526
  2389.2500     10.0822     11.6585    329.3747    115.2843
  2389.5000     10.0397     11.6116    329.0495    115.8509
  2389.7500     10.0383     11.5798    328.5421    114.8414
  2390.0000     10.0787     11.5902    328.0018    112.1968
  2390.2500     10.1574     11.6635    327.6117    110.4854
  2390.5000     10.2685     11.8042    327.5595    108.3493
  2390.7500     10.4053     11.9968    327.9942    106.8774
  2391.0000     10.5624     12.2138    328.9779    104.1284
  2391.2500     10.7357     12.4333    330.4509    101.9243
  2391.5000     10.9216     12.6525    332.2298     98.1832
  2391.7500     11.1162     12.8878    334.0450     95.5704
  2392.0000     11.3147     13.1610    335.6068     92.1878
  2392.2500     11.5131     13.4816    336.6739     90.8165
  2392.5000     11.7092     13.8359    337.0982     90.4127
  2392.7500     11.9022     14.1922    336.8342     90.7572
  2393.0000     12.0921     14.5205    335.9176     90.4030
  2393.2500     12.2790     14.8104    334.4328     88.7764
  2393.5000     12.4648     15.0729    332.4858     84.8383
  2393.7500     12.6556     15.3297    330.1885     82.4824
  2394.0000     12.8617     15.6035    327.6534     80.8414
  2394.2500     13.0939     15.9157    324.9918     80.7051
  2394.5000     13.3578     16.2849    322.3100     80.3665
  2394.7500     13.6498     16.7215    319.6989     79.4036
  2395.0000     13.9593     17.2195    317.2204     76.6564
  2395.2500     14.2769     17.7538    314.8904     74.2335
