~Version Information
VERS.                      2.0: CWLS Log ASCII Standard - VERSION 2.0
WRAP.                       NO: One line per depth step
~Well Information Block
STRT.FT               -11.5000: 
STOP.FT              2395.2500: 
STEP.FT                 0.2500: 
NULL.                -999.2500: 
COMP.          Petrogulf Corporation: COMPANY
WELL.            Montoya 7-21V: WELL
FLD.           Purgatorie River: FIELD
LOC.           738' FSL & 2070' FWL--: LOCATION
CNTY.               Las Animas: COUNTY
SRVC.                         : SERVICE COMPANY
DATE.          Mon Aug 30 15:10:00 2004: LOG DATE
UWI.                          : UNIQUE WELL ID
STAT.                       CO: STATE
~Curve Information Block
DEPT.FT            0 000 00 00: Depth
CCL.                          : Casing Collar Locator
TT3.usec                      : CBL 3' Travel Time
AMP3.mV                       : CBL 3' Amplitude
GR.GAPI                       : Gamma Ray
~Parameter Information Block
~A  Depth       CCL         TT3         AMP3         GR     
# ...
  1429.0000      0.0000    707.8193      3.1682    127.8328
  1429.2500      0.0000    712.2520      2.9534    128.3637
  1429.5000      0.0000    714.1011      2.7183    130.8812
  1429.7500      0.0000    714.6093      2.5335    136.1756
  1430.0000      0.0000    714.2443      2.4311    142.3250
  1430.2500      0.0000    712.1325      2.3867    146.1833
  1430.5000      0.0000    706.2339      2.3591    145.5530
  1430.7500      0.0000    695.4922      2.3411    140.5894
  1431.0000      0.0000    682.8359      2.3667    133.3471
  1431.2500      0.0000    674.5018      2.4814    126.1220
  1431.5000      0.0000    674.5322      2.7063    120.4080
  1431.7500      0.0000    680.9972      3.0150    117.1750
  1432.0000      0.0000    689.0134      3.3396    117.3201
  1432.2500      0.0000    695.8775      3.6155    121.2185
  1432.5000      0.0000    701.7624      3.8319    128.1881
  1432.7500      0.0000    707.1606      4.0356    136.9685
  1433.0000      0.0000    711.8420      4.2820    146.3799
  1433.2500      0.0000    716.0244      4.5900    155.0249
  1433.5000      0.0000    721.1203      4.9464    161.0859
  1433.7500      0.0000    728.6171      5.3458    163.3969
  1434.0000      0.0000    738.3150      5.8021    162.6477
  1434.2500      0.0000    748.0980      6.3145    160.9531
  1434.5000      0.0000    755.8302      6.8471    160.1058
  1434.7500      0.0000    761.1481      7.3514    160.4741
  1435.0000      0.0000    764.9816      7.7787    161.5627
  1435.2500      0.0000    767.6893      8.0560    163.1591
  1435.5000      0.0000    768.2901      8.0913    165.6704
  1435.7500      0.0000    765.2422      7.8496    169.4719
  1436.0000      0.0000    757.3194      7.4234    174.0919
  1436.2500      0.0000    743.3156      6.9982    177.9865
  1436.5000      0.0000    721.3789      6.7288    179.0703
  1436.7500      0.0000    690.3819      6.6436    175.8058
  1437.0000      0.0000    653.4206      6.6569    168.4551
  1437.2500      0.0000    618.6496      6.6580    159.3887
  1437.5000      0.0000    594.1027      6.5903    151.6614
  1437.7500      0.0000    581.7986      6.4649    147.0200
  1438.0000      0.0000    578.5612      6.3216    145.4028
  1438.2500      0.0000    581.6155      6.1881    146.0604
  1438.5000      0.0000    591.2360      6.0755    148.4245
  1438.7500      0.0000    608.6149      5.9999    151.8970
  1439.0000      0.0000    633.5314      5.9920    155.4899
  1439.2500      0.0000    664.1694      6.0770    158.0515
  1439.5000      0.0000    697.1014      6.2514    159.0658
  1439.7500      0.0000    727.1189      6.4753    159.5699
  1440.0000      0.0000    749.1594      6.6796    161.9187
  1440.2500      0.0000    761.2086      6.7918    167.6182
  1440.5000      0.0000    764.5936      6.7775    175.2832
  1440.7500      0.0000    761.6898      6.6601    181.3891
  1441.0000      0.0000    754.1619      6.4954    183.1008
  1441.2500      0.0000    742.9054      6.3354    180.0919
  1441.5000      0.0000    728.4312      6.2222    174.2133
  1441.7500      0.0000    711.4536      6.2067    168.3902
  1442.0000      0.0000    694.0316      6.3521    165.7574
  1442.2500      0.0000    679.4748      6.7048    168.5376
  1442.5000      0.0000    668.2425      7.2744    176.4063
  1442.7500      0.0000    652.5488      8.0579    185.8889
  1443.0000      0.0000    618.4862      9.0609    192.2206
  1443.2500      0.0000    558.4238     10.2647    192.4784
  1443.5000      0.0000    481.4748     11.5772    187.2247
  1443.7500      0.0000    408.4335     12.8383    179.5697
  1444.0000      0.0000    355.9185     13.8793    172.7077
  1444.2500      0.0000    326.9143     14.6007    167.6245
  1444.5000      0.0000    314.5264     15.0251    162.6506
  1444.7500      0.0000    310.5592     15.2751    155.3840
  1445.0000      0.0000    310.4276     15.4565    145.1558
  1445.2500      0.0000    314.1885     15.5374    133.4335
  1445.5000      0.0000    326.4883     15.3518    122.1374
  1445.7500      0.0000    355.3293     14.7331    112.2393
  1446.0000      0.0000    406.6109     13.6490    103.8600
  1446.2500      0.0000    476.1126     12.2365     96.8692
  1446.5000      0.0000    548.6249     10.7370     91.1884
  1446.7500      0.0000    609.6766      9.3732     87.0814
  1447.0000      0.0000    657.0154      8.2427     85.2754
  1447.2500      0.0000    696.6213      7.3212     86.4557
  1447.5000      0.0000    730.6609      6.5574     90.5054
  1447.7500      0.0000    754.8961      5.9391     96.3272
  1448.0000      0.0000    765.5688      5.4675    102.3738
  1448.2500      0.0000    764.1147      5.0972    107.4102
  1448.5000      0.0000    756.0084      4.7316    111.1478
  1448.7500      0.0000    747.3483      4.2936    114.4138
  1449.0000      0.0000    742.0052      3.7955    118.7038
  1449.2500      0.0000    740.7747      3.3198    125.4683
  1449.5000      0.0000    742.9174      2.9411    135.3874
  1449.7500      0.0000    747.9298      2.6895    147.5591
  1450.0000      0.0000    755.0233      2.5730    159.3727
  1450.2500      0.0000    761.5165      2.5955    168.1311
  1450.5000      0.0000    763.3672      2.7401    173.2572
  1450.7500      0.0000    758.2800      2.9589    176.4257
  1451.0000      0.0000    747.9246      3.2022    179.5641
  1451.2500      0.0000    736.5759      3.4644    183.3566
  1451.5000      0.0000    727.7816      3.7833    187.1631
  1451.7500      0.0000    722.6381      4.1763    189.0917
  1452.0000      0.0000    720.7055      4.5922    186.3409
  1452.2500      0.0000    721.6663      4.9454    177.1228
  1452.5000      0.0000    725.8008      5.1844    163.0456
  1452.7500      0.0000    733.0457      5.3172    148.7694
  1453.0000      0.0000    741.7892      5.3847    138.4793
  1453.2500      0.0000    749.0369      5.4176    133.1061
  1453.5000      0.0000    752.4249      5.4069    131.4137
  1453.7500      0.0000    752.3359      5.3258    132.7529
  1454.0000      0.0000    751.7700      5.1949    137.5333
  1454.2500      0.0000    753.9139      5.1099    145.5475
  1454.5000      0.0000    759.6633      5.1791    155.1663
  1454.7500      0.0000    767.1851      5.4260    164.3301
  1455.0000      0.0000    773.4083      5.7601    171.7476
  1455.2500      0.0000    775.6837      6.0457    177.1140
  1455.5000      0.0000    772.6525      6.1917    180.5240
  1455.7500      0.0000    764.7478      6.1769    181.9140
  1456.0000      0.0000    754.2631      6.0184    181.2151
  1456.2500      0.0000    744.3742      5.7496    178.7767
  1456.5000      0.0000    737.5926      5.4287    175.0452
  1456.7500      0.0000    735.1143      5.1320    169.7273
  1457.0000      0.0000    737.2885      4.9158    161.8590
  1457.2500      0.0000    743.5714      4.7831    151.0986
  1457.5000      0.0000    751.4751      4.6862    138.6711
  1457.7500      0.0000    756.8941      4.5671    126.8861
  1458.0000      0.0000    757.1679      4.4062    118.1184
  1458.2500      0.0000    753.8717      4.2338    114.2277
  1458.5000      0.0000    751.5803      4.0992    115.9708
  1458.7500      0.0000    753.5986      4.0426    122.3431
  1459.0000      0.0000    758.9441      4.1085    130.8880
  1459.2500      0.0000    762.6177      4.3727    138.8228
  1459.5000      0.0000    757.9036      4.9251    143.6342
  1459.7500      0.0000    738.4149      5.8083    143.2706
  1460.0000      0.0000    698.9716      6.9790    137.0137
  1460.2500      0.0000    637.0712      8.3528    126.2283
  1460.5000      0.0000    556.7802      9.8809    113.4786
  1460.7500      0.0000    471.3595     11.5453    100.8577
  1461.0000      0.0000    398.2387     13.2843     89.4707
  1461.2500      0.0000    348.5892     14.9731     80.1712
  1461.5000      0.0000    322.0453     16.5007     74.2152
  1461.7500      0.0000    310.8755     17.8389     72.8785
  1462.0000      0.0000    307.1201     19.0390     76.1120
  1462.2500      0.0000    306.0226     20.1936     81.6305
