~Version Information
VERS.                      2.0: CWLS Log ASCII Standard - VERSION 2.0
WRAP.                       NO: One line per depth step
~Well Information Block
STRT.FT               -16.5000: 
STOP.FT              1244.7500: 
STEP.FT                 0.2500: 
NULL.                -999.2500: 
COMP.          Pioneer Natural Resources: COMPANY
WELL.          Bouncer41-27 Tr: WELL
FLD.           Purgatorie River: FIELD
LOC.           292' FNL & 222' FEL--------: LOCATION
PROV.                       CO: PROVINCE
CNTY.               Las Animas: COUNTRY
SRVC.                         : SERVICE COMPANY
DATE.          Fri Feb 11 15:34:51 2005: LOG DATE
UWI.                071-08291 : UNIQUE WELL ID
~Curve Information Block
DEPT.FT            0 000 00 00: Depth
CCL.                          : Casing Collar Locator
TT3.usec                      : CBL 3' Travel Time
AMP3.mV                       : CBL 3' Amplitude
GR.GAPI                       : Gamma Ray
~Parameter Information Block
~A  Depth       CCL         TT3         AMP3         GR     
# ...
   821.0000      0.0000    697.1309      4.1671    107.5500
   821.2500      0.0000    698.2678      4.0827    113.2686
   821.5000      0.0000    701.2261      3.9007    122.8903
   821.7500      0.0000    707.4012      3.6788    134.2857
   822.0000      0.0000    717.6691      3.4898    143.9878
   822.2500      0.0000    730.9433      3.3897    148.7016
   822.5000      0.0000    743.7318      3.4111    146.6876
   822.7500      0.0000    752.2451      3.5479    138.6691
   823.0000      0.0000    755.5209      3.7452    127.8671
   823.2500      0.0000    755.9089      3.9258    118.5368
   823.5000      2.0000    756.1702      4.0332    113.7670
   823.7500      0.0000    756.9260      4.0526    114.2332
   824.0000      0.0000    757.1976      4.0085    118.4864
   824.2500      0.0000    756.0348      3.9543    124.3358
   824.5000      0.0000    752.6790      3.9519    130.4758
   824.7500      0.0000    746.3262      4.0442    136.8445
   825.0000      0.0000    736.9753      4.2437    143.3081
   825.2500      0.0000    726.0984      4.5331    148.6311
   825.5000      0.0000    715.8865      4.8625    151.4225
   825.7500      0.0000    707.9570      5.1558    151.9931
   826.0000      0.0000    702.7759      5.3429    152.7849
   826.2500      0.0000    699.8751      5.3966    156.6277
   826.5000      0.0000    698.4504      5.3474    164.1879
   826.7500      0.0000    697.8592      5.2691    172.7825
   827.0000      0.0000    697.7109      5.2398    177.9381
   827.2500      0.0000    697.5270      5.2909    176.9114
   827.5000      0.0000    696.1063      5.3811    171.0257
   827.7500      0.0000    690.7572      5.4286    164.2472
   828.0000      0.0000    677.1467      5.3797    159.5343
   828.2500      0.0000    651.2602      5.2558    157.1075
   828.5000      0.0000    613.4120      5.1406    155.9405
   828.7500      0.0000    570.5474      5.1155    155.6763
   829.0000      0.0000    532.8945      5.1945    156.7956
   829.2500      0.0000    507.4556      5.3178    159.8207
   829.5000      0.0000    495.1224      5.4085    164.6342
   829.7500      0.0000    493.6463      5.4290    169.9376
   830.0000      0.0000    501.6876      5.3847    173.3776
   830.2500      0.0000    519.3292      5.2934    173.0599
   830.5000      0.0000    545.8297      5.1691    169.4613
   830.7500      0.0000    578.4318      5.0342    165.5144
   831.0000      0.0000    613.1053      4.9315    164.3988
   831.2500      0.0000    644.3956      4.9100    167.0701
   831.5000      0.0000    664.1501      4.9937    171.4590
   831.7500      0.0000    663.2390      5.1535    173.7771
   832.0000      0.0000    637.8960      5.3074    171.1860
   832.2500      0.0000    595.6331      5.3658    163.9602
   832.5000      0.0000    554.2985      5.2987    155.1409
   832.7500      0.0000    533.4803      5.1608    148.0164
   833.0000      0.0000    543.9421      5.0438    143.9688
   833.2500      0.0000    581.9262      5.0005    142.4017
   833.5000      0.0000    631.4268      5.0108    142.0827
   833.7500      0.0000    672.8527      5.0110    142.3679
   834.0000      0.0000    691.7850      4.9488    143.3255
   834.2500      0.0000    682.3715      4.8189    144.7991
   834.5000      0.0000    646.8972      4.6651    145.6197
   834.7500      0.0000    596.5869      4.5511    144.4180
   835.0000      0.0000    551.8271      4.5157    141.5482
   835.2500      0.0000    534.6518      4.5454    139.4950
   835.5000      0.0000    554.6854      4.5890    140.6058
   835.7500      0.0000    601.5034      4.5996    144.4719
   836.0000      0.0000    652.5585      4.5659    147.9546
   836.2500      0.0000    689.2863      4.5078    148.0462
   836.5000      0.0000    706.5262      4.4491    144.8136
   836.7500      0.0000    709.9579      4.4053    141.3949
   837.0000      0.0000    708.0668      4.3942    141.0660
   837.2500      0.0000    706.3570      4.4258    144.4121
   837.5000      0.0000    706.1552      4.4755    149.1272
   837.7500      0.0000    706.6069      4.4979    152.3243
   838.0000      0.0000    707.2709      4.4848    153.1726
   838.2500      0.0000    708.9700      4.4878    153.1539
   838.5000      0.0000    712.3124      4.5727    153.5294
   838.7500      0.0000    716.0913      4.7532    153.4620
   839.0000      0.0000    717.9380      4.9724    151.5784
   839.2500      0.0000    716.6076      5.1454    148.3031
   839.5000      0.0000    713.0826      5.2238    145.2624
   839.7500      0.0000    709.2986      5.2208    143.1878
   840.0000      0.0000    706.4341      5.1879    141.6135
   840.2500      0.0000    704.7643      5.1765    140.1093
   840.5000      0.0000    704.3373      5.2150    138.9432
   840.7500      0.0000    704.9633      5.3009    138.5920
   841.0000      0.0000    706.0822      5.4045    139.0613
   841.2500      0.0000    707.5421      5.4885    140.0143
   841.5000      0.0000    710.1419      5.5311    141.4548
   841.7500      0.0000    714.5894      5.5350    143.6738
   842.0000      0.0000    720.0557      5.5202    146.4449
   842.2500      0.0000    724.4467      5.5108    148.9258
   842.5000      0.0000    726.2383      5.5186    150.2400
   842.7500      0.0000    725.7224      5.5286    149.5101
   843.0000      0.0000    724.4086      5.5032    145.8084
   843.2500      0.0000    723.5470      5.4165    139.1298
   843.5000      0.0000    723.5416      5.2883    131.4107
   843.7500      0.0000    724.3740      5.1743    125.8589
   844.0000      0.0000    725.8851      5.1183    124.8978
   844.2500      0.0000    727.6550      5.1255    128.5864
   844.5000      0.0000    728.9170      5.1750    134.9197
   844.7500      0.0000    728.2042      5.2361    141.6279
   845.0000      0.0000    722.9265      5.2673    147.5718
   845.2500      0.0000    710.2792      5.2243    152.3658
   845.5000      0.0000    689.5411      5.0862    155.3511
   845.7500      0.0000    663.6595      4.8736    155.8092
   846.0000      0.0000    638.4600      4.6412    154.2392
   846.2500      0.0000    619.7796      4.4478    152.8466
   846.5000      0.0000    610.2515      4.3249    154.3072
   846.7500      0.0000    607.9561      4.2664    159.8162
   847.0000      0.0000    608.0747      4.2466    167.8812
   847.2500      0.0000    606.3929      4.2474    174.8100
   847.5000      0.0000    601.8942      4.2659    176.9818
   847.7500      0.0000    596.4132      4.2985    173.5648
   848.0000      0.0000    592.2563      4.3276    167.2905
   848.2500      0.0000    590.4735      4.3344    162.2935
   848.5000      0.0000    591.0317      4.3203    160.9895
   848.7500      0.0000    593.8860      4.3101    163.0221
   849.0000      0.0000    599.5278      4.3352    166.8396
   849.2500      0.0000    608.5187      4.4127    171.4924
   849.5000      0.0000    620.4385      4.5343    176.6954
   849.7500      0.0000    633.3077      4.6712    181.7700
   850.0000      0.0000    644.2797      4.7916    185.1638
   850.2500      0.0000    651.0026      4.8725    185.3827
   850.5000      0.0000    652.3998      4.9037    182.5449
   850.7500      0.0000    648.7382      4.8907    178.7596
   851.0000      0.0000    641.7336      4.8586    176.5992
   851.2500      0.0000    634.5272      4.8369    177.2099
   851.5000      0.0000    630.4839      4.8323    179.8602
   851.7500      0.0000    631.1215      4.8232    182.8465
   852.0000      0.0000    635.2494      4.7867    184.2852
   852.2500      0.0000    640.7653      4.7249    182.2876
   852.5000      0.0000    647.6074      4.6645    175.3513
   852.7500      0.0000    658.4965      4.6408    163.4111
   853.0000      0.0000    675.9977      4.6819    148.5383
   853.2500      0.0000    698.7606      4.7936    134.2953
   853.5000      0.0000    721.3542      4.9516    124.0706
   853.7500      0.0000    738.0443      5.1112    119.5244
   854.0000      0.0000    746.4515      5.2333    119.8971
   854.2500      0.0000    748.0399      5.3069    122.4867
