~Version Information
VERS.                      2.0: CWLS Log ASCII Standard - VERSION 2.0
WRAP.                       NO: One line per depth step
~Well Information Block
STRT.FT               460.0000: 
STOP.FT               961.2500: 
STEP.FT                 0.2500: 
NULL.                -999.2500: 
COMP.          Pioneer Natural Resources: COMPANY
WELL.                Pug 33-19: WELL
FLD.           Purgatoire River: FIELD
LOC.           1381' FSL & 2140' FEL: LOCATION
PROV.                 Colorado: PROVINCE
CNTY.               Las Animas: COUNTRY
SRVC.                Patterson: SERVICE COMPANY
DATE.          Tue Dec 14 08:25:14 2004: LOG DATE
UWI.           05 071 08193 00: UNIQUE WELL ID
~Curve Information Block
DEPT.FT            0 000 00 00: Depth
SN.Ohm-m                      : IEL Short Normal
SP.mV                         : IEL Spontaneous Potential
DIR.Ohm-m                     : IEL Induction Resistivity
GR.GAPI                       : Gamma Ray
~Parameter Information Block
~A  Depth        SN          SP         DIR          GR     
# ...
   560.5000      8.6750     17.3407      8.3569    126.2973
   560.7500      8.7303     17.6093      8.3980    123.8042
   561.0000      8.8007     17.8939      8.4710    119.0457
   561.2500      8.8507     18.1895      8.5629    116.1612
   561.5000      8.8566     18.4909      8.6570    113.7817
   561.7500      8.8170     18.7938      8.7365    113.7233
   562.0000      8.7466     19.0935      8.7889    115.1712
   562.2500      8.6634     19.3852      8.8096    116.5378
   562.5000      8.5809     19.6647      8.8008    118.8264
   562.7500      8.5050     19.9301      8.7690    120.7893
   563.0000      8.4328     20.1821      8.7201    124.7412
   563.2500      8.3572     20.4241      8.6570    127.6112
   563.5000      8.2760     20.6596      8.5794    130.5849
   563.7500      8.1976     20.8910      8.4880    130.8517
   564.0000      8.1372     21.1189      8.3867    128.6971
   564.2500      8.1061     21.3429      8.2832    126.4507
   564.5000      8.1036     21.5627      8.1868    123.8322
   564.7500      8.1177     21.7791      8.1054    123.2177
   565.0000      8.1321     21.9929      8.0439    123.6088
   565.2500      8.1354     22.2032      8.0050    124.0587
   565.5000      8.1291     22.4070      7.9900    124.2001
   565.7500      8.1290     22.5996      8.0002    123.9156
   566.0000      8.1541     22.7766      8.0360    123.2260
   566.2500      8.2118     22.9370      8.0964    122.6695
   566.5000      8.2906     23.0838      8.1771    121.5178
   566.7500      8.3646     23.2247      8.2701    120.3939
   567.0000      8.4017     23.3697      8.3616    118.1290
   567.2500      8.3762     23.5288      8.4326    116.4963
   567.5000      8.2835     23.7096      8.4619    114.8627
   567.7500      8.1437     23.9160      8.4333    114.9216
   568.0000      7.9875     24.1486      8.3440    117.0956
   568.2500      7.8370     24.4060      8.2076    119.7221
   568.5000      7.6985     24.6850      8.0488    124.6414
   568.7500      7.5686     24.9810      7.8935    127.9041
   569.0000      7.4438     25.2861      7.7608    131.3365
   569.2500      7.3297     25.5896      7.6604    132.0253
   569.5000      7.2442     25.8788      7.5957    130.7445
   569.7500      7.2135     26.1408      7.5687    128.9941
   570.0000      7.2644     26.3663      7.5832    126.2583
   570.2500      7.4185     26.5524      7.6446    124.8985
   570.5000      7.6862     26.7046      7.7578    124.2906
   570.7500      8.0611     26.8363      7.9250    124.9879
   571.0000      8.5199     26.9673      8.1450    126.7825
   571.2500      9.0253     27.1186      8.4135    127.4167
   571.5000      9.5305     27.3085      8.7225    126.3062
   571.7500      9.9848     27.5489      9.0591    124.3488
   572.0000     10.3437     27.8447      9.4042    120.5862
   572.2500     10.5812     28.1940      9.7344    117.8769
   572.5000     10.6918     28.5895     10.0249    113.7541
   572.7500     10.6826     29.0200     10.2536    111.3304
   573.0000     10.5680     29.4716     10.4036    109.1071
   573.2500     10.3724     29.9294     10.4649    108.7420
   573.5000     10.1311     30.3793     10.4374    109.1497
   573.7500      9.8829     30.8087     10.3323    109.4921
   574.0000      9.6648     31.2073     10.1696    109.9817
   574.2500      9.5132     31.5670      9.9744    110.7467
   574.5000      9.4618     31.8830      9.7715    113.2844
   574.7500      9.5264     32.1554      9.5812    115.7962
   575.0000      9.6904     32.3914      9.4186    119.6666
   575.2500      9.9081     32.6050      9.2943    121.5736
   575.5000     10.1264     32.8137      9.2157    122.7936
   575.7500     10.3076     33.0336      9.1875    122.5097
   576.0000     10.4381     33.2739      9.2114    120.5976
   576.2500     10.5247     33.5349      9.2840    118.4752
   576.5000     10.5872     33.8103      9.3960    114.5969
   576.7500     10.6501     34.0927      9.5342    112.1284
   577.0000     10.7343     34.3804      9.6863    109.8697
   577.2500     10.8491     34.6818      9.8462    109.9705
   577.5000     10.9878     35.0151     10.0137    112.7001
   577.7500     11.1256     35.4031     10.1887    115.6034
   578.0000     11.2204     35.8637     10.3621    119.8031
   578.2500     11.2204     36.4012     10.5107    121.5753
   578.5000     11.0816     37.0017     10.5999    121.8606
   578.7500     10.7913     37.6353     10.5953    120.5265
   579.0000     10.3808     38.2648     10.4778    117.3744
   579.2500      9.9187     38.8569     10.2561    115.6371
   579.5000      9.4867     39.3911      9.9659    115.2899
   579.7500      9.1544     39.8621      9.6565    116.7248
   580.0000      8.9616     40.2770      9.3733    119.9563
   580.2500      8.9119     40.6491      9.1455    121.7045
   580.5000      8.9759     40.9926      8.9834    122.8469
   580.7500      9.1068     41.3200      8.8836    122.9307
   581.0000      9.2580     41.6421      8.8359    122.9392
   581.2500      9.3946     41.9692      8.8294    123.0233
   581.5000      9.4948     42.3115      8.8552    122.9107
   581.7500      9.5487     42.6785      8.9054    122.4786
   582.0000      9.5616     43.0777      8.9720    121.2669
   582.2500      9.5566     43.5123      9.0468    120.1359
   582.5000      9.5693     43.9799      9.1242    118.1828
   582.7500      9.6317     44.4721      9.2022    117.0652
   583.0000      9.7572     44.9754      9.2822    116.4736
   583.2500      9.9344     45.4742      9.3653    116.9759
   583.5000     10.1308     45.9557      9.4497    118.2857
   583.7500     10.3082     46.4139      9.5286    118.6571
   584.0000     10.4416     46.8509      9.5916    117.4410
   584.2500     10.5285     47.2744      9.6276    115.5684
   584.5000     10.5827     47.6916      9.6292    112.2399
   584.7500     10.6225     48.1052      9.5970    110.2999
   585.0000     10.6644     48.5115      9.5428    108.5381
   585.2500     10.7255     48.9043      9.4886    108.5067
   585.5000     10.8231     49.2802      9.4630    110.6876
   585.7500     10.9690     49.6429      9.4933    113.4835
   586.0000     11.1597     50.0039      9.5989    118.2587
   586.2500     11.3733     50.3794      9.7868    120.5875
   586.5000     11.5780     50.7843     10.0498    121.0496
   586.7500     11.7445     51.2262     10.3698    118.9808
   587.0000     11.8554     51.7008     10.7221    112.9974
   587.2500     11.9121     52.1909     11.0804    108.0167
   587.5000     11.9395     52.6702     11.4219    100.7402
   587.7500     11.9807     53.1124     11.7321     96.6400
   588.0000     12.0773     53.5017     12.0085     91.9571
   588.2500     12.2466     53.8403     12.2578     89.8723
   588.5000     12.4721     54.1495     12.4862     88.4777
   588.7500     12.7106     54.4622     12.6866     88.7456
   589.0000     12.9068     54.8109     12.8302     90.6971
   589.2500     13.0097     55.2175     12.8704     92.7661
   589.5000     12.9862     55.6869     12.7597     96.5384
   589.7500     12.8299     56.2089     12.4750     99.2611
   590.0000     12.5583     56.7635     12.0355    103.5019
   590.2500     12.2026     57.3288     11.4991    106.5787
   590.5000     11.7954     57.8862     10.9401    112.1238
   590.7500     11.3630     58.4234     10.4232    116.6590
   591.0000     10.9239     58.9341      9.9877    124.1523
   591.2500     10.4904     59.4173      9.6451    128.6277
   591.5000     10.0706     59.8764      9.3853    132.8317
   591.7500      9.6698     60.3185      9.1872    133.6475
   592.0000      9.2928     60.7541      9.0286    132.5931
   592.2500      8.9449     61.1938      8.8930    130.9776
   592.5000      8.6277     61.6453      8.7714    128.0767
   592.7500      8.3363     62.1084      8.6602    126.3146
   593.0000      8.0666     62.5747      8.5565    124.5839
   593.2500      7.8246     63.0293      8.4562    124.0692
   593.5000      7.6283     63.4566      8.3548    123.7675
   593.7500      7.4976     63.8475      8.2503    123.5702
