~Version Information
VERS.                      2.0: CWLS Log ASCII Standard - VERSION 2.0
WRAP.                       NO: One line per depth step
~Well Information Block
STRT.FT               245.0000: 
STOP.FT              2464.2000: 
STEP.FT                 0.1000: 
NULL.                -999.2500: 
COMP.          Pioneer Natural Resources: COMPANY
WELL.          Oink Oink 14-36: WELL
FLD.           Purgatoire River: FIELD
LOC.           216' FSL & 263' FWL--: LOCATION
PROV.                 Colorado: PROVINCE
CNTY.               Las Animas: COUNTRY
SRVC.                Patterson: SERVICE COMPANY
DATE.          Wed Jun 08 16:53:09 2005: LOG DATE
UWI.           05 071 08394 00: UNIQUE WELL ID
~Curve Information Block
DEPT.FT            0 000 00 00: Depth
DCAL.in                       : CDL Caliper
RHOB.g/cc                     : CDL Bulk Density
RHOC.g/cc                     : CDL Density Correction
DPOR.pu                       : CDL Density Porosity
NPOR.pu                       : Neutron Porosity
GR.GAPI                       : Gamma Ray
~Parameter Information Block
~A  Depth       DCAL        RHOB        RHOC        DPOR        NPOR         GR     
# ...
  2433.8000      7.7545      2.5528      0.0806      5.8932     18.7171   -999.2500
  2433.9000      7.7545      2.5461      0.0724      6.2965     18.4161   -999.2500
  2434.0000      7.7552      2.5498      0.0826      6.0746     17.8797   -999.2500
  2434.1000      7.7552      2.5540      0.0903      5.8167     17.5451   -999.2500
  2434.2000      7.7552      2.5550      0.0680      5.7574     17.7725   -999.2500
  2434.3000      7.7568      2.5614      0.0814      5.3680     18.1836   -999.2500
  2434.4000      7.7568      2.5659      0.0994      5.0950     18.1512   -999.2500
  2434.5000      7.7566      2.5565      0.0970      5.6690     17.6829   -999.2500
  2434.6000      7.7566      2.5456      0.0436      6.3281     17.0968   -999.2500
  2434.7000      7.7566      2.5460      0.0839      6.3046     16.5441   -999.2500
  2434.8000      7.7546      2.5458      0.1008      6.3135     16.0806   -999.2500
  2434.9000      7.7546      2.5393      0.0523      6.7111     15.7541   -999.2500
  2435.0000      7.7524      2.5336      0.0825      7.0547     15.8353   -999.2500
  2435.1000      7.7524      2.5307      0.0471      7.2290     16.5360   -999.2500
  2435.2000      7.7524      2.5296      0.0608      7.2975     17.5306   -999.2500
  2435.3000      7.7546      2.5289      0.0489      7.3391     17.9632   -999.2500
  2435.4000      7.7546      2.5302      0.0469      7.2602     17.7077   -999.2500
  2435.5000      7.7589      2.5327      0.0730      7.1083     17.3840   -999.2500
  2435.6000      7.7589      2.5322      0.0851      7.1420     17.2048   -999.2500
  2435.7000      7.7589      2.5360      0.0498      6.9110     17.0522   -999.2500
  2435.8000      7.7605      2.5555      0.0853      5.7257     16.9421   -999.2500
  2435.9000      7.7605      2.5844      0.0724      3.9771     17.0262   -999.2500
  2436.0000      7.7595      2.6038      0.0934      2.8020     17.2354   -999.2500
  2436.1000      7.7595      2.6027      0.0734      2.8668     17.3460   -999.2500
  2436.2000      7.7595      2.5853      0.1044      3.9210     17.3363   -999.2500
  2436.3000      7.7574      2.5643      0.0432      5.1920     17.4327   -999.2500
  2436.4000      7.7574      2.5547      0.0644      5.7739     17.6835   -999.2500
  2436.5000      7.7563      2.5537      0.0865      5.8338     17.8532   -999.2500
  2436.6000      7.7563      2.5520      0.0406      5.9377     17.7712   -999.2500
  2436.7000      7.7563      2.5596      0.0286      5.4789     17.2154   -999.2500
  2436.8000      7.7569      2.5811      0.0647      4.1763     16.1422   -999.2500
  2436.9000      7.7569      2.5983      0.0398      3.1333     15.0566   -999.2500
  2437.0000      7.7581      2.5986      0.0379      3.1129     14.3814   -999.2500
  2437.1000      7.7581      2.5881      0.0591      3.7512     14.1041   -999.2500
  2437.2000      7.7581      2.5821      0.0200      4.1174     13.9568   -999.2500
  2437.3000      7.7591      2.5858      0.0636      3.8937     14.0104   -999.2500
  2437.4000      7.7591      2.5883      0.0529      3.7391     15.9836   -999.2500
  2437.5000      7.7583      2.5950      0.0493      3.3338     23.6483   -999.2500
  2437.6000      7.7583      2.6194      0.0639      1.8536     37.0214   -999.2500
  2437.7000      7.7583      2.6486      0.1186      0.0863     47.2207   -999.2500
  2437.8000      7.7601      2.6617      0.0795     -0.7102     50.9446   -999.2500
  2437.9000      7.7601      2.6622      0.0848     -0.7364     51.6765   -999.2500
  2438.0000      7.7674      2.6608      0.0755     -0.6531     51.7543   -999.2500
  2438.1000      7.7674      2.6523      0.1036     -0.1395     51.7587   -999.2500
  2438.2000      7.7674      2.6360      0.0382      0.8504   -999.2500   -999.2500
  2438.3000      7.7743      2.6273      0.0424      1.3751   -999.2500   -999.2500
  2438.4000      7.7743      2.6286      0.0454      1.2956   -999.2500   -999.2500
  2438.5000      7.7771      2.6312      0.0400      1.1385   -999.2500   -999.2500
  2438.6000      7.7771      2.6333      0.0588      1.0124   -999.2500   -999.2500
  2438.7000      7.7771      2.6396      0.0439      0.6331   -999.2500   -999.2500
  2438.8000      7.7732      2.6547      0.0549     -0.2855   -999.2500   -999.2500
  2438.9000      7.7732      2.6709      0.0685     -1.2654   -999.2500   -999.2500
  2439.0000      7.7650      2.6735      0.0697     -1.4243   -999.2500   -999.2500
  2439.1000      7.7650      2.6603      0.0830     -0.6236   -999.2500   -999.2500
  2439.2000      7.7650      2.6378      0.0753      0.7377   -999.2500   -999.2500
  2439.3000      7.7584      2.6126      0.0500      2.2653   -999.2500   -999.2500
  2439.4000      7.7584      2.5933      0.0133      3.4343   -999.2500   -999.2500
  2439.5000      7.7545      2.5861      0.0525      3.8716   -999.2500   -999.2500
  2439.6000      7.7545      2.5935      0.0146      3.4263   -999.2500   -999.2500
  2439.7000      7.7545      2.6140      0.0467      2.1843   -999.2500   -999.2500
  2439.8000      7.7532      2.6292      0.0800      1.2629   -999.2500   -999.2500
  2439.9000      7.7532      2.6227      0.0360      1.6554   -999.2500   -999.2500
  2440.0000      7.7520      2.6038      0.0600      2.8014   -999.2500   -999.2500
  2440.1000      7.7520      2.5928      0.0433      3.4686   -999.2500   -999.2500
  2440.2000      7.7520      2.6045      0.0500      2.7563   -999.2500   -999.2500
  2440.3000      7.7484      2.6331      0.0578      1.0246   -999.2500   -999.2500
  2440.4000      7.7484      2.6536      0.0828     -0.2161   -999.2500   -999.2500
  2440.5000      7.7449      2.6456      0.0827      0.2689   -999.2500   -999.2500
  2440.6000      7.7449      2.6121      0.0491      2.2961   -999.2500   -999.2500
  2440.7000      7.7449      2.5778      0.0130      4.3740   -999.2500   -999.2500
  2440.8000      7.7448      2.5638     -0.0081      5.2257   -999.2500   -999.2500
  2440.9000      7.7448      2.5679      0.0258      4.9742   -999.2500   -999.2500
  2441.0000      7.7432      2.5794      0.0196      4.2761   -999.2500   -999.2500
  2441.1000      7.7432      2.5924      0.0764      3.4932   -999.2500   -999.2500
  2441.2000      7.7432      2.6067      0.0315      2.6224   -999.2500   -999.2500
  2441.3000      7.7379      2.6280      0.0168      1.3345   -999.2500   -999.2500
  2441.4000      7.7379      2.6487      0.0928      0.0764   -999.2500   -999.2500
  2441.5000      7.7345      2.6560      0.1059     -0.3637   -999.2500   -999.2500
  2441.6000      7.7345      2.6528      0.0615     -0.1721   -999.2500   -999.2500
  2441.7000      7.7345      2.6427      0.1163      0.4423   -999.2500   -999.2500
  2441.8000      7.7348      2.6200      0.0581      1.8194   -999.2500   -999.2500
  2441.9000      7.7348      2.5872      0.0428      3.8051   -999.2500   -999.2500
  2442.0000      7.7363      2.5567      0.0213      5.6536   -999.2500   -999.2500
  2442.1000      7.7363      2.5447      0.0080      6.3842   -999.2500   -999.2500
  2442.2000      7.7363      2.5553      0.0336      5.7365   -999.2500   -999.2500
  2442.3000      7.7358      2.5725      0.0506      4.6993   -999.2500   -999.2500
  2442.4000      7.7358      2.5783      0.0510      4.3471   -999.2500   -999.2500
  2442.5000      7.7340      2.5726      0.0519      4.6883   -999.2500   -999.2500
  2442.6000      7.7340      2.5661      0.0645      5.0822   -999.2500   -999.2500
  2442.7000      7.7340      2.5681      0.0409      4.9616   -999.2500   -999.2500
  2442.8000      7.7344      2.5788      0.0772      4.3175   -999.2500   -999.2500
  2442.9000      7.7344      2.5860      0.1140      3.8782   -999.2500   -999.2500
  2443.0000      7.7371      2.5851      0.0543      3.9334   -999.2500   -999.2500
  2443.1000      7.7371      2.5818      0.0669      4.1331   -999.2500   -999.2500
  2443.2000      7.7371      2.5746      0.0484      4.5686   -999.2500   -999.2500
  2443.3000      7.7377      2.5632      0.0519      5.2581   -999.2500   -999.2500
