~Version Information
VERS.                      2.0: CWLS Log ASCII Standard - VERSION 2.0
WRAP.                       NO: One line per depth step
~Well Information Block
STRT.FT               652.0000: 
STOP.FT              1880.5000: 
STEP.FT                 0.2500: 
NULL.                -999.2500: 
COMP.          Pioneer Natural Resources: COMPANY
WELL.          Corkscrew 33-12 Tr: WELL
FLD.           Purgatoire River: FIELD
LOC.           1870' FSL & 1706' FEL: LOCATION
PROV.                 Colorado: PROVINCE
CNTY.               Las Animas: COUNTRY
SRVC.                Patterson: SERVICE COMPANY
DATE.          Mon Mar 28 22:58:28 2005: LOG DATE
UWI.           05 071 08295 00: UNIQUE WELL ID
~Curve Information Block
DEPT.FT            0 000 00 00: Depth
SN.Ohm-m                      : IEL Short Normal
SP.mV                         : IEL Spontaneous Potential
DIR.Ohm-m                     : IEL Induction Resistivity
GR.GAPI                       : Gamma Ray
~Parameter Information Block
~A  Depth        SN          SP         DIR          GR     
# ...
  1690.5000     11.4893     61.5411      8.8908     83.4299
  1690.7500     11.1720     61.5466      8.7192     86.7456
  1691.0000     10.7233     61.5805      8.5555     98.2158
  1691.2500     10.1907     61.6341      8.3946    107.9908
  1691.5000      9.6191     61.6790      8.2293    121.1790
  1691.7500      9.0400     61.6903      8.0514    127.1153
  1692.0000      8.4722     61.6606      7.8535    131.2969
  1692.2500      7.9404     61.5983      7.6317    131.9922
  1692.5000      7.4769     61.5154      7.3893    132.2527
  1692.7500      7.0978     61.4160      7.1378    132.7664
  1693.0000      6.8057     61.2924      6.8942    134.3116
  1693.2500      6.6043     61.1335      6.6761    135.6082
  1693.5000      6.4778     60.9385      6.4960    137.3711
  1693.7500      6.3812     60.7267      6.3594    138.2026
  1694.0000      6.2827     60.5325      6.2638    138.9668
  1694.2500      6.1937     60.3888      6.2014    139.2497
  1694.5000      6.1376     60.3122      6.1623    139.1842
  1694.7500      6.1184     60.2978      6.1377    138.6963
  1695.0000      6.1270     60.3246      6.1214    137.6204
  1695.2500      6.1486     60.3668      6.1096    137.0164
  1695.5000      6.1576     60.4087      6.0990    136.3676
  1695.7500      6.1355     60.4550      6.0863    135.8422
  1696.0000      6.1008     60.5291      6.0687    134.6043
  1696.2500      6.0907     60.6568      6.0449    133.5323
  1696.5000      6.1086     60.8466      6.0161    131.6200
  1696.7500      6.1176     61.0849      5.9844    130.0667
  1697.0000      6.0883     61.3475      5.9521    127.5657
  1697.2500      6.0310     61.6134      5.9205    126.3898
  1697.5000      5.9791     61.8670      5.8902    126.6357
  1697.7500      5.9596     62.0920      5.8614    128.4462
  1698.0000      5.9681     62.2707      5.8348    132.9593
  1698.2500      5.9617     62.3928      5.8115    136.2887
  1698.5000      5.9109     62.4626      5.7921    140.1569
  1698.7500      5.8446     62.4944      5.7770    141.3098
  1699.0000      5.7931     62.5004      5.7671    140.4636
  1699.2500      5.7337     62.4805      5.7637    138.3551
  1699.5000      5.6234     62.4198      5.7689    133.8425
  1699.7500      5.4496     62.2953      5.7839    130.7685
  1700.0000      5.2536     62.0894      5.8091    127.3390
  1700.2500      5.1135     61.8000      5.8441    126.0914
  1700.5000      5.0989     61.4418      5.8871    125.2256
  1700.7500      5.2472     61.0384      5.9346    124.7601
  1701.0000      5.5418     60.6136      5.9813    123.5421
  1701.2500      5.8902     60.1863      6.0207    122.3441
  1701.5000      6.1800     59.7709      6.0476    120.6534
  1701.7500      6.3698     59.3793      6.0594    120.1593
  1702.0000      6.4863     59.0242      6.0576    120.4710
  1702.2500      6.5613     58.7214      6.0469    120.7375
  1702.5000      6.6120     58.4876      6.0344    120.2006
  1702.7500      6.6526     58.3338      6.0283    119.3812
  1703.0000      6.6905     58.2564      6.0368    118.5256
  1703.2500      6.7193     58.2347      6.0662    118.5403
  1703.5000      6.7333     58.2377      6.1183    119.2502
  1703.7500      6.7449     58.2389      6.1902    119.9615
  1704.0000      6.7807     58.2268      6.2769    120.9240
  1704.2500      6.8548     58.2027      6.3759    121.0313
  1704.5000      6.9521     58.1668      6.4890    119.5975
  1704.7500      7.0500     58.1075      6.6195    117.5396
  1705.0000      7.1548     58.0008      6.7651    113.7040
  1705.2500      7.2970     57.8184      6.9141    111.3995
  1705.5000      7.4896     57.5373      7.0484    108.9319
  1705.7500      7.7023     57.1499      7.1513    107.5492
  1706.0000      7.8842     56.6754      7.2150    104.3764
  1706.2500      8.0020     56.1698      7.2422    101.0000
  1706.5000      8.0494     55.7253      7.2425     95.0117
  1706.7500      8.0282     55.4545      7.2284     91.9561
  1707.0000      7.9548     55.4589      7.2133     91.4302
  1707.2500      7.8985     55.7882      7.2103     94.4114
  1707.5000      7.9130     56.4079      7.2314    103.0949
  1707.7500      7.9036     57.2053      7.2853    110.5758
  1708.0000      7.7173     58.0439      7.3738    121.9394
  1708.2500      7.3679     58.8316      7.4877    128.1619
  1708.5000      7.0366     59.5409      7.6066    133.7865
  1708.7500      6.8994     60.1716      7.7052    134.9938
  1709.0000      7.0343     60.7074      7.7646    134.1378
  1709.2500      7.4237     61.1152      7.7795    132.5854
  1709.5000      7.9707     61.3791      7.7561    129.5125
  1709.7500      8.5241     61.5216      7.7051    126.9671
  1710.0000      8.9448     61.5936      7.6374    122.0142
  1710.2500      9.1781     61.6470      7.5658    117.7925
  1710.5000      9.2492     61.7126      7.5069    110.4836
  1710.7500      9.2072     61.7932      7.4782    105.6409
  1711.0000      9.1029     61.8691      7.4903     99.6872
  1711.2500      8.9904     61.9143      7.5418     97.0291
  1711.5000      8.9062     61.9194      7.6192     95.3759
  1711.7500      8.8470     61.9074      7.7037     96.0259
  1712.0000      8.7815     61.9247      7.7771     99.7126
  1712.2500      8.6817     62.0092      7.8236    103.6069
  1712.5000      8.5360     62.1654      7.8294    110.1786
  1712.7500      8.3498     62.3696      7.7853    113.9934
  1713.0000      8.1446     62.5917      7.6922    117.3129
  1713.2500      7.9437     62.8078      7.5649    117.6047
  1713.5000      7.7468     62.9989      7.4283    116.2305
  1713.7500      7.5380     63.1485      7.3076    115.4195
  1714.0000      7.3222     63.2478      7.2211    116.0783
  1714.2500      7.1353     63.3023      7.1770    117.7160
  1714.5000      7.0184     63.3311      7.1762    120.6006
  1714.7500      6.9931     63.3577      7.2160    122.1450
  1715.0000      7.0676     63.3990      7.2928    123.5828
  1715.2500      7.2472     63.4578      7.4019    123.8936
  1715.5000      7.5155     63.5228      7.5340    123.0443
  1715.7500      7.8197     63.5748      7.6733    121.4789
  1716.0000      8.1262     63.5958      7.7981    117.9086
  1716.2500      8.4751     63.5761      7.8877    114.9300
  1716.5000      8.9132     63.5168      7.9313    109.4739
  1716.7500      9.4071     63.4267      7.9317    105.0692
  1717.0000      9.8876     63.3180      7.9006     97.9210
  1717.2500     10.3136     63.2048      7.8498     93.6048
  1717.5000     10.6563     63.1028      7.7847     89.0814
  1717.7500     10.8600     63.0312      7.7041     87.8288
  1718.0000     10.8396     63.0103      7.6039     89.0809
  1718.2500     10.5400     63.0562      7.4821     92.0126
  1718.5000      9.9836     63.1746      7.3402     98.7164
  1718.7500      9.2218     63.3568      7.1824    103.8340
  1719.0000      8.2952     63.5819      7.0126    110.8911
  1719.2500      7.2953     63.8254      6.8328    114.4861
  1719.5000      6.3951     64.0669      6.6441    117.8497
  1719.7500      5.7584     64.2970      6.4493    119.1179
  1720.0000      5.4475     64.5220      6.2554    120.6518
  1720.2500      5.4063     64.7592      6.0718    121.7733
  1720.5000      5.4919     65.0188      5.9072    123.3037
  1720.7500      5.5289     65.2877      5.7674    123.7862
  1721.0000      5.3871     65.5316      5.6538    123.1728
  1721.2500      5.0777     65.7111      5.5658    121.8609
  1721.5000      4.7565     65.7932      5.5012    118.9905
  1721.7500      4.5951     65.7588      5.4574    116.8979
  1722.0000      4.6729     65.6103      5.4309    114.3669
  1722.2500      4.9672     65.3796      5.4178    113.6117
  1722.5000      5.3765     65.1213      5.4142    114.3662
  1722.7500      5.7616     64.8920      5.4172    115.9156
  1723.0000      6.0222     64.7261      5.4261    118.8316
  1723.2500      6.1475     64.6243      5.4420    120.7129
  1723.5000      6.1853     64.5634      5.4674    123.3887
  1723.7500      6.1784     64.5178      5.5043    125.2645
