~Version Information
VERS.                      2.0: CWLS Log ASCII Standard - VERSION 2.0
WRAP.                       NO: One line per depth step
~Well Information Block
STRT.FT               -19.0000: 
STOP.FT              1343.5000: 
STEP.FT                 0.5000: 
NULL.                -999.2500: 
COMP.          Evergreen Operating Corporation: COMPANY
WELL.            Trigger 13-35: WELL
FLD.           Purgatorie River: FIELD
LOC.           2245' FSL & 594' FWL: LOCATION
PROV.                 Colorado: PROVINCE
CNTY.               Las Animas: COUNTRY
SRVC.                         : SERVICE COMPANY
DATE.          Mon Jun 23 12:06:52 2003: LOG DATE
UWI.           05-071-07838-00: UNIQUE WELL ID
~Curve Information Block
DEPT.FT            0 000 00 00: Depth
TT3.usec                      : CBL 3' Travel Time
AMP3.mV                       : CBL 3' Amplitude
GR.GAPI                       : Gamma Ray
CCL.                          : Casing Collar Locator
~Parameter Information Block
~A  Depth       TT3         AMP3         GR         CCL     
# ...
  1187.0000    592.2471      1.9936    113.1227      0.0000
  1187.5000    600.4604      2.0497    111.4276      0.0000
  1188.0000    565.3350      2.0850    118.4916      0.0000
  1188.5000    570.9439      2.0253    124.2577      0.0000
  1189.0000    663.2177      1.9367    121.7102      0.0000
  1189.5000    702.4843      1.9151    107.7955      0.0000
  1190.0000    712.3930      1.9435     98.2420      0.0000
  1190.5000    746.2137      2.0991     97.8904      0.0000
  1191.0000    743.0551      2.1085     94.6956      0.0000
  1191.5000    706.1946      2.0248     92.4192      0.0000
  1192.0000    684.9771      1.9514     87.4246      0.0000
  1192.5000    690.6455      1.9470     75.4220      0.0000
  1193.0000    711.8290      1.9470     71.0557      0.0000
  1193.5000    713.7495      1.9357     76.0496      0.0000
  1194.0000    703.3647      2.0072     82.4282      0.0000
  1194.5000    698.6484      1.9768     81.0902      0.0000
  1195.0000    687.1887      1.9880     73.4526      0.0000
  1195.5000    688.3443      1.9972     69.8429      0.0000
  1196.0000    717.8264      1.8077     70.2512      0.0000
  1196.5000    744.7139      1.6731     71.8478      0.0000
  1197.0000    742.9152      1.8307     70.1402      0.0000
  1197.5000    747.0184      1.9740     72.4931      0.0000
  1198.0000    769.0588      1.9010     84.9712      0.0000
  1198.5000    780.7560      1.7546    102.6143      0.0000
  1199.0000    774.5140      1.7481    116.6674      0.0000
  1199.5000    778.8039      1.6788    119.9284      0.0000
  1200.0000    780.8494      1.6610    115.1635      0.0000
  1200.5000    780.3724      1.6168    112.9540      0.0000
  1201.0000    775.2560      1.5998    117.3753      0.0000
  1201.5000    735.8251      1.6493    117.8731      0.0000
  1202.0000    675.1409      1.6933    114.4354      0.0000
  1202.5000    652.7800      1.7353    114.8555      0.0000
  1203.0000    617.7877      1.7303    116.5484      0.0000
  1203.5000    603.0124      1.7920    120.9693      0.0000
  1204.0000    642.8278      1.8284    137.5778      0.0000
  1204.5000    640.1858      1.8161    153.4344      0.0000
  1205.0000    643.0471      1.8429    142.5493      0.0000
  1205.5000    664.3070      1.8355    116.5789      0.0000
  1206.0000    661.8354      1.8710     98.9279      0.0000
  1206.5000    647.2733      1.8399     92.9628      0.0000
  1207.0000    628.4436      1.7466     87.8445      0.0000
  1207.5000    640.7017      1.6505     79.1046      0.0000
  1208.0000    677.9755      1.7165     75.1674      0.0000
  1208.5000    703.3375      1.7215     79.0394      0.0000
  1209.0000    703.7689      1.6634     87.6711      0.0000
  1209.5000    715.9230      1.5547     91.1096      0.0000
  1210.0000    701.1924      1.5387     89.8456      0.0000
  1210.5000    700.9899      1.6102     86.8239      0.0000
  1211.0000    683.0083      1.6844     87.7591      0.0000
  1211.5000    674.8650      1.6651     93.0912      0.0000
  1212.0000    650.7536      1.6691    101.1913      0.0000
  1212.5000    594.3120      1.6708    105.1864      0.0000
  1213.0000    563.0909      1.7641    102.7080      0.0000
  1213.5000    579.0144      1.8402     97.2021      0.0000
  1214.0000    590.8366      1.8711     94.7248      0.0000
  1214.5000    616.3097      1.8975     95.7672      0.0000
  1215.0000    691.7553      1.9824     97.4502      0.0000
  1215.5000    742.5178      1.9694    102.3453      0.0000
  1216.0000    750.6897      1.8251    103.7324      0.0000
  1216.5000    756.4711      1.7406     93.7060      0.0000
  1217.0000    767.0339      1.7150     77.0206      0.0000
  1217.5000    775.8536      1.7627     66.9718      0.0000
  1218.0000    780.7449      1.8390     66.6718      0.0000
  1218.5000    754.6226      1.9237     77.8808      0.0000
  1219.0000    704.7409      1.9982     98.9562      0.0000
  1219.5000    628.6527      2.1098    110.3684      0.0000
  1220.0000    534.9078      2.2068    105.5258      5.0000
  1220.5000    575.4434      2.1625     97.1496     -5.0000
  1221.0000    676.6801      2.0599     92.1767      0.0000
  1221.5000    676.9255      1.9634     91.0785      0.0000
  1222.0000    571.7994      2.1661     92.4616      0.0000
  1222.5000    499.9060      2.0854     97.8807      0.0000
  1223.0000    578.8158      1.9628     97.8221      0.0000
  1223.5000    684.9167      2.0038     87.9113      0.0000
  1224.0000    640.9534      1.9761     79.2054      0.0000
  1224.5000    583.5688      1.9571     79.1560      0.0000
  1225.0000    582.9114      1.9633     87.6497      0.0000
  1225.5000    549.7453      1.9669    100.6551      0.0000
  1226.0000    554.6633      1.9929    111.5559      0.0000
  1226.5000    556.4693      2.0345    111.9032      0.0000
  1227.0000    540.9901      2.0175    103.8754      0.0000
  1227.5000    530.8747      2.0216     97.3460      0.0000
  1228.0000    552.8408      2.0695     98.8992      0.0000
  1228.5000    647.7206      2.0807    109.7613      0.0000
  1229.0000    685.6921      2.1088    122.2565      0.0000
  1229.5000    640.3619      2.1518    123.8091      0.0000
  1230.0000    545.3000      2.0900    112.4820      0.0000
  1230.5000    490.2317      2.0585    102.6680      0.0000
  1231.0000    477.2860      2.1174    100.1194      0.0000
  1231.5000    477.5052      2.1268     96.2323      0.0000
  1232.0000    478.7444      2.0296     96.4363      0.0000
  1232.5000    498.4605      2.0007    103.9315      0.0000
  1233.0000    529.7379      2.0461    107.6172      0.0000
  1233.5000    495.6262      2.0565    107.1256      0.0000
  1234.0000    493.9733      2.0219    106.1397      0.0000
  1234.5000    563.0790      2.0114    108.2953      0.0000
  1235.0000    611.8550      1.9927    111.7062      0.0000
  1235.5000    620.9294      1.9934    115.4259      0.0000
  1236.0000    621.4400      2.0199    120.8445      0.0000
  1236.5000    626.2708      2.0397    130.3410      0.0000
  1237.0000    698.4106      1.9626    136.7185      0.0000
  1237.5000    770.9619      1.8774    130.2407      0.0000
  1238.0000    782.7415      1.7893    118.4622      0.0000
  1238.5000    780.4852      1.7324    104.5650      0.0000
  1239.0000    770.5905      1.7546     89.3818      0.0000
  1239.5000    760.6082      1.8055     84.8180      0.0000
  1240.0000    768.1122      1.8169     90.9018      0.0000
  1240.5000    761.6312      1.8243     99.4955      0.0000
  1241.0000    736.4894      1.8424    100.5351      0.0000
  1241.5000    673.6298      1.9270     90.3040      0.0000
  1242.0000    541.4690      2.0180     82.3208      0.0000
  1242.5000    448.7161      2.0800     74.5050      0.0000
  1243.0000    419.3550      2.1313     64.6016      0.0000
  1243.5000    427.3919      2.1429     64.0438      0.0000
  1244.0000    516.8286      2.1361     69.7229      0.0000
  1244.5000    655.6963      2.1459     75.7518      0.0000
  1245.0000    672.0786      2.0595     83.1463      0.0000
  1245.5000    681.2454      1.9945     95.6321      0.0000
  1246.0000    726.2084      1.9673    111.6452      0.0000
  1246.5000    753.9739      1.8556    122.5032      0.0000
  1247.0000    770.9501      1.7948    117.5303      0.0000
  1247.5000    777.3630      1.7791     97.4771      0.0000
  1248.0000    778.7822      1.8338     76.3758      0.0000
  1248.5000    780.0628      1.9374     63.4479      0.0000
  1249.0000    775.9514      1.9141     64.5615      0.0000
  1249.5000    760.3284      1.8550     77.0922      0.0000
  1250.0000    742.0943      1.8106     86.8122      0.0000
  1250.5000    687.7666      1.7662     83.8278      0.0000
  1251.0000    531.7834      1.8144     77.4331      0.0000
  1251.5000    449.9389      1.9458     74.9596      0.0000
  1252.0000    555.8643      2.1019     78.2862      0.0000
  1252.5000    664.3222      2.1863     89.0893      0.0000
  1253.0000    688.2603      2.1285    101.3854      0.0000
  1253.5000    728.4343      1.9881    110.3923      0.0000
