~Version Information
VERS.                      2.0: CWLS Log ASCII Standard - VERSION 2.0
WRAP.                       NO: One line per depth step
~Well Information Block
STRT.FT               583.0000: 
STOP.FT              1701.5000: 
STEP.FT                 0.2500: 
NULL.                -999.2500: 
COMP.          Pioneer Natural Resources: COMPANY
WELL.          Scott Canyon 11-18 Tr: WELL
FLD.           Purgatoire River: FIELD
LOC.           411' FNL & 580' FWL: LOCATION
PROV.                 Colorado: PROVINCE
CNTY.               Las Animas: COUNTRY
SRVC.                Patterson: SERVICE COMPANY
DATE.          Thu Feb 17 02:07:21 2005: LOG DATE
UWI.           05 071 08286 00: UNIQUE WELL ID
~Curve Information Block
DEPT.FT            0 000 00 00: Depth
SN.Ohm-m                      : IEL Short Normal
SP.mV                         : IEL Spontaneous Potential
DIR.Ohm-m                     : IEL Induction Resistivity
GR.GAPI                       : Gamma Ray
~Parameter Information Block
~A  Depth        SN          SP         DIR          GR     
   583.0000   2000.0000   2000.0000     66.3877    152.0130
   583.2500   2000.0000   2000.0000     66.5245    152.1442
   583.5000   2000.0000   2000.0000     66.7845    149.6521
   583.7500   2000.0000   2000.0000     66.9693    147.1395
   584.0000   2000.0000   2000.0000     67.1111    143.1434
   584.2500   2000.0000   2000.0000     67.4143    140.5132
   584.5000   2000.0000   2000.0000     68.0328    137.1136
   584.7500   2000.0000   2000.0000     68.9041    135.9056
   585.0000   2000.0000   2000.0000     69.7919    136.5997
   585.2500   2000.0000   2000.0000     70.4928    138.3997
   585.5000   2000.0000   2000.0000     71.0080    141.1999
   585.7500   2000.0000   2000.0000     71.5079    142.0113
   586.0000   2000.0000   2000.0000     72.1391    140.8169
   586.2500   2000.0000   2000.0000     72.8697    138.5956
   586.5000   2000.0000   2000.0000     73.5171    133.8027
   586.7500   2000.0000   2000.0000     73.9014    129.8144
   587.0000   2000.0000   2000.0000     73.9710    122.8206
   587.2500   2000.0000   2000.0000     73.7518    117.9762
   587.5000   2000.0000   2000.0000     73.2051    111.9247
   587.7500   2000.0000   2000.0000     72.2045    109.3721
   588.0000   2000.0000   2000.0000     70.7199    107.9462
   588.2500   2000.0000   2000.0000     69.0059    108.2185
   588.5000   2000.0000   2000.0000     67.5508    109.2565
   588.7500   2000.0000   2000.0000     66.8025    109.5269
   589.0000   2000.0000   2000.0000     66.9203    108.4456
   589.2500   2000.0000   2000.0000     67.7014    106.9074
   589.5000   2000.0000   2000.0000     68.7072    104.4335
   589.7500   2000.0000   2000.0000     69.5231    103.2603
   590.0000   2000.0000   2000.0000     69.9916    102.8373
   590.2500   2000.0000   2000.0000     70.2300    103.7231
   590.5000   2000.0000   2000.0000     70.4497    107.2755
   590.7500   2000.0000   2000.0000     70.7656    111.2596
   591.0000   2000.0000   2000.0000     71.1337    119.2981
   591.2500   2000.0000   2000.0000     71.4110    125.4580
   591.5000   2000.0000   2000.0000     71.4624    134.5350
   591.7500   2000.0000   2000.0000     71.2374    139.6151
   592.0000   2000.0000   2000.0000     70.7894    144.7040
   592.2500   2000.0000   2000.0000     70.2429    146.4258
   592.5000   2000.0000   2000.0000     69.7614    147.8236
   592.7500   2000.0000   2000.0000     69.5064    149.0548
   593.0000   2000.0000   2000.0000     69.5800    152.5434
   593.2500   2000.0000   2000.0000     69.9684    155.8375
   593.5000   2000.0000   2000.0000     70.5342    160.7296
   593.7500   2000.0000   2000.0000     71.0639    162.8803
   594.0000   2000.0000   2000.0000     71.3417    163.3357
   594.2500   2000.0000   2000.0000     71.1768    161.6998
   594.5000   2000.0000   2000.0000     70.3681    156.5625
   594.7500   2000.0000   2000.0000     68.7066    151.5642
   595.0000   2000.0000   2000.0000     66.1584    142.6839
   595.2500   2000.0000   2000.0000     63.1018    136.8716
   595.5000   2000.0000   2000.0000     60.2786    130.1922
   595.7500   2000.0000   2000.0000     58.3929    127.7985
   596.0000   2000.0000   2000.0000     57.6994    127.6310
   596.2500   2000.0000   2000.0000     57.8144    129.6222
   596.5000   2000.0000   2000.0000     57.8189    134.8537
   596.7500   2000.0000   2000.0000     56.7159    138.8455
   597.0000   2000.0000   2000.0000     54.0701    143.3130
   597.2500   2000.0000   2000.0000     50.2636    144.1989
   597.5000   2000.0000   2000.0000     46.2400    142.1455
   597.7500   2000.0000   2000.0000     43.1566    139.2622
   598.0000   2000.0000   2000.0000     42.2579    134.0659
   598.2500   2000.0000   2000.0000     45.1703    130.4041
   598.5000   2000.0000   2000.0000     55.1723    125.1406
   598.7500   2000.0000   2000.0000     81.8577    122.5709
   599.0000   2000.0000   2000.0000    166.1671    121.9209
   599.2500   2000.0000   2000.0000    743.7969    124.0653
   599.5000   2000.0000   2000.0000 100000.0000    130.0121
   599.7500   2000.0000   2000.0000 100000.0000    134.5303
   600.0000   2000.0000   2000.0000   1018.1781    140.4704
   600.2500   2000.0000   2000.0000    391.5901    143.5044
   600.5000   2000.0000   2000.0000    316.7881    146.4926
   600.7500   2000.0000   2000.0000    494.7026    147.2076
   601.0000   2000.0000   2000.0000 100000.0000    145.7527
   601.2500   2000.0000   2000.0000 100000.0000    143.0482
   601.5000   2000.0000   2000.0000 100000.0000    137.5768
   601.7500   2000.0000   2000.0000 100000.0000    134.2658
   602.0000   2000.0000   2000.0000 100000.0000    131.7638
   602.2500   2000.0000   2000.0000 100000.0000    132.1574
   602.5000   2000.0000   2000.0000 100000.0000    135.3452
   602.7500   2000.0000   2000.0000 100000.0000    138.7579
   603.0000   2000.0000   2000.0000 100000.0000    145.8947
   603.2500   2000.0000   2000.0000 100000.0000    152.5335
   603.5000   2000.0000   2000.0000 100000.0000    165.4152
   603.7500   2000.0000   2000.0000 100000.0000    163.0421
   604.0000   2000.0000   2000.0000 100000.0000    173.6356
   604.2500   2000.0000   2000.0000 100000.0000    177.7314
   604.5000   2000.0000   2000.0000 100000.0000    179.4642
   604.7500   2000.0000   2000.0000 100000.0000    159.5528
   605.0000   2000.0000   2000.0000 100000.0000    157.6809
   605.2500   2000.0000   2000.0000     33.2428    156.5035
   605.5000   2000.0000   2000.0000      6.6477    155.3081
   605.7500   2000.0000   2000.0000      3.9223    136.4674
   606.0000   2000.0000   2000.0000      3.2181    137.2178
   606.2500   2000.0000   2000.0000      3.2143    138.4614
   606.5000   2000.0000   2000.0000      3.6706    141.0473
   606.7500   2000.0000   2000.0000      4.6120    142.8884
   607.0000   2000.0000   2000.0000      6.2944    145.3074
   607.2500   2000.0000   2000.0000      9.5700    146.5120
   607.5000   2000.0000   2000.0000     17.6434    147.5729
   607.7500   2000.0000   2000.0000     50.4674    147.7653
   608.0000   2000.0000   2000.0000 100000.0000    147.2130
   608.2500   2000.0000   2000.0000 100000.0000    146.1632
   608.5000   2000.0000   2000.0000    124.6043    143.2842
   608.7500   2000.0000   2000.0000     34.2300    140.3667
   609.0000   2000.0000   2000.0000     19.5098    134.4521
   609.2500   2000.0000   2000.0000     14.6591    129.7497
   609.5000   2000.0000   2000.0000     12.7611    122.9991
   609.7500   2000.0000   2000.0000     12.0379    119.9948
   610.0000   2000.0000   2000.0000     11.8181    119.3546
   610.2500   2000.0000   2000.0000     11.7988    121.4009
   610.5000   2000.0000   2000.0000     11.8490    126.3644
   610.7500   2000.0000   2000.0000     11.9441    129.6257
   611.0000   2000.0000   2000.0000     12.1453    133.0933
   611.2500   2000.0000   2000.0000     12.5740    134.4886
   611.5000   2000.0000   2000.0000     13.3609    136.1424
   611.7500   2000.0000   2000.0000     14.5623    137.3929
   612.0000   2000.0000   2000.0000     16.0395    139.4482
   612.2500   2000.0000   2000.0000     17.3676    140.5265
   612.5000   2000.0000   2000.0000     17.9842    140.6917
   612.7500   2000.0000   2000.0000     17.6257    139.3624
   613.0000   2000.0000   2000.0000     16.5313    135.4852
   613.2500   2000.0000   2000.0000     15.1393    132.5959
   613.5000   2000.0000   2000.0000     13.7650    129.8861
   613.7500   2000.0000   2000.0000     12.5501    129.9425
   614.0000   2000.0000   2000.0000     11.5407    132.9254
   614.2500   2000.0000   2000.0000     10.7472    136.3900
   614.5000   2000.0000   2000.0000     10.1639    142.7608
   614.7500   2000.0000   2000.0000      9.7653    147.2473
   615.0000   2000.0000   2000.0000      9.5071    153.5680
   615.2500   2000.0000   2000.0000      9.3348    157.0520
   615.5000   2000.0000   2000.0000      9.1996    160.2614
   615.7500   2000.0000   2000.0000      9.0689    160.6487
   616.0000   2000.0000   2000.0000      8.9251    158.8692
   616.2500   2000.0000   2000.0000      8.7602    156.9338
