~Version Information
VERS.                      2.0: CWLS Log ASCII Standard - VERSION 2.0
WRAP.                       NO: One line per depth step
~Well Information Block
STRT.FT               583.0000: 
STOP.FT              1701.5000: 
STEP.FT                 0.2500: 
NULL.                -999.2500: 
COMP.          Pioneer Natural Resources: COMPANY
WELL.          Scott Canyon 11-18 Tr: WELL
FLD.           Purgatoire River: FIELD
LOC.           411' FNL & 580' FWL: LOCATION
PROV.                 Colorado: PROVINCE
CNTY.               Las Animas: COUNTRY
SRVC.                Patterson: SERVICE COMPANY
DATE.          Thu Feb 17 02:07:21 2005: LOG DATE
UWI.           05 071 08286 00: UNIQUE WELL ID
~Curve Information Block
DEPT.FT            0 000 00 00: Depth
SN.Ohm-m                      : IEL Short Normal
SP.mV                         : IEL Spontaneous Potential
DIR.Ohm-m                     : IEL Induction Resistivity
GR.GAPI                       : Gamma Ray
~Parameter Information Block
~A  Depth        SN          SP         DIR          GR     
# ...
  1521.0000     27.2856     49.0648     13.3967     64.1361
  1521.2500     30.5603     49.1197     14.2408     62.7337
  1521.5000     33.4979     49.1605     15.1156     63.3454
  1521.7500     35.9149     49.2109     15.9822     65.4322
  1522.0000     37.7032     49.2938     16.7867     69.6527
  1522.2500     38.7691     49.4169     17.4757     71.9855
  1522.5000     39.0372     49.5682     18.0154     73.5597
  1522.7500     38.4686     49.7244     18.4007     73.6658
  1523.0000     37.0879     49.8622     18.6500     74.3543
  1523.2500     35.0088     49.9691     18.7948     76.3931
  1523.5000     32.4242     50.0468     18.8720     82.8989
  1523.7500     29.5699     50.1083     18.9210     89.2081
  1524.0000     26.7167     50.1712     18.9827     99.4546
  1524.2500     24.1802     50.2490     19.0950    105.0410
  1524.5000     22.2571     50.3445     19.2822    108.9931
  1524.7500     21.1170     50.4470     19.5424    108.0160
  1525.0000     20.8047     50.5344     19.8454    101.6015
  1525.2500     21.3286     50.5815     20.1490     94.8920
  1525.5000     22.6853     50.5679     20.4313     82.7620
  1525.7500     24.8175     50.4827     20.7132     73.9738
  1526.0000     27.5809     50.3251     21.0509     60.6241
  1526.2500     30.7432     50.1007     21.5006     52.2458
  1526.5000     34.0201     49.8135     22.0855     41.7887
  1526.7500     37.1659     49.4638     22.7885     36.8028
  1527.0000     40.0213     49.0550     23.5729     32.3657
  1527.2500     42.4395     48.5996     24.4133     30.9370
  1527.5000     44.2594     48.1156     25.3135     29.8404
  1527.7500     45.4352     47.6184     26.2974     29.1934
  1528.0000     46.0890     47.1201     27.3824     27.9059
  1528.2500     46.3907     46.6354     28.5522     26.9218
  1528.5000     46.4802     46.1867     29.7407     25.5818
  1528.7500     46.4940     45.8039     30.8436     24.8633
  1529.0000     46.5742     45.5127     31.7606     24.0321
  1529.2500     46.8315     45.3200     32.4496     23.6387
  1529.5000     47.3106     45.2088     32.9614     23.2373
  1529.7500     47.9842     45.1520     33.4202     22.9734
  1530.0000     48.7778     45.1295     33.9534     22.4098
  1530.2500     49.6188     45.1354     34.6050     21.9673
  1530.5000     50.4729     45.1723     35.2900     21.3675
  1530.7500     51.3395     45.2411     35.8397     21.0107
  1531.0000     52.2274     45.3324     36.1264     20.4952
  1531.2500     53.1325     45.4265     36.1587     20.2923
  1531.5000     54.0073     45.5032     36.0457     20.6846
  1531.7500     54.7468     45.5589     35.8818     21.6464
  1532.0000     55.2296     45.6181     35.6796     24.0874
  1532.2500     55.3744     45.7265     35.3939     26.1109
  1532.5000     55.1424     45.9283     34.9765     29.4342
  1532.7500     54.5008     46.2436     34.3976     32.0968
  1533.0000     53.4158     46.6638     33.6362     37.8604
  1533.2500     51.8924     47.1705     32.6856     43.3854
  1533.5000     50.0015     47.7581     31.5734     53.8541
  1533.7500     47.8681     48.4338     30.3456     61.4061
  1534.0000     45.6633     49.1929     29.0106     71.7817
  1534.2500     43.5665     49.9934     27.5110     77.2178
  1534.5000     41.6452     50.7545     25.7743     82.2671
  1534.7500     39.7902     51.3779     23.8025     83.5158
  1535.0000     37.8177     51.7837     21.7026     83.2867
  1535.2500     35.5915     51.9481     19.6270     82.9022
  1535.5000     33.0456     51.9209     17.6966     83.8993
  1535.7500     30.1517     51.8039     15.9733     86.1435
  1536.0000     26.8989     51.7035     14.4751     91.5940
  1536.2500     23.3620     51.6890     13.1979     96.0280
  1536.5000     19.7927     51.7762     12.1262    102.8072
  1536.7500     16.5279     51.9361     11.2351    107.0067
  1537.0000     13.7890     52.1193     10.4922    112.6325
  1537.2500     11.6468     52.2822      9.8617    115.9670
  1537.5000     10.0996     52.4037      9.3100    120.2291
  1537.7500      9.0737     52.4877      8.8099    122.3539
  1538.0000      8.4037     52.5531      8.3443    124.2170
  1538.2500      7.9265     52.6189      7.9067    124.7821
  1538.5000      7.5768     52.6952      7.4992    125.5822
  1538.7500      7.3451     52.7835      7.1290    126.6472
  1539.0000      7.2188     52.8823      6.8037    129.2151
  1539.2500      7.1728     52.9892      6.5288    131.1194
  1539.5000      7.1363     53.0999      6.3063    133.0593
  1539.7500      7.0157     53.2083      6.1337    133.2168
  1540.0000      6.7994     53.3100      6.0048    131.7857
  1540.2500      6.5658     53.4037      5.9108    130.3606
  1540.5000      6.3757     53.4884      5.8426    129.0603
  1540.7500      6.2255     53.5622      5.7931    129.4012
  1541.0000      6.0843     53.6281      5.7586    131.8328
  1541.2500      5.9288     53.6953      5.7392    134.1502
  1541.5000      5.7621     53.7724      5.7370    136.8242
  1541.7500      5.6184     53.8583      5.7534    136.9226
  1542.0000      5.5491     53.9414      5.7882    133.5072
  1542.2500      5.5907     54.0059      5.8385    129.0980
  1542.5000      5.7392     54.0368      5.9006    120.6960
  1542.7500      5.9607     54.0227      5.9716    114.7800
  1543.0000      6.2180     53.9608      6.0496    106.4932
  1543.2500      6.4833     53.8623      6.1330    101.8112
  1543.5000      6.7427     53.7525      6.2194     96.7701
  1543.7500      7.0053     53.6616      6.3047     95.0377
  1544.0000      7.2884     53.6117      6.3837     94.9504
  1544.2500      7.5649     53.6088      6.4525     96.3310
  1544.5000      7.7541     53.6437      6.5110     99.8087
  1544.7500      7.7937     53.6984      6.5642    102.5215
  1545.0000      7.6822     53.7536      6.6184    106.3876
  1545.2500      7.4749     53.7952      6.6749    108.6579
  1545.5000      7.2691     53.8207      6.7267    111.8468
  1545.7500      7.1214     53.8413      6.7602    113.9952
  1546.0000      6.9850     53.8773      6.7624    116.9711
  1546.2500      6.7949     53.9483      6.7289    118.3875
  1546.5000      6.5512     54.0644      6.6657    119.4757
  1546.7500      6.2968     54.2216      6.5839    119.9776
  1547.0000      6.0821     54.4002      6.4919    121.5501
  1547.2500      5.9430     54.5686      6.3927    123.4771
  1547.5000      5.8814     54.6949      6.2870    127.3322
  1547.7500      5.8773     54.7614      6.1789    129.9817
  1548.0000      5.9054     54.7733      6.0775    132.9793
  1548.2500      5.9321     54.7523      5.9918    133.8270
  1548.5000      5.9257     54.7246      5.9247    133.0961
  1548.7500      5.8748     54.7073      5.8705    131.5461
  1549.0000      5.7854     54.7017      5.8196    128.5725
  1549.2500      5.6751     54.6969      5.7662    126.6899
  1549.5000      5.5719     54.6819      5.7133    124.5845
  1549.7500      5.5059     54.6520      5.6703    123.8499
  1550.0000      5.4942     54.6039      5.6456    123.9317
  1550.2500      5.5335     54.5260      5.6415    124.7099
  1550.5000      5.6055     54.3969      5.6545    126.4505
  1550.7500      5.6832     54.1949      5.6786    127.5625
  1551.0000      5.7446     53.9116      5.7089    128.5821
  1551.2500      5.7908     53.5610      5.7430    128.7050
  1551.5000      5.8354     53.1793      5.7806    128.0546
  1551.7500      5.8774     52.8141      5.8208    127.0788
  1552.0000      5.9082     52.5073      5.8616    124.9701
  1552.2500      5.9384     52.2781      5.9013    123.3948
  1552.5000      5.9830     52.1165      5.9401    121.3062
  1552.7500      6.0317     51.9909      5.9813    120.3361
  1553.0000      6.0691     51.8678      6.0288    119.8447
  1553.2500      6.1021     51.7339      6.0840    120.3072
  1553.5000      6.1404     51.6037      6.1455    122.0999
  1553.7500      6.1647     51.5091      6.2096    123.7000
  1554.0000      6.1306     51.4811      6.2727    125.8299
  1554.2500      6.0321     51.5339      6.3321    126.5676
