~Version Information
VERS.                      2.0: CWLS Log ASCII Standard - VERSION 2.0
WRAP.                       NO: One line per depth step
~Well Information Block
STRT.FT               472.0000: 
STOP.FT              2641.5000: 
STEP.FT                 0.1000: 
NULL.                -999.2500: 
COMP.          Pioneer Natural Resources: COMPANY
WELL.              Wagner 13-9: WELL
FLD.           Purgatoire River: FIELD
LOC.           1819' FSL & 1111' FWL: LOCATION
PROV.                 Colorado: PROVINCE
CNTY.               Las Animas: COUNTRY
SRVC.                Patterson: SERVICE COMPANY
DATE.          Tue Apr 19 08:56:38 2005: LOG DATE
UWI.           05 071 08302 00: UNIQUE WELL ID
~Curve Information Block
DEPT.FT            0 000 00 00: Depth
DCAL.in                       : CDL Caliper
RHOB.g/cc                     : CDL Bulk Density
RHOC.g/cc                     : CDL Density Correction
DPOR.pu                       : CDL Density Porosity
GR.GAPI                       : Gamma Ray
NPOR.pu                       : Neutron Porosity
~Parameter Information Block
~A  Depth       DCAL        RHOB        RHOC        DPOR         GR         NPOR    
# ...
   616.0000      7.9568      2.4734     -0.0229     10.7050     63.4634     20.7515
   616.1000      7.9568      2.4632     -0.0373     11.3222     61.7360     19.9920
   616.2000      7.9568      2.4724     -0.0045     10.7636     59.7624     19.4834
   616.3000      7.9555      2.4899      0.0384      9.7033     60.4903     18.9151
   616.4000      7.9555      2.5010     -0.0001      9.0278     60.1462     18.0109
   616.5000      7.9556      2.5012      0.0550      9.0204     57.8764     17.3919
   616.6000      7.9556      2.4900      0.0327      9.6957     58.2585     17.3370
   616.7000      7.9556      2.4723      0.0297     10.7710     59.5506     17.3802
   616.8000      7.9559      2.4527      0.0160     11.9578     57.0798     17.1037
   616.9000      7.9559      2.4320      0.0057     13.2140     51.7163     16.6588
   617.0000      7.9573      2.4121      0.0298     14.4196     46.9429     16.3948
   617.1000      7.9573      2.4049     -0.0263     14.8552     44.1187     16.5834
   617.2000      7.9573      2.4179      0.0140     14.0678     42.0604     17.1840
   617.3000      7.9578      2.4307      0.0391     13.2896     40.7451     17.6178
   617.4000      7.9578      2.4238      0.0161     13.7110     41.7362     17.5645
   617.5000      7.9557      2.4124     -0.0316     14.3994     44.8142     17.4884
   617.6000      7.9557      2.4200      0.0370     13.9380     47.8542     17.9198
   617.7000      7.9557      2.4421      0.0571     12.6025     50.4437     18.5577
   617.8000      7.9538      2.4599      0.0309     11.5234     52.8898     18.8429
   617.9000      7.9538      2.4690      0.0484     10.9669     53.4760     18.5981
   618.0000      7.9550      2.4794      0.0076     10.3397     52.2460     17.8351
   618.1000      7.9550      2.4908      0.0524      9.6462     51.2740     17.1798
   618.2000      7.9550      2.4906      0.0508      9.6626     51.5319     17.1914
   618.3000      7.9569      2.4760      0.0348     10.5458     52.7442     17.3299
   618.4000      7.9569      2.4584      0.0279     11.6125     53.1426     17.0147
   618.5000      7.9571      2.4483     -0.0059     12.2269     51.3862     16.5858
   618.6000      7.9571      2.4457      0.0075     12.3824     48.7627     16.3695
   618.7000      7.9571      2.4441     -0.0122     12.4787     47.2603     16.2342
   618.8000      7.9568      2.4386      0.0067     12.8097     47.1283     16.1507
   618.9000      7.9568      2.4256      0.0224     13.6007     46.5452     16.1808
   619.0000      7.9570      2.4135     -0.0203     14.3342     45.2026     16.4630
   619.1000      7.9570      2.4148      0.0498     14.2529     44.1045     16.9410
   619.2000      7.9570      2.4191      0.0687     13.9961     42.7983     17.1292
   619.3000      7.9571      2.4105      0.0763     14.5177     41.7231     17.1636
   619.4000      7.9571      2.3960      0.0310     15.3929     42.0958     17.3181
   619.5000      7.9563      2.3930      0.0171     15.5775     42.2306     17.0804
   619.6000      7.9563      2.4035      0.0241     14.9408     39.7854     16.4683
   619.7000      7.9563      2.4118      0.0533     14.4368     36.7587     16.0345
   619.8000      7.9545      2.4034      0.0488     14.9481     36.5919     16.0116
   619.9000      7.9545      2.3884      0.0168     15.8533     39.6329     16.5092
   620.0000      7.9531      2.3856     -0.0000     16.0219     43.6706     17.2861
   620.1000      7.9531      2.3937      0.0082     15.5310     45.7623     17.4440
   620.2000      7.9531      2.4009      0.0301     15.0951     46.7440     16.7367
   620.3000      7.9542      2.3986      0.0613     15.2379     49.0462     16.1201
   620.4000      7.9542      2.3898      0.0043     15.7708     50.3075     16.1416
   620.5000      7.9558      2.3851      0.0486     16.0545     47.7894     16.3369
   620.6000      7.9558      2.3819      0.0098     16.2481     42.1980     16.4196
   620.7000      7.9558      2.3725      0.0157     16.8188     37.0533     16.5793
   620.8000      7.9565      2.3639     -0.0027     17.3392     36.2264     16.8637
   620.9000      7.9565      2.3666     -0.0071     17.1732     40.0356     17.1913
   621.0000      7.9573      2.3678      0.0613     17.1050     45.4723     17.2309
   621.1000      7.9573      2.3476      0.0310     18.3272     48.4821     16.6847
   621.2000      7.9573      2.3184     -0.0292     20.0960     48.8164     15.8324
   621.3000      7.9581      2.3095     -0.0496     20.6340     49.1530     15.2447
   621.4000      7.9581      2.3296     -0.0243     19.4196     48.9442     15.4640
   621.5000      7.9571      2.3601      0.0340     17.5702     45.9271     16.2568
   621.6000      7.9571      2.3808      0.0633     16.3125     41.5493     16.8462
   621.7000      7.9571      2.3929      0.0052     15.5843     40.5506     16.8952
   621.8000      7.9502      2.4018      0.0546     15.0445     43.4873     16.7148
   621.9000      7.9502      2.4017      0.0689     15.0471     45.0308     16.7666
   622.0000      7.9364      2.3942      0.0190     15.5047     42.1651     17.0657
   622.1000      7.9364      2.3953      0.0382     15.4350     37.9549     17.4917
   622.2000      7.9364      2.4129      0.0365     14.3683     37.2654     18.0621
   622.3000      7.9246      2.4326      0.0569     13.1729     40.9246     18.8278
   622.4000      7.9246      2.4413      0.0238     12.6455     44.4790     19.7459
   622.5000      7.9155      2.4433      0.0526     12.5254     43.8939     20.4920
   622.6000      7.9155      2.4465      0.0851     12.3304     41.1281     20.7646
   622.7000      7.9155      2.4579      0.0264     11.6420     41.3757     20.8191
   622.8000      7.8992      2.4785      0.0728     10.3934     45.4205     21.0974
   622.9000      7.8992      2.4910      0.1045      9.6381     49.7340     21.7520
   623.0000      7.8773      2.4830      0.0171     10.1204     50.8162     22.5747
   623.1000      7.8773      2.4691      0.0126     10.9660     48.0069     23.1887
   623.2000      7.8773      2.4624      0.0272     11.3705     43.9229     22.9683
   623.3000      7.8622      2.4643      0.0113     11.2567     40.4595     21.9115
   623.4000      7.8622      2.4727      0.0134     10.7433     39.1075     20.8671
   623.5000      7.8569      2.4805      0.0395     10.2701     40.2127     20.1166
   623.6000      7.8569      2.4854      0.0167      9.9745     41.2565     19.5754
   623.7000      7.8569      2.4870      0.0705      9.8811     41.2509     19.4001
   623.8000      7.8543      2.4776      0.0336     10.4455     42.0234     19.3957
   623.9000      7.8543      2.4616      0.0061     11.4196     44.0830     19.0316
   624.0000      7.8469      2.4543      0.0190     11.8610     45.1999     18.3368
   624.1000      7.8469      2.4640      0.0134     11.2700     44.7056     17.5636
   624.2000      7.8469      2.4852      0.0617      9.9876     44.3117     16.5805
   624.3000      7.8301      2.4972      0.1084      9.2595     44.0615     15.5375
   624.4000      7.8301      2.4921      0.0611      9.5708     43.5934     14.9090
   624.5000      7.8098      2.4869      0.0821      9.8837     44.0222     14.6152
   624.6000      7.8098      2.4869      0.1185      9.8842     45.2631     14.1836
   624.7000      7.8098      2.4801      0.0834     10.2987     47.0636     13.7880
   624.8000      7.8004      2.4656      0.0722     11.1787     49.5794     13.9428
   624.9000      7.8004      2.4481      0.0814     12.2392     50.8158     14.5672
   625.0000      7.8097      2.4256      0.0954     13.6027     50.2937     14.9985
   625.1000      7.8097      2.3960      0.0557     15.3946     52.0447     14.8549
   625.2000      7.8097      2.3641      0.0330     17.3264     55.2417     14.6385
   625.3000      7.8419      2.3415      0.0211     18.6950     54.8136     14.8955
   625.4000      7.8419      2.3348      0.0574     19.1044     50.8708     15.1955
   625.5000      7.8883      2.3331      0.0452     19.2052     46.7648     15.1794
