~Version Information
 VERS.                                  2.0 : CWLS LAS VERSION
 WRAP.                                   NO : WRAPING MODE
 SWARE .                 MController 2.5.0N : SOFTWARE VERSION
~Well Information
 WELL.                   Uintah 21-27 Tr CH : WELL
 COMP.    Pioneer Natural Resources USA Inc : COMPANY
 FLD.                      Purgatoire River : FIELD
 LOC.                NE/NW Sec 27 T33S R67W : LOCATION
 DATE.                         5/14-16/2005 : DATE(S) LOGGED
 SRVC.       Blanco Geological Services LLC : SERVICE COMPANY
 STAT.                                   CO : STATE
 CNTY.                           Las Animas : COUNTY
 CTRY.                                  USA : COUNTRY
 API.                       05-071-08311-00 : API NUMBER
 STRT.FT                             394.00 : START DEPTH
 STOP.FT                            1538.00 : STOP DEPTH
 STEP.FT                               1.00 : DEPTH INCREMENT
 NULL.                                -9999 : NULL VALUE
~Curve information
 DEPTH.FT                                   :
 ROP.MIN/FT                                 :
 GAS.UNITS                                  :
~ASCII Log data
# ...
      1394.0         0.80        211.6 
      1395.0         0.85        207.7 
      1396.0         0.77        204.2 
      1397.0         0.77        203.8 
      1398.0         0.77        203.2 
      1399.0         0.85        202.0 
      1400.0         0.93        201.5 
      1401.0         0.90        201.5 
      1402.0         0.93        202.6 
      1403.0       186.52       8980.3 
      1404.0         0.27        591.7 
      1405.0         1.55        594.8 
      1406.0         0.50        595.1 
      1407.0         0.80        664.4 
      1408.0         0.67        913.7 
      1409.0         1.42       1960.1 
      1410.0         0.53       2430.7 
      1411.0         0.70       3061.8 
      1412.0         0.40       3898.2 
      1413.0         0.77       5808.3 
      1414.0         0.58       6459.1 
      1415.0         0.40       6522.5 
      1416.0         0.77       6506.5 
      1417.0         0.37       6159.2 
      1418.0         0.70       6927.1 
      1419.0         0.47       7453.2 
      1420.0         0.92       8060.2 
      1421.0         0.37       8255.4 
      1422.0         0.37       8416.8 
      1423.0         0.53       8598.2 
      1424.0       240.98       9126.6 
      1425.0         2.33        178.1 
      1426.0         1.85        163.0 
      1427.0         0.40        148.8 
      1428.0         0.67        165.0 
      1429.0         0.37        164.4 
      1430.0         0.42        156.3 
      1431.0         0.43        157.6 
      1432.0         0.50        174.9 
      1433.0         0.33        189.2 
      1434.0         0.37        190.9 
      1435.0         0.57        188.1 
      1436.0         7.25        410.7 
      1437.0         0.13        411.8 
      1438.0         0.13        406.8 
      1439.0         0.27        391.2 
      1440.0         0.67        347.5 
      1441.0         0.90        369.5 
      1442.0         0.50        354.6 
      1443.0         0.48        274.7 
      1444.0         0.43        282.2 
      1445.0         0.37        282.6 
      1446.0         0.33        279.0 
      1447.0         0.20        268.5 
      1448.0         0.30        260.3 
      1449.0         0.33        246.4 
      1450.0         0.33        235.7 
      1451.0         0.43        224.8 
      1452.0         0.38        207.9 
      1453.0         0.27        195.3 
      1454.0         0.23        185.1 
      1455.0         0.30        174.7 
      1456.0         0.30        161.6 
      1457.0         0.33        154.2 
      1458.0         0.23        150.1 
      1459.0         0.33        148.5 
      1460.0         0.20        146.9 
      1461.0         0.20        146.0 
      1462.0         0.23        144.6 
      1463.0         0.20        143.3 
      1464.0         0.22        142.1 
      1465.0         3.55        238.7 
      1466.0         0.20        194.3 
      1467.0         0.33        180.8 
      1468.0         0.30        172.3 
      1469.0         0.27        201.3 
      1470.0         0.23        223.6 
      1471.0         0.27        230.2 
      1472.0         0.23        229.7 
      1473.0         0.27        222.3 
      1474.0         0.27        209.4 
      1475.0         0.33        198.6 
      1476.0         0.35        189.9 
      1477.0         0.33        185.1 
      1478.0         0.33        183.1 
      1479.0         0.27        179.0 
      1480.0         0.23        171.6 
      1481.0         0.23        164.6 
      1482.0         0.27        158.9 
      1483.0         0.30        153.0 
      1484.0         0.23        147.2 
      1485.0         0.23        145.1 
      1486.0         0.23        145.4 
      1487.0         0.27        145.3 
      1488.0         0.28        143.3 
      1489.0         0.27        141.4 
      1490.0         0.20        140.9 
      1491.0         0.30        141.5 
      1492.0         0.43        143.9 
      1493.0         0.27        145.0 
      1494.0         0.23        145.6 
      1495.0         0.33        145.6 
      1496.0         3.12        270.3 
      1497.0         0.30        265.8 
      1498.0         0.30        260.0 
      1499.0         0.23        239.6 
      1500.0         0.27        221.5 
      1501.0         0.22        202.4 
      1502.0         0.33        192.1 
      1503.0         0.37        184.4 
      1504.0         0.33        182.3 
      1505.0         0.30        180.4 
      1506.0         0.23        176.1 
      1507.0         0.23        171.8 
      1508.0         0.27        168.0 
      1509.0         0.23        162.6 
      1510.0         0.20        159.5 
      1511.0        13.82        185.8 
      1512.0         0.13        132.0 
      1513.0         0.10        132.4 
      1514.0         0.10        132.8 
      1515.0         0.13        133.1 
      1516.0         0.10        133.3 
      1517.0         0.10        133.7 
      1518.0         0.10        133.6 
      1519.0         0.13        133.8 
      1520.0         0.10        133.6 
      1521.0         0.10        133.5 
      1522.0         0.13        133.4 
      1523.0         0.10        133.3 
      1524.0         0.10        133.2 
      1525.0         0.13        133.3 
      1526.0         0.10        133.4 
      1527.0         0.10        133.2 
      1528.0         0.10        133.1 
      1529.0         0.13      -9999.0 
      1530.0         0.10      -9999.0 
      1531.0         0.10      -9999.0 
      1532.0         0.15      -9999.0 
      1533.0         0.10      -9999.0 
      1534.0         0.10      -9999.0 
      1535.0         0.13      -9999.0 
      1536.0         0.10      -9999.0 
      1537.0         0.10      -9999.0 
      1538.0         0.13      -9999.0 
