~Version Information
VERS.                      2.0: CWLS Log ASCII Standard - VERSION 2.0
WRAP.                       NO: One line per depth step
~Well Information Block
STRT.FT               768.0000: 
STOP.FT              2635.5000: 
STEP.FT                 0.1000: 
NULL.                -999.2500: 
COMP.          Pioneer Natural Resources: COMPANY
WELL.               Zink 44-10: WELL
FLD.           Purgatoire River: FIELD
LOC.           548' FSL & 473' FEL: LOCATION
PROV.                 Colorado: PROVINCE
CNTY.               Las Animas: COUNTRY
SRVC.                Patterson: SERVICE COMPANY
DATE.          Tue May 31 07:05:25 2005: LOG DATE
UWI.           05 071 08380 00: UNIQUE WELL ID
~Curve Information Block
DEPT.FT            0 000 00 00: Depth
DCAL.in                       : CDL Caliper
RHOB.g/cc                     : CDL Bulk Density
RHOC.g/cc                     : CDL Density Correction
DPOR.pu                       : CDL Density Porosity
GR.GAPI                       : Gamma Ray
NPOR.pu                       : Neutron Porosity
~Parameter Information Block
~A  Depth       DCAL        RHOB        RHOC        DPOR         GR         NPOR    
# ...
  2006.4000      8.0347      2.6418      0.1097      0.4999    173.3283     27.4788
  2006.5000      8.0996      2.5913      0.0777      3.5559    174.4250     27.6902
  2006.6000      8.0996      2.5458      0.0238      6.3151    172.4228     27.2293
  2006.7000      8.0996      2.5186      0.0349      7.9613    171.5153     26.5115
  2006.8000      8.1011      2.5030      0.0272      8.9088    169.5229     26.3742
  2006.9000      8.1011      2.4946      0.0043      9.4191    168.3249     26.4834
  2007.0000      8.0697      2.5000      0.0410      9.0886    173.1352     26.5189
  2007.1000      8.0697      2.5123      0.0932      8.3445    181.2742     26.6903
  2007.2000      8.0697      2.5261      0.0826      7.5085    188.8791     27.1231
  2007.3000      8.0822      2.5487      0.0760      6.1369    193.6286     27.6211
  2007.4000      8.0822      2.5755      0.0710      4.5175    192.0767     27.9666
  2007.5000      8.0891      2.5912      0.1283      3.5637    184.3363     28.0521
  2007.6000      8.0891      2.5899      0.0938      3.6439    176.4028     28.2941
  2007.7000      8.0891      2.5807      0.0977      4.2000    174.9304     29.1062
  2007.8000      8.1006      2.5652      0.1604      5.1378    179.9434     29.9120
  2007.9000      8.1006      2.5363      0.1359      6.8912    186.0053     30.0279
  2008.0000      8.1577      2.5078      0.0975      8.6163    189.9140     29.9898
  2008.1000      8.1577      2.5014      0.1258      9.0087    192.1093     30.4429
  2008.2000      8.1577      2.5191      0.1399      7.9356    193.3923     30.9941
  2008.3000      8.1646      2.5483      0.1422      6.1629    192.9980     31.3038
  2008.4000      8.1646      2.5760      0.1966      4.4848    190.6499     31.4238
  2008.5000      8.1401      2.5989      0.1784      3.0945    188.1230     31.3318
  2008.6000      8.1401      2.6092      0.2615      2.4702    186.2998     31.0906
  2008.7000      8.1401      2.5930      0.2435      3.4551    184.2224     30.7918
  2008.8000      8.1433      2.5660      0.1480      5.0921    182.1140     29.9400
  2008.9000      8.1433      2.5523      0.1985      5.9213    183.6699     28.6558
  2009.0000      8.1223      2.5407      0.1245      6.6230    188.2805     27.9219
  2009.1000      8.1223      2.5165      0.1264      8.0916    190.2470     28.1649
  2009.2000      8.1223      2.4861      0.0959      9.9314    189.0426     29.0868
  2009.3000      8.1389      2.4627      0.0647     11.3527    186.9932     30.0235
  2009.4000      8.1389      2.4584      0.0482     11.6151    184.9649     30.4559
  2009.5000      8.0790      2.4751      0.1575     10.5996    183.8415     30.4086
  2009.6000      8.0790      2.5036      0.1583      8.8728    185.0464     30.4021
  2009.7000      8.0790      2.5300      0.2206      7.2708    186.4535     30.8166
  2009.8000      8.0612      2.5274      0.2157      7.4304    183.5530     31.1349
  2009.9000      8.0612      2.4753      0.2088     10.5895    176.6621     30.7630
  2010.0000      8.0923      2.3941      0.1146     15.5103    172.5364     30.1438
  2010.1000      8.0923      2.3307      0.1496     19.3545    175.7581     29.7760
  2010.2000      8.0923      2.3000      0.2607     21.2143    179.9788     29.7062
  2010.3000      8.3100      2.2750      0.2684     22.7283    177.0658     29.7229
  2010.4000      8.3100      2.2423      0.2106     24.7119    167.2008     29.3811
  2010.5000      8.5596      2.2222      0.1976     25.9245    157.5471     28.8386
  2010.6000      8.5596      2.2361      0.2258     25.0821    155.9599     28.7114
  2010.7000      8.5596      2.2792      0.3695     22.4735    162.1610     29.0870
  2010.8000      8.6382      2.3287      0.3815     19.4753    172.8366     29.4417
  2010.9000      8.6382      2.3734      0.3673     16.7659    182.8258     29.1459
  2011.0000      8.6975      2.4015      0.4198     15.0607    184.8698     28.3903
  2011.1000      8.6975      2.3920      0.3750     15.6368    182.1089     28.2523
  2011.2000      8.6975      2.3495      0.3587     18.2146    183.5711     29.0425
  2011.3000      8.8825      2.3075      0.3223     20.7587    186.3228     29.9211
  2011.4000      8.8825      2.2961      0.2958     21.4458    183.8723     30.1307
  2011.5000      8.9480      2.3205      0.3346     19.9675    178.2812     29.6418
  2011.6000      8.9480      2.3624      0.3989     17.4300    174.5482     28.9558
  2011.7000      8.9480      2.4010      0.4246     15.0923    171.7996     28.3474
  2011.8000      9.1001      2.4319      0.4372     13.2197    167.4718     27.9114
  2011.9000      9.1001      2.4678      0.4404     11.0429    164.3048     28.1886
  2012.0000      9.2076      2.5193      0.4047      7.9238    162.6183     29.3090
  2012.1000      9.2076      2.5751      0.4692      4.5409    158.4397     30.3241
  2012.2000      9.2076      2.6143      0.4414      2.1641    156.3205     30.2697
  2012.3000      8.9398      2.6312      0.4402      1.1385    159.7944     29.6109
  2012.4000      8.9398      2.6318      0.4214      1.1017    161.8365     29.6063
  2012.5000      8.8260      2.6227      0.3818      1.6533    160.3918     30.1258
  2012.6000      8.8260      2.6047      0.3056      2.7456    160.2116     30.0790
  2012.7000      8.8260      2.5798      0.2227      4.2552    163.0392     29.4011
  2012.8000      8.8360      2.5537      0.1789      5.8346    165.6301     28.8373
  2012.9000      8.8360      2.5247      0.1766      7.5957    166.5644     28.5829
  2013.0000      8.5549      2.4942      0.1737      9.4446    168.4847     28.7479
  2013.1000      8.5549      2.4789      0.1843     10.3718    173.0050     29.3790
  2013.2000      8.5549      2.4826      0.2649     10.1439    180.6272     29.6549
  2013.3000      8.3114      2.4899      0.2073      9.7030    187.8992     29.4756
  2013.4000      8.3114      2.5024      0.2220      8.9436    187.8169     29.4414
  2013.5000      8.3661      2.5355      0.2335      6.9420    182.3164     29.2332
  2013.6000      8.3661      2.5800      0.3177      4.2403    179.2694     28.5363
  2013.7000      8.3661      2.6044      0.3630      2.7664    177.7544     27.9831
  2013.8000      8.5541      2.5956      0.3131      3.2992    174.9725     28.3143
  2013.9000      8.5541      2.5682      0.3137      4.9580    174.8787     29.2676
  2014.0000      8.6308      2.5445      0.2474      6.3927    179.7685     30.0912
  2014.1000      8.6308      2.5420      0.2060      6.5462    184.7914     30.4100
  2014.2000      8.6308      2.5613      0.1498      5.3745    185.5059     30.1623
  2014.3000      8.5359      2.5919      0.1384      3.5184    183.4428     29.4191
  2014.4000      8.5359      2.6170      0.2060      1.9972    178.7038     28.7130
  2014.5000      8.4627      2.6210      0.1988      1.7562    171.0217     28.6311
  2014.6000      8.4627      2.6117      0.1773      2.3229    163.9803     28.8343
  2014.7000      8.4627      2.6030      0.1835      2.8505    157.1930     28.8805
  2014.8000      8.2646      2.5928      0.1510      3.4675    151.0274     28.7803
  2014.9000      8.2646      2.5801      0.1033      4.2378    150.7642     28.4710
  2015.0000      8.2439      2.5720      0.1146      4.7297    157.7104     27.8079
  2015.1000      8.2439      2.5839      0.0687      4.0071    166.5689     27.2318
  2015.2000      8.2439      2.6126      0.1646      2.2660    169.8709     27.1390
  2015.3000      8.1748      2.6150      0.2024      2.1233    165.4176     27.0577
  2015.4000      8.1748      2.5771      0.0950      4.4184    160.8541     26.7285
  2015.5000      8.1438      2.5473      0.0566      6.2229    162.0333     26.4712
  2015.6000      8.1438      2.5592      0.0458      5.5034    165.4716     26.5478
  2015.7000      8.1438      2.5882      0.1369      3.7439    169.4971     26.9373
  2015.8000      7.9815      2.5897      0.1684      3.6535    175.0006     27.1834
  2015.9000      7.9815      2.5569      0.0912      5.6434    176.9161     27.4159
