~Version Information
VERS.                      2.0: CWLS Log ASCII Standard - VERSION 2.0
WRAP.                       NO: One line per depth step
~Well Information Block
STRT.FT               450.0000: 
STOP.FT              2756.0000: 
STEP.FT                 0.2500: 
NULL.                -999.2500: 
COMP.          Pioneer Natural Resources: COMPANY
WELL.             Squeal 11-26: WELL
FLD.           Purgatoire River: FIELD
LOC.           1186' FNL & 152' FWL: LOCATION
PROV.                 Colorado: PROVINCE
CNTY.               Las Animas: COUNTRY
SRVC.                Patterson: SERVICE COMPANY
DATE.          Wed Jun 15 02:22:08 2005: LOG DATE
UWI.           05 071 08404 00: UNIQUE WELL ID
~Curve Information Block
DEPT.FT            0 000 00 00: Depth
SN.Ohm-m                      : IEL Short Normal
SP.mV                         : IEL Spontaneous Potential
DIR.Ohm-m                     : IEL Induction Resistivity
GR.GAPI                       : Gamma Ray
~Parameter Information Block
~A  Depth        SN          SP         DIR          GR     
# ...
  2125.0000     30.8095    -74.2568     25.8967     75.0925
  2125.2500     31.1806    -74.6342     25.7444     75.1062
  2125.5000     31.5163    -74.9796     25.5909     74.2253
  2125.7500     31.7396    -75.2764     25.4655     73.2696
  2126.0000     31.7912    -75.5299     25.3774     72.1759
  2126.2500     31.7339    -75.7513     25.3207     72.1840
  2126.5000     31.6811    -75.9523     25.2886     73.7025
  2126.7500     31.6124    -76.1533     25.2877     75.5011
  2127.0000     31.4305    -76.3905     25.3388     78.3586
  2127.2500     31.1648    -76.7051     25.4605     79.7641
  2127.5000     30.9534    -77.1163     25.6470     80.7799
  2127.7500     30.8685    -77.6060     25.8593     81.0171
  2128.0000     30.8670    -78.1302     26.0407     81.5004
  2128.2500     30.8971    -78.6465     26.1476     82.0888
  2128.5000     30.9581    -79.1296     26.1748     82.8243
  2128.7500     31.0426    -79.5711     26.1586     82.6716
  2129.0000     31.1207    -79.9715     26.1549     81.0875
  2129.2500     31.1954    -80.3355     26.2076     79.4806
  2129.5000     31.2999    -80.6712     26.3250     77.5231
  2129.7500     31.4344    -80.9877     26.4772     77.1855
  2130.0000     31.5554    -81.2925     26.6131     78.2580
  2130.2500     31.6146    -81.5883     26.6880     79.4105
  2130.5000     31.6134    -81.8707     26.6834     80.3571
  2130.7500     31.6430    -82.1275     26.6048     80.0231
  2131.0000     31.7686    -82.3425     26.4662     78.5007
  2131.2500     31.8545    -82.5019     26.2790     77.5402
  2131.5000     31.6572    -82.6046     26.0558     77.4272
  2131.7500     31.1240    -82.6700     25.8176     78.5136
  2132.0000     30.4562    -82.7320     25.5867     81.2533
  2132.2500     29.8644    -82.8143     25.3623     83.0535
  2132.5000     29.4023    -82.9113     25.0995     84.6086
  2132.7500     29.0332    -82.9977     24.7185     84.6917
  2133.0000     28.7214    -83.0527     24.1498     83.8821
  2133.2500     28.4287    -83.0714     23.3810     83.2804
  2133.5000     28.0802    -83.0573     22.4624     83.0000
  2133.7500     27.5673    -83.0097     21.4689     83.2402
  2134.0000     26.8280    -82.9194     20.4596     84.0070
  2134.2500     25.8801    -82.7764     19.4666     84.9542
  2134.5000     24.7212    -82.5850     18.5080     87.9093
  2134.7500     23.3212    -82.3697     17.6018     91.4631
  2135.0000     21.7211    -82.1620     16.7699     99.9034
  2135.2500     20.0187    -81.9795     16.0312    107.8234
  2135.5000     18.3303    -81.8185     15.3935    122.4945
  2135.7500     16.8168    -81.6638     14.8503    132.7343
  2136.0000     15.6453    -81.5073     14.3877    145.1769
  2136.2500     14.8825    -81.3600     13.9956    149.8903
  2136.5000     14.4729    -81.2498     13.6753    151.4354
  2136.7500     14.3117    -81.2024     13.4367    150.0164
  2137.0000     14.2857    -81.2189     13.2901    146.4663
  2137.2500     14.3062    -81.2667     13.2423    143.6722
  2137.5000     14.3448    -81.2950     13.2954    138.6061
  2137.7500     14.4165    -81.2647     13.4487    134.5856
  2138.0000     14.5768    -81.1699     13.6968    128.3339
  2138.2500     14.9023    -81.0347     14.0287    124.5730
  2138.5000     15.4180    -80.8927     14.4297    119.5322
  2138.7500     16.1094    -80.7717     14.8880    115.9256
  2139.0000     16.9702    -80.6880     15.4017    108.8743
  2139.2500     17.9865    -80.6438     15.9814    102.7027
  2139.5000     19.0961    -80.6251     16.6458     91.2785
  2139.7500     20.2095    -80.6075     17.4098     82.4940
  2140.0000     21.3558    -80.5678     18.2693     68.4715
  2140.2500     22.6921    -80.4915     19.1917     59.4034
  2140.5000     24.2574    -80.3772     20.1214     48.0208
  2140.7500     25.8701    -80.2396     21.0007     42.8127
  2141.0000     27.2809    -80.1074     21.7958     39.0176
  2141.2500     28.3196    -80.0029     22.5078     38.6001
  2141.5000     28.9905    -79.9217     23.1565     39.3175
  2141.7500     29.4598    -79.8373     23.7473     39.6952
  2142.0000     29.8419    -79.7331     24.2446     39.3924
  2142.2500     30.0825    -79.6267     24.5715     38.9505
  2142.5000     30.1154    -79.5528     24.6435     39.3701
  2142.7500     29.9818    -79.5216     24.4201     41.0402
  2143.0000     29.7868    -79.4969     23.9393     45.3577
  2143.2500     29.6411    -79.4159     23.2999     48.5053
  2143.5000     29.5856    -79.2294     22.6008     51.9711
  2143.7500     29.4939    -78.9269     21.8850     53.1605
  2144.0000     29.0888    -78.5407     21.1333     54.2730
  2144.2500     28.1404    -78.1329     20.3074     55.7012
  2144.5000     26.6185    -77.7734     19.4003     60.9390
  2144.7500     24.6218    -77.5104     18.4526     67.3860
  2145.0000     22.3257    -77.3503     17.5270     81.7137
  2145.2500     20.0211    -77.2618     16.6736     93.5205
  2145.5000     18.0462    -77.2042     15.9127    112.1398
  2145.7500     16.6244    -77.1566     15.2362    123.8407
  2146.0000     15.7220    -77.1246     14.6198    138.9416
  2146.2500     15.0689    -77.1230     14.0377    146.9362
  2146.5000     14.4067    -77.1559     13.4759    155.3783
  2146.7500     13.6839    -77.2139     12.9378    158.6139
  2147.0000     13.0186    -77.2824     12.4429    160.3055
  2147.2500     12.5585    -77.3477     12.0184    159.7536
  2147.5000     12.3510    -77.3990     11.6879    157.2229
  2147.7500     12.3133    -77.4346     11.4639    154.8384
  2148.0000     12.3355    -77.4708     11.3456    150.7344
  2148.2500     12.3577    -77.5395     11.3249    147.8112
  2148.5000     12.3400    -77.6726     11.3930    143.4517
  2148.7500     12.2682    -77.8843     11.5455    140.8393
  2149.0000     12.2083    -78.1712     11.7809    137.5861
  2149.2500     12.2709    -78.5246     12.0950    135.5569
  2149.5000     12.5138    -78.9352     12.4749    131.6886
  2149.7500     12.8949    -79.3839     12.8949    128.1180
  2150.0000     13.3147    -79.8386     13.3220    121.1587
  2150.2500     13.7038    -80.2677     13.7293    115.4966
  2150.5000     14.1020    -80.6584     14.1101    105.3964
  2150.7500     14.6300    -81.0143     14.4806     97.6982
  2151.0000     15.3378    -81.3369     14.8669     85.6159
  2151.2500     16.1607    -81.6126     15.2857     77.9386
  2151.5000     17.0453    -81.8235     15.7324     67.7710
  2151.7500     17.9787    -81.9688     16.1827     61.9736
  2152.0000     18.8272    -82.0679     16.6051     54.7797
  2152.2500     19.3242    -82.1424     16.9758     51.1277
  2152.5000     19.3619    -82.1956     17.2849     47.5354
  2152.7500     19.1446    -82.2101     17.5325     46.2107
  2153.0000     18.9403    -82.1653     17.7188     45.0690
  2153.2500     18.8285    -82.0631     17.8397     44.4626
  2153.5000     18.7643    -81.9365     17.8899     43.6252
  2153.7500     18.7007    -81.8260     17.8698     43.2982
  2154.0000     18.6003    -81.7433     17.7872     43.3775
  2154.2500     18.4717    -81.6621     17.6543     43.6633
  2154.5000     18.3697    -81.5480     17.4828     43.9463
  2154.7500     18.3209    -81.4028     17.2833     43.8983
  2155.0000     18.2991    -81.2747     17.0715     43.6226
  2155.2500     18.2796    -81.2201     16.8729     43.4207
  2155.5000     18.2567    -81.2544     16.7211     43.0531
  2155.7500     18.1767    -81.3446     16.6455     42.6803
  2156.0000     17.9676    -81.4456     16.6584     42.0139
  2156.2500     17.6926    -81.5413     16.7529     41.7113
  2156.5000     17.5473    -81.6514     16.9133     41.7411
  2156.7500     17.6504    -81.8072     17.1269     41.9441
  2157.0000     17.9150    -82.0218     17.3846     41.7711
  2157.2500     18.1209    -82.2763     17.6704     40.9039
  2157.5000     18.1174    -82.5323     17.9558     38.4185
  2157.7500     18.0128    -82.7572     18.2096     36.4478
  2158.0000     18.0740    -82.9445     18.4203     34.1916
  2158.2500     18.3935    -83.1137     18.6064     33.5422
