~Version Information
VERS.                      2.0: CWLS Log ASCII Standard - VERSION 2.0
WRAP.                       NO: One line per depth step
~Well Information Block
STRT.FT               825.0000: 
STOP.FT              2446.5000: 
STEP.FT                 0.2500: 
NULL.                -999.2500: 
COMP.          Petrogulf Corporation: COMPANY
WELL.            Kraft 17-23 V: WELL
FLD.           Purgatorie River: FIELD
LOC.           1500' FSL & 1773' FWL: LOCATION
CNTY.               Las Animas: COUNTY
SRVC.                         : SERVICE COMPANY
DATE.          Thu Nov 20 06:35:41 2003: LOG DATE
UWI.                          : UNIQUE WELL ID
STAT.                 Colorado: STATE
~Curve Information Block
DEPT.FT            0 000 00 00: Depth
SN.Ohm-m                      : IEL Short Normal
SP.mV                         : IEL Spontaneous Potential
DIR.Ohm-m                     : IEL Induction Resistivity
GR.GAPI                       : Gamma Ray
~Parameter Information Block
~A  Depth        SN          SP         DIR          GR     
# ...
  2198.5000     20.1161    -16.3845     11.6160     84.1647
  2198.7500     20.5149    -16.6068     11.7715     81.9169
  2199.0000     20.7897    -16.6964     11.9820     80.6588
  2199.2500     20.9783    -16.5550     12.1441     81.0460
  2199.5000     21.3530    -16.1251     12.2133     82.3383
  2199.7500     21.9534    -15.4799     12.2179     82.9431
  2200.0000     22.5377    -14.8494     12.2269     82.7304
  2200.2500     22.9377    -14.5246     12.3014     81.8693
  2200.5000     23.1640    -14.6918     12.4718     79.9510
  2200.7500     23.2680    -15.3238     12.7430     78.3351
  2201.0000     23.3652    -16.2059     13.1105     75.0364
  2201.2500     23.6886    -17.0707     13.5687     72.0925
  2201.5000     24.2662    -17.7493     14.1036     66.9256
  2201.7500     24.7699    -18.2339     14.6812     63.5037
  2202.0000     24.9689    -18.6218     15.2474     59.4903
  2202.2500     24.9716    -19.0243     15.7445     58.1677
  2202.5000     25.0511    -19.5102     16.1309     58.7772
  2202.7500     25.4437    -20.0828     16.3953     60.7080
  2203.0000     26.0745    -20.7152     16.5561     64.8328
  2203.2500     26.5157    -21.4481     16.6568     67.7968
  2203.5000     26.4914    -22.4325     16.7546     71.8918
  2203.7500     26.1957    -23.8274     16.9013     74.0890
  2204.0000     25.9677    -25.6571     17.1205     76.2841
  2204.2500     26.1122    -27.7887     17.3986     77.1894
  2204.5000     27.0490    -30.0328     17.6899     78.3694
  2204.7500     29.1161    -32.2538     17.9284     79.0656
  2205.0000     32.0620    -34.3979     18.0454     78.9024
  2205.2500     35.0455    -36.4436     17.9798     77.1347
  2205.5000     37.2998    -38.3416     17.7008     71.2624
  2205.7500     38.6055    -40.0139     17.2445     65.4191
  2206.0000     39.1680    -41.4112     16.7325     55.0920
  2206.2500     39.0375    -42.5581     16.3421     48.4614
  2206.5000     37.7645    -43.5198     16.2482     41.7640
  2206.7500     35.2448    -44.3220     16.5731     40.9775
  2207.0000     32.4200    -44.9217     17.3563     46.1752
  2207.2500     30.2918    -45.2678     18.5177     52.9140
  2207.5000     28.9934    -45.3612     19.8127     64.3701
  2207.7500     28.1925    -45.2314     20.8431     70.8383
  2208.0000     27.6381    -44.8754     21.2220     77.1962
  2208.2500     27.2245    -44.2474     20.8251     79.5590
  2208.5000     26.9522    -43.3136     19.8663     81.9386
  2208.7500     26.8968    -42.1269     18.7134     83.6335
  2209.0000     27.0366    -40.8627     17.6723     86.8014
  2209.2500     27.1604    -39.7425     16.9074     88.7878
  2209.5000     27.0646    -38.8680     16.4583     90.0769
  2209.7500     26.7038    -38.1434     16.2754     89.4278
  2210.0000     26.1856    -37.3805     16.2440     86.9416
  2210.2500     25.7274    -36.4269     16.2148     85.0880
  2210.5000     25.4761    -35.1752     16.0533     83.0457
  2210.7500     25.3936    -33.5474     15.7066     82.3499
  2211.0000     25.3930    -31.5535     15.2295     81.9430
  2211.2500     25.4565    -29.3377     14.7558     81.7278
  2211.5000     25.6007    -27.1249     14.4309     81.2198
  2211.7500     25.7558    -25.1236     14.3645     81.0358
  2212.0000     25.6629    -23.4557     14.6125     81.9836
  2212.2500     25.1299    -22.1209     15.1672     83.8146
  2212.5000     24.3800    -21.0346     15.9411     87.8681
  2212.7500     23.7622    -20.1611     16.7522     90.6946
  2213.0000     23.3793    -19.6166     17.3509     94.4502
  2213.2500     23.1782    -19.5912     17.5232     96.8004
  2213.5000     23.0667    -20.1508     17.2217     99.9652
  2213.7500     22.9570    -21.1373     16.5925    101.0346
  2214.0000     22.8238    -22.2686     15.8717     99.9057
  2214.2500     22.6760    -23.3419     15.2573     97.7402
  2214.5000     22.5253    -24.3698     14.8483     94.4625
  2214.7500     22.4276    -25.5489     14.6476     93.1967
  2215.0000     22.5328    -27.0857     14.5952     92.6396
  2215.2500     23.0294    -29.0314     14.6124     92.3501
  2215.5000     24.0693    -31.2624     14.6511     90.2657
  2215.7500     25.7873    -33.5887     14.7216     87.0587
  2216.0000     28.1326    -35.8672     14.8774     79.4255
  2216.2500     30.5886    -38.0318     15.1638     73.0497
  2216.5000     32.2670    -40.0434     15.5635     63.1787
  2216.7500     32.5211    -41.8475     15.9719     57.3727
  2217.0000     31.4948    -43.4054     16.2276     51.2299
  2217.2500     29.8809    -44.7448     16.2004     49.4815
  2217.5000     28.2181    -45.9419     15.8630     50.8985
  2217.7500     26.5670    -47.0551     15.2910     54.2566
  2218.0000     24.8442    -48.1052     14.5908     61.5534
  2218.2500     23.1514    -49.1284     13.8486     67.0609
  2218.5000     21.7585    -50.2087     13.1246     75.2762
  2218.7500     21.0138    -51.3920     12.4681     80.3075
  2219.0000     20.9856    -52.5405     11.9229     86.4745
  2219.2500     21.2751    -53.3394     11.5169     89.3444
  2219.5000     21.3929    -53.5260     11.2535     91.7585
  2219.7500     21.1981    -53.1047     11.1101     92.3940
  2220.0000     20.9427    -52.3358     11.0468     92.5634
  2220.2500     20.8637    -51.5415     11.0169     92.5914
  2220.5000     20.8681    -50.8371     10.9778     93.5400
  2220.7500     20.7463    -49.9891     10.9007     95.4013
  2221.0000     20.4941    -48.6672     10.7790     99.9497
  2221.2500     20.2535    -46.8662     10.6338    102.9691
  2221.5000     20.0449    -44.9290     10.5062    104.6521
  2221.7500     19.7649    -43.1813     10.4397    103.1298
  2222.0000     19.4350    -41.7052     10.4576     98.2827
  2222.2500     19.2061    -40.4149     10.5496     94.8724
  2222.5000     19.1708    -39.1726     10.6735     90.8026
  2222.7500     19.3714    -37.8272     10.7753     88.3964
  2223.0000     19.8191    -36.2746     10.8241     83.8896
  2223.2500     20.3902    -34.5446     10.8366     79.8735
  2223.5000     20.8489    -32.8035     10.8733     72.7835
  2223.7500     21.0925    -31.2583     11.0072     68.1809
  2224.0000     21.3680    -30.0629     11.2879     63.1557
  2224.2500     21.9746    -29.2746     11.7161     61.6076
  2224.5000     22.7022    -28.8369     12.2365     61.5915
  2224.7500     23.0167    -28.5976     12.7545     62.3660
  2225.0000     22.8897    -28.3984     13.1790     63.5106
  2225.2500     22.8437    -28.1642     13.4730     63.9728
  2225.5000     23.1289    -27.8934     13.6708     64.3826
  2225.7500     23.6297    -27.5715     13.8499     64.6925
  2226.0000     24.2473    -27.1278     14.0925     65.3963
  2226.2500     24.8026    -26.5123     14.4624     66.0075
  2226.5000     25.1203    -25.8238     14.9982     67.1898
  2226.7500     25.2876    -25.3276     15.7122     68.2379
  2227.0000     25.4751    -25.2847     16.5863     69.9920
  2227.2500     25.7122    -25.7219     17.5714     70.8811
  2227.5000     26.0191    -26.3716     18.5942     71.3082
  2227.7500     26.5684    -26.8841     19.5786     71.1066
  2228.0000     27.5792    -27.1478     20.4620     70.4240
  2228.2500     29.1454    -27.3909     21.2002     69.6035
  2228.5000     31.2564    -27.9486     21.7645     67.2271
  2228.7500     34.0499    -28.9754     22.1539     64.6413
  2229.0000     38.1530    -30.3964     22.4250     59.4069
  2229.2500     44.4161    -32.0488     22.7046     55.4524
  2229.5000     52.5407    -33.8026     23.1596     49.9094
  2229.7500     60.7043    -35.5836     23.9341     46.9209
  2230.0000     67.7709    -37.3530     25.0882     43.3480
  2230.2500     74.2735    -39.0921     26.5535     41.0787
  2230.5000     80.4128    -40.7961     28.1225     37.1584
  2230.7500     85.2828    -42.4617     29.5016     34.2031
  2231.0000     87.9687    -44.0464     30.4246     29.7524
  2231.2500     88.0549    -45.4395     30.7619     27.0754
  2231.5000     85.9388    -46.5069     30.5229     23.8024
  2231.7500     82.9594    -47.1870     29.7914     22.2217
