~Version Information
VERS.                      2.0: CWLS Log ASCII Standard - VERSION 2.0
WRAP.                       NO: One line per depth step
~Well Information Block
STRT.FT               902.0000: 
STOP.FT              2428.2000: 
STEP.FT                 0.1000: 
NULL.                -999.2500: 
COMP.          Pioneer Natural Resources: COMPANY
WELL.            Victory 12-14: WELL
FLD.           Purgatoire River: FIELD
LOC.           2434' FNL & 188' FWL: LOCATION
PROV.                 Colorado: PROVINCE
CNTY.               Las Animas: COUNTRY
SRVC.                Patterson: SERVICE COMPANY
DATE.          Mon Apr 18 07:24:17 2005: LOG DATE
UWI.           05 071 08332 00: UNIQUE WELL ID
~Curve Information Block
DEPT.FT            0 000 00 00: Depth
DCAL.in                       : CDL Caliper
RHOB.g/cc                     : CDL Bulk Density
RHOC.g/cc                     : CDL Density Correction
DPOR.pu                       : CDL Density Porosity
GR.GAPI                       : Gamma Ray
NPOR.pu                       : Neutron Porosity
~Parameter Information Block
~A  Depth       DCAL        RHOB        RHOC        DPOR         GR         NPOR    
# ...
  1401.2000      8.1810      2.5031      0.0306      8.9043    114.2339     25.0244
  1401.3000      8.1759      2.5123      0.0623      8.3446    113.3481     25.6275
  1401.4000      8.1759      2.5111      0.0719      8.4193    117.0929     26.2982
  1401.5000      8.1649      2.4920      0.0951      9.5765    118.0285     26.6154
  1401.6000      8.1649      2.4701      0.0259     10.9033    112.4515     26.4167
  1401.7000      8.1649      2.4694      0.0008     10.9435    101.6886     26.2015
  1401.8000      8.1657      2.4958      0.0557      9.3483     93.5544     26.2215
  1401.9000      8.1657      2.5344      0.0093      7.0054     91.0408     26.3175
  1402.0000      8.1421      2.5757      0.0313      4.5023     89.2952     26.3008
  1402.1000      8.1421      2.6083      0.0701      2.5277     85.9046     26.2907
  1402.2000      8.1421      2.6132      0.0785      2.2287     83.0469     26.5847
  1402.3000      8.1344      2.5891      0.0589      3.6913     83.0474     26.9021
  1402.4000      8.1344      2.5609      0.0056      5.4029     85.9413     26.8369
  1402.5000      8.1260      2.5528      0.0045      5.8888     91.1964     26.4771
  1402.6000      8.1260      2.5617      0.0165      5.3539     97.7864     26.2143
  1402.7000      8.1260      2.5717      0.0377      4.7477    104.2772     26.1178
  1402.8000      8.1069      2.5752     -0.0055      4.5362    109.1665     25.6643
  1402.9000      8.1069      2.5634      0.0268      5.2462    109.5081     24.7824
  1403.0000      8.1180      2.5246     -0.0096      7.6000    105.7802     24.3492
  1403.1000      8.1180      2.4796     -0.1165     10.3281    102.1725     24.8667
  1403.2000      8.1180      2.4679     -0.0631     11.0359     99.4325     25.7325
  1403.3000      8.1282      2.4866      0.0011      9.9050     97.8410     26.2760
  1403.4000      8.1282      2.5048     -0.0132      8.7970     98.0705     26.1946
  1403.5000      8.1494      2.5076      0.0499      8.6277     97.8515     25.4402
  1403.6000      8.1494      2.4974      0.0086      9.2501     96.7125     24.4906
  1403.7000      8.1494      2.4890      0.0263      9.7560     95.7607     24.1900
  1403.8000      8.1473      2.4933     -0.0042      9.4946     92.7879     24.8067
  1403.9000      8.1473      2.5099     -0.0343      8.4919     89.5526     25.4195
  1404.0000      8.1155      2.5317      0.0651      7.1708     91.3819     25.2235
  1404.1000      8.1155      2.5436      0.0491      6.4513     97.0177     24.7538
  1404.2000      8.1155      2.5350      0.0819      6.9719    100.1781     24.6181
  1404.3000      8.0677      2.5134      0.0254      8.2770     98.7882     24.4199
  1404.4000      8.0677      2.5087     -0.0235      8.5662     96.5452     23.7689
  1404.5000      8.0279      2.5395      0.0156      6.6989     94.6258     23.4170
  1404.6000      8.0279      2.5736      0.0549      4.6332     91.7269     23.8596
  1404.7000      8.0279      2.5654      0.0606      5.1252     89.7983     24.1191
  1404.8000      8.0304      2.5174      0.0043      8.0343     89.7811     23.6223
  1404.9000      8.0304      2.4727     -0.0263     10.7436     89.5197     23.2948
  1405.0000      8.0171      2.4660     -0.0329     11.1532     89.4291     23.4718
  1405.1000      8.0171      2.4924      0.0248      9.5533     90.9240     23.3740
  1405.2000      8.0171      2.5202      0.0062      7.8691     91.7143     22.8787
  1405.3000      7.9951      2.5215      0.0349      7.7858     88.5232     22.4028
  1405.4000      7.9951      2.4908      0.0285      9.6512     83.7472     22.1064
  1405.5000      8.0214      2.4532     -0.0538     11.9247     83.4768     22.0232
  1405.6000      8.0214      2.4323      0.0045     13.1911     87.5672     22.2183
  1405.7000      8.0214      2.4203     -0.0109     13.9221     90.0688     22.6356
  1405.8000      8.0297      2.4112     -0.0379     14.4757     86.5355     22.8326
  1405.9000      8.0297      2.4104      0.0027     14.5225     78.8918     22.7457
  1406.0000      8.0254      2.4167      0.0341     14.1415     71.4596     22.7095
  1406.1000      8.0254      2.4265      0.0415     13.5436     66.5353     22.6831
  1406.2000      8.0254      2.4421      0.0693     12.5989     66.5375     22.5804
  1406.3000      7.9812      2.4614      0.1186     11.4285     69.4803     22.4499
  1406.4000      7.9812      2.4724      0.2129     10.7662     69.6604     22.3382
  1406.5000      7.9660      2.4672      0.1999     11.0812     68.2323     22.2221
  1406.6000      7.9660      2.4626      0.1355     11.3601     69.1753     22.1465
  1406.7000      7.9660      2.4843      0.1238     10.0422     71.2273     22.0557
  1406.8000      7.9581      2.5255      0.2115      7.5455     70.4067     21.7932
  1406.9000      7.9581      2.5629      0.1767      5.2780     67.0382     21.5906
  1407.0000      7.9608      2.5962      0.1929      3.2606     64.4329     21.4827
  1407.1000      7.9608      2.6266      0.2424      1.4163     63.2749     21.2372
  1407.2000      7.9608      2.6447      0.2548      0.3233     61.5771     21.1286
  1407.3000      7.9704      2.6443      0.2030      0.3442     57.9551     21.4350
  1407.4000      7.9704      2.6268      0.1639      1.4078     53.7924     21.7950
  1407.5000      7.9674      2.6002      0.1484      3.0204     51.7963     21.6386
  1407.6000      7.9674      2.5737      0.0826      4.6228     52.3602     21.0248
  1407.7000      7.9674      2.5450      0.1101      6.3633     54.9995     20.6922
  1407.8000      7.9650      2.5113      0.0429      8.4063     57.6009     20.7970
  1407.9000      7.9650      2.4900      0.0067      9.6946     56.8547     20.6801
  1408.0000      7.9652      2.4973     -0.0111      9.2525     53.7034     20.3166
  1408.1000      7.9652      2.5167      0.0305      8.0770     52.3409     20.4147
  1408.2000      7.9652      2.5202      0.0641      7.8667     54.6690     20.8973
  1408.3000      8.0164      2.5079     -0.0139      8.6132     57.1566     20.9576
  1408.4000      8.0164      2.5048     -0.0479      8.7974     55.5237     20.6416
  1408.5000      8.0334      2.5230     -0.0348      7.6978     51.5841     20.6249
  1408.6000      8.0334      2.5442      0.0716      6.4144     49.7216     20.6789
  1408.7000      8.0334      2.5507      0.0336      6.0156     49.9498     20.2455
  1408.8000      8.0288      2.5524      0.0118      5.9177     49.9240     19.5560
  1408.9000      8.0288      2.5564      0.0738      5.6708     50.2905     18.9627
  1409.0000      8.0119      2.5585      0.0389      5.5465     52.4401     18.5098
  1409.1000      8.0119      2.5629      0.0535      5.2761     54.5421     18.2092
  1409.2000      8.0119      2.5627      0.0909      5.2880     52.8359     18.0387
  1409.3000      7.9668      2.5452      0.1136      6.3500     47.5120     17.9630
  1409.4000      7.9668      2.5211      0.0953      7.8095     44.0320     18.1086
  1409.5000      7.9613      2.5108      0.0995      8.4375     45.1207     18.4725
  1409.6000      7.9613      2.5246      0.1245      7.5977     47.9343     18.7225
  1409.7000      7.9613      2.5582      0.1567      5.5640     50.0440     18.6865
  1409.8000      7.9411      2.5921      0.1733      3.5115     51.6962     18.5800
  1409.9000      7.9411      2.6143      0.1518      2.1654     51.8932     18.5511
  1410.0000      7.9390      2.6222      0.1728      1.6862     50.3589     18.6879
  1410.1000      7.9390      2.6127      0.1113      2.2615     50.4054     18.9072
  1410.2000      7.9390      2.5921      0.1013      3.5067     52.7765     18.8855
  1410.3000      7.9452      2.5664      0.0225      5.0665     54.2906     18.5109
  1410.4000      7.9452      2.5322      0.0303      7.1411     52.8260     17.9864
  1410.5000      7.9556      2.4939      0.0336      9.4635     51.4104     17.6847
  1410.6000      7.9556      2.4826     -0.0802     10.1428     55.9409     17.7854
  1410.7000      7.9556      2.5194      0.0046      7.9181     65.6397     18.1277
