~Version Information
VERS.                      2.0: CWLS Log ASCII Standard - VERSION 2.0
WRAP.                       NO: One line per depth step
~Well Information Block
STRT.FT                15.0000: 
STOP.FT              1211.0000: 
STEP.FT                 0.2500: 
NULL.                -999.2500: 
COMP.          Pioneer Natural Resources: COMPANY
WELL.          Santa Fe 43-27 Tr: WELL
FLD.           Purgatoire River: FIELD
LOC.           2018' FSL & 534' FEL: LOCATION
PROV.                 Colorado: PROVINCE
CNTY.               Las Animas: COUNTRY
SRVC.                Patterson: SERVICE COMPANY
DATE.          Mon Mar 14 15:43:40 2005: LOG DATE
UWI.           05 071 08303 00: UNIQUE WELL ID
~Curve Information Block
DEPT.FT            0 000 00 00: Depth
GR.GAPI                       : Gamma Ray
CCL.                          : Casing Collar Locator
TT3.usec                      : CBL 3' Travel Time
AMP3.mV                       : CBL 3' Amplitude
AMP5.mV                       : CBL 5' Amplitude
~Parameter Information Block
~A  Depth        GR         CCL         TT3         AMP3        AMP5    
# ...
   239.0000     73.8520      0.0000   1051.7494     11.6679      1.8746
   239.2500     76.1976      0.0000   1068.0543     11.2941      1.7951
   239.5000     79.5353      0.0000   1077.1420     10.9817      1.6928
   239.7500     82.8283      0.0000   1076.9075     10.6817      1.5657
   240.0000     85.0803      0.0000   1060.8544     10.3329      1.4161
   240.2500     86.1936      0.0000   1022.4907      9.8884      1.2544
   240.5000     87.0198      0.0000    968.9169      9.3002      1.0967
   240.7500     88.2870      0.0000    927.3763      8.4883      0.9555
   241.0000     89.6108      0.0000    931.1157      7.3683      0.8396
   241.2500     90.0321      0.0000    992.8720      5.9531      0.7583
   241.5000     89.4941      0.0000   1092.3036      4.4181      0.7172
   241.7500     88.9556      0.0000   1191.7058      3.0327      0.7102
   242.0000     88.7124      0.0000   1263.4615      2.0134      0.7221
   242.2500     87.6212      0.0000   1302.5994      1.4224      0.7404
   242.5000     84.8134      0.0000   1318.9952      1.1730      0.7595
   242.7500     81.4255      0.0000   1324.2333      1.1244      0.7769
   243.0000     79.6382     -3.0000   1325.1277      1.1983      0.7908
   243.2500     80.3523     -3.0000   1323.7164      1.4320      0.8004
   243.5000     82.5311      0.0000   1319.0896      1.9689      0.8069
   243.7500     84.4447      0.0000   1309.4230      3.0013      0.8115
   244.0000     84.9626      0.0000   1295.0299      4.6297      0.8182
   244.2500     83.9913      0.0000   1280.9388      6.6739      0.8396
   244.5000     82.4513      0.0000   1274.9390      8.6677      0.9023
   244.7500     81.8915      0.0000   1280.9388     10.1666      1.0386
   245.0000     83.4459      0.0000   1295.0299     11.0645      1.2614
   245.2500     86.6587      0.0000   1309.4230     11.5608      1.5382
   245.5000     89.5145      0.0000   1319.0896     11.8862      1.7982
   245.7500     89.9686      0.0000   1323.7249     12.1466      1.9808
   246.0000     87.5771      0.0000   1325.2260     12.3718      2.0780
   246.2500     83.8185      0.0000   1324.8379     12.5932      2.1234
   246.5000     81.0541      0.0000   1321.8282     12.8351      2.1525
   246.7500     81.0551      0.0000   1313.2030     13.0725      2.1799
   247.0000     84.1773      0.0000   1295.3016     13.2506      2.2057
   247.2500     89.4369      0.0000   1268.6479     13.3546      2.2266
   247.5000     94.8653      0.0000   1242.5532     13.4438      2.2419
   247.7500     98.0445      0.0000   1231.4307     13.5967      2.2542
   248.0000     97.3794      0.0000   1242.4640     13.8329      2.2692
   248.2500     93.3833      0.0000   1268.1654     14.0987      2.2948
   248.5000     88.2751      0.0000   1293.2635     14.3334      2.3381
   248.7500     84.0983      0.0000   1306.3536     14.5392      2.4018
   249.0000     81.5983      0.0000   1303.3729     14.7761      2.4838
   249.2500     80.6873      0.0000   1284.3811     15.0855      2.5807
   249.5000     80.9986      0.0000   1251.5437     15.4369      2.6894
   249.7500     81.7862      0.0000   1209.0411     15.7697      2.8064
   250.0000     82.2459      0.0000   1161.1208     16.0802      2.9242
   250.2500     82.3977      0.0000   1110.1628     16.4416      3.0317
   250.5000     83.1158      0.0000   1058.2257     16.9353      3.1181
   250.7500     84.9487      0.0000   1008.7576     17.5717      3.1805
   251.0000     87.3046      0.0000    965.0413     18.2748      3.2265
   251.2500     89.0085      0.0000    930.9783     18.9321      3.2690
   251.5000     89.5216      0.0000    915.6187     19.4717      3.3142
   251.7500     89.6375      0.0000    928.5336     19.9013      3.3579
   252.0000     91.0697      0.0000    963.4149     20.2699      3.3928
   252.2500     94.9875      0.0000    994.6913     20.5868      3.4195
   252.5000    100.6633      0.0000   1003.0120     20.7938      3.4466
   252.7500    105.7718      0.0000   1001.5885     20.8265      3.4807
   253.0000    108.3079      0.0000   1023.9026     20.6914      3.5188
   253.2500    108.1116      0.0000   1082.7070     20.4678      3.5505
   253.5000    106.4552      0.0000   1150.7858     20.2361      3.5673
   253.7500    104.4931      0.0000   1184.9314     20.0201      3.5684
   254.0000    102.4448      0.0000   1162.8380     19.7948      3.5579
   254.2500    100.1111      0.0000   1099.2689     19.5374      3.5394
   254.5000     97.6441      0.0000   1035.0140     19.2628      3.5133
   254.7500     95.4061      0.0000   1009.6779     19.0109      3.4790
   255.0000     93.2934      0.0000   1036.5764     18.8001      3.4375
   255.2500     90.7033      0.0000   1096.8979     18.5978      3.3924
   255.5000     87.3019      0.0000   1154.9049     18.3495      3.3505
   255.7500     83.4678      0.0000   1181.6549     18.0453      3.3179
   256.0000     79.8803      0.0000   1170.1187     17.7536      3.2947
   256.2500     76.9530      0.0000   1132.1145     17.5827      3.2722
   256.5000     74.7914      0.0000   1084.1135     17.5994      3.2394
   256.7500     73.4380      0.0000   1038.6919     17.7763      3.1922
   257.0000     72.9410      0.0000   1005.0402     18.0187      3.1362
   257.2500     73.2009      0.0000    989.7341     18.2435      3.0817
   257.5000     73.8419      0.0000    997.1437     18.4224      3.0371
   257.7500     74.2939      0.0000   1031.0967     18.5457      3.0048
   258.0000     74.0565      0.0000   1089.9517     18.5726      2.9823
   258.2500     72.9284      0.0000   1158.1268     18.4484      2.9658
   258.5000     71.1119      0.0000   1211.0017     18.1632      2.9518
   258.7500     69.2145      0.0000   1233.5201     17.7720      2.9361
   259.0000     67.9852      0.0000   1231.8523     17.3537      2.9132
   259.2500     67.8357      0.0000   1225.1270     16.9544      2.8784
   259.5000     68.6742      0.0000   1227.3239     16.5662      2.8312
   259.7500     70.1936      0.0000   1238.1868     16.1520      2.7758
   260.0000     72.1379      0.0000   1247.9471     15.6868      2.7184
   260.2500     74.1708      0.0000   1244.5707     15.1744      2.6618
   260.5000     75.6622      0.0000   1216.0806     14.6364      2.6032
   260.7500     75.9556      0.0000   1154.2415     14.1010      2.5371
   261.0000     74.9988      0.0000   1063.9626     13.5996      2.4615
   261.2500     73.4741      0.0000    969.6298     13.1579      2.3803
   261.5000     72.0765      0.0000    906.1029     12.7817      2.3006
   261.7500     70.9149      0.0000    895.2014     12.4629      2.2285
   262.0000     69.8623      0.0000    925.8444     12.1982      2.1657
   262.2500     69.1108      0.0000    958.9345     11.9963      2.1105
   262.5000     68.8972      0.0000    959.1152     11.8629      2.0608
   262.7500     68.9473      0.0000    926.8254     11.7785      2.0159
   263.0000     68.8266      0.0000    898.3732     11.6936      1.9769
   263.2500     68.7363      0.0000    913.2679     11.5524      1.9439
   263.5000     69.3313      0.0000    980.1830     11.3270      1.9136
   263.7500     70.7129      0.0000   1068.9674     11.0285      1.8813
   264.0000     72.1219      0.0000   1130.8318     10.6880      1.8442
   264.2500     72.6689      0.0000   1129.4700     10.3256      1.8034
   264.5000     72.0938      0.0000   1062.0468      9.9360      1.7607
   264.7500     70.8392      0.0000    957.5095      9.4996      1.7176
   265.0000     69.5197      0.0000    855.5532      9.0049      1.6756
   265.2500     68.3166      0.0000    783.8401      8.4606      1.6361
   265.5000     66.9165      0.0000    751.0181      7.8902      1.5993
   265.7500     65.0758      0.0000    753.7473      7.3254      1.5636
   266.0000     63.1190      0.0000    781.6855      6.8058      1.5267
   266.2500     61.7186      0.0000    815.8754      6.3757      1.4870
   266.5000     61.2325      0.0000    834.1461      6.0680      1.4449
   266.7500     61.4431      0.0000    828.7659      5.8847      1.4018
