~Version Information
VERS.                      2.0: CWLS Log ASCII Standard - VERSION 2.0
WRAP.                       NO: One line per depth step
~Well Information Block
STRT.FT               742.0000: 
STOP.FT              2582.0000: 
STEP.FT                 0.2500: 
NULL.                -999.2500: 
COMP.          Petrogulf Corporation: COMPANY
WELL.            Montoya 7-12V: WELL
FLD.           Purgatorie River: FIELD
LOC.           728' FWL & 1764' FNL: LOCATION
CNTY.               Las Animas: COUNTY
SRVC.                         : SERVICE COMPANY
DATE.          Thu Feb 19 20:58:32 2004: LOG DATE
UWI.           05-071-07887-00: UNIQUE WELL ID
STAT.                 Colorado: STATE
~Curve Information Block
DEPT.FT            0 000 00 00: Depth
SP.mV                         : DIL Spontaneous Potential
RILD.Ohm-m                    : DIL Deep Resistivity
RILM.Ohm-m                    : DIL Medium Resistivity
RLL3.Ohm-m                    : DIL Shallow Resistivity
GR.GAPI                       : Gamma Ray
~Parameter Information Block
~A  Depth        SP         RILD        RILM        RLL3         GR     
# ...
  1358.0000   -160.9256      9.5458     10.2300     13.8673    146.1231
  1358.2500   -161.0573      9.4152      9.9624     13.2128    149.4119
  1358.5000   -161.2436      9.3095      9.6930     12.3088    152.0582
  1358.7500   -161.4469      9.2146      9.4453     11.3617    151.7194
  1359.0000   -161.6315      9.1158      9.2307     10.5382    149.1992
  1359.2500   -161.7729      9.0000      9.0508      9.9440    147.4694
  1359.5000   -161.8635      8.8578      8.8993      9.6347    146.0996
  1359.7500   -161.9117      8.6856      8.7646      9.6136    145.7795
  1360.0000   -161.9344      8.4869      8.6318      9.8124    145.0203
  1360.2500   -161.9493      8.2720      8.4884     10.0904    143.8374
  1360.5000   -161.9720      8.0556      8.3278     10.2866    140.8255
  1360.7500   -162.0143      7.8534      8.1504     10.3070    138.1079
  1361.0000   -162.0829      7.6786      7.9608     10.1783    133.6728
  1361.2500   -162.1777      7.5404      7.7646     10.0041    131.2097
  1361.5000   -162.2921      7.4436      7.5678      9.8555    129.4058
  1361.7500   -162.4161      7.3903      7.3776      9.7077    129.6405
  1362.0000   -162.5393      7.3806      7.2049      9.4826    131.7026
  1362.2500   -162.6527      7.4132      7.0648      9.1331    133.9502
  1362.5000   -162.7511      7.4847      6.9752      8.6803    138.3644
  1362.7500   -162.8357      7.5884      6.9546      8.2059    141.6164
  1363.0000   -162.9120      7.7144      7.0199      7.8471    145.7297
  1363.2500   -162.9813      7.8503      7.1846      7.8106    147.5176
  1363.5000   -163.0327      7.9842      7.4565      8.3949    149.4852
  1363.7500   -163.0423      8.1074      7.8344     10.0162    151.2733
  1364.0000   -162.9831      8.2168      8.3021     13.1844    155.8351
  1364.2500   -162.8352      8.3160      8.8229     18.2730    160.3318
  1364.5000   -162.5917      8.4135      9.3398     24.9757    168.9662
  1364.7500   -162.2590      8.5189      9.7870     31.7896    175.1501
  1365.0000   -161.8555      8.6382     10.1130     36.2996    182.0397
  1365.2500   -161.4117      8.7701     10.2992     36.5732    183.0967
  1365.5000   -160.9661      8.9058     10.3608     32.6374    178.4090
  1365.7500   -160.5577      9.0316     10.3291     26.5261    172.4460
  1366.0000   -160.2146      9.1328     10.2308     20.7781    162.8922
  1366.2500   -159.9478      9.1984     10.0795     16.8800    157.6152
  1366.5000   -159.7523      9.2232      9.8792     14.8962    151.9733
  1366.7500   -159.6144      9.2091      9.6348     14.0726    149.3348
  1367.0000   -159.5179      9.1642      9.3617     13.5586    145.9532
  1367.2500   -159.4470      9.1024      9.0868     12.8273    143.4517
  1367.5000   -159.3872      9.0406      8.8429     11.8119    138.5122
  1367.7500   -159.3268      8.9966      8.6602     10.7970    134.1981
  1368.0000   -159.2611      8.9858      8.5585     10.1381    126.7555
  1368.2500   -159.1948      9.0183      8.5461     10.0023    122.2875
  1368.5000   -159.1403      9.0978      8.6213     10.3039    119.0756
  1368.7500   -159.1145      9.2224      8.7776     10.8325    120.4471
  1369.0000   -159.1343      9.3868      9.0086     11.4563    127.6425
  1369.2500   -159.2142      9.5847      9.3116     12.2505    134.2735
  1369.5000   -159.3611      9.8091      9.6880     13.4466    142.5764
  1369.7500   -159.5709     10.0523     10.1393     15.2458    144.7880
  1370.0000   -159.8278     10.3060     10.6599     17.6717    142.3336
  1370.2500   -160.1090     10.5625     11.2295     20.5593    138.3192
  1370.5000   -160.3907     10.8161     11.8070     23.5833    132.7229
  1370.7500   -160.6553     11.0628     12.3329     26.2224    131.2480
  1371.0000   -160.8949     11.2987     12.7440     27.7773    133.5039
  1371.2500   -161.1133     11.5185     12.9939     27.6375    137.0166
  1371.5000   -161.3253     11.7153     13.0714     25.7081    142.3954
  1371.7500   -161.5561     11.8809     13.0007     22.5911    144.9559
  1372.0000   -161.8354     12.0066     12.8286     19.2586    147.3810
  1372.2500   -162.1885     12.0836     12.6053     16.4906    148.7631
  1372.5000   -162.6275     12.1045     12.3708     14.5796    151.4905
  1372.7500   -163.1474     12.0667     12.1498     13.4489    153.8650
  1373.0000   -163.7275     11.9762     11.9530     12.9057    157.5402
  1373.2500   -164.3356     11.8481     11.7818     12.7652    159.4118
  1373.5000   -164.9354     11.7026     11.6348     12.8458    160.9559
  1373.7500   -165.4945     11.5589     11.5131     12.9645    161.5734
  1374.0000   -165.9913     11.4292     11.4227     12.9969    162.8278
  1374.2500   -166.4181     11.3157     11.3724     12.9752    163.9321
  1374.5000   -166.7795     11.2135     11.3677     13.1614    165.2739
  1374.7500   -167.0880     11.1156     11.4032     14.0051    165.4870
  1375.0000   -167.3575     11.0205     11.4562     15.9030    164.1732
  1375.2500   -167.5956     10.9362     11.4875     18.8045    161.8951
  1375.5000   -167.7999     10.8788     11.4532     21.9501    156.2884
  1375.7500   -167.9601     10.8688     11.3274     24.0873    151.7957
  1376.0000   -168.0662     10.9255     11.1219     24.1675    146.5148
  1376.2500   -168.1151     11.0630     10.8880     22.0364    145.4291
  1376.5000   -168.1119     11.2868     10.6993     18.5533    147.8243
  1376.7500   -168.0632     11.5932     10.6285     15.0736    150.7605
  1377.0000   -167.9686     11.9692     10.7347     12.7960    153.6182
  1377.2500   -167.8147     12.3926     11.0597     12.4779    152.8789
  1377.5000   -167.5795     12.8327     11.6286     14.5114    147.2551
  1377.7500   -167.2456     13.2545     12.4471     18.9777    141.3575
  1378.0000   -166.8145     13.6277     13.4946     25.5258    131.3288
  1378.2500   -166.3133     13.9392     14.7157     33.3326    124.6724
  1378.5000   -165.7863     14.2005     16.0186     41.3098    115.3755
  1378.7500   -165.2746     14.4440     17.2837     48.3003    109.9901
  1379.0000   -164.7985     14.7112     18.3836     53.0802    104.1986
  1379.2500   -164.3561     15.0374     19.2115     54.5017    102.5305
  1379.5000   -163.9352     15.4413     19.7112     52.0360    103.6876
  1379.7500   -163.5255     15.9183     19.8947     46.2686    106.4754
  1380.0000   -163.1251     16.4379     19.8355     38.7527    112.3406
  1380.2500   -162.7397     16.9455     19.6353     31.3167    116.7059
  1380.5000   -162.3810     17.3706     19.3833     25.3944    123.4664
  1380.7500   -162.0629     17.6437     19.1285     21.7135    128.0692
  1381.0000   -161.7992     17.7208     18.8737     20.3015    134.5634
  1381.2500   -161.6001     17.5998     18.5887     20.6583    137.7998
  1381.5000   -161.4701     17.3215     18.2347     21.9712    139.5127
  1381.7500   -161.4062     16.9531     17.7910     23.3205    138.3789
  1382.0000   -161.4004     16.5686     17.2710     23.9239    134.9050
  1382.2500   -161.4441     16.2322     16.7202     23.4155    133.0881
  1382.5000   -161.5310     15.9888     16.2014     21.9680    133.5307
  1382.7500   -161.6560     15.8592     15.7782     20.1150    136.3505
  1383.0000   -161.8099     15.8376     15.5039     18.4334    143.1615
  1383.2500   -161.9780     15.8933     15.4145     17.3618    147.9806
  1383.5000   -162.1428     15.9763     15.5204     17.1850    153.0072
  1383.7500   -162.2898     16.0291     15.7991     18.0205    153.8557
  1384.0000   -162.4123     16.0035     16.1885     19.7555    150.8870
  1384.2500   -162.5110     15.8762     16.5891     22.0342    146.5275
  1384.5000   -162.5907     15.6537     16.8819     24.3706    138.3298
  1384.7500   -162.6559     15.3656     16.9624     26.3164    133.2672
  1385.0000   -162.7117     15.0507     16.7768     27.5341    128.2963
  1385.2500   -162.7659     14.7436     16.3381     27.7429    127.0789
  1385.5000   -162.8296     14.4649     15.7143     26.7101    128.1094
  1385.7500   -162.9152     14.2177     14.9989     24.4212    130.6155
