~Version Information
VERS.                      2.0: CWLS Log ASCII Standard - VERSION 2.0
WRAP.                       NO: One line per depth step
~Well Information Block
STRT.FT               840.0000: 
STOP.FT              2019.0000: 
STEP.FT                 0.2500: 
NULL.                -999.2500: 
COMP.          Petrogulf Corporation: COMPANY
WELL.           Lavedure 7-44R: WELL
FLD.           Purgatorie River: FIELD
LOC.           946' FSL & 521' FEL: LOCATION
PROV.                 Colorado: PROVINCE
CNTY.               Las Animas: COUNTRY
SRVC.                Patterson: SERVICE COMPANY
DATE.          Mon Sep 26 08:35:42 2005: LOG DATE
UWI.                          : UNIQUE WELL ID
~Curve Information Block
DEPT.FT            0 000 00 00: Depth
SP.mV                         : DIL Spontaneous Potential
RILD.Ohm-m                    : DIL Deep Resistivity
RILM.Ohm-m                    : DIL Medium Resistivity
RLL3.Ohm-m                    : DIL Shallow Resistivity
GR.GAPI                       : Gamma Ray
~Parameter Information Block
~A  Depth        SP         RILD        RILM        RLL3         GR     
# ...
  1148.0000    149.1970     11.3811     11.9565     17.3332    119.8619
  1148.2500    149.5640     11.6683     11.7929     15.0488    110.7041
  1148.5000    149.9141     11.9491     11.5575     12.6596    114.2544
  1148.7500    150.3683     12.1277     11.5987     11.7081    117.5935
  1149.0000    150.8260     12.3218     11.8297     11.8545    125.2843
  1149.2500    151.0712     12.5022     12.1152     13.0730    131.4900
  1149.5000    151.0719     12.7752     12.4194     15.5626    112.1454
  1149.7500    150.9165     12.9267     12.5082     17.8896    113.3584
  1150.0000    150.7352     13.0258     12.5310     17.0956    129.8022
  1150.2500    150.4395     12.9385     12.5455     14.4004    117.9805
  1150.5000    150.1048     13.0890     12.7392     12.3700    113.5155
  1150.7500    149.5874     13.2253     13.2091     13.3144    107.2486
  1151.0000    148.9776     13.0788     13.9666     15.3859    121.0610
  1151.2500    148.3884     13.1967     14.7695     17.5385    106.7867
  1151.5000    147.8591     13.2372     15.3434     20.5367    137.7061
  1151.7500    147.2850     13.2312     15.7557     22.7649    119.7010
  1152.0000    146.7611     13.1226     15.6714     23.1399    105.2427
  1152.2500    146.4747     13.0867     15.2921     21.5618    114.5570
  1152.5000    146.3521     13.0964     14.5082     19.0993     94.9115
  1152.7500    146.2890     12.8409     14.0476     16.7168     96.0249
  1153.0000    146.2759     12.6766     13.5017     14.2389    128.6598
  1153.2500    146.2928     12.4005     13.1482     13.8309    132.6772
  1153.5000    146.3593     12.1073     12.8668     13.3517    110.2743
  1153.7500    146.2320     11.7342     12.4611     13.5021    127.9229
  1154.0000    145.8978     11.2435     11.9975     13.7094    127.1017
  1154.2500    145.4692     10.9762     11.4210     13.6066    116.7187
  1154.5000    145.0380     10.6536     10.6583     13.1546    131.0161
  1154.7500    144.6204     10.3578     10.2930     12.5399    135.8840
  1155.0000    144.3023     10.0780      9.8199     11.4713    138.2606
  1155.2500    144.0410      9.8243      9.4123     11.4293    141.9156
  1155.5000    143.7958      9.8003      9.0365     10.7428    123.1866
  1155.7500    143.5732      9.7235      8.8392     10.5008    116.9763
  1156.0000    143.3710      9.6864      8.6484     10.4819    130.3377
  1156.2500    143.3083      9.6153      8.6989     10.2444    135.3721
  1156.5000    143.3459      9.6974      8.8179     10.4995    130.6484
  1156.7500    143.5028      9.6903      8.9944     11.5151    137.2036
  1157.0000    143.9015      9.7801      9.1420     13.5809    121.6817
  1157.2500    144.3967     10.1174      9.3089     14.1085    114.8784
  1157.5000    144.9540     10.3883      9.4468     13.5176    111.0709
  1157.7500    145.4476     10.6108      9.8097     13.0159    108.1740
  1158.0000    145.9760     10.9769     10.2478     13.4825    112.8012
  1158.2500    146.4459     11.3486     10.8607     15.6267    110.7583
  1158.5000    146.6764     12.0116     11.6044     17.4885    134.7807
  1158.7500    146.7447     12.6394     12.6733     19.6073    140.3822
  1159.0000    146.8213     13.2054     13.6004     22.5488    110.6499
  1159.2500    146.8824     13.7253     14.2721     25.8415     93.8696
  1159.5000    146.8899     14.4398     15.2992     27.4477     94.1805
  1159.7500    146.7764     14.9872     16.3169     27.3866    103.2009
  1160.0000    146.6450     15.4594     17.3614     28.2479     71.4742
  1160.2500    146.5358     16.2244     17.9557     31.3662     79.7590
  1160.5000    146.3311     16.8490     18.2683     33.7915    109.0259
  1160.7500    146.0780     17.5984     19.0829     29.2340    103.2341
  1161.0000    145.9251     18.5652     19.9585     24.3223    102.7417
  1161.2500    145.7825     19.0926     20.3469     23.4132     86.6964
  1161.5000    145.6733     20.0900     21.4527     24.3770    108.2375
  1161.7500    145.6733     21.0041     22.5553     24.9812    115.8115
  1162.0000    145.7825     22.0283     24.0387     25.3096    108.7681
  1162.2500    145.9407     22.5570     26.3958     30.8371    115.8322
  1162.5000    146.1932     23.5476     28.5138     53.9470    122.6284
  1162.7500    146.3311     24.0914     30.9393    105.3288    117.5210
  1163.0000    146.3854     25.2582     32.7198    134.5738    121.0167
  1163.2500    146.2870     25.8312     33.7545     97.3997    120.6231
  1163.5000    146.0041     27.0781     34.8975     60.0281     72.7890
  1163.7500    145.7289     28.5944     37.6919     53.1415     71.2655
  1164.0000    145.4293     29.8366     41.2691     67.5253     57.8772
  1164.2500    145.1852     30.2960     43.9628     87.0248     61.9365
  1164.5000    145.0480     31.6309     48.2058    102.1028     76.7407
  1164.7500    145.1237     31.7112     49.1277    112.6382     78.3303
  1165.0000    145.1952     30.4050     53.6880    140.6077     86.4757
  1165.2500    145.3411     29.6473     50.9101    175.2798     76.2735
  1165.5000    145.5157     28.5348     46.6017    168.8529     69.3283
  1165.7500    145.7988     27.4973     42.0112    136.3198     79.1816
  1166.0000    146.3005     26.8795     35.3281     94.4612     53.5254
  1166.2500    146.8213     26.0975     30.5677     55.8977     58.7842
  1166.5000    147.3248     25.2047     27.2470     29.9760     82.1512
  1166.7500    147.8012     25.0416     24.5002     21.8998     75.0010
  1167.0000    148.2043     24.6447     22.4663     20.2994     93.9067
  1167.2500    148.6405     24.2626     22.3059     19.8026    107.8018
  1167.5000    148.9652     24.6463     22.4885     20.1355    107.0808
  1167.7500    149.1258     24.1476     23.2063     20.7713    120.6218
  1168.0000    149.1718     22.7673     24.1603     20.9633    138.9645
  1168.2500    149.2432     21.2932     24.8152     23.8683    118.2793
  1168.5000    149.3508     19.6344     26.5606     34.4196    126.9179
  1168.7500    149.5489     18.0771     27.7319     61.6634    135.3559
  1169.0000    149.8759     16.8027     27.4369    103.5844    122.1882
  1169.2500    150.2620     15.9215     25.6553    136.1811    101.4667
  1169.5000    150.7659     15.0737     22.1879    134.0118     89.0651
  1169.7500    151.3228     14.6674     18.6059     95.6680     88.3934
  1170.0000    151.8573     14.1987     15.2948     49.8909     75.6759
  1170.2500    152.4504     13.9322     13.4233     19.9395     65.7672
  1170.5000    153.0838     13.5905     12.1354     10.8164     62.4741
  1170.7500    153.6449     13.3172     11.5250      9.5889     76.7087
  1171.0000    154.1965     12.8161     11.0045      9.8260     93.7025
  1171.2500    154.7039     12.3207     10.7387     10.7521    111.2838
  1171.5000    155.1891     11.8783     10.6593     11.6566     96.1926
  1171.7500    155.6414     11.2694     10.4451     12.5132    101.1152
  1172.0000    155.9565     10.6481     10.1320     12.5167    122.5174
  1172.2500    156.1410     10.2235      9.7686     12.0717    115.8236
  1172.5000    156.1517      9.9911      9.5966     12.1733    106.5184
  1172.7500    156.0622      9.9358      9.5045     12.2395    108.9447
  1173.0000    155.8954      9.8864      9.4389     12.0144    128.7196
  1173.2500    155.6479      9.8984      9.4950     11.9760    115.8071
  1173.5000    155.3922     10.0085      9.4956     12.2064    118.2775
  1173.7500    155.1905     10.1571      9.6661     12.2812    138.1635
  1174.0000    154.9296     10.1511      9.7961     12.3250    135.7448
  1174.2500    154.6994     10.4791      9.8431     12.3718    138.7101
  1174.5000    154.5585     10.6388     10.0065     12.6893    129.8237
  1174.7500    154.4310     10.8135     10.2295     12.7452    142.8204
  1175.0000    154.3780     11.0816     10.4757     12.2637    140.9090
  1175.2500    154.4179     11.3917     10.7361     11.9866    138.1364
  1175.5000    154.5026     11.7697     11.1312     12.1228    145.1762
  1175.7500    154.5807     11.7586     11.7877     12.6380    147.6129
