~Version Information
 VERS.                                  2.0 : CWLS LAS VERSION
 WRAP.                                   NO : WRAPING MODE
 SWARE .                 MController 2.5.0J : SOFTWARE VERSION
~Well Information
 WELL.                    Rising Star 22-11 : WELL
 COMP.    Pioneer Natural Resources USA Inc : COMPANY
 FLD.                      Purgatoire River : FIELD
 LOC.                SE/NW Sec 11 T33S R65W : LOCATION
 DATE.                              4/08/05 : DATE(S) LOGGED
 SRVC.       Blanco Geological Services LLC : SERVICE COMPANY
 STAT.                                   CO : STATE
 CNTY.                           Las Animas : COUNTY
 CTRY.                                  USA : COUNTRY
 API.                       05-071-08354-00 : API NUMBER
 STRT.FT                             562.00 : START DEPTH
 STOP.FT                            1000.00 : STOP DEPTH
 STEP.FT                               1.00 : DEPTH INCREMENT
 NULL.                                -9999 : NULL VALUE
~Curve information
 DEPTH.FT                                   :
 ROP.MIN/FT                                 :
 GAS.UNITS                                  :
~ASCII Log data
# ...
       762.0         0.20       1059.5 
       763.0         0.23       1050.0 
       764.0         0.20       1013.0 
       765.0         0.20        972.1 
       766.0         0.20        943.3 
       767.0         0.20        924.4 
       768.0         0.20        908.0 
       769.0         0.20        896.9 
       770.0         0.20        888.0 
       771.0         0.17        882.1 
       772.0         0.23        878.9 
       773.0         0.20        911.3 
       774.0         0.38        929.3 
       775.0         0.37       1177.2 
       776.0         1.17       2465.9 
       777.0         0.20       2123.7 
       778.0         0.17       1882.2 
       779.0         0.20       1706.6 
       780.0         0.17       1546.3 
       781.0         0.20       1471.7 
       782.0         0.20       1423.3 
       783.0         0.17       1386.6 
       784.0         0.22       1345.4 
       785.0         0.20       1298.6 
       786.0         0.17       1261.6 
       787.0         0.20       1239.1 
       788.0         0.23       1210.3 
       789.0         0.20       1183.8 
       790.0         0.17       1164.2 
       791.0         0.23       1151.7 
       792.0         0.20       1142.2 
       793.0         0.17       1136.3 
       794.0         0.20       1131.1 
       795.0         0.20       1125.9 
       796.0         0.23       1115.1 
       797.0         0.17       1101.3 
       798.0         0.20       1092.8 
       799.0         0.17       1084.7 
       800.0         0.22       1080.4 
       801.0         0.27       1075.8 
       802.0         0.27       1066.0 
       803.0         0.33       1063.1 
       804.0         0.40       1051.0 
       805.0         0.23       1344.7 
       806.0         1.13       2100.1 
       807.0         0.27       1598.3 
       808.0         0.25       1399.4 
       809.0         0.23       1288.8 
       810.0         0.30       1203.7 
       811.0         0.20       1140.6 
       812.0         0.20       1111.8 
       813.0         0.27       1101.7 
       814.0         0.27       1063.4 
       815.0         0.17       1051.6 
       816.0         0.23       1043.4 
       817.0         0.23       1032.3 
       818.0         0.13       1015.0 
       819.0         0.20       1007.1 
       820.0         0.20       1017.9 
       821.0         0.27       1022.8 
       822.0         0.20       1023.2 
       823.0         0.28       1014.3 
       824.0         0.17       1005.2 
       825.0         0.23        994.7 
       826.0         0.23        985.2 
       827.0         0.20        980.3 
       828.0         0.20        981.6 
       829.0         0.20        981.3 
       830.0         0.20        979.3 
       831.0         0.17        981.6 
       832.0         0.20        982.3 
       833.0         0.13        980.6 
       834.0         0.27        978.7 
       835.0         1.48       1960.4 
       836.0         0.30       1878.3 
       837.0         0.20       1642.4 
       838.0         0.23       1462.8 
       839.0         0.20       1298.6 
       840.0         0.17       1201.1 
       841.0         0.20       1140.9 
       842.0         0.17       1091.2 
       843.0         0.20       1056.5 
       844.0         0.17       1007.1 
       845.0         0.17        953.1 
       846.0         0.17        901.8 
       847.0         0.20        860.9 
       848.0         0.20        824.2 
       849.0         0.17        789.9 
       850.0         0.18        766.3 
       851.0         0.17        749.3 
       852.0         0.20        733.3 
       853.0         0.17        711.7 
       854.0         0.20        698.9 
       855.0         0.20        689.8 
       856.0         0.17        681.0 
       857.0         0.17        675.1 
       858.0         0.17        670.8 
       859.0         0.17        664.9 
       860.0         0.17        660.3 
       861.0         0.20        655.4 
       862.0         0.20        649.9 
       863.0         0.23        644.0 
       864.0         0.33        640.4 
       865.0         0.27        637.1 
       866.0         1.02        634.8 
       867.0         0.33        622.4 
       868.0         0.23        629.9 
       869.0         0.27        641.7 
       870.0         0.17        648.2 
       871.0         0.17        651.8 
       872.0         0.17        656.7 
       873.0         0.17        657.4 
       874.0         0.17        658.1 
       875.0         0.20        654.8 
       876.0         0.17        653.1 
       877.0         0.17        653.5 
       878.0         0.17        652.8 
       879.0         0.22        652.5 
       880.0         0.20        647.9 
       881.0         0.20        645.9 
       882.0         0.20        645.3 
       883.0         0.20        644.3 
       884.0         0.20        643.0 
       885.0         0.20        641.4 
       886.0         0.20        640.1 
       887.0         0.20        637.8 
       888.0         0.20        636.8 
       889.0         0.17        633.5 
       890.0         0.20        632.5 
       891.0         0.20        630.9 
       892.0         0.17        632.2 
       893.0         0.20        634.2 
       894.0         0.17        633.5 
       895.0         0.23        631.6 
       896.0         0.88        632.5 
       897.0         0.20        633.8 
       898.0         0.20        634.5 
       899.0         0.33        635.8 
       900.0         0.30        633.5 
       901.0         0.23        630.2 
       902.0         0.23        633.5 
       903.0         0.20        633.5 
       904.0         0.20        633.5 
       905.0         0.20        633.5 
       906.0         0.17        630.2 
       907.0         0.27        628.0 
       908.0         0.22        627.0 
       909.0         0.17        625.0 
       910.0         0.17        623.7 
       911.0         0.17        623.7 
       912.0         0.17        624.4 
       913.0         0.20        622.4 
       914.0         0.30        620.4 
       915.0         0.27        620.4 
       916.0         0.17        619.8 
       917.0         0.17        620.4 
       918.0         0.17        620.8 
       919.0         0.17        621.1 
       920.0         0.17        621.1 
       921.0         0.20        622.4 
       922.0         0.20        621.7 
       923.0         0.17        620.8 
       924.0         0.17        620.8 
       925.0         0.22        622.4 
       926.0         2.33        630.6 
       927.0         0.27        631.2 
       928.0         0.23        627.0 
       929.0         0.27        628.0 
       930.0         0.35        629.9 
       931.0         0.23        631.2 
       932.0         0.23        633.5 
       933.0         0.27        633.5 
       934.0         0.20        634.2 
       935.0         0.23        634.5 
       936.0         0.17        633.8 
       937.0         0.23        634.2 
       938.0         0.17        635.2 
       939.0         0.20        635.2 
       940.0         0.17        638.4 
       941.0         0.20        640.7 
       942.0         0.17        640.4 
       943.0         0.17        640.7 
       944.0         0.17        643.3 
       945.0         0.17        645.3 
       946.0         0.13        644.6 
       947.0         0.18        643.7 
       948.0         0.17        643.3 
       949.0         0.17        644.3 
       950.0         0.13        646.6 
       951.0         0.27        647.6 
       952.0         0.27        647.9 
       953.0         0.27        646.9 
       954.0         0.17        646.9 
       955.0         0.40        648.6 
       956.0         1.48        651.2 
       957.0         0.30        650.9 
       958.0         0.27        649.9 
       959.0         0.23        650.5 
       960.0         0.20        648.9 
       961.0         0.23        649.5 
