~Version Information
VERS.                      2.0: CWLS Log ASCII Standard - VERSION 2.0
WRAP.                       NO: One line per depth step
~Well Information Block
STRT.FT                -7.5000: 
STOP.FT              2304.7500: 
STEP.FT                 0.2500: 
NULL.                -999.2500: 
COMP.          Pioneer Natural Resources: COMPANY
WELL.          Foothills 12-36: WELL
FLD.           Purgatorie River: FIELD
LOC.           2450' FNL & 201' FWL--: LOCATION
PROV.                       CO: PROVINCE
CNTY.               Las Animas: COUNTRY
SRVC.          Patterson Wireline: SERVICE COMPANY
DATE.          Tue Apr 26 11:10:08 2005: LOG DATE
UWI.           05 071 08339 00: UNIQUE WELL ID
~Curve Information Block
DEPT.FT            0 000 00 00: Depth
CCL.                          : Casing Collar Locator
TT3.usec                      : CBL 3' Travel Time
AMP3.mV                       : CBL 3' Amplitude
GR.GAPI                       : Gamma Ray
~Parameter Information Block
~A  Depth       CCL         TT3         AMP3         GR     
    -7.5000   -999.2500   -999.2500   -999.2500     90.4561
    -7.2500   -999.2500   -999.2500   -999.2500     90.8130
    -7.0000   -999.2500   -999.2500   -999.2500     93.2954
    -6.7500   -999.2500   -999.2500   -999.2500     96.8979
    -6.5000   -999.2500   -999.2500   -999.2500     99.8063
    -6.2500   -999.2500   -999.2500   -999.2500    100.5367
    -6.0000   -999.2500   -999.2500   -999.2500     98.3968
    -5.7500   -999.2500   -999.2500   -999.2500     93.5988
    -5.5000   -999.2500   -999.2500   -999.2500     87.6258
    -5.2500   -999.2500   -999.2500   -999.2500     83.0240
    -5.0000   -999.2500   -999.2500   -999.2500     81.9320
    -4.7500   -999.2500   -999.2500   -999.2500     84.4481
    -4.5000   -999.2500   -999.2500   -999.2500     88.3556
    -4.2500   -999.2500   -999.2500   -999.2500     90.5976
    -4.0000   -999.2500   -999.2500   -999.2500     89.6017
    -3.7500   -999.2500   -999.2500   -999.2500     86.4171
    -3.5000   -999.2500   -999.2500   -999.2500     83.3217
    -3.2500   -999.2500   -999.2500   -999.2500     81.5948
    -3.0000   -999.2500   -999.2500   -999.2500     81.0800
    -2.7500   -999.2500   -999.2500   -999.2500     81.1868
    -2.5000   -999.2500   1167.0000      0.6789     81.4539
    -2.2500   -999.2500   1167.0000      0.6717     81.5348
    -2.0000   -999.2500   1167.0000      0.6675     81.3152
    -1.7500   -999.2500   1167.0000      0.6657     80.9629
    -1.5000   -999.2500   1167.0000      0.6634     80.5851
    -1.2500   -999.2500   1167.0000      0.6586     79.8008
    -1.0000   -999.2500   1167.0000      0.6511     77.6286
    -0.7500   -999.2500   1167.0000      0.6422     72.8909
    -0.5000   -999.2500   1167.0000      0.6372     65.0520
    -0.2500   -999.2500   1167.0000      0.6447     54.8759
     0.0000   -999.2500   1167.0000      0.6673     44.1927
     0.2500   -999.2500   1167.0000      0.6956     34.8629
     0.5000   -999.2500   1167.0000      0.7210     23.2030
     0.7500   -999.2500   1167.0000      0.7170     20.8820
     1.0000   -999.2500   1167.0000      0.7093     21.0577
     1.2500   -999.2500   1167.0000      0.7009     23.6203
     1.5000   -999.2500   1167.0000      0.6946     27.6746
     1.7500   -999.2500   1167.0000      0.6936     31.8760
     2.0000   -999.2500   1167.0000      0.6987     35.2845
     2.2500   -999.2500   1167.0000      0.7067     37.8937
     2.5000   -999.2500   1167.0000      0.7137     40.4733
     2.7500      0.0000   1167.0000      0.7175     43.8755
     3.0000      0.0000   1167.0000      0.7167     48.3248
     3.2500      0.0000   1167.0000      0.7106     53.2313
     3.5000      0.0000   1167.0000      0.7030     57.5236
     3.7500      0.0000   1167.0000      0.7018     60.1029
     4.0000      0.0000   1167.0000      0.7123     60.2161
     4.2500      0.0000   1167.0000      0.7309     57.8393
     4.5000      0.0000   1167.0000      0.7486     53.9057
     4.7500      0.0000   1167.0000      0.7599     49.8931
     5.0000      2.0000   1167.0000      0.7649     46.9037
     5.2500      0.0000   1167.0000      0.7671     45.1782
     5.5000      0.0000   1167.0000      0.7685     44.3482
     5.7500      0.0000   1167.0000      0.7683     43.8090
     6.0000      0.0000   1167.0000      0.7639     42.9950
     6.2500      0.0000   1167.0000      0.7538     41.7701
     6.5000      0.0000   1167.0000      0.7415     40.5605
     6.7500      0.0000   1167.0000      0.7336     39.8154
     7.0000      0.0000   1167.0000      0.7352     39.5394
     7.2500      0.0000   1167.0000      0.7452     39.5591
     7.5000      0.0000   1167.0000      0.7580     39.8690
     7.7500      0.0000   1167.0000      0.7667     40.4599
     8.0000      0.0000   1167.0000      0.7661     41.2315
     8.2500      0.0000   1167.0000      0.7544     42.3907
     8.5000      0.0000   1167.0000      0.7363     44.5608
     8.7500      0.0000   1167.0000      0.7207     48.2468
     9.0000      0.0000   1166.9398      0.7193     53.4300
     9.2500      0.0000   1166.5471      0.7505     59.6865
     9.5000      0.0000   1164.5526      0.8859     66.3309
     9.7500      0.0000   1156.6628      1.3702     72.4504
    10.0000      0.0000   1132.3555      2.8116     77.2415
    10.2500      0.0000   1074.0280      6.2348     80.4874
    10.5000      0.0000    965.0171     12.6223     82.5606
    10.7500      0.0000    806.3290     21.9426     83.8918
    11.0000      0.0000    626.3942     32.5736     84.5761
    11.2500      0.0000    467.4616     42.0725     84.6798
    11.5000      0.0000    358.0929     48.7626     84.8238
    11.7500      0.0000    299.4427     52.5342     86.0802
    12.0000      0.0000    274.9157     54.3043     88.9912
    12.2500      0.0000    266.8978     55.0734     92.8074
    12.5000      0.0000    264.8261     55.4656     95.9552
    12.7500      0.0000    264.3787     55.7459     97.2070
    13.0000      0.0000    264.2786     55.9776     96.3549
    13.2500      0.0000    264.2556     56.1559     94.1481
    13.5000      0.0000    264.2474     56.2912     91.9397
    13.7500      0.0000    264.2421     56.4207     91.0673
    14.0000      0.0000    264.2278     56.5738     92.2060
    14.2500      0.0000    264.2070     56.7368     95.3874
    14.5000      0.0000    264.1984     56.8560    100.4370
    14.7500      0.0000    264.2203     56.8761    106.7347
    15.0000      0.0000    264.2729     56.7783    112.6718
    15.2500      0.0000    264.3378     56.5867    116.2527
    15.5000      0.0000    264.3939     56.3401    116.5973
    15.7500      0.0000    264.4312     56.0676    114.5764
    16.0000      0.0000    264.4523     55.7868    111.8757
    16.2500      0.0000    264.4669     55.5025    109.5763
    16.5000      0.0000    264.4868     55.1891    107.5321
    16.7500      0.0000    264.5252     54.7845    104.9565
    17.0000      0.0000    264.5948     54.2282    101.5782
    17.2500      0.0000    264.7036     53.5178     98.0164
    17.5000      0.0000    264.8464     52.7236     94.8675
    17.7500      0.0000    265.0043     51.9493     91.8354
    18.0000      0.0000    265.1549     51.2750     88.2174
    18.2500      0.0000    265.2846     50.7179     83.8819
    18.5000      0.0000    265.3950     50.2278     79.4495
    18.7500      0.0000    265.4954     49.7320     75.9478
    19.0000      0.0000    265.5862     49.2214     74.5196
    19.2500      0.0000    265.6501     48.7937     75.9038
    19.5000      0.0000    265.6748     48.5572     79.7562
    19.7500      0.0000    265.7199     48.4631     84.3727
    20.0000      0.0000    266.0185     48.2660     87.0673
    20.2500      0.0000    267.0940     47.6465     85.4248
    20.5000      0.0000    269.7655     46.3313     79.0775
    20.7500      0.0000    274.8397     44.1377     70.3280
    21.0000      0.0000    282.5004     41.0363     62.6405
    21.2500      0.0000    292.5323     37.2377     58.5962
    21.5000      0.0000    306.4644     33.1454     59.0798
    21.7500      0.0000    331.1422     29.1465     63.2279
    22.0000      0.0000    379.5628     25.4454     68.4955
    22.2500      0.0000    463.7747     22.0852     71.8199
    22.5000      0.0000    581.4717     19.0554     71.7647
    22.7500      0.0000    709.3879     16.3499     69.2048
    23.0000      0.0000    814.8547     13.9782     65.7101
    23.2500      0.0000    877.0203     11.9736     62.0515
    23.5000      0.0000    897.3168     10.3809     58.5315
    23.7500      0.0000    892.0607      9.2111     55.7560
    24.0000      0.0000    878.2554      8.4126     54.3024
    24.2500      0.0000    865.3896      7.8946     53.8965
    24.5000      0.0000    855.9385      7.5713     53.4734
    24.7500      0.0000    849.3659      7.3799     52.2497
    25.0000      0.0000    844.5305      7.2748     50.6171
    25.2500      0.0000    840.0229      7.2210     49.8133
    25.5000      0.0000    834.3340      7.1965     50.7168
    25.7500      0.0000    826.8298      7.1925     53.1022
