~Version Information
VERS.                      2.0: CWLS Log ASCII Standard - VERSION 2.0
WRAP.                       NO: One line per depth step
~Well Information Block
STRT.FT                 0.0000: 
STOP.FT              2159.0000: 
STEP.FT                 0.2500: 
NULL.                -999.2500: 
COMP.          Petrogulf Corporation: COMPANY
WELL.               Furu 6-23R: WELL
FLD.           Purgatoire River: FIELD
LOC.           2211' FSL & 1780' FWL: LOCATION
CNTY.               Las Animas: COUNTY
SRVC.                         : SERVICE COMPANY
DATE.          Fri Jul 14 16:00:32 2006: LOG DATE
UWI.           05 071 08266 00: UNIQUE WELL ID
STAT.                       CO: STATE
~Curve Information Block
DEPT.FT            0 000 00 00: Depth
GR.GAPI                       : Gamma Ray
CCL.                          : Casing Collar Locator
TT3.usec                      : CBL 3' Travel Time
AMP3.mV                       : CBL 3' Amplitude
~Parameter Information Block
~A  Depth        GR         CCL         TT3         AMP3    
# ...
  1976.5000     80.8619      0.0000    737.4913      3.7471
  1976.7500     82.3005      0.0000    735.1371      3.7139
  1977.0000     84.0244      0.0000    739.3821      3.6961
  1977.2500     87.0506      0.0000    750.1346      3.6826
  1977.5000     91.4208      0.0000    761.2096      3.6665
  1977.7500     96.0135      0.0000    765.0258      3.6485
  1978.0000     99.9187      0.0000    759.7229      3.6361
  1978.2500    103.2889      0.0000    752.8369      3.6388
  1978.5000    106.4296      0.0000    756.1057      3.6636
  1978.7500    108.8028      0.0000    773.5302      3.7116
  1979.0000    109.5300      0.0000    794.0698      3.7785
  1979.2500    108.3020      0.0000    798.7356      3.8567
  1979.5000    105.1859      0.0000    776.5570      3.9386
  1979.7500    100.0791      0.0000    732.1260      4.0178
  1980.0000     93.1133      0.0000    677.2336      4.0890
  1980.2500     85.3544      0.0000    619.2797      4.1475
  1980.5000     78.4117      0.0000    560.8709      4.1882
  1980.7500     73.3514      0.0000    507.6178      4.2060
  1981.0000     70.3490      0.0000    470.2218      4.1977
  1981.2500     69.3290      0.0000    456.4995      4.1627
  1981.5000     70.6166      0.0000    464.2144      4.1046
  1981.7500     74.8230      0.0000    485.2776      4.0303
  1982.0000     82.2254      0.0000    516.3746      3.9490
  1982.2500     92.3633      0.0000    561.7352      3.8693
  1982.5000    104.0729      0.0000    624.2032      3.7978
  1982.7500    115.6933      0.0000    696.2451      3.7383
  1983.0000    125.5790      0.0000    760.7781      3.6922
  1983.2500    132.8707      0.0000    800.3866      3.6608
  1983.5000    137.5777      0.0000    808.1090      3.6477
  1983.7500    139.8135      0.0000    791.9172      3.6600
  1984.0000    139.6178      0.0000    768.6702      3.7082
  1984.2500    137.8715      0.0000    752.6915      3.8023
  1984.5000    136.6110      0.0000    748.6331      3.9491
  1984.7500    137.6281      0.0000    752.7283      4.1494
  1985.0000    140.8114      0.0000    758.9694      4.3997
  1985.2500    144.4265      0.0000    763.8035      4.6952
  1985.5000    147.3049      0.0000    765.9549      5.0324
  1985.7500    150.3597      0.0000    764.1236      5.4089
  1986.0000    155.3113      0.0000    757.0279      5.8198
  1986.2500    161.8452      0.0000    745.6513      6.2548
  1986.5000    166.8610      0.0000    733.9015      6.6970
  1986.7500    166.9687      0.0000    726.1395      7.1245
  1987.0000    161.4008      0.0000    724.2324      7.5151
  1987.2500    152.4478      0.0000    727.0991      7.8500
  1987.5000    143.6823      0.0000    732.1584      8.1171
  1987.7500    137.6990      0.0000    736.4937      8.3130
  1988.0000    134.5952      0.0000    737.4340      8.4430
  1988.2500    132.3161      0.0000    733.5471      8.5176
  1988.5000    129.0575      0.0000    725.7446      8.5465
  1988.7500    125.3059      0.0000    716.8701      8.5302
  1989.0000    122.9448      0.0000    709.7365      8.4545
  1989.2500    122.8346      0.0000    705.6177      8.2930
  1989.5000    124.1677      0.0000    704.5495      8.0173
  1989.7500    125.8964      0.0000    706.4501      7.6112
  1990.0000    127.9953      0.0000    711.6306      7.0811
  1990.2500    131.4510      0.0000    720.9872      6.4582
  1990.5000    137.3386      0.0000    736.7477      5.7901
  1990.7500    145.6927      0.0000    762.6498      5.1292
  1991.0000    155.1659      0.0000    800.8886      4.5195
  1991.2500    163.5242      0.0000    846.8431      3.9886
  1991.5000    168.0036      0.0000    887.9852      3.5457
  1991.7500    165.9032      0.0000    910.8477      3.1848
  1992.0000    156.5638      0.0000    910.0790      2.8921
  1992.2500    142.8878      0.0000    890.0930      2.6531
  1992.5000    129.6827      0.0000    859.2179      2.4576
  1992.7500    120.3196      0.0000    824.7059      2.3011
  1993.0000    115.3759      0.0000    792.3124      2.1824
  1993.2500    113.7878      0.0000    767.0169      2.1003
  1993.5000    114.1727      0.0000    752.9959      2.0512
  1993.7500    115.0569      0.0000    753.2296      2.0287
  1994.0000    114.7697      0.0000    768.0057      2.0255
  1994.2500    111.9735      0.0000    792.5252      2.0344
  1994.5000    106.4402      0.0000    816.6714      2.0497
  1994.7500     99.0862      0.0000    829.4976      2.0674
  1995.0000     91.1683      0.0000    826.4082      2.0841
  1995.2500     83.4540      0.0000    813.4318      2.0971
  1995.5000     76.0057      0.0000    803.7682      2.1034
  1995.7500     68.7612      0.0000    807.6587      2.1002
  1996.0000     62.4412      0.0000    823.6722      2.0846
  1996.2500     58.5571      0.0000    839.6641      2.0551
  1996.5000     58.0358      0.0000    843.1541      2.0123
  1996.7500     60.0138      0.0000    831.5077      1.9594
  1997.0000     62.5319      0.0000    812.3051      1.9021
  1997.2500     64.3247      0.0000    794.7903      1.8467
  1997.5000     65.4382      0.0000    782.1180      1.7986
  1997.7500     66.2290      0.0000    771.2795      1.7602
  1998.0000     66.4917      0.0000    758.7174      1.7309
  1998.2500     65.9619      0.0000    744.6943      1.7076
  1998.5000     65.1700      0.0000    732.4781      1.6872
  1998.7500     65.0632      0.0000    724.6985      1.6679
  1999.0000     65.6904      0.0000    721.3643      1.6503
  1999.2500     65.7091      0.0000    720.7319      1.6367
  1999.5000     63.5175      0.0000    721.1129      1.6296
  1999.7500     58.8103      0.0000    722.0561      1.6303
  2000.0000     52.8985      0.0000    724.5872      1.6391
  2000.2500     47.6685      0.0000    730.3337      1.6553
  2000.5000     44.4593      0.0000    739.8317      1.6785
  2000.7500     43.6478      0.0000    751.6201      1.7090
  2001.0000     44.6664      0.0000    763.1931      1.7478
  2001.2500     46.2273      0.0000    772.5340      1.7959
  2001.5000     46.9703      0.0000    778.5164      1.8534
  2001.7500     46.3950      0.0000    780.7978      1.9191
  2002.0000     45.1703      0.0000    780.4358      1.9902
  2002.2500     44.3257      0.0000    779.9409      2.0632
  2002.5000     44.3493      0.0000    781.2341      2.1346
  2002.7500     45.3146      0.0000    783.6483      2.2025
  2003.0000     47.4705      0.0000    785.1386      2.2673
  2003.2500     51.1130      0.0000    785.0683      2.3312
  2003.5000     55.9268      0.0000    784.2033      2.3973
  2003.7500     60.9939      0.0000    782.1834      2.4672
  2004.0000     65.5856      0.0000    776.4160      2.5397
  2004.2500     69.6300      0.0000    763.3186      2.6108
  2004.5000     73.3915      0.0000    739.6385      2.6756
  2004.7500     76.9547      0.0000    703.4590      2.7306
  2005.0000     80.0084      0.0000    656.9450      2.7753
  2005.2500     81.8096      0.0000    610.1037      2.8124
  2005.5000     81.3083      0.0000    579.4639      2.8449
  2005.7500     77.7732      0.0000    577.9438      2.8738
  2006.0000     71.7682      0.0000    604.2667      2.8973
  2006.2500     65.4729      0.0000    644.4808      2.9124
  2006.5000     61.7511     -1.0309    683.7463      2.9181
  2006.7500     62.5672      0.0000    714.2758      2.9171
  2007.0000     67.8279      0.0000    734.0503      2.9151
  2007.2500     75.3548      0.0000    743.6492      2.9168
  2007.5000     82.0286      0.0000    745.6158      2.9216
  2007.7500     85.4798      0.0000    743.1141      2.9222
  2008.0000     85.1436      0.0000    737.1603      2.9074
  2008.2500     81.8404      0.0000    726.8269      2.8685
  2008.5000     76.5366      0.0000    712.4778      2.8054
  2008.7500     69.7961      0.0000    696.6616      2.7274
  2009.0000     62.3187      0.0000    681.0098      2.6503
  2009.2500     55.4272      0.0000    664.2779      2.5901
  2009.5000     50.5567      0.0000    645.4921      2.5583
  2009.7500     48.2385      0.0000    628.6021      2.5589
