~Version Information
VERS.                      2.0: CWLS Log ASCII Standard - VERSION 2.0
WRAP.                       NO: One line per depth step
~Well Information Block
STRT.FT               583.0000: 
STOP.FT              1701.5000: 
STEP.FT                 0.2500: 
NULL.                -999.2500: 
COMP.          Pioneer Natural Resources: COMPANY
WELL.          Scott Canyon 11-18 Tr: WELL
FLD.           Purgatoire River: FIELD
LOC.           411' FNL & 580' FWL: LOCATION
PROV.                 Colorado: PROVINCE
CNTY.               Las Animas: COUNTRY
SRVC.                Patterson: SERVICE COMPANY
DATE.          Thu Feb 17 02:07:21 2005: LOG DATE
UWI.           05 071 08286 00: UNIQUE WELL ID
~Curve Information Block
DEPT.FT            0 000 00 00: Depth
SN.Ohm-m                      : IEL Short Normal
SP.mV                         : IEL Spontaneous Potential
DIR.Ohm-m                     : IEL Induction Resistivity
GR.GAPI                       : Gamma Ray
~Parameter Information Block
~A  Depth        SN          SP         DIR          GR     
# ...
   951.5000     32.0340    -31.9038     21.4360    102.4359
   951.7500     32.4862    -32.1853     21.1947    100.6447
   952.0000     32.7943    -32.5235     20.7775     98.5911
   952.2500     33.0498    -32.9129     20.2506     97.8624
   952.5000     33.2850    -33.3299     19.6830     98.3964
   952.7500     33.4945    -33.7459     19.1155     99.8501
   953.0000     33.7149    -34.1462     18.5613    102.0986
   953.2500     34.0277    -34.5454     18.0192    102.1829
   953.5000     34.4647    -34.9951     17.4749     98.8371
   953.7500     34.9899    -35.5751     16.8865     94.7863
   954.0000     35.5674    -36.3658     16.1770     87.9146
   954.2500     36.1897    -37.4181     15.2539     83.5686
   954.5000     36.8353    -38.7419     14.0599     77.5797
   954.7500     37.4105    -40.3198     12.6181     73.8689
   955.0000     37.7614    -42.1379     11.0311     69.1453
   955.2500     37.7268    -44.2186      9.4346     67.0429
   955.5000     37.1354    -46.6447      7.9470     65.9978
   955.7500     35.7677    -49.5588      6.6445     66.6961
   956.0000     33.4116    -53.1324      5.5602     69.6392
   956.2500     30.0021    -57.5140      4.6948     72.8035
   956.5000     25.6833    -62.7691      4.0280     79.0880
   956.7500     20.8081    -68.8159      3.5295     83.8158
   957.0000     15.9361    -75.3574      3.1662     90.3182
   957.2500     11.7109    -81.8308      2.9072     93.4337
   957.5000      8.5632    -87.4347      2.7254     95.6072
   957.7500      6.5086    -91.2895      2.5979     95.6623
   958.0000      5.2841    -92.6990      2.5060     95.0625
   958.2500      4.6129    -91.3746      2.4345     95.1385
   958.5000      4.3096    -87.4914      2.3736     96.7880
   958.7500      4.2952    -81.5750      2.3190     98.8160
   959.0000      4.6414    -74.3274      2.2727    102.7780
   959.2500      5.6167    -66.4861      2.2412    105.8789
   959.5000      7.6591    -58.7297      2.2332    110.8878
   959.7500     11.1490    -51.6071      2.2570    113.9128
   960.0000     16.0454    -45.4903      2.3189    116.2183
   960.2500     21.7810    -40.5568      2.4228    114.9518
   960.5000     27.6408    -36.7979      2.5699    107.1506
   960.7500     33.2479    -34.0476      2.7584     98.1454
   961.0000     38.7093    -32.0407      2.9824     81.5534
   961.2500     44.4177    -30.5016      3.2308     70.6198
   961.5000     50.5454    -29.2329      3.4870     57.1243
   961.7500     56.4766    -28.1556      3.7304     50.4504
   962.0000     60.9038    -27.2805      3.9410     43.1352
   962.2500     62.6271    -26.6365      4.1046     39.5435
   962.5000     61.1034    -26.2068      4.2182     36.1886
   962.7500     56.3685    -25.9129      4.2891     35.9382
   963.0000     48.9585    -25.6484      4.3306     39.7985
   963.2500     40.0937    -25.3275      4.3573     45.5570
   963.5000     31.5010    -24.9157      4.3807     58.4360
   963.7500     24.5777    -24.4287      4.4092     68.8058
   964.0000     19.7229    -23.9134      4.4478     84.4293
   964.2500     16.5542    -23.4192      4.4990     93.4184
   964.5000     14.5103    -22.9788      4.5641    103.3752
   964.7500     13.1551    -22.6066      4.6430    107.8025
   965.0000     12.2187    -22.3140      4.7354    112.6075
   965.2500     11.5854    -22.1200      4.8413    115.5638
   965.5000     11.2351    -22.0392      4.9620    120.2503
   965.7500     11.1588    -22.0582      5.1007    123.0143
   966.0000     11.3272    -22.1296      5.2618    124.9217
   966.2500     11.7038    -22.1976      5.4496    124.1367
   966.5000     12.2413    -22.2290      5.6672    120.7564
   966.7500     12.8633    -22.2236      5.9171    118.2413
   967.0000     13.4837    -22.2031      6.2020    115.4742
   967.2500     14.0886    -22.1967      6.5263    114.1798
   967.5000     14.7530    -22.2296      6.8952    111.9954
   967.7500     15.5048    -22.3130      7.3124    109.9549
   968.0000     16.2562    -22.4392      7.7772    106.1249
   968.2500     16.9322    -22.5869      8.2852    103.4919
   968.5000     17.5619    -22.7396      8.8329    100.5519
   968.7500     18.2300    -22.8989      9.4238     99.9259
   969.0000     18.9902    -23.0786     10.0683    101.3125
   969.2500     19.8107    -23.2854     10.7777    103.2105
   969.5000     20.6208    -23.5068     11.5525    105.7179
   969.7500     21.4020    -23.7162     12.3752    106.2264
   970.0000     22.1661    -23.8887     13.2122    104.5973
   970.2500     22.8809    -24.0140     14.0260    102.1854
   970.5000     23.4753    -24.0986     14.7911     97.7131
   970.7500     23.8986    -24.1615     15.5032     94.7966
   971.0000     24.1888    -24.2256     16.1731     90.9820
   971.2500     24.5030    -24.3078     16.8137     88.7710
   971.5000     25.0336    -24.4102     17.4287     85.8226
   971.7500     25.8616    -24.5187     18.0078     84.0795
   972.0000     26.9053    -24.6110     18.5255     81.5190
   972.2500     28.0028    -24.6720     18.9458     79.4296
   972.5000     29.0025    -24.7030     19.2329     75.0960
   972.7500     29.7675    -24.7218     19.3656     71.6049
   973.0000     30.1171    -24.7532     19.3467     67.0716
   973.2500     29.8502    -24.8181     19.2000     65.7202
   973.5000     28.9237    -24.9287     18.9602     67.2866
   973.7500     27.5358    -25.0873     18.6626     70.3594
   974.0000     25.9014    -25.2871     18.3361     76.1857
   974.2500     24.0318    -25.5124     17.9970     79.8778
   974.5000     21.8530    -25.7389     17.6433     84.5524
   974.7500     19.4549    -25.9396     17.2538     87.4010
   975.0000     17.1799    -26.0944     16.7960     92.0814
   975.2500     15.5026    -26.1976     16.2472     95.6287
   975.5000     14.7370    -26.2571     15.6137    100.9893
   975.7500     14.8081    -26.2882     14.9331    103.9959
   976.0000     15.3497    -26.3109     14.2542    107.0607
   976.2500     15.9618    -26.3517     13.6127    108.2607
   976.5000     16.3530    -26.4444     13.0217    109.5702
   976.7500     16.3758    -26.6232     12.4802    110.5757
   977.0000     16.0348    -26.9100     11.9876    112.4772
   977.2500     15.4441    -27.3028     11.5495    113.6879
   977.5000     14.7408    -27.7785     11.1721    114.6369
   977.7500     14.0274    -28.3080     10.8542    114.4943
   978.0000     13.3747    -28.8674     10.5870    113.5803
   978.2500     12.8347    -29.4351     10.3616    113.1279
   978.5000     12.4370    -29.9864     10.1764    113.6826
   978.7500     12.1988    -30.4995     10.0372    115.0441
   979.0000     12.1249    -30.9644      9.9507    118.1063
   979.2500     12.1658    -31.3863      9.9169    120.3816
   979.5000     12.2221    -31.7792      9.9269    123.4095
   979.7500     12.2296    -32.1530      9.9695    124.7291
   980.0000     12.2072    -32.5042     10.0420    125.0148
   980.2500     12.2244    -32.8148     10.1562    124.0646
   980.5000     12.3591    -33.0621     10.3341    121.7802
   980.7500     12.6663    -33.2283     10.5976    120.3129
   981.0000     13.1421    -33.3058     10.9614    118.4637
   981.2500     13.7265    -33.3003     11.4326    117.0490
   981.5000     14.3609    -33.2306     12.0162    113.7811
   981.7500     15.0388    -33.1250     12.7198    110.7065
   982.0000     15.8138    -33.0107     13.5560    105.3052
   982.2500     16.7995    -32.9043     14.5386    101.7184
   982.5000     18.1432    -32.8111     15.6752     96.9787
   982.7500     19.9385    -32.7333     16.9591     94.0177
   983.0000     22.1902    -32.6727     18.3635     88.3743
   983.2500     24.8643    -32.6240     19.8414     82.9674
   983.5000     27.8788    -32.5747     21.3279     72.5613
   983.7500     31.1201    -32.5202     22.7422     65.1649
   984.0000     34.5638    -32.4762     23.9946     55.4172
   984.2500     38.2246    -32.4758     25.0153     50.4698
   984.5000     41.8983    -32.5570     25.7978     45.5795
   984.7500     45.0669    -32.7497     26.4198     43.9385
