~Version Information
VERS.                      2.0: CWLS Log ASCII Standard - VERSION 2.0
WRAP.                       NO: One line per depth step
~Well Information Block
STRT.FT                15.0000: 
STOP.FT              2620.5000: 
STEP.FT                 0.2500: 
NULL.                -999.2500: 
COMP.          Pioneer Natural Resources: COMPANY
WELL.               Zink 44-10: WELL
FLD.           Purgatoire River: FIELD
LOC.           548' FSL & 473' FEL: LOCATION
PROV.                 Colorado: PROVINCE
CNTY.               Las Animas: COUNTRY
SRVC.                Patterson: SERVICE COMPANY
DATE.          Tue Jun 21 13:36:23 2005: LOG DATE
UWI.           05 071 08380 00: UNIQUE WELL ID
~Curve Information Block
DEPT.FT            0 000 00 00: Depth
GR.GAPI                       : Gamma Ray
CCL.                          : Casing Collar Locator
TT3.usec                      : CBL 3' Travel Time
AMP3.mV                       : CBL 3' Amplitude
~Parameter Information Block
~A  Depth        GR         CCL         TT3         AMP3    
# ...
  1053.5000    159.7735      0.0000    732.3762      9.7147
  1053.7500    161.5554      0.0000    747.8708      9.6603
  1054.0000    159.9726      0.0000    760.1494      9.5975
  1054.2500    157.6360      0.0000    766.6467      9.5572
  1054.5000    156.3478      0.0000    767.6514      9.5701
  1054.7500    156.4194      0.0000    765.1510      9.6305
  1055.0000    157.3539      0.0000    761.2497      9.6894
  1055.2500    158.6387      0.0000    757.6078      9.6935
  1055.5000    159.9655      0.0000    755.5060      9.6251
  1055.7500    161.1193      0.0000    755.8370      9.4988
  1056.0000    162.0291      0.0000    758.8963      9.3308
  1056.2500    163.0183      0.0000    764.0688      9.1266
  1056.5000    164.5327      0.0000    769.7098      8.9012
  1056.7500    166.2695      0.0000    773.7441      8.6966
  1057.0000    167.0228      0.0000    774.8147      8.5662
  1057.2500    165.9356      0.0000    772.9714      8.5327
  1057.5000    163.4234      0.0000    769.2128      8.5550
  1057.7500    160.2489      0.0000    764.3704      8.5408
  1058.0000    156.3676      0.0000    758.4035      8.4024
  1058.2500    151.5966      0.0000    750.8365      8.1045
  1058.5000    146.7058      0.0000    742.2430      7.6710
  1058.7500    142.6610      0.0000    735.2153      7.1799
  1059.0000    139.1523      0.0000    732.7903      6.7649
  1059.2500    134.8525      0.0000    735.0519      6.5813
  1059.5000    129.0467      0.0000    738.1071      6.7153
  1059.7500    122.4227      0.0000    737.2131      7.1195
  1060.0000    116.2887      0.0000    730.1979      7.6512
  1060.2500    111.5563      0.0000    717.0269      8.1701
  1060.5000    108.6431      0.0000    697.5105      8.5995
  1060.7500    107.6470      2.5000    672.2833      8.9214
  1061.0000    107.9179      2.5000    646.3866      9.1572
  1061.2500    107.8879      0.0000    628.1339      9.3748
  1061.5000    106.1342      0.0000    621.8180      9.6855
  1061.7500    102.6489      0.0000    624.0183     10.1835
  1062.0000     98.8069      0.0000    629.5751     10.8650
  1062.2500     96.3149      0.0000    638.1773     11.6141
  1062.5000     96.3685      0.0000    651.8461     12.2756
  1062.7500     99.2826      0.0000    668.8328     12.7439
  1063.0000    104.3353      0.0000    683.9660     12.9975
  1063.2500    110.2042      0.0000    693.6932     13.0742
  1063.5000    116.1227      0.0000    698.2603     13.0283
  1063.7500    122.3813      0.0000    699.7946     12.9048
  1064.0000    129.0826      0.0000    700.0911     12.7344
  1064.2500    134.7592      0.0000    700.0050     12.5413
  1064.5000    137.2668      0.0000    699.8110     12.3567
  1064.7500    136.0228      0.0000    699.5795     12.2220
  1065.0000    132.5806      0.0000    699.3490     12.1723
  1065.2500    129.0135      0.0000    699.1429     12.2092
  1065.5000    126.4153      0.0000    698.9997     12.2891
  1065.7500    124.9405      0.0000    698.9731     12.3429
  1066.0000    124.4784      0.0000    699.0749     12.3211
  1066.2500    124.8385      0.0000    699.2222     12.2324
  1066.5000    125.6761      0.0000    699.2706     12.1348
  1066.7500    126.6670      0.0000    699.1116     12.0792
  1067.0000    127.6427      0.0000    698.7369     12.0626
  1067.2500    128.5209      0.0000    698.2234     12.0439
  1067.5000    129.3828      0.0000    697.6765     11.9970
  1067.7500    130.4735      0.0000    697.1846     11.9328
  1068.0000    131.7935      0.0000    696.8145     11.8678
  1068.2500    132.8010      0.0000    696.6304     11.7902
  1068.5000    132.7876      0.0000    696.6955     11.6718
  1068.7500    131.6816      0.0000    697.0331     11.5013
  1069.0000    130.6741      0.0000    697.5552     11.2990
  1069.2500    131.8970      0.0000    698.0298     11.1054
  1069.5000    136.7343      0.0000    697.9453     10.9634
  1069.7500    143.9104      0.0000    696.1866     10.9034
  1070.0000    149.6412      0.0000    690.6588     10.9348
  1070.2500    150.4071      0.0000    678.8298     11.0447
  1070.5000    145.8385      0.0000    660.2325     11.2010
  1070.7500    138.7059      0.0000    639.0018     11.3604
  1071.0000    132.1878      0.0000    622.2715     11.4820
  1071.2500    127.5883      0.0000    614.9512     11.5398
  1071.5000    124.6165      0.0000    617.5192     11.5247
  1071.7500    122.8308      0.0000    628.5686     11.4446
  1072.0000    121.9798      0.0000    646.0148     11.3309
  1072.2500    121.4401      0.0000    665.6241     11.2367
  1072.5000    120.4429      0.0000    682.0606     11.2125
  1072.7500    118.9949      0.0000    692.4559     11.2816
  1073.0000    117.9280      0.0000    697.5282     11.4355
  1073.2500    118.0369      0.0000    699.5170     11.6368
  1073.5000    119.6321      0.0000    700.1453     11.8247
  1073.7500    122.6810      0.0000    700.2204     11.9352
  1074.0000    126.6827      0.0000    700.0295     11.9371
  1074.2500    130.6334      0.0000    699.7179     11.8498
  1074.5000    133.6552      0.0000    699.4359     11.7213
  1074.7500    135.2491      0.0000    699.2807     11.5929
  1075.0000    134.6642      0.0000    699.2426     11.4868
  1075.2500    130.9216      0.0000    699.2350     11.4157
  1075.5000    124.0133      0.0000    699.2328     11.3876
  1075.7500    115.4169      0.0000    699.4285     11.3971
  1076.0000    107.2097      0.0000    700.3286     11.4198
  1076.2500    101.1864      0.0000    702.6698     11.4253
  1076.5000     98.3777      0.0000    706.9622     11.4012
  1076.7500     98.4073      0.0000    712.7050     11.3655
  1077.0000     99.4443      0.0000    717.9895     11.3473
  1077.2500     99.4220      0.0000    720.3471     11.3520
  1077.5000     97.3035      0.0000    718.5244     11.3461
  1077.7500     93.3208      0.0000    713.5204     11.2818
  1078.0000     88.6430      0.0000    707.7568     11.1373
  1078.2500     84.9027      0.0000    703.2708     10.9334
  1078.5000     83.3866      0.0000    700.7108     10.7154
  1078.7500     84.3118      0.0000    699.6669     10.5255
  1079.0000     86.8694      0.0000    699.4576     10.3878
  1079.2500     89.8965      0.0000    699.5504     10.3066
  1079.5000     92.5207      0.0000    699.6057     10.2686
  1079.7500     94.2535      0.0000    699.4495     10.2479
  1080.0000     94.6616      0.0000    699.0724     10.2138
  1080.2500     93.4219      0.0000    698.5789     10.1397
  1080.5000     90.8585      0.0000    698.0968     10.0045
  1080.7500     87.9701      0.0000    697.7239      9.7865
  1081.0000     85.6007      0.0000    697.5594      9.4568
  1081.2500     83.9300      0.0000    697.8199      8.9860
  1081.5000     82.9567      0.0000    699.0275      8.3631
  1081.7500     82.8988      0.0000    702.1227      7.6121
  1082.0000     83.6778      0.0000    708.0821      6.7926
  1082.2500     84.5286      0.0000    716.8599      5.9813
  1082.5000     84.6920      0.0000    726.5397      5.2450
  1082.7500     84.3101      0.0000    734.0716      4.6163
  1083.0000     84.2827      0.0000    737.3151      4.0875
  1083.2500     85.3377      0.0000    736.2082      3.6282
  1083.5000     87.4332      0.0000    731.8287      3.2119
  1083.7500     89.9240      0.0000    724.7617      2.8313
  1084.0000     92.0967      0.0000    714.7224      2.4951
  1084.2500     93.5438      0.0000    701.5577      2.2115
  1084.5000     94.2079      0.0000    686.2758      1.9777
  1084.7500     94.1818      0.0000    671.0032      1.7847
  1085.0000     93.5272      0.0000    657.9993      1.6277
  1085.2500     92.2870      0.0000    648.6588      1.5066
  1085.5000     90.4874      0.0000    643.2224      1.4192
  1085.7500     87.9580      0.0000    641.2567      1.3596
  1086.0000     84.4442      0.0000    642.3664      1.3260
  1086.2500     80.4560      0.0000    646.3922      1.3268
  1086.5000     77.7744      0.0000    652.8921      1.3737
  1086.7500     78.2616      0.0000    660.6948      1.4681
