~Version Information
VERS.                      2.0: CWLS Log ASCII Standard - VERSION 2.0
WRAP.                       NO: One line per depth step
~Well Information Block
STRT.FT               -12.3000: 
STOP.FT              1768.7000: 
STEP.FT                 0.1000: 
NULL.                -999.2500: 
COMP.          Petrogulf Corporation: COMPANY
WELL.          Alexander 9-43R: WELL
FLD.           Purgatorie River: FIELD
LOC.           1652' FSL & 1049' FEL--: LOCATION
CNTY.               Las Animas: COUNTY
SRVC.                         : SERVICE COMPANY
DATE.          Tue Sep 28 14:27:54 2004: LOG DATE
UWI.                          : UNIQUE WELL ID
STAT.                       CO: STATE
~Curve Information Block
DEPT.FT            0 000 00 00: Depth
GR.GAPI                       : Gamma Ray
CCL.                          : Casing Collar Locator
TT3.usec                      : CBL 3' Travel Time
AMP3.mV                       : CBL 3' Amplitude
~Parameter Information Block
~A  Depth        GR         CCL         TT3         AMP3    
# ...
   215.5000     92.6887      0.0000    299.6269     35.3793
   215.6000     92.6887      0.0000    299.6269     35.3793
   215.7000     92.6887      0.0000    299.6269     35.3793
   215.8000     91.8583      0.0000    299.6646     34.4239
   215.9000     91.8583      0.0000    299.6646     34.4239
   216.0000     96.5496      0.0000    299.7108     33.2972
   216.1000     96.5496      0.0000    299.7108     33.2972
   216.2000     96.5496      0.0000    299.7108     33.2972
   216.3000    106.8158      0.0000    299.7860     32.0220
   216.4000    106.8158      0.0000    299.7860     32.0220
   216.5000    118.2197      0.0000    299.9054     30.6729
   216.6000    118.2197      0.0000    299.9054     30.6729
   216.7000    118.2197      0.0000    299.9054     30.6729
   216.8000    125.2590      0.0000    300.0689     29.3673
   216.9000    125.2590      0.0000    300.0689     29.3673
   217.0000    125.6652      0.0000    300.2870     28.2174
   217.1000    125.6652      0.0000    300.2870     28.2174
   217.2000    125.6652      0.0000    300.2870     28.2174
   217.3000    121.4591      0.0000    300.6329     27.2871
   217.4000    121.4591      0.0000    300.6329     27.2871
   217.5000    116.3960      0.0000    301.5612     26.5873
   217.6000    116.3960      0.0000    301.5612     26.5873
   217.7000    116.3960      0.0000    301.5612     26.5873
   217.8000    113.1373      0.0000    304.5364     26.0756
   217.9000    113.1373      0.0000    304.5364     26.0756
   218.0000    112.4918      0.0000    312.6328     25.6358
   218.1000    112.4918      0.0000    312.6328     25.6358
   218.2000    112.4918      0.0000    312.6328     25.6358
   218.3000    113.7259      0.0000    329.6667     25.0983
   218.4000    113.7259      0.0000    329.6667     25.0983
   218.5000    114.8046      0.0000    356.4848     24.3548
   218.6000    114.8046      0.0000    356.4848     24.3548
   218.7000    114.8046      0.0000    356.4848     24.3548
   218.8000    113.4393      0.0000    387.3202     23.4691
   218.9000    113.4393      0.0000    387.3202     23.4691
   219.0000    108.9971      0.0000    412.1413     22.6313
   219.1000    108.9971      0.0000    412.1413     22.6313
   219.2000    108.9971      0.0000    412.1413     22.6313
   219.3000    103.0170      0.0000    424.0372     21.9962
   219.4000    103.0170      0.0000    424.0372     21.9962
   219.5000     97.4087      0.0000    422.1321     21.6251
   219.6000     97.4087      0.0000    422.1321     21.6251
   219.7000     97.4087      0.0000    422.1321     21.6251
   219.8000     92.8323      0.0000    407.9021     21.5737
   219.9000     92.8323      0.0000    407.9021     21.5737
   220.0000     89.2885      0.0000    383.8321     21.9302
   220.1000     89.2885      0.0000    383.8321     21.9302
   220.2000     89.2885      0.0000    383.8321     21.9302
   220.3000     87.4079      0.0000    355.9265     22.7393
   220.4000     87.4079      0.0000    355.9265     22.7393
   220.5000     88.1259      0.0000    332.1674     23.9459
   220.6000     88.1259      0.0000    332.1674     23.9459
   220.7000     88.1259      2.0000    332.1674     23.9459
   220.8000     91.2051     -2.0000    317.0127     25.4147
   220.9000     91.2051      0.0000    317.0127     25.4147
   221.0000     94.9517      0.0000    309.5232     26.9809
   221.1000     94.9517      0.0000    309.5232     26.9809
   221.2000     94.9517      0.0000    309.5232     26.9809
   221.3000     97.8319      0.0000    306.3110     28.5776
   221.4000     97.8319      0.0000    306.3110     28.5776
   221.5000    100.0225      0.0000    304.6678     30.3707
   221.6000    100.0225      0.0000    304.6678     30.3707
   221.7000    100.0225      0.0000    304.6678     30.3707
   221.8000    102.7588      0.0000    303.3372     32.6586
   221.9000    102.7588      0.0000    303.3372     32.6586
   222.0000    106.1592      0.0000    301.7283     35.5210
   222.1000    106.1592      0.0000    301.7283     35.5210
   222.2000    106.1592      0.0000    301.7283     35.5210
   222.3000    108.3104      0.0000    298.8178     38.6566
   222.4000    108.3104      0.0000    298.8178     38.6566
   222.5000    107.0376      0.0000    293.1792     41.6631
   222.6000    107.0376      0.0000    293.1792     41.6631
   222.7000    107.0376      0.0000    293.1792     41.6631
   222.8000    102.4693      0.0000    284.5705     44.3064
   222.9000    102.4693      0.0000    284.5705     44.3064
   223.0000     97.3709      0.0000    274.9248     46.4084
   223.1000     97.3709      0.0000    274.9248     46.4084
   223.2000     97.3709      0.0000    274.9248     46.4084
   223.3000     94.7212      0.0000    266.9874     47.7323
   223.4000     94.7212      0.0000    266.9874     47.7323
   223.5000     95.2229      0.0000    262.1476     48.1749
   223.6000     95.2229      0.0000    262.1476     48.1749
   223.7000     95.2229      0.0000    262.1476     48.1749
   223.8000     97.3887      0.0000    259.9682     47.9280
   223.9000     97.3887      0.0000    259.9682     47.9280
   224.0000     99.5987      0.0000    259.2835     47.3344
   224.1000     99.5987      0.0000    259.2835     47.3344
   224.2000     99.5987      0.0000    259.2835     47.3344
   224.3000    101.3594      0.0000    259.1919     46.6618
   224.4000    101.3594      0.0000    259.1919     46.6618
   224.5000    102.6758      0.0000    259.2595     46.0522
   224.6000    102.6758      0.0000    259.2595     46.0522
   224.7000    102.6758      0.0000    259.2595     46.0522
   224.8000    103.3248      0.0000    259.3258     45.6110
   224.9000    103.3248      0.0000    259.3258     45.6110
   225.0000    103.2119      0.0000    259.3396     45.4542
   225.1000    103.2119      0.0000    259.3396     45.4542
   225.2000    103.2119      0.0000    259.3396     45.4542
   225.3000    102.4790      0.0000    259.2857     45.6685
   225.4000    102.4790      0.0000    259.2857     45.6685
   225.5000    100.6167      0.0000    259.1765     46.2641
   225.6000    100.6167      0.0000    259.1765     46.2641
   225.7000    100.6167      0.0000    259.1765     46.2641
   225.8000     96.1629      0.0000    259.0350     47.1866
   225.9000     96.1629      0.0000    259.0350     47.1866
   226.0000     87.9677      0.0000    258.8846     48.3430
   226.1000     87.9677      0.0000    258.8846     48.3430
   226.2000     87.9677      0.0000    258.8846     48.3430
   226.3000     76.6457      0.0000    258.7467     49.6006
   226.4000     76.6457      0.0000    258.7467     49.6006
   226.5000     64.5695      0.0000    258.6396     50.7931
   226.6000     64.5695      0.0000    258.6396     50.7931
   226.7000     64.5695      0.0000    258.6396     50.7931
   226.8000     54.3121      0.0000    258.5714     51.7753
   226.9000     54.3121      0.0000    258.5714     51.7753
   227.0000     47.0172      0.0000    258.5349     52.4973
   227.1000     47.0172      0.0000    258.5349     52.4973
   227.2000     47.0172      0.0000    258.5349     52.4973
   227.3000     42.2722      0.0000    258.5164     53.0219
   227.4000     42.2722      0.0000    258.5164     53.0219
   227.5000     39.2933      0.0000    258.5099     53.4654
   227.6000     39.2933      0.0000    258.5099     53.4654
   227.7000     39.2933      0.0000    258.5099     53.4654
   227.8000     37.8115      0.0000    258.5201     53.9018
   227.9000     37.8115      0.0000    258.5201     53.9018
   228.0000     37.9586      0.0000    258.5511     54.3022
   228.1000     37.9586      0.0000    258.5511     54.3022
   228.2000     37.9586      0.0000    258.5511     54.3022
   228.3000     39.7780      0.0000    258.5997     54.5587
   228.4000     39.7780      0.0000    258.5997     54.5587
   228.5000     42.8998      0.0000    258.6585     54.5769
   228.6000     42.8998      0.0000    258.6585     54.5769
   228.7000     42.8998      0.0000    258.6585     54.5769
   228.8000     46.5517      0.0000    258.7251     54.3461
