~Version Information
VERS.                      2.0: CWLS Log ASCII Standard - VERSION 2.0
WRAP.                       NO: One line per depth step
~Well Information Block
STRT.FT               340.0000: 
STOP.FT              1542.5000: 
STEP.FT                 0.1000: 
NULL.                -999.2500: 
COMP.          Petrogulf Corporation: COMPANY
WELL.            Montoya 7-21R: WELL
FLD.           Purgatorie River: FIELD
LOC.           445' FNL & 1942' FWL: LOCATION
PROV.                 Colorado: PROVINCE
CNTY.               Las Animas: COUNTRY
SRVC.                Patterson: SERVICE COMPANY
DATE.          Thu Sep 15 10:33:27 2005: LOG DATE
UWI.                          : UNIQUE WELL ID
~Curve Information Block
DEPT.FT            0 000 00 00: Depth
DCAL.in                       : CDL Caliper
RHOB.g/cc                     : CDL Bulk Density
RHOC.g/cc                     : CDL Density Correction
DPOR.pu                       : CDL Density Porosity
GR.GAPI                       : Gamma Ray
NPOR.pu                       : Neutron Porosity
~Parameter Information Block
~A  Depth       DCAL        RHOB        RHOC        DPOR         GR         NPOR    
# ...
   503.2000      8.0988      2.5344      0.1083      7.0044    112.3559     28.2693
   503.3000      8.0527      2.5379      0.0865      6.7945    114.3417     28.3715
   503.4000      8.0527      2.5335      0.0787      7.0612    116.9043     28.1112
   503.5000      8.0406      2.5241      0.0628      7.6332    118.3189     27.7238
   503.6000      8.0406      2.5199      0.0476      7.8848    118.3065     27.3011
   503.7000      8.0406      2.5206      0.0810      7.8451    117.8314     26.8991
   503.8000      8.0219      2.5217      0.0682      7.7774    117.5034     26.6630
   503.9000      8.0219      2.5316      0.0837      7.1754    116.1849     26.5921
   504.0000      8.0109      2.5524      0.1070      5.9176    114.2155     26.4105
   504.1000      8.0109      2.5700      0.0753      4.8480    113.7513     25.8878
   504.2000      8.0109      2.5736      0.0935      4.6275    114.1306     25.1847
   504.3000      7.9948      2.5606      0.1022      5.4176    113.8200     24.6772
   504.4000      7.9948      2.5380      0.1103      6.7870    112.3764     24.5094
   504.5000      7.9647      2.5256      0.0989      7.5389    112.1541     24.5637
   504.6000      7.9647      2.5396      0.0808      6.6915    115.7196     24.7287
   504.7000      7.9647      2.5716      0.1136      4.7541    119.3889     24.8807
   504.8000      7.9546      2.6027      0.1038      2.8671    119.3394     25.0146
   504.9000      7.9546      2.6347      0.1053      0.9245    117.5564     25.1226
   505.0000      7.9359      2.6688      0.2253     -1.1398    116.0333     25.0696
   505.1000      7.9359      2.6861      0.2477     -2.1898    114.4494     24.8496
   505.2000      7.9359      2.6806      0.2039     -1.8544    113.8194     24.6340
   505.3000      7.9215      2.6676      0.1820     -1.0675    113.9825     24.5391
   505.4000      7.9215      2.6602      0.1999     -0.6159    113.7569     24.4777
   505.5000      7.9194      2.6568      0.1737     -0.4147    114.1586     24.3875
   505.6000      7.9194      2.6459      0.1423      0.2482    114.6568     24.2421
   505.7000      7.9194      2.6299      0.0399      1.2174    113.6193     24.0851
   505.8000      7.9616      2.6297      0.0708      1.2298    111.6754     24.0857
   505.9000      7.9616      2.6418      0.1594      0.4946    110.0351     24.1944
   506.0000      7.9713      2.6465      0.0834      0.2094    109.4660     24.3199
   506.1000      7.9713      2.6420      0.0820      0.4841    111.5374     24.4040
   506.2000      7.9713      2.6259      0.0961      1.4609    114.7858     24.4080
   506.3000      7.9805      2.5945      0.0656      3.3607    114.5949     24.4393
   506.4000      7.9805      2.5619      0.0287      5.3401    112.5223     24.6221
   506.5000      8.0502      2.5506     -0.0123      6.0254    113.0227     24.9773
   506.6000      8.0502      2.5590      0.0550      5.5149    113.9087     25.3917
   506.7000      8.0502      2.5592      0.0330      5.5025    113.2261     25.7955
   506.8000      8.0486      2.5477     -0.0103      6.2024    112.7912     26.1355
   506.9000      8.0486      2.5453      0.0331      6.3472    112.3014     26.2731
   507.0000      8.0480      2.5570     -0.0046      5.6360    110.6076     26.1754
   507.1000      8.0480      2.5729      0.0312      4.6704    108.2199     25.9521
   507.2000      8.0480      2.5779      0.0379      4.3669    105.4816     25.7347
   507.3000      8.0449      2.5659     -0.0019      5.0961    103.1849     25.6697
   507.4000      8.0449      2.5484     -0.0137      6.1578    101.8894     25.8158
   507.5000      8.0286      2.5326     -0.0030      7.1179    102.3532     26.0173
   507.6000      8.0286      2.5180     -0.0538      8.0005    104.7060     25.9886
   507.7000      8.0286      2.5085     -0.0307      8.5754    107.2110     25.6927
   507.8000      8.0344      2.5050     -0.0136      8.7902    109.9742     25.3937
   507.9000      8.0344      2.5058     -0.0086      8.7404    112.7019     25.2819
   508.0000      8.0624      2.5072     -0.0038      8.6518    113.2387     25.3259
   508.1000      8.0624      2.5058     -0.0086      8.7388    111.4482     25.4308
   508.2000      8.0624      2.5135     -0.0057      8.2754    108.5566     25.5202
   508.3000      8.0024      2.5408      0.0211      6.6207    105.4473     25.5564
   508.4000      8.0024      2.5726      0.0965      4.6927    103.7611     25.4255
   508.5000      7.9802      2.5851      0.1087      3.9358    104.5599     25.1822
   508.6000      7.9802      2.5792      0.0756      4.2921    105.3480     25.1297
   508.7000      7.9802      2.5762      0.1040      4.4716    104.1010     25.3179
   508.8000      7.9777      2.5789      0.1344      4.3063    102.9193     25.3969
   508.9000      7.9777      2.5794      0.0924      4.2765    103.1893     25.2070
   509.0000      7.9873      2.5822      0.1091      4.1062    103.0244     24.9622
   509.1000      7.9873      2.5897      0.1620      3.6559    101.4320     24.7708
   509.2000      7.9873      2.6016      0.1435      2.9352    102.3877     24.5682
   509.3000      7.9905      2.6184      0.1894      1.9153    106.7800     24.3403
   509.4000      7.9905      2.6289      0.1726      1.2804    110.3507     24.1889
   509.5000      8.0299      2.6289      0.1509      1.2812    112.3247     24.1574
   509.6000      8.0299      2.6350      0.1565      0.9112    114.8503     24.0191
   509.7000      8.0299      2.6585      0.1895     -0.5143    117.0044     23.5874
   509.8000      8.0636      2.6792      0.2418     -1.7694    115.6885     23.0691
   509.9000      8.0636      2.6661      0.1794     -0.9749    113.5091     22.8248
   510.0000      8.0781      2.6195      0.1485      1.8467    118.0322     22.8741
   510.1000      8.0781      2.5555      0.1446      5.7288    128.9931     22.9475
   510.2000      8.0781      2.4826      0.1059     10.1450    137.6274     22.8913
   510.3000      8.0621      2.4136      0.0444     14.3301    140.5361     22.7864
   510.4000      8.0621      2.3635      0.0095     17.3625    141.5212     22.7933
   510.5000      8.0713      2.3402      0.0341     18.7753    143.0439     23.0151
   510.6000      8.0713      2.3453      0.0406     18.4647    145.2207     23.3156
   510.7000      8.0713      2.3736      0.0782     16.7521    147.5266     23.4454
   510.8000      8.1287      2.4116      0.1042     14.4460    148.7189     23.4903
   510.9000      8.1287      2.4396      0.1827     12.7540    147.4539     23.7660
   511.0000      8.1836      2.4413      0.1804     12.6478    145.3728     24.2082
   511.1000      8.1836      2.4288      0.1877     13.4073    146.5557     24.5282
   511.2000      8.1836      2.4311      0.1854     13.2678    150.3738     24.8359
   511.3000      8.1139      2.4598      0.2242     11.5274    152.9525     25.3026
   511.4000      8.1139      2.4993      0.2233      9.1363    152.8547     25.5713
   511.5000      8.1794      2.5304      0.2283      7.2487    151.3519     25.5210
   511.6000      8.1794      2.5544      0.2094      5.7919    151.6207     25.5846
   511.7000      8.1794      2.5826      0.2322      4.0821    153.8815     25.8958
   511.8000      8.2609      2.6108      0.2632      2.3759    154.6413     26.1507
   511.9000      8.2609      2.6238      0.2793      1.5855    154.1860     26.2219
   512.0000      8.2590      2.6169      0.2732      2.0061    154.2897     26.2898
   512.1000      8.2590      2.6012      0.2222      2.9596    154.2835     26.3939
   512.2000      8.2590      2.5891      0.1824      3.6924    153.8224     26.4745
   512.3000      8.2197      2.5772      0.1527      4.4097    153.7536     26.6984
   512.4000      8.2197      2.5623      0.0929      5.3130    155.6113     27.0812
   512.5000      8.1826      2.5493      0.0769      6.1041    158.9760     27.2173
   512.6000      8.1826      2.5274      0.1012      7.4274    161.0925     26.9270
   512.7000      8.1826      2.4892      0.0126      9.7474    160.8809     26.5245
