~Version Information
VERS.                      2.0: CWLS Log ASCII Standard - VERSION 2.0
WRAP.                       NO: One line per depth step
~Well Information Block
STRT.FT              1727.9000: 
STOP.FT              1961.0000: 
STEP.FT                 0.1000: 
NULL.                -999.2500: 
COMP.          Petrogulf Corporation: COMPANY
WELL.              Royal 8-33R: WELL
FLD.           Purgatorie River: FIELD
LOC.           2401' FSL & 2270' FEL: LOCATION
CNTY.               Las Animas: COUNTY
SRVC.                         : SERVICE COMPANY
DATE.          Mon Apr 26 06:57:24 2004: LOG DATE
UWI.           05 071 08041 00: UNIQUE WELL ID
STAT.                 Colorado: STATE
~Curve Information Block
DEPT.FT            0 000 00 00: Depth
DCAL.in                       : CDL Caliper
RHOB.g/cc                     : CDL Bulk Density
RHOC.g/cc                     : CDL Density Correction
DPOR.pu                       : CDL Density Porosity
GR.GAPI                       : Gamma Ray
~Parameter Information Block
~A  Depth       DCAL        RHOB        RHOC        DPOR         GR     
# ...
  1940.7000      7.8520      2.4885      0.1345      9.7896     69.6237
  1940.8000      7.8448      2.5141      0.0716      8.2371     58.2377
  1940.9000      7.8448      2.5215      0.1159      7.7884     46.1170
  1941.0000      7.8463      2.5431      0.0966      6.4801     41.5185
  1941.1000      7.8463      2.5837      0.0982      4.0162     44.5305
  1941.2000      7.8463      2.6032      0.2116      2.8338     49.9380
  1941.3000      7.8433      2.5685      0.1167      4.9384     52.7511
  1941.4000      7.8433      2.5092      0.0996      8.5310     52.6154
  1941.5000      7.8391      2.4755      0.0829     10.5765     51.4878
  1941.6000      7.8391      2.4906     -0.0568      9.6593     47.6786
  1941.7000      7.8391      2.5409      0.0965      6.6130     40.2133
  1941.8000      7.8330      2.5799      0.0681      4.2471     33.6749
  1941.9000      7.8330      2.5727      0.0662      4.6850     31.9968
  1942.0000      7.8345      2.5220      0.0901      7.7589     31.8558
  1942.1000      7.8345      2.4622      0.0747     11.3814     30.6399
  1942.2000      7.8345      2.4286     -0.0316     13.4157     31.7638
  1942.3000      7.8441      2.4268     -0.0037     13.5276     37.5485
  1942.4000      7.8441      2.4422      0.0440     12.5950     42.2453
  1942.5000      7.8439      2.4694     -0.0140     10.9461     41.5913
  1942.6000      7.8439      2.5005      0.1128      9.0600     40.2643
  1942.7000      7.8439      2.5094      0.1498      8.5212     41.8682
  1942.8000      7.8529      2.4898      0.0308      9.7086     45.1231
  1942.9000      7.8529      2.4669      0.0327     11.0993     45.5322
  1943.0000      7.8349      2.4626      0.0456     11.3561     40.8881
  1943.1000      7.8349      2.4770      0.0920     10.4849     36.8234
  1943.2000      7.8349      2.4850      0.1051     10.0021     37.9882
  1943.3000      7.7666      2.4840     -0.0230     10.0602     40.4314
  1943.4000      7.7666      2.5103      0.0897      8.4668     39.4109
  1943.5000      7.7401      2.5562      0.1427      5.6832     36.4282
  1943.6000      7.7401      2.5720      0.1621      4.7244     35.3497
  1943.7000      7.7401      2.5576      0.0611      5.6029     39.5478
  1943.8000      7.8070      2.5508      0.0899      6.0149     48.2330
  1943.9000      7.8070      2.5551      0.0729      5.7495     54.3777
  1944.0000      7.8068      2.5522      0.1224      5.9282     52.8884
  1944.1000      7.8068      2.5349      0.0392      6.9778     48.5155
  1944.2000      7.8068      2.5044      0.0630      8.8236     52.9679
  1944.3000      7.7489      2.4652      0.0548     11.2016     66.3139
  1944.4000      7.7489      2.4330      0.0396     13.1502     75.4546
  1944.5000      7.7443      2.4147      0.0832     14.2603     77.3987
  1944.6000      7.7443      2.4163      0.0037     14.1645     80.2792
  1944.7000      7.7443      2.4627      0.0566     11.3511     86.9388
  1944.8000      7.7460      2.5472      0.1378      6.2319     95.2077
  1944.9000      7.7460      2.6305      0.2577      1.1818    107.4344
  1945.0000      7.7806      2.6942      0.2545     -2.6814    128.1902
  1945.1000      7.7806      2.7363      0.3255     -5.2294    150.7669
  1945.2000      7.7806      2.7349      0.3648     -5.1427    166.2468
  1945.3000      7.7087      2.6860      0.2362     -2.1839    175.3693
  1945.4000      7.7087      2.6340      0.1299      0.9697    175.2132
  1945.5000      7.6789      2.5975      0.2266      3.1797    170.8123
  1945.6000      7.6789      2.5654      0.0836      5.1295    175.2880
  1945.7000      7.6789      2.5560      0.1351      5.6974    186.0669
  1945.8000      7.7031      2.5729      0.1858      4.6738    193.9729
  1945.9000      7.7031      2.5832      0.1576      4.0478    196.4693
  1946.0000      7.7433      2.5694      0.1496      4.8855    183.6041
  1946.1000      7.7433      2.5475      0.0465      6.2123    152.7508
  1946.2000      7.7433      2.5408      0.1186      6.6198    125.4348
  1946.3000      7.7769      2.5337      0.1066      7.0509    114.2227
  1946.4000      7.7769      2.5080      0.0089      8.6075    116.3747
  1946.5000      7.8011      2.4867      0.0019      9.9000    126.4244
  1946.6000      7.8011      2.4886      0.0944      9.7840    131.0535
  1946.7000      7.8011      2.4866      0.1760      9.9032    118.4438
  1946.8000      7.8262      2.4556      0.0412     11.7820     95.4598
  1946.9000      7.8262      2.4248      0.0128     13.6493     78.2461
  1947.0000      7.8465      2.4249     -0.0085     13.6450     72.0295
  1947.1000      7.8465      2.4433      0.0560     12.5244     77.4265
  1947.2000      7.8465      2.4599      0.0402     11.5197     97.3818
  1947.3000      7.8658      2.4785      0.0859     10.3958    122.9225
  1947.4000      7.8658      2.5157      0.0992      8.1364    133.9108
  1947.5000      7.8511      2.5689      0.2288      4.9125    121.9987
  1947.6000      7.8511      2.6065      0.2318      2.6367    100.0880
  1947.7000      7.8511      2.6052      0.2376      2.7161     93.6468
  1947.8000      7.8453      2.5618      0.2271      5.3450    108.9359
  1947.9000      7.8453      2.4909      0.1324      9.6426    123.3035
  1948.0000      7.7986      2.4092      0.2302     14.5915    127.5589
  1948.1000      7.7986      2.3116      0.2184     20.5105    134.2923
  1948.2000      7.7986      2.2095      0.0229     26.6965    144.8634
  1948.3000      7.8008      2.1451     -0.0374     30.5989    149.5642
  1948.4000      7.8008      2.1338     -0.0112     31.2846    139.9988
  1948.5000      7.8467      2.1428      0.1155     30.7375    118.4868
  1948.6000      7.8467      2.1416      0.0483     30.8148     95.2594
  1948.7000      7.8467      2.1410      0.0392     30.8462     78.5252
  1948.8000      7.8317      2.1642      0.0959     29.4400     70.5588
  1948.9000      7.8317      2.2104      0.1640     26.6403     70.3585
  1949.0000      7.8737      2.2643      0.1561     23.3784     78.6303
  1949.1000      7.8737      2.3160      0.1488     20.2416     91.2211
  1949.2000      7.8737      2.3746      0.1384     16.6900     98.1621
  1949.3000      7.8822      2.4451      0.2257     12.4160     94.3213
  1949.4000      7.8822      2.4980      0.1779      9.2109     82.7108
  1949.5000      7.8303      2.5170      0.0369      8.0617     77.6076
  1949.6000      7.8303      2.5220      0.1128      7.7558     89.1316
  1949.7000      7.8303      2.5286      0.0135      7.3579    104.0438
  1949.8000      7.8285      2.5382      0.0737      6.7781    106.5509
  1949.9000      7.8285      2.5290      0.0893      7.3331    102.8105
  1950.0000      7.8189      2.4894      0.1035      9.7320    101.3003
  1950.1000      7.8189      2.4609     -0.0139     11.4593     98.6214
  1950.2000      7.8189      2.4864      0.0577      9.9158     95.2071
  1950.3000      7.8128      2.5581      0.0788      5.5701     99.7509
  1950.4000      7.8128      2.6347      0.1627      0.9249    111.1709
  1950.5000      7.8131      2.6704      0.1718     -1.2382    111.3860
  1950.6000      7.8131      2.6507      0.1851     -0.0434    101.6046
  1950.7000      7.8131      2.6055      0.1528      2.6969    100.4320
  1950.8000      7.8131      2.5718      0.0691      4.7409    101.6544
  1950.9000      7.8131      2.5501      0.1365      6.0555     81.9809
  1951.0000      7.8078      2.5270      0.0002      7.4543     44.0215
  1951.1000      7.8078      2.5122      0.0624      8.3499     14.2531
  1951.2000      7.8078      2.5156      0.0567      8.1484      2.6261
  1951.3000      7.7770      2.5266      0.0844      7.4817      0.2659
  1951.4000      7.7770      2.5283      0.0730      7.3780      0.0141
  1951.5000      7.7789      2.5245      0.0753      7.6053      0.0000
  1951.6000      7.7789      2.5296      0.1119      7.2961   -999.2500
  1951.7000      7.7789      2.5416      0.1046      6.5670   -999.2500
  1951.8000      7.7745      2.5495      0.0577      6.0910   -999.2500
