~Version Information
VERS.                      2.0: CWLS Log ASCII Standard - VERSION 2.0
WRAP.                       NO: One line per depth step
~Well Information Block
STRT.FT               928.1000: 
STOP.FT              2417.7000: 
STEP.FT                 0.1000: 
NULL.                -999.2500: 
COMP.          Pioneer Natural Resources: COMPANY
WELL.            Chevron 13-13: WELL
FLD.           Purgatoire River: FIELD
LOC.           1560' FSL & 711' FWL--: LOCATION
CNTY.               Las Animas: COUNTY
SRVC.          Superior Well Services: SERVICE COMPANY
DATE.          Mon Feb 12 14:51:53 2007: LOG DATE
UWI.           05 071 08319 00: UNIQUE WELL ID
STAT.                 Colorado: STATE
~Curve Information Block
DEPT.FT            0 000 00 00: Depth
DIR.Ohm-m                     : IEL Induction Resistivity
GR.GAPI                       : Gamma Ray
SN.Ohm-m                      : IEL Short Normal
SP.mV                         : IEL Spontaneous Potential
~Parameter Information Block
~A  Depth       DIR          GR          SN          SP     
# ...
  1048.7000     16.2119    111.6163   2000.0000   2026.0000
  1048.8000     17.0736    110.3383   2000.0000   2026.0000
  1048.9000     17.0736    109.2311   2000.0000   2026.0000
  1049.0000     17.9327    108.3061   2000.0000   2026.0000
  1049.1000     17.9327    107.5417   2000.0000   2026.0000
  1049.2000     17.9327    106.8938   2000.0000   2026.0000
  1049.3000     18.7702    106.3060   2000.0000   2026.0000
  1049.4000     18.7702    105.7181   2000.0000   2026.0000
  1049.5000     19.5688    105.0822   2000.0000   2026.0000
  1049.6000     19.5688    104.3633   2000.0000   2026.0000
  1049.7000     19.5688    103.5432   2000.0000   2026.0000
  1049.8000     20.3255    102.6168   2000.0000   2026.0000
  1049.9000     20.3255    101.5955   2000.0000   2026.0000
  1050.0000     21.0565    100.4992   2000.0000   2026.0000
  1050.1000     21.0565     99.3563   2000.0000   2026.0000
  1050.2000     21.0565     98.2010   2000.0000   2026.0000
  1050.3000     21.7881     97.0674   2000.0000   2026.0000
  1050.4000     21.7881     95.9893   2000.0000   2026.0000
  1050.5000     22.5403     94.9940   2000.0000   2026.0000
  1050.6000     22.5403     94.1008   2000.0000   2026.0000
  1050.7000     22.5403     93.3188   2000.0000   2026.0000
  1050.8000     23.3166     92.6447   2000.0000   2026.0000
  1050.9000     23.3166     92.0685   2000.0000   2026.0000
  1051.0000     24.1081     91.5694   2000.0000   2026.0000
  1051.1000     24.1081     91.1221   2000.0000   2026.0000
  1051.2000     24.1081     90.6958   2000.0000   2026.0000
  1051.3000     24.9056     90.2593   2000.0000   2026.0000
  1051.4000     24.9056     89.7816   2000.0000   2026.0000
  1051.5000     25.7087     89.2313   2000.0000   2026.0000
  1051.6000     25.7087     88.5847   2000.0000   2026.0000
  1051.7000     25.7087     87.8248   2000.0000   2026.0000
  1051.8000     26.5206     86.9478   2000.0000   2026.0000
  1051.9000     26.5206     85.9638   2000.0000   2026.0000
  1052.0000     27.3351     84.8988   2000.0000   2026.0000
  1052.1000     27.3351     83.7922   2000.0000   2026.0000
  1052.2000     27.3351     82.6936   2000.0000   2026.0000
  1052.3000     28.1309     81.6569   2000.0000   2026.0000
  1052.4000     28.1309     80.7288   2000.0000   2026.0000
  1052.5000     28.8844     79.9437   2000.0000   2026.0000
  1052.6000     28.8844     79.3149   2000.0000   2026.0000
  1052.7000     28.8844     78.8301   2000.0000   2026.0000
  1052.8000     29.5916     78.4538   2000.0000   2026.0000
  1052.9000     29.5916     78.1345   2000.0000   2026.0000
  1053.0000     30.2725     77.8118   2000.0000   2026.0000
  1053.1000     30.2725     77.4287   2000.0000   2026.0000
  1053.2000     30.2725     76.9443   2000.0000   2026.0000
  1053.3000     30.9504     76.3359   2000.0000   2026.0000
  1053.4000     30.9504     75.6062   2000.0000   2026.0000
  1053.5000     31.6212     74.7798   2000.0000   2026.0000
  1053.6000     31.6212     73.8928   2000.0000   2026.0000
  1053.7000     31.6212     72.9886   2000.0000   2026.0000
  1053.8000     32.2384     72.1064   2000.0000   2026.0000
  1053.9000     32.2384     71.2782   2000.0000   2026.0000
  1054.0000     32.7265     70.5195   2000.0000   2026.0000
  1054.1000     32.7265     69.8377   2000.0000   2026.0000
  1054.2000     32.7265     69.2283   2000.0000   2026.0000
  1054.3000     33.0130     68.6834   2000.0000   2026.0000
  1054.4000     33.0130     68.1956   2000.0000   2026.0000
  1054.5000     33.0613     67.7602   2000.0000   2026.0000
  1054.6000     33.0613     67.3771   2000.0000   2026.0000
  1054.7000     33.0613     67.0516   2000.0000   2026.0000
  1054.8000     32.8875     66.7907   2000.0000   2026.0000
  1054.9000     32.8875     66.6000   2000.0000   2026.0000
  1055.0000     32.5607     66.4810   2000.0000   2026.0000
  1055.1000     32.5607     66.4298   2000.0000   2026.0000
  1055.2000     32.5607     66.4320   2000.0000   2026.0000
  1055.3000     32.1869     66.4700   2000.0000   2026.0000
  1055.4000     32.1869     66.5196   2000.0000   2026.0000
  1055.5000     31.8792     66.5584   2000.0000   2026.0000
  1055.6000     31.8792     66.5677   2000.0000   2026.0000
  1055.7000     31.8792     66.5389   2000.0000   2026.0000
  1055.8000     31.7221     66.4754   2000.0000   2026.0000
  1055.9000     31.7221     66.3939   2000.0000   2026.0000
  1056.0000     31.7445     66.3257   2000.0000   2026.0000
  1056.1000     31.7445     66.3110   2000.0000   2026.0000
  1056.2000     31.7445     66.3949   2000.0000   2026.0000
  1056.3000     31.9150     66.6206   2000.0000   2026.0000
  1056.4000     31.9150     67.0224   2000.0000   2026.0000
  1056.5000     32.1583     67.6206   2000.0000   2026.0000
  1056.6000     32.1583     68.4178   2000.0000   2026.0000
  1056.7000     32.1583     69.3981   2000.0000   2026.0000
  1056.8000     32.3878     70.5259   2000.0000   2026.0000
  1056.9000     32.3878     71.7499   2000.0000   2026.0000
  1057.0000     32.5398     73.0033   2000.0000   2026.0000
  1057.1000     32.5398     74.2116   2000.0000   2026.0000
  1057.2000     32.5398     75.2963   2000.0000   2026.0000
  1057.3000     32.5934     76.1805   2000.0000   2026.0000
  1057.4000     32.5934     76.7975   2000.0000   2026.0000
  1057.5000     32.5666     77.0963   2000.0000   2026.0000
  1057.6000     32.5666     77.0474   2000.0000   2026.0000
  1057.7000     32.5666     76.6461   2000.0000   2026.0000
  1057.8000     32.4968     75.9128   2000.0000   2026.0000
  1057.9000     32.4968     74.8905   2000.0000   2026.0000
  1058.0000     32.4233     73.6393   2000.0000   2026.0000
  1058.1000     32.4233     72.2322   2000.0000   2026.0000
  1058.2000     32.4233     70.7452   2000.0000   2026.0000
  1058.3000     32.3812     69.2519   2000.0000   2026.0000
  1058.4000     32.3812     67.8187   2000.0000   2026.0000
  1058.5000     32.4019     66.5004   2000.0000   2026.0000
  1058.6000     32.4019     65.3368   2000.0000   2026.0000
  1058.7000     32.4019     64.3544   2000.0000   2026.0000
  1058.8000     32.5105     63.5650   2000.0000   2026.0000
  1058.9000     32.5105     62.9707   2000.0000   2026.0000
  1059.0000     32.7195     62.5681   2000.0000   2026.0000
  1059.1000     32.7195     62.3474   2000.0000   2026.0000
  1059.2000     32.7195     62.2968   2000.0000   2026.0000
  1059.3000     33.0178     62.4050   2000.0000   2026.0000
  1059.4000     33.0178     62.6573   2000.0000   2026.0000
  1059.5000     33.3572     63.0372   2000.0000   2026.0000
  1059.6000     33.3572     63.5240   2000.0000   2026.0000
  1059.7000     33.3572     64.0940   2000.0000   2026.0000
  1059.8000     33.6463     64.7179   2000.0000   2026.0000
  1059.9000     33.6463     65.3668   2000.0000   2026.0000
  1060.0000     33.7742     66.0102   2000.0000   2026.0000
  1060.1000     33.7742     66.6198   2000.0000   2026.0000
  1060.2000     33.7742     67.1705   2000.0000   2026.0000
  1060.3000     33.6634     67.6433   2000.0000   2026.0000
  1060.4000     33.6634     68.0278   2000.0000   2026.0000
  1060.5000     33.3161     68.3220   2000.0000   2026.0000
  1060.6000     33.3161     68.5371   2000.0000   2026.0000
  1060.7000     33.3161     68.6957   2000.0000   2026.0000
  1060.8000     32.8119     68.8315   2000.0000   2026.0000
  1060.9000     32.8119     68.9851   2000.0000   2026.0000
  1061.0000     32.2593     69.1973   2000.0000   2026.0000
  1061.1000     32.2593     69.5026   2000.0000   2026.0000
  1061.2000     32.2593     69.9214   2000.0000   2026.0000
  1061.3000     31.7426     70.4563   2000.0000   2026.0000
  1061.4000     31.7426     71.0908   2000.0000   2026.0000
  1061.5000     31.2959     71.7926   2000.0000   2026.0000
  1061.6000     31.2959     72.5197   2000.0000   2026.0000
  1061.7000     31.2959     73.2285   2000.0000   2026.0000
  1061.8000     30.9082     73.8815   2000.0000   2026.0000
  1061.9000     30.9082     74.4523   2000.0000   2026.0000
  1062.0000     30.5469     74.9267   2000.0000   2026.0000
