~Version Information
VERS.                      2.0: CWLS Log ASCII Standard - VERSION 2.0
WRAP.                       NO: One line per depth step
~Well Information Block
STRT.FT               742.5000: 
STOP.FT              2463.5000: 
STEP.FT                 0.2500: 
NULL.                -999.2500: 
COMP.          Petrogulf Corporation: COMPANY
WELL.           Montoya 12-44V: WELL
FLD.           Purgatorie River: FIELD
LOC.           698' FSL & 599' FEL: LOCATION
CNTY.               Las Animas: COUNTY
SRVC.                         : SERVICE COMPANY
DATE.          Sun Aug 08 06:43:17 2004: LOG DATE
UWI.           05 071 08094 00: UNIQUE WELL ID
STAT.                 Colorado: STATE
~Curve Information Block
DEPT.FT            0 000 00 00: Depth
SN.Ohm-m                      : IEL Short Normal
SP.mV                         : IEL Spontaneous Potential
DIR.Ohm-m                     : IEL Induction Resistivity
GR.GAPI                       : Gamma Ray
~Parameter Information Block
~A  Depth        SN          SP         DIR          GR     
# ...
   843.0000   2000.0000   2000.0000     15.1508    149.2491
   843.2500   2000.0000   2000.0000     15.2769    146.6130
   843.5000   2000.0000   2000.0000     15.4488    140.7053
   843.7500   2000.0000   2000.0000     15.6853    136.3768
   844.0000   2000.0000   2000.0000     16.0003    131.5679
   844.2500   2000.0000   2000.0000     16.4040    130.3448
   844.5000   2000.0000   2000.0000     16.9069    131.2637
   844.7500   2000.0000   2000.0000     17.5206    132.9186
   845.0000   2000.0000   2000.0000     18.2493    135.5003
   845.2500   2000.0000   2000.0000     19.0797    136.5504
   845.5000   2000.0000   2000.0000     19.9808    136.1421
   845.7500   2000.0000   2000.0000     20.9179    134.4144
   846.0000   2000.0000   2000.0000     21.8687    130.4850
   846.2500   2000.0000   2000.0000     22.8276    127.7525
   846.5000   2000.0000   2000.0000     23.7971    124.2530
   846.7500   2000.0000   2000.0000     24.7775    122.2752
   847.0000   2000.0000   2000.0000     25.7677    119.4336
   847.2500   2000.0000   2000.0000     26.7719    117.4474
   847.5000   2000.0000   2000.0000     27.7976    114.1563
   847.7500   2000.0000   2000.0000     28.8373    111.7762
   848.0000   2000.0000   2000.0000     29.8459    108.5571
   848.2500   2000.0000   2000.0000     30.7340    107.2752
   848.5000   2000.0000   2000.0000     31.3875    107.1264
   848.7500   2000.0000   2000.0000     31.7069    107.7509
   849.0000   2000.0000   2000.0000     31.6442    108.4822
   849.2500   2000.0000   2000.0000     31.2141    108.5360
   849.5000   2000.0000   2000.0000     30.4731    108.6655
   849.7500   2000.0000   2000.0000     29.4890    109.4590
   850.0000   2000.0000   2000.0000     28.3232    112.1900
   850.2500   2000.0000   2000.0000     27.0317    114.7223
   850.5000   2000.0000   2000.0000     25.6686    118.7640
   850.7500   2000.0000   2000.0000     24.2793    121.4058
   851.0000   2000.0000   2000.0000     22.8952    125.1957
   851.2500   2000.0000   2000.0000     21.5382    127.3548
   851.5000   2000.0000   2000.0000     20.2352    129.3720
   851.7500   2000.0000   2000.0000     19.0307    129.7753
   852.0000   2000.0000   2000.0000     17.9875    129.5546
   852.2500   2000.0000   2000.0000     17.1705    129.4903
   852.5000   2000.0000   2000.0000     16.6171    130.5733
   852.7500   2000.0000   2000.0000     16.3128    132.4371
   853.0000   2000.0000   2000.0000     16.1854    136.7135
   853.2500   2000.0000   2000.0000     16.1316    139.8540
   853.5000   2000.0000   2000.0000     16.0670    143.2965
   853.7500   2000.0000   2000.0000     15.9663    144.0067
   854.0000   2000.0000   2000.0000     15.8603    142.6193
   854.2500   2000.0000   2000.0000     15.7982    140.6317
   854.5000   2000.0000   2000.0000     15.8115    137.2795
   854.7500   2000.0000   2000.0000     15.9015    135.3233
   855.0000   2000.0000   2000.0000     16.0481    133.3198
   855.2500   2000.0000   2000.0000     16.2276    132.6995
   855.5000   2000.0000   2000.0000     16.4254    132.4937
   855.7500   2000.0000   2000.0000     16.6332    132.4135
   856.0000   2000.0000   2000.0000     16.8375    132.1137
   856.2500   2000.0000   2000.0000     17.0110    132.3329
   856.5000   2000.0000   2000.0000     17.1187    134.7929
   856.7500   2000.0000   2000.0000     17.1355    138.1415
   857.0000   2000.0000   2000.0000     17.0623    144.2497
   857.2500   2000.0000   2000.0000     16.9246    147.5266
   857.5000   2000.0000   2000.0000     16.7535    149.5153
   857.7500   2000.0000   2000.0000     16.5655    149.0474
   858.0000   2000.0000   2000.0000     16.3564    147.3070
   858.2500   2000.0000   2000.0000     16.1124    146.3180
   858.5000   2000.0000   2000.0000     15.8257    145.5632
   858.7500   2000.0000   2000.0000     15.5006    145.5016
   859.0000   2000.0000   2000.0000     15.1509    146.1040
   859.2500   2000.0000   2000.0000     14.7952    147.0369
   859.5000   2000.0000   2000.0000     14.4522    149.0332
   859.7500   2000.0000   2000.0000     14.1370    150.3684
   860.0000   2000.0000   2000.0000     13.8574    151.4975
   860.2500   2000.0000   2000.0000     13.6126    151.3501
   860.5000   2000.0000   2000.0000     13.3960    149.9642
   860.7500   2000.0000   2000.0000     13.2009    148.7344
   861.0000   2000.0000   2000.0000     13.0256    147.4649
   861.2500   2000.0000   2000.0000     12.8769    147.6123
   861.5000   2000.0000   2000.0000     12.7670    150.1792
   861.7500   2000.0000   2000.0000     12.7080    153.5217
   862.0000   2000.0000   2000.0000     12.7082    159.7240
   862.2500   2000.0000   2000.0000     12.7760    163.3051
   862.5000   2000.0000   2000.0000     12.9268    165.9592
   862.7500   2000.0000   2000.0000     13.1844    165.7515
   863.0000   2000.0000   2000.0000     13.5718    163.6940
   863.2500   2000.0000   2000.0000     14.0947    162.1158
   863.5000   2000.0000   2000.0000     14.7343    160.2902
   863.7500   2000.0000   2000.0000     15.4678    159.1757
   864.0000   2000.0000   2000.0000     16.3127    155.9742
   864.2500   2000.0000   2000.0000     17.3621    151.3680
   864.5000   2000.0000   2000.0000     18.7721    138.6222
   864.7500   2000.0000   2000.0000     20.7104    126.1118
   865.0000   2000.0000   2000.0000     23.3020    103.8594
   865.2500   2000.0000   2000.0000     26.6086     89.0632
   865.5000   2000.0000   2000.0000     30.6690     69.9893
   865.7500   2000.0000   2000.0000     35.5770     59.8601
   866.0000   2000.0000   2000.0000     41.4931     47.9792
   866.2500   2000.0000   2000.0000     48.4817     41.8347
   866.5000   2000.0000   2000.0000     56.2322     34.7666
   866.7500   2000.0000   2000.0000     63.9728     31.1655
   867.0000   2000.0000   2000.0000     70.8489     26.8538
   867.2500   2000.0000   2000.0000     76.4532     24.5417
   867.5000   2000.0000   2000.0000     80.7773     22.0746
   867.7500   2000.0000   2000.0000     83.7111     21.2991
   868.0000   2000.0000   2000.0000     84.8281     21.6583
   868.2500   2000.0000   2000.0000     83.7585     22.9393
   868.5000   2000.0000   2000.0000     80.6319     26.3746
   868.7500   2000.0000   2000.0000     76.0306     29.5687
   869.0000   2000.0000   2000.0000     70.5788     35.4224
   869.2500   2000.0000   2000.0000     64.7003     40.0008
   869.5000   2000.0000   2000.0000     58.6591     48.4970
   869.7500   2000.0000   2000.0000     52.6893     55.8421
   870.0000   2000.0000   2000.0000     47.0256     69.7432
   870.2500   2000.0000   2000.0000     41.8742     80.2381
   870.5000   2000.0000   2000.0000     37.3713     95.2552
   870.7500   2000.0000   2000.0000     33.5696    103.2736
   871.0000   2000.0000   2000.0000     30.4428    111.3025
   871.2500   2000.0000   2000.0000     27.9184    114.5772
   871.5000   2000.0000   2000.0000     25.9092    118.7056
   871.7500   2000.0000   2000.0000     24.3166    122.4738
   872.0000   2000.0000   2000.0000     23.0169    131.2482
   872.2500   2000.0000   2000.0000     21.8722    138.7661
   872.5000   2000.0000   2000.0000     20.7861    149.5180
   872.7500   2000.0000   2000.0000     19.7582    154.3646
   873.0000   2000.0000   2000.0000     18.8666    156.9694
   873.2500   2000.0000   2000.0000     18.1924    156.5381
   873.5000   2000.0000   2000.0000     17.7571    155.4865
   873.7500   2000.0000   2000.0000     17.5125    155.7121
   874.0000   2000.0000   2000.0000     17.3671    157.5495
   874.2500   2000.0000   2000.0000     17.2331    159.0041
   874.5000   2000.0000   2000.0000     17.0647    160.2908
   874.7500   2000.0000   2000.0000     16.8634    160.3968
   875.0000   2000.0000   2000.0000     16.6481    159.9027
   875.2500   2000.0000   2000.0000     16.4278    159.4482
   875.5000   2000.0000   2000.0000     16.2058    158.6806
   875.7500   2000.0000   2000.0000     15.9983    157.9293
   876.0000   2000.0000   2000.0000     15.8383    156.1611
   876.2500   2000.0000   2000.0000     15.7574    154.7300
