~Version Information
VERS.                      2.0: CWLS Log ASCII Standard - VERSION 2.0
WRAP.                       NO: One line per depth step
~Well Information Block
STRT.FT               483.0000: 
STOP.FT              1701.5000: 
STEP.FT                 0.1000: 
NULL.                -999.2500: 
COMP.          Pioneer Natural Resources: COMPANY
WELL.            Mad Dog 42-31: WELL
FLD.           Purgatorie River: FIELD
LOC.           2064' FNL & 479' FEL: LOCATION
PROV.                 Colorado: PROVINCE
CNTY.               Las Animas: COUNTRY
SRVC.                         : SERVICE COMPANY
DATE.          Sun Oct 10 04:38:02 2004: LOG DATE
UWI.           05 071 08195 00: UNIQUE WELL ID
~Curve Information Block
DEPT.FT            0 000 00 00: Depth
LTEN.lb                       : Surface Line Tension
DCAL.in                       : CDL Caliper
RHOB.g/cc                     : CDL Bulk Density
RHOC.g/cc                     : CDL Density Correction
DPOR.pu                       : CDL Density Porosity
GR.GAPI                       : Gamma Ray
NPOR.pu                       : Neutron Porosity
~Parameter Information Block
~A  Depth       LTEN        DCAL        RHOB        RHOC        DPOR         GR         NPOR    
# ...
   802.2000    835.6912      8.1637      2.4955      0.0450      9.3664    148.2475     28.3624
   802.3000    840.5897      8.1238      2.5457      0.0904      6.3223    138.7556     29.3901
   802.4000    840.5897      8.1238      2.6051      0.1359      2.7196    128.5276     29.9614
   802.5000    867.2953      8.1201      2.6655      0.1154     -0.9389    122.4739     29.3152
   802.6000    867.2953      8.1201      2.7231      0.1777     -4.4318    121.9085     28.1196
   802.7000    867.2953      8.1201      2.7702      0.1139     -7.2819    122.1045     27.5921
   802.8000    831.2426      8.1281      2.8026      0.1409     -9.2464    118.4488     28.0242
   802.9000    831.2426      8.1281      2.8173      0.1787    -10.1380    111.7318     28.3806
   803.0000    798.4199      8.1243      2.8053      0.1226     -9.4139    103.6694     28.1102
   803.1000    798.4199      8.1243      2.7576      0.0726     -6.5216     96.9042     27.8224
   803.2000    798.4199      8.1243      2.6756     -0.0072     -1.5492     95.4751     27.9479
   803.3000    821.5484      8.1275      2.5866     -0.0704      3.8450     99.7164     28.4227
   803.4000    821.5484      8.1275      2.5264     -0.1236      7.4893    105.1320     28.7929
   803.5000    863.5224      8.1403      2.5062     -0.1255      8.7137    108.0591     28.8761
   803.6000    863.5224      8.1403      2.5099     -0.0087      8.4927    105.5128     28.9263
   803.7000    863.5224      8.1403      2.5216     -0.0303      7.7830     99.7688     28.7117
   803.8000    851.5267      8.1567      2.5404      0.0595      6.6402     99.1883     28.0227
   803.9000    851.5267      8.1567      2.5525      0.0903      5.9113    104.5245     27.2270
   804.0000    836.3746      8.1639      2.5399      0.0665      6.6740    106.5227     26.6263
   804.1000    836.3746      8.1639      2.5121     -0.0024      8.3578    103.9091     26.8180
   804.2000    836.3746      8.1639      2.4903      0.0547      9.6771    104.3038     28.0076
   804.3000    823.6931      8.1730      2.4830      0.0659     10.1218    106.3830     28.9127
   804.4000    823.6931      8.1730      2.4867      0.0755      9.8994    105.9142     28.6240
   804.5000    829.0717      8.1845      2.4904      0.1032      9.6728    105.4968     28.0249
   804.6000    829.0717      8.1845      2.4832      0.0797     10.1064    105.7591     28.1558
   804.7000    829.0717      8.1845      2.4607      0.0601     11.4709    106.4754     28.7797
   804.8000    861.3256      8.1936      2.4307      0.0405     13.2909    111.0772     29.3205
   804.9000    861.3256      8.1936      2.4169     -0.0494     14.1244    117.5665     29.4183
   805.0000    850.1639      8.2031      2.4357      0.0219     12.9863    120.4945     29.1039
   805.1000    850.1639      8.2031      2.4705      0.0451     10.8760    119.9448     28.9151
   805.2000    850.1639      8.2031      2.4894      0.1005      9.7312    122.9282     28.9303
   805.3000    861.0746      8.2135      2.4762      0.0883     10.5355    133.6485     28.9532
   805.4000    861.0746      8.2135      2.4354      0.1313     13.0031    143.2310     29.0936
   805.5000    854.5773      8.2299      2.3856      0.0567     16.0249    146.7204     29.3828
   805.6000    854.5773      8.2299      2.3500      0.0043     18.1800    149.5735     29.4651
   805.7000    854.5773      8.2299      2.3364      0.0165     19.0044    150.5857     29.3826
   805.8000    854.3523      8.2341      2.3325      0.0022     19.2441    145.2121     29.6246
   805.9000    854.3523      8.2341      2.3249      0.0276     19.7026    140.2010     30.0339
   806.0000    916.8638      8.2430      2.3177     -0.0379     20.1397    142.3603     30.4054
   806.1000    916.8638      8.2430      2.3219      0.0177     19.8827    146.0834     30.5458
   806.2000    916.8638      8.2430      2.3298      0.0411     19.4080    144.9058     30.0943
   806.3000    937.8826      8.2460      2.3317     -0.0042     19.2926    139.5102     29.6981
   806.4000    937.8826      8.2460      2.3231      0.1173     19.8135    137.5652     29.9916
   806.5000    877.7931      8.2568      2.2951      0.1112     21.5071    143.7904     30.2152
   806.6000    877.7931      8.2568      2.2593      0.1130     23.6806    150.3331     29.8554
   806.7000    877.7931      8.2568      2.2388      0.0889     24.9224    149.9640     29.5629
   806.8000    863.3246      8.2646      2.2397      0.0997     24.8679    146.9244     29.7759
   806.9000    863.3246      8.2646      2.2511      0.1038     24.1734    148.8665     30.1792
   807.0000    879.6703      8.2833      2.2684      0.0787     23.1255    154.4018     30.3536
   807.1000    879.6703      8.2833      2.3001      0.1031     21.2080    153.2913     30.1865
   807.2000    879.6703      8.2833      2.3443      0.1742     18.5263    147.3631     30.0704
   807.3000    870.7729      8.3321      2.3863      0.1772     15.9841    145.9124     30.4338
   807.4000    870.7729      8.3321      2.4174      0.1640     14.0962    147.3456     30.8977
   807.5000    830.5338      8.3621      2.4358      0.1187     12.9818    148.3133     30.9671
   807.6000    830.5338      8.3621      2.4486      0.0853     12.2031    146.7446     30.5810
   807.7000    830.5338      8.3621      2.4653      0.1012     11.1932    140.4634     29.9354
   807.8000    838.5533      8.3948      2.4709      0.1544     10.8549    133.9864     29.3861
   807.9000    838.5533      8.3948      2.4475      0.1152     12.2733    131.8902     29.1324
   808.0000    811.1790      8.3631      2.3976      0.1064     15.2998    133.1003     28.9883
   808.1000    811.1790      8.3631      2.3203      0.0523     19.9800    136.2355     28.9074
   808.2000    811.1790      8.3631      2.2074      0.0809     26.8247    139.0243     29.0910
   808.3000    788.5794      8.3633      2.0686     -0.0632     35.2388    138.4885     29.5249
   808.4000    788.5794      8.3633      1.9313     -0.0647     43.5553    131.0581     30.2084
   808.5000    860.1761      8.3708      1.8095     -0.0799     50.9376    113.3272     31.1605
   808.6000    860.1761      8.3708      1.7130     -0.1192     56.7863     93.9512     31.7139
   808.7000    860.1761      8.3708      1.6555     -0.0815     60.2713     82.8988     31.6790
   808.8000    871.0699      8.3818      1.6326     -0.0954     61.6581     80.1854     31.7271
   808.9000    871.0699      8.3818      1.6320     -0.0344     61.6946     81.3511     31.9355
   809.0000    812.4089      8.3940      1.6486     -0.0136     60.6911     78.9356     32.1877
   809.1000    812.4089      8.3940      1.6730      0.1279     59.2145     73.1672     32.4261
   809.2000    812.4089      8.3940      1.6864      0.1155     58.4012     73.6654     32.4449
   809.3000    796.0491      8.4235      1.6865      0.0709     58.3936     80.6189     32.4556
   809.4000    796.0491      8.4235      1.6889      0.0615     58.2468     84.4604     32.6912
   809.5000    873.7391      8.4479      1.7000      0.0069     57.5760     80.5692     32.9803
   809.6000    873.7391      8.4479      1.7161      0.0031     56.6028     75.5137     33.1036
   809.7000    873.7391      8.4479      1.7411     -0.0240     55.0844     76.5958     32.9950
   809.8000    875.5365      8.3943      1.7841      0.0495     52.4794     82.3039     32.7539
   809.9000    875.5365      8.3943      1.8457      0.1040     48.7472     87.2710     32.5938
   810.0000    799.9615      8.4222      1.9195      0.2057     44.2742     89.7852     32.6942
   810.1000    799.9615      8.4222      1.9975      0.1510     39.5461     92.0428     32.9674
   810.2000    799.9615      8.4222      2.0696      0.1866     35.1783     94.5777     32.9441
   810.3000    821.6218      8.5480      2.1173      0.1935     32.2870     95.9757     32.5181
   810.4000    821.6218      8.5480      2.1326      0.0788     31.3547     94.5103     32.3477
   810.5000    859.5349      8.6371      2.1246      0.0669     31.8404     92.1912     32.6214
