~Version Information
VERS.                      2.0: CWLS Log ASCII Standard - VERSION 2.0
WRAP.                       NO: One line per depth step
~Well Information Block
STRT.FT               765.6000: 
STOP.FT              2431.0000: 
STEP.FT                 0.1000: 
NULL.                -999.2500: 
COMP.          Petrogulf Corporation: COMPANY
WELL.             Norton 9-14V: WELL
FLD.           Purgatorie River: FIELD
LOC.           230' FSL & 225' FWL: LOCATION
CNTY.               Las Animas: COUNTY
SRVC.                         : SERVICE COMPANY
DATE.          Thu Oct 28 06:20:25 2004: LOG DATE
UWI.           05 071 07891 00: UNIQUE WELL ID
STAT.                 Colorado: STATE
~Curve Information Block
DEPT.FT            0 000 00 00: Depth
DCAL.in                       : CDL Caliper
RHOB.g/cc                     : CDL Bulk Density
RHOC.g/cc                     : CDL Density Correction
DPOR.pu                       : CDL Density Porosity
GR.GAPI                       : Gamma Ray
NPOR.pu                       : Neutron Porosity
~Parameter Information Block
~A  Depth       DCAL        RHOB        RHOC        DPOR         GR         NPOR    
# ...
  1764.0000      7.9582      2.5934      0.1562      3.4277     37.7933     14.0751
  1764.1000      7.9582      2.5960      0.1194      3.2725     31.3173     14.4375
  1764.2000      7.9582      2.5826      0.0713      4.0865     27.4203     14.9661
  1764.3000      7.9506      2.5714      0.0568      4.7658     27.7867     15.3253
  1764.4000      7.9506      2.5672      0.0446      5.0169     29.7997     15.4464
  1764.5000      7.9538      2.5716      0.0825      4.7542     31.8496     15.4358
  1764.6000      7.9538      2.5809      0.0772      4.1880     32.6602     15.4377
  1764.7000      7.9538      2.5811      0.0957      4.1772     32.0725     15.4422
  1764.8000      7.9871      2.5689      0.0433      4.9157     32.4521     15.2751
  1764.9000      7.9871      2.5573      0.0696      5.6205     34.5334     14.8685
  1765.0000      8.0006      2.5527      0.0422      5.8942     35.7904     14.3366
  1765.1000      8.0006      2.5549      0.0399      5.7625     35.1847     13.6456
  1765.2000      8.0006      2.5443      0.0659      6.4061     36.0944     12.4906
  1765.3000      8.0155      2.4778      0.0716     10.4348     41.0840     11.0461
  1765.4000      8.0155      2.3420     -0.0424     18.6688     46.6384      9.8201
  1765.5000      8.0894      2.1848     -0.0529     28.1925     48.0188      9.0381
  1765.6000      8.0894      2.0632     -0.1436     35.5631     45.8746      8.8715
  1765.7000      8.0894      1.9847     -0.1182     40.3226     44.9452      9.4158
  1765.8000      8.1070      1.9289     -0.1492     43.7030     49.9995     10.3803
  1765.9000      8.1070      1.8982     -0.1474     45.5659     60.1732     11.2573
  1766.0000      8.1171      1.9058     -0.0100     45.1029     69.2019     12.2979
  1766.1000      8.1171      1.9532      0.0439     42.2299     74.5927     14.3665
  1766.2000      8.1171      2.0302      0.2144     37.5622     80.1425     17.2346
  1766.3000      8.1327      2.1156      0.2594     32.3866     88.5249     19.4047
  1766.4000      8.1327      2.1905      0.3001     27.8479     97.0472     20.1179
  1766.5000      8.1869      2.2385      0.2635     24.9385    103.2793     20.0176
  1766.6000      8.1869      2.2538      0.1275     24.0131    109.5238     20.0281
  1766.7000      8.1869      2.2605      0.0598     23.6055    117.7792     20.3106
  1766.8000      8.2122      2.2943     -0.0121     21.5582    126.2672     20.6159
  1766.9000      8.2122      2.3551      0.0245     17.8756    133.4424     21.1698
  1767.0000      8.1710      2.4001      0.0815     15.1436    136.9429     22.2344
  1767.1000      8.1710      2.4069      0.0489     14.7350    136.0391     23.4960
  1767.2000      8.1710      2.3984      0.0334     15.2508    136.6842     24.4997
  1767.3000      8.1308      2.3959      0.0486     15.3971    142.2314     24.8171
  1767.4000      8.1308      2.4011      0.0437     15.0861    147.1044     24.1435
  1767.5000      8.1231      2.4136      0.0418     14.3263    146.5693     22.8537
  1767.6000      8.1231      2.4387      0.0672     12.8040    141.4286     21.7684
  1767.7000      8.1231      2.4751      0.1146     10.6013    134.6363     21.3108
  1767.8000      8.1119      2.5078      0.1633      8.6157    129.6746     21.1293
  1767.9000      8.1119      2.5277      0.1905      7.4132    129.4240     20.7686
  1768.0000      8.0878      2.5380      0.2752      6.7851    134.8541     20.2032
  1768.1000      8.0878      2.5392      0.2525      6.7152    142.7046     19.8707
  1768.2000      8.0878      2.5266      0.1754      7.4794    147.3241     20.1007
  1768.3000      8.0867      2.5013      0.1570      9.0147    147.1888     20.5665
  1768.4000      8.0867      2.4756      0.1109     10.5685    143.5958     20.8919
  1768.5000      8.0596      2.4698      0.0793     10.9223    137.4804     21.0971
  1768.6000      8.0596      2.4903      0.1453      9.6789    133.4574     21.2371
  1768.7000      8.0596      2.5258      0.1627      7.5243    135.6143     21.4733
  1768.8000      8.1007      2.5663      0.2109      5.0753    141.7099     21.8773
  1768.9000      8.1007      2.5999      0.2613      3.0350    147.4892     22.2280
  1769.0000      8.1331      2.6039      0.2705      2.7955    150.7768     22.3511
  1769.1000      8.1331      2.5647      0.2040      5.1691    152.1411     22.3525
  1769.2000      8.1331      2.5092      0.0781      8.5332    154.9529     22.4866
  1769.3000      8.1008      2.4779      0.0945     10.4309    159.7620     22.8350
  1769.4000      8.1008      2.4742      0.1204     10.6568    162.8138     22.9350
  1769.5000      8.1133      2.4725      0.1567     10.7578    161.9803     22.5039
  1769.6000      8.1133      2.4636      0.0814     11.2997    158.4637     21.9499
  1769.7000      8.1133      2.4631      0.0019     11.3281    155.6598     21.5587
  1769.8000      8.1003      2.4797      0.0894     10.3192    156.8268     21.1471
  1769.9000      8.1003      2.5065      0.0824      8.6979    163.8513     20.6855
  1770.0000      8.1153      2.5301      0.1940      7.2680    169.6579     20.4797
  1770.1000      8.1153      2.5281      0.1683      7.3902    165.6673     20.4177
  1770.2000      8.1153      2.5063      0.1077      8.7093    161.0318     20.5176
  1770.3000      8.1363      2.4932      0.1881      9.5006    167.1788     21.3285
  1770.4000      8.1363      2.4966      0.1676      9.2951    181.1954     22.7797
  1770.5000      8.1380      2.5257      0.0984      7.5304    191.3274     24.2287
  1770.6000      8.1380      2.5876      0.2171      3.7818    189.6382     25.1803
  1770.7000      8.1380      2.6543      0.2824     -0.2611    179.3199     25.5616
  1770.8000      8.1326      2.6903      0.3252     -2.4404    168.4325     25.9539
  1770.9000      8.1326      2.6829      0.2443     -1.9922    162.6010     26.6721
  1771.0000      8.0634      2.6511      0.1832     -0.0644    161.1945     27.3250
  1771.1000      8.0634      2.6276      0.1806      1.3597    161.4371     27.6548
  1771.2000      8.0634      2.6204      0.1536      1.7947    162.2223     27.6203
  1771.3000      8.0330      2.6038      0.1771      2.8012    164.3612     26.9769
  1771.4000      8.0330      2.5588      0.0619      5.5283    170.0831     25.7925
  1771.5000      8.0055      2.5049      0.0223      8.7926    174.8124     24.6392
  1771.6000      8.0055      2.4611      0.0174     11.4500    172.5609     23.6866
  1771.7000      8.0055      2.4284     -0.0379     13.4273    168.4414     22.8102
  1771.8000      7.9862      2.4174     -0.0447     14.0944    169.6263     21.9635
  1771.9000      7.9862      2.4329     -0.0001     13.1603    173.5156     21.2831
  1772.0000      7.9697      2.4531      0.0634     11.9308    173.4417     21.0408
  1772.1000      7.9697      2.4473      0.0829     12.2869    170.2375     21.0953
  1772.2000      7.9697      2.4085      0.0359     14.6389    166.2435     21.1434
  1772.3000      7.9641      2.3598     -0.0018     17.5879    159.4084     21.1417
  1772.4000      7.9641      2.3227      0.0169     19.8385    153.7966     21.1658
  1772.5000      7.9969      2.2933      0.0412     21.6192    158.7234     21.3458
  1772.6000      7.9969      2.2579      0.0468     23.7641    171.9280     21.5997
  1772.7000      7.9969      2.2282     -0.0065     25.5655    179.1298     21.9035
  1772.8000      8.0401      2.2294      0.0347     25.4933    173.8244     22.4576
  1772.9000      8.0401      2.2574      0.0186     23.7950    164.3253     23.0402
  1773.0000      8.0596      2.2891      0.0862     21.8709    157.5456     23.4215
  1773.1000      8.0596      2.3172      0.0427     20.1677    156.6032     23.8685
  1773.2000      8.0596      2.3426      0.1338     18.6296    161.9939     24.3479
  1773.3000      8.0388      2.3558      0.1437     17.8290    165.4168     24.5942
  1773.4000      8.0388      2.3568      0.1398     17.7701    161.4081     24.6863
  1773.5000      8.0463      2.3572      0.0658     17.7458    155.1774     24.8288
