~Version Information
VERS.                      2.0: CWLS Log ASCII Standard - VERSION 2.0
WRAP.                       NO: One line per depth step
~Well Information Block
STRT.FT               -11.2500: 
STOP.FT              1934.7500: 
STEP.FT                 0.2500: 
NULL.                -999.2500: 
COMP.          Pioneer Natural Resources: COMPANY
WELL.          Commander 43-26 Tr: WELL
FLD.           Purgatorie River: FIELD
LOC.           2439' FSL  & 446' FEL--------: LOCATION
PROV.                       CO: PROVINCE
CNTY.               Las Animas: COUNTRY
SRVC.          Patterson Wireline: SERVICE COMPANY
DATE.          Tue Apr 26 09:07:23 2005: LOG DATE
UWI.           05 071 08341 00: UNIQUE WELL ID
~Curve Information Block
DEPT.FT            0 000 00 00: Depth
CCL.                          : Casing Collar Locator
TT3.usec                      : CBL 3' Travel Time
AMP3.mV                       : CBL 3' Amplitude
GR.GAPI                       : Gamma Ray
~Parameter Information Block
~A  Depth       CCL         TT3         AMP3         GR     
# ...
   625.2500      0.0000    710.3557      7.6897    122.2920
   625.5000      0.0000    718.0145      7.5467    122.8419
   625.7500      0.0000    725.8250      7.4025    122.8600
   626.0000      0.0000    731.7872      7.3098    123.5339
   626.2500      0.0000    734.5108      7.2981    126.2949
   626.5000      0.0000    731.9470      7.3540    131.8421
   626.7500      0.0000    721.9611      7.4274    139.0979
   627.0000      0.0000    705.4186      7.4556    145.1157
   627.2500      0.0000    687.1923      7.3935    147.2800
   627.5000      0.0000    672.7417      7.2386    146.1449
   627.7500      0.0000    664.4212      7.0435    145.1599
   628.0000      0.0000    661.5533      6.8937    146.8411
   628.2500      0.0000    662.7747      6.8511    149.9792
   628.5000      0.0000    667.2877      6.9064    151.3724
   628.7500      0.0000    674.2754      6.9912    149.6420
   629.0000      0.0000    682.1165      7.0361    146.4844
   629.2500      0.0000    688.7063      7.0120    144.5284
   629.5000      0.0000    692.3803      6.9272    144.9543
   629.7500      0.0000    692.1685      6.8138    147.2239
   630.0000      0.0000    687.4042      6.7221    150.1884
   630.2500      0.0000    678.2101      6.6955    152.7988
   630.5000      0.0000    667.2155      6.7282    154.1391
   630.7500      0.0000    660.0510      6.7586    153.7176
   631.0000      0.0000    662.6060      6.7180    151.9655
   631.2500      0.0000    677.4380      6.5886    149.8834
   631.5000      0.0000    703.1631      6.4103    147.9465
   631.7500      0.0000    736.1583      6.2397    145.7450
   632.0000      0.0000    771.6274      6.1028    142.9361
   632.2500      0.0000    804.3477      5.9816    140.2030
   632.5000      0.0000    830.3510      5.8397    138.7509
   632.7500      0.0000    847.9932      5.6580    138.6856
   633.0000      0.0000    857.3101      5.4513    138.2089
   633.2500      0.0000    859.2213      5.2629    134.9162
   633.5000      0.0000    855.6830      5.1411    128.0805
   633.7500      0.0000    849.5741      5.1093    119.6153
   634.0000      0.0000    843.0977      5.1420    112.9471
   634.2500      0.0000    835.7090      5.1698    110.8488
   634.5000      0.0000    824.3047      5.1215    113.7703
   634.7500      0.0000    806.8534      4.9757    119.8202
   635.0000      0.0000    786.6906      4.7773    126.2487
   635.2500      0.0000    772.5654      4.6151    130.9895
   635.5000      0.0000    772.8422      4.5928    133.2775
   635.7500      0.0000    788.4230      4.7877    133.5565
   636.0000      0.0000    811.2976      5.1902    133.1592
   636.2500      0.0000    830.3696      5.6798    133.8468
   636.5000      2.0000    838.8946      6.0949    137.1348
   636.7500      2.0000    836.6713      6.3406    143.2173
   637.0000      0.0000    826.8228      6.4476    150.2420
   637.2500      0.0000    812.5255      6.5477    155.2986
   637.5000      0.0000    796.7749      6.7833    156.5016
   637.7500      0.0000    782.2088      7.1946    153.9115
   638.0000      0.0000    769.3721      7.6769    148.8354
   638.2500      0.0000    757.5781      8.0735    142.9667
   638.5000      0.0000    749.3362      8.3091    138.0076
   638.7500      0.0000    750.3852      8.4105    135.1869
   639.0000      0.0000    762.3044      8.4248    134.5162
   639.2500      0.0000    777.8578      8.3639    134.7071
   639.5000      0.0000    786.6658      8.2252    134.1256
   639.7500      0.0000    783.9644      8.0349    131.7817
   640.0000      0.0000    772.9305      7.8559    127.6398
   640.2500      0.0000    761.3350      7.7492    122.6925
   640.5000      0.0000    757.2596      7.7271    118.8782
   640.7500      0.0000    764.8524      7.7461    118.1132
   641.0000      0.0000    781.4872      7.7531    120.6649
   641.2500      0.0000    799.4099      7.7349    124.5023
   641.5000      0.0000    811.8394      7.7171    126.7915
   641.7500      0.0000    818.0295      7.7173    126.2861
   642.0000      0.0000    822.5026      7.7117    124.1392
   642.2500      0.0000    829.8024      7.6581    122.4893
   642.5000      0.0000    840.2759      7.5470    122.4180
   642.7500      0.0000    850.1170      7.4167    123.0868
   643.0000      0.0000    854.8864      7.3104    122.6403
   643.2500      0.0000    853.3311      7.2309    120.0153
   643.5000      0.0000    848.5503      7.1493    116.0725
   643.7500      0.0000    845.1581      7.0559    112.9707
   644.0000      0.0000    844.2343      6.9823    112.3905
   644.2500      0.0000    840.6888      6.9647    114.5666
   644.5000      0.0000    826.5511      7.0020    119.0132
   644.7500      0.0000    797.9357      7.0607    125.6078
   645.0000      0.0000    759.7542      7.1115    134.3045
   645.2500      0.0000    724.0032      7.1444    143.8022
   645.5000      0.0000    703.0594      7.1538    151.3927
   645.7500      0.0000    703.2218      7.1312    154.8963
   646.0000      0.0000    722.1667      7.0788    154.5179
   646.2500      0.0000    750.7164      7.0139    152.2594
   646.5000      0.0000    777.7371      6.9497    149.7495
   646.7500      0.0000    795.4633      6.8856    147.3030
   647.0000      0.0000    802.1487      6.8248    144.9537
   647.2500      0.0000    801.2280      6.7814    143.3987
   647.5000      0.0000    798.5676      6.7567    143.4883
   647.7500      0.0000    799.5451      6.7231    145.1525
   648.0000      0.0000    806.8411      6.6539    147.1526
   648.2500      0.0000    819.5236      6.5602    148.0741
   648.5000      0.0000    833.8742      6.4825    147.7532
   648.7500      0.0000    845.3098      6.4399    147.4951
   649.0000      0.0000    850.2759      6.4068    148.6887
   649.2500      0.0000    847.2396      6.3515    151.5521
   649.5000      0.0000    836.6827      6.2860    155.2252
   649.7500      0.0000    820.7977      6.2573    158.3571
   650.0000      0.0000    803.2863      6.2856    159.4571
   650.2500      0.0000    788.5159      6.3342    157.4345
   650.5000      0.0000    779.8585      6.3528    152.2151
   650.7500      0.0000    778.7047      6.3390    144.8577
   651.0000      0.0000    784.7000      6.3378    137.4837
   651.2500      0.0000    795.9120      6.3820    133.0766
   651.5000      0.0000    808.9026      6.4537    134.1923
   651.7500      0.0000    819.9767      6.5139    140.8635
   652.0000      0.0000    826.9457      6.5489    149.8719
   652.2500      0.0000    829.7018      6.5704    156.6555
   652.5000      0.0000    829.2789      6.5864    158.3037
   652.7500      0.0000    826.4308      6.5959    155.0316
   653.0000      0.0000    821.2380      6.6042    149.2872
   653.2500      0.0000    814.5667      6.6208    143.8204
   653.5000      0.0000    809.4771      6.6485    140.2466
   653.7500      0.0000    809.5924      6.6942    138.5328
   654.0000      0.0000    815.0350      6.7839    137.2891
   654.2500      0.0000    820.2831      6.9409    134.8378
   654.5000      0.0000    816.6598      7.1499    130.6930
   654.7500      0.0000    798.3018      7.3622    126.4314
   655.0000      0.0000    768.3329      7.5354    124.8879
   655.2500      0.0000    740.1118      7.6567    127.9704
   655.5000      0.0000    729.3571      7.7415    134.9850
   655.7500      0.0000    740.9305      7.8222    143.0292
   656.0000      0.0000    763.2781      7.9260    148.8646
   656.2500      0.0000    778.8808      8.0485    150.6454
   656.5000      0.0000    780.8441      8.1576    148.7277
   656.7500      0.0000    777.4504      8.2285    145.3125
   657.0000      0.0000    780.7439      8.2607    142.7985
   657.2500      0.0000    793.6707      8.2631    141.9648
   657.5000      0.0000    808.7853      8.2382    141.8003
   657.7500      0.0000    815.7003      8.1819    140.9832
   658.0000      0.0000    808.0311      8.0855    139.1506
   658.2500      0.0000    786.5054      7.9418    136.7213
   658.5000      0.0000    758.1758      7.7559    133.9664
