~Version Information
VERS.                      2.0: CWLS Log ASCII Standard - VERSION 2.0
WRAP.                       NO: One line per depth step
~Well Information Block
STRT.FT               456.0000: 
STOP.FT              1703.0000: 
STEP.FT                 0.2500: 
NULL.                -999.2500: 
COMP.          Pioneer Natural Resources: COMPANY
WELL.                Mead 11-9: WELL
FLD.           Purgatoire River: FIELD
LOC.           1127' FNL & 668' FWL: LOCATION
PROV.                 Colorado: PROVINCE
CNTY.               Las Animas: COUNTRY
SRVC.                Patterson: SERVICE COMPANY
DATE.          Fri Feb 18 16:14:34 2005: LOG DATE
UWI.           05 071 08160 00: UNIQUE WELL ID
~Curve Information Block
DEPT.FT            0 000 00 00: Depth
SN.Ohm-m                      : IEL Short Normal
SP.mV                         : IEL Spontaneous Potential
DIR.Ohm-m                     : IEL Induction Resistivity
GR.GAPI                       : Gamma Ray
~Parameter Information Block
~A  Depth        SN          SP         DIR          GR     
# ...
   623.5000   2000.0000   2000.0000     13.7293     90.1192
   623.7500   2000.0000   2000.0000     13.7179     91.9371
   624.0000   2000.0000   2000.0000     13.6415     97.7429
   624.2500   2000.0000   2000.0000     13.4939    103.8798
   624.5000   2000.0000   2000.0000     13.2956    115.4253
   624.7500   2000.0000   2000.0000     13.0815    123.4865
   625.0000   2000.0000   2000.0000     12.8855    133.8522
   625.2500   2000.0000   2000.0000     12.7296    138.4267
   625.5000   2000.0000   2000.0000     12.6235    140.3105
   625.7500   2000.0000   2000.0000     12.5702    137.9978
   626.0000   2000.0000   2000.0000     12.5712    130.3893
   626.2500   2000.0000   2000.0000     12.6262    124.1577
   626.5000   2000.0000   2000.0000     12.7296    116.0702
   626.7500   2000.0000   2000.0000     12.8687    112.4984
   627.0000   2000.0000   2000.0000     13.0266    109.7161
   627.2500   2000.0000   2000.0000     13.1874    108.9751
   627.5000   2000.0000   2000.0000     13.3415    108.8632
   627.7500   2000.0000   2000.0000     13.4867    109.4031
   628.0000   2000.0000   2000.0000     13.6229    111.1557
   628.2500   2000.0000   2000.0000     13.7436    112.8878
   628.5000   2000.0000   2000.0000     13.8277    116.2273
   628.7500   2000.0000   2000.0000     13.8380    118.9197
   629.0000   2000.0000   2000.0000     13.7307    123.4250
   629.2500   2000.0000   2000.0000     13.4788    126.4223
   629.5000   2000.0000   2000.0000     13.0983    130.2747
   629.7500   2000.0000   2000.0000     12.6538    132.1729
   630.0000   2000.0000   2000.0000     12.2337    134.0232
   630.2500   2000.0000   2000.0000     11.9117    134.7898
   630.5000   2000.0000   2000.0000     11.7211    135.4017
   630.7500   2000.0000   2000.0000     11.6446    135.2229
   631.0000   2000.0000   2000.0000     11.6207    133.5756
   631.2500   2000.0000   2000.0000     11.5659    131.6669
   631.5000   2000.0000   2000.0000     11.4141    128.4453
   631.7500   2000.0000   2000.0000     11.1536    126.4068
   632.0000   2000.0000   2000.0000     10.8311    123.2254
   632.2500   2000.0000   2000.0000     10.5210    120.6828
   632.5000   2000.0000   2000.0000     10.2906    116.4514
   632.7500   2000.0000   2000.0000     10.1804    114.0361
   633.0000   2000.0000   2000.0000     10.2002    112.4105
   633.2500   2000.0000   2000.0000     10.3317    113.2399
   633.5000   2000.0000   2000.0000     10.5351    117.7173
   633.7500   2000.0000   2000.0000     10.7672    122.5819
   634.0000   2000.0000   2000.0000     11.0034    131.2182
   634.2500   2000.0000   2000.0000     11.2478    136.5842
   634.5000   2000.0000   2000.0000     11.5206    142.0051
   634.7500   2000.0000   2000.0000     11.8337    143.3805
   635.0000   2000.0000   2000.0000     12.1773    142.9558
   635.2500   2000.0000   2000.0000     12.5297    142.1267
   635.5000   2000.0000   2000.0000     12.8777    141.6148
   635.7500   2000.0000   2000.0000     13.2312    141.9238
   636.0000   2000.0000   2000.0000     13.6218    142.1974
   636.2500   2000.0000   2000.0000     14.0851    141.0562
   636.5000   2000.0000   2000.0000     14.6412    135.7173
   636.7500   2000.0000   2000.0000     15.2877    129.7001
   637.0000   2000.0000   2000.0000     16.0159    118.5660
   637.2500   2000.0000   2000.0000     16.8431    111.0094
   637.5000   2000.0000   2000.0000     17.8298    101.1124
   637.7500   2000.0000   2000.0000     19.0688     95.9816
   638.0000   2000.0000   2000.0000     20.6554     90.8678
   638.2500   2000.0000   2000.0000     22.6570     89.1443
   638.5000   2000.0000   2000.0000     25.0806     88.3665
   638.7500   2000.0000   2000.0000     27.8401     88.3384
   639.0000   2000.0000   2000.0000     30.7452     87.9635
   639.2500   2000.0000   2000.0000     33.5507     87.2809
   639.5000   2000.0000   2000.0000     36.0573     86.1122
   639.7500   2000.0000   2000.0000     38.1755     85.8758
   640.0000   2000.0000   2000.0000     39.8944     87.1397
   640.2500   2000.0000   2000.0000     41.1925     88.8211
   640.5000   2000.0000   2000.0000     41.9932     91.0061
   640.7500   2000.0000   2000.0000     42.2165     91.3375
   641.0000   2000.0000   2000.0000     41.8626     89.9336
   641.2500   2000.0000   2000.0000     41.0522     88.3485
   641.5000   2000.0000   2000.0000     40.0127     86.1542
   641.7500   2000.0000   2000.0000     39.0237     84.9385
   642.0000   2000.0000   2000.0000     38.3509     82.7337
   642.2500   2000.0000   2000.0000     38.1586     80.5781
   642.5000   2000.0000   2000.0000     38.4177     76.5518
   642.7500   2000.0000   2000.0000     38.8586     73.9481
   643.0000   2000.0000   2000.0000     39.0223     71.0190
   643.2500   2000.0000   2000.0000     38.4673     69.8087
   643.5000   2000.0000   2000.0000     37.0780     68.8767
   643.7500   2000.0000   2000.0000     35.2138     68.7038
   644.0000   2000.0000   2000.0000     33.5178     68.9252
   644.2500   2000.0000   2000.0000     32.5624     69.3576
   644.5000   2000.0000   2000.0000     32.6240     70.6932
   644.7500   2000.0000   2000.0000     33.6067     72.3207
   645.0000   2000.0000   2000.0000     35.0209     76.2944
   645.2500   2000.0000   2000.0000     36.1059     80.1922
   645.5000   2000.0000   2000.0000     36.2278     88.2018
   645.7500   2000.0000   2000.0000     35.2703     94.8201
   646.0000   2000.0000   2000.0000     33.5789    105.5124
   646.2500   2000.0000   2000.0000     31.6223    112.2250
   646.5000   2000.0000   2000.0000     29.7900    120.2574
   646.7500   2000.0000   2000.0000     28.3532    123.6363
   647.0000   2000.0000   2000.0000     27.4527    125.1915
   647.2500   2000.0000   2000.0000     27.0878    124.0000
   647.5000   2000.0000   2000.0000     27.1309    119.7641
   647.7500   2000.0000   2000.0000     27.3850    116.0186
   648.0000   2000.0000   2000.0000     27.6627    110.1379
   648.2500   2000.0000   2000.0000     27.8527    106.4549
   648.5000   2000.0000   2000.0000     27.9454    101.3800
   648.7500   2000.0000   2000.0000     28.0263     98.0362
   649.0000   2000.0000   2000.0000     28.2540     92.5424
   649.2500   2000.0000   2000.0000     28.8101     88.5258
   649.5000   2000.0000   2000.0000     29.8275     82.6370
   649.7500   2000.0000   2000.0000     31.3299     79.3986
   650.0000   2000.0000   2000.0000     33.2104     76.1839
   650.2500   2000.0000   2000.0000     35.2778     74.9795
   650.5000   2000.0000   2000.0000     37.3365     73.6358
   650.7500   2000.0000   2000.0000     39.2584     72.5388
   651.0000   2000.0000   2000.0000     41.0166     70.3745
   651.2500   2000.0000   2000.0000     42.7055     68.7447
   651.5000   2000.0000   2000.0000     44.4818     66.2757
   651.7500   2000.0000   2000.0000     46.3971     64.6554
   652.0000   2000.0000   2000.0000     48.2526     62.1694
   652.2500   2000.0000   2000.0000     49.7118     60.3237
   652.5000   2000.0000   2000.0000     50.6670     57.0918
   652.7500   2000.0000   2000.0000     51.4372     54.8079
   653.0000   2000.0000   2000.0000     52.4761     51.9995
   653.2500   2000.0000   2000.0000     53.9383     50.9672
   653.5000   2000.0000   2000.0000     55.5566     50.6940
   653.7500   2000.0000   2000.0000     56.9209     50.9331
   654.0000   2000.0000   2000.0000     57.9050     51.0037
   654.2500   2000.0000   2000.0000     58.8322     50.5827
   654.5000   2000.0000   2000.0000     60.2725     49.5091
   654.7500   2000.0000   2000.0000     62.6809     48.9255
   655.0000   2000.0000   2000.0000     66.0116     48.9235
   655.2500   2000.0000   2000.0000     69.2920     49.6861
   655.5000   2000.0000   2000.0000     70.6432     51.8455
   655.7500   2000.0000   2000.0000     68.5968     53.6878
   656.0000   2000.0000   2000.0000     63.7040     56.6131
   656.2500   2000.0000   2000.0000     57.9549     58.6586
   656.5000   2000.0000   2000.0000     52.9419     62.1448
   656.7500   2000.0000   2000.0000     49.2720     64.7179
