~Version Information
VERS.                      2.0: CWLS Log ASCII Standard - VERSION 2.0
WRAP.                       NO: One line per depth step
~Well Information Block
STRT.FT               454.0000: 
STOP.FT              1392.0000: 
STEP.FT                 0.2500: 
NULL.                -999.2500: 
COMP.          Pioneer Natural Resources: COMPANY
WELL.          Lorencito 6-3-34-66: WELL
FLD.           Purgatoire River: FIELD
LOC.           2545' FNL & 1914' FWL: LOCATION
STAT.                 Colorado: State
CNTY.               Las Animas: COUNTY
CTRY. USA : Country
SECT. 3 : Section
TOWN. 34S : Township
RANG. 66W : Range
SRVC.                Patterson: SERVICE COMPANY
DATE.          Fri Sep 09 22:07:39 2005: LOG DATE
API.           05 071 08369 00: UNIQUE WELL ID
~Curve Information Block
DEPT.FT            0 000 00 00: Depth
SN.Ohm-m                      : IEL Short Normal
SP.mV                         : IEL Spontaneous Potential
DIR.Ohm-m                     : IEL Induction Resistivity
GR.GAPI                       : Gamma Ray
~Parameter Information Block
~A  Depth        SN          SP         DIR          GR     
# ...
  1124.0000     41.9891    -12.6475     28.1796     51.0700
  1124.2500     41.1326    -12.5899     27.0222     52.7517
  1124.5000     39.9653    -12.5093     25.8703     58.1575
  1124.7500     38.5165    -12.3584     24.7785     63.8143
  1125.0000     36.8227    -12.1531     23.7660     74.4103
  1125.2500     34.9522    -11.9674     22.8341     81.7800
  1125.5000     33.0119    -11.8848     21.9806     91.2863
  1125.7500     31.1327    -11.9362     21.2061     95.8388
  1126.0000     29.4468    -12.0815     20.5153    100.0528
  1126.2500     28.0680    -12.2622     19.9149    101.9235
  1126.5000     27.0666    -12.4617     19.4097    105.0340
  1126.7500     26.4355    -12.7012     18.9992    107.7910
  1127.0000     26.0667    -12.9908     18.6761    112.4669
  1127.2500     25.7780    -13.3138     18.4248    115.2633
  1127.5000     25.3938    -13.6576     18.2229    117.9383
  1127.7500     24.8319    -14.0420     18.0424    118.3424
  1128.0000     24.1358    -14.5147     17.8571    116.7433
  1128.2500     23.4330    -15.1201     17.6470    114.5323
  1128.5000     22.8584    -15.8630     17.4037    110.7027
  1128.7500     22.4894    -16.6846     17.1312    108.4726
  1129.0000     22.3227    -17.4782     16.8424    105.7078
  1129.2500     22.2964    -18.1482     16.5537    103.7674
  1129.5000     22.3336    -18.6632     16.2797    100.2813
  1129.7500     22.3766    -19.0491     16.0299     98.0610
  1130.0000     22.3901    -19.3445     15.8087     96.2769
  1130.2500     22.3457    -19.5798     15.6169     96.4524
  1130.5000     22.2102    -19.7905     15.4539     98.0218
  1130.7500     21.9577    -20.0201     15.3191     99.2635
  1131.0000     21.5898    -20.2980     15.2140    100.9244
  1131.2500     21.1428    -20.6181     15.1423    101.9112
  1131.5000     20.6786    -20.9379     15.1114    102.9220
  1131.7500     20.2725    -21.1958     15.1313    103.0015
  1132.0000     20.0025    -21.3409     15.2132    102.4641
  1132.2500     19.9393    -21.3570     15.3677    102.1332
  1132.5000     20.1309    -21.2622     15.6012    101.5700
  1132.7500     20.5969    -21.0825     15.9152    100.2226
  1133.0000     21.3335    -20.8214     16.3034     95.1810
  1133.2500     22.3229    -20.4566     16.7546     89.9487
  1133.5000     23.5282    -19.9680     17.2560     81.3425
  1133.7500     24.8797    -19.3690     17.7972     76.3734
  1134.0000     26.2740    -18.7049     18.3752     70.9036
  1134.2500     27.6039    -18.0181     18.9950     68.3103
  1134.5000     28.8025    -17.3192     19.6654     65.2120
  1134.7500     29.8657    -16.6000     20.3936     63.4213
  1135.0000     30.8366    -15.8642     21.1755     61.1978
  1135.2500     31.7689    -15.1382     21.9898     60.1535
  1135.5000     32.7005    -14.4554     22.7987     59.1141
  1135.7500     33.6534    -13.8247     23.5542     58.3931
  1136.0000     34.6468    -13.2152     24.2132     56.6618
  1136.2500     35.7085    -12.5910     24.7485     55.1228
  1136.5000     36.8698    -11.9782     25.1571     52.9549
  1136.7500     38.1454    -11.4835     25.4566     52.0142
  1137.0000     39.5171    -11.2151     25.6721     51.5175
  1137.2500     40.9385    -11.1647     25.8287     51.5284
  1137.5000     42.3580    -11.1635     25.9440     51.1804
  1137.7500     43.7387    -10.9782     26.0300     50.1855
  1138.0000     45.0570    -10.4920     26.0985     47.2826
  1138.2500     46.2835     -9.8024     26.1656     44.8425
  1138.5000     47.3560     -9.1193     26.2537     41.9259
  1138.7500     48.1667     -8.5705     26.3893     41.3058
  1139.0000     48.5798     -8.1281     26.5992     42.8578
  1139.2500     48.4823     -7.7058     26.9018     45.2499
  1139.5000     47.8438     -7.2811     27.3034     49.9341
  1139.7500     46.7505     -6.9216     27.7899     53.2356
  1140.0000     45.3828     -6.7284     28.3239     57.4626
  1140.2500     43.9469     -6.7676     28.8426     59.1747
  1140.5000     42.5922     -7.0355     29.2604     59.4562
  1140.7500     41.3612     -7.4732     29.4823     58.3456
  1141.0000     40.2034     -8.0092     29.4252     55.9610
  1141.2500     39.0445     -8.5921     29.0467     54.6044
  1141.5000     37.8669     -9.1900     28.3600     53.4803
  1141.7500     36.7396     -9.7661     27.4322     53.3382
  1142.0000     35.7675    -10.2654     26.3622     53.8667
  1142.2500     35.0000    -10.6298     25.2464     54.6506
  1142.5000     34.3706    -10.8308     24.1582     56.5631
  1142.7500     33.7203    -10.8900     23.1380     58.5053
  1143.0000     32.8795    -10.8640     22.1958     62.6375
  1143.2500     31.7422    -10.8014     21.3217     66.0360
  1143.5000     30.2893    -10.7077     20.4964     71.3167
  1143.7500     28.5704    -10.5557     19.6975     74.5608
  1144.0000     26.6732    -10.3236     18.9091     78.8939
  1144.2500     24.7095    -10.0209     18.1234     81.4932
  1144.5000     22.8165     -9.6837     17.3428     84.8450
  1144.7500     21.1529     -9.3611     16.5792     86.7124
  1145.0000     19.8703     -9.1055     15.8519     89.7313
  1145.2500     19.0534     -8.9683     15.1836     92.6666
  1145.5000     18.6584     -8.9874     14.5953     99.0174
  1145.7500     18.5069     -9.1662     14.1027    103.7960
  1146.0000     18.3630     -9.4530     13.7134    109.0410
  1146.2500     18.0549     -9.7438     13.4257    109.8825
  1146.5000     17.5583     -9.9192     13.2299    106.9510
  1146.7500     16.9861     -9.9056     13.1095    103.3103
  1147.0000     16.5072     -9.7152     13.0451     97.8866
  1147.2500     16.2575     -9.4231     13.0182     95.4358
  1147.5000     16.3006     -9.0975     13.0159     94.2352
  1147.7500     16.6439     -8.7528     13.0337     94.8176
  1148.0000     17.2641     -8.3615     13.0768     96.6280
  1148.2500     18.1045     -7.8935     13.1580     97.8598
  1148.5000     19.0559     -7.3429     13.2939     99.4083
  1148.7500     19.9698     -6.7322     13.5009    100.2481
  1149.0000     20.7298     -6.1019     13.7930    100.7427
  1149.2500     21.3252     -5.5028     14.1792    100.0283
  1149.5000     21.8543     -4.9945     14.6647     97.0356
  1149.7500     22.4566     -4.6324     15.2503     93.9730
  1150.0000     23.2505     -4.4357     15.9337     87.8376
  1150.2500     24.3362     -4.3633     16.7089     82.3747
  1150.5000     25.8296     -4.3251     17.5673     72.1510
  1150.7500     27.8449     -4.2221     18.4985     64.9378
  1151.0000     30.4145     -3.9910     19.4929     56.0344
  1151.2500     33.4177     -3.6211     20.5465     52.4514
  1151.5000     36.5904     -3.1380     21.6650     50.7686
  1151.7500     39.6129     -2.5793     22.8679     51.2743
  1152.0000     42.2132     -1.9970     24.1883     52.4584
  1152.2500     44.2296     -1.4678     25.6633     52.7059
  1152.5000     45.6246     -1.0688     27.3246     51.9421
  1152.7500     46.4604     -0.8345     29.1792     50.8171
  1153.0000     46.8546     -0.7515     31.1867     48.4546
  1153.2500     46.9380     -0.7954     33.2412     46.6841
  1153.5000     46.8266     -0.9505     35.1617     44.5996
  1153.7500     46.6117     -1.1928     36.7232     44.1119
  1154.0000     46.3557     -1.4812     37.7199     45.0079
  1154.2500     46.0929     -1.7803     38.0524     46.4004
  1154.5000     45.8387     -2.0750     37.7701     48.6803
  1154.7500     45.6084     -2.3429     37.0463     49.7099
  1155.0000     45.4351     -2.5291     36.0997     50.0181
  1155.2500     45.3648     -2.5762     35.1155     49.6183
  1155.5000     45.4315     -2.4822     34.2099     48.9621
  1155.7500     45.6313     -2.3177     33.4265     48.8704
  1156.0000     45.9141     -2.1869     32.7564     49.4319
  1156.2500     46.1943     -2.1706     32.1679     50.1942
  1156.5000     46.3719     -2.2997     31.6308     51.6786
  1156.7500     46.3586     -2.5746     31.1336     52.7405
  1157.0000     46.1125     -2.9940     30.6840     54.0720
  1157.2500     45.6680     -3.5556     30.2997     54.4319
