~Version Information
VERS.                      2.0: CWLS Log ASCII Standard - VERSION 2.0
WRAP.                       NO: One line per depth step
~Well Information Block
STRT.FT               260.0000: 
STOP.FT              1200.5000: 
STEP.FT                 0.2500: 
NULL.                -999.2500: 
COMP.          Evergreen Operating Corporation: COMPANY
WELL.             Justin 32-10: WELL
FLD.           Purgatorie River: FIELD
LOC.           2994' FNL & 1449' FEL: LOCATION
PROV.                 Colorado: PROVINCE
CNTY.               Las Animas: COUNTRY
SRVC.                         : SERVICE COMPANY
DATE.          Sun Aug 29 20:47:20 2004: LOG DATE
UWI.           05 071 08053 00: UNIQUE WELL ID
~Curve Information Block
DEPT.FT            0 000 00 00: Depth
LTEN.lb                       : Surface Line Tension
SN.Ohm-m                      : IEL Short Normal
SP.mV                         : IEL Spontaneous Potential
DIR.Ohm-m                     : IEL Induction Resistivity
GR.GAPI                       : Gamma Ray
~Parameter Information Block
~A  Depth       LTEN         SN          SP         DIR          GR     
# ...
  1072.0000    669.8660     29.4259     18.5876     24.8514     44.9478
  1072.2500    669.4327     28.9776     19.4735     24.7137     47.0831
  1072.5000    669.0818     28.4487     20.1804     24.5405     50.0715
  1072.7500    669.0416     27.8905     20.7123     24.3248     51.5646
  1073.0000    669.3946     27.3383     21.0764     24.0791     52.9113
  1073.2500    670.0303     26.8119     21.2809     23.8267     53.4936
  1073.5000    670.6703     26.3215     21.3346     23.5862     54.7531
  1073.7500    671.1179     25.8756     21.2457     23.3637     56.1415
  1074.0000    671.4608     25.4860     21.0220     23.1547     58.6797
  1074.2500    671.8679     25.1684     20.6715     22.9538     60.2024
  1074.5000    672.2609     24.9383     20.2028     22.7617     61.7216
  1074.7500    672.3903     24.8026     19.6271     22.5828     62.1437
  1075.0000    672.1786     24.7525     18.9598     22.4164     61.8125
  1075.2500    671.8069     24.7609     18.2221     22.2552     60.9870
  1075.5000    671.4988     24.7883     17.4424     22.0907     59.3114
  1075.7500    671.3400     24.7945     16.6550     21.9201     58.2963
  1076.0000    671.2901     24.7527     15.8977     21.7439     57.3352
  1076.2500    671.3008     24.6569     15.2067     21.5591     57.0521
  1076.5000    671.3895     24.5186     14.6109     21.3555     56.8685
  1076.7500    671.5659     24.3549     14.1270     21.1231     56.7969
  1077.0000    671.7363     24.1745     13.7569     20.8611     57.0982
  1077.2500    671.8005     23.9701     13.4888     20.5815     58.0550
  1077.5000    671.7899     23.7215     13.3026     20.3026     61.2280
  1077.7500    671.7396     23.4063     13.1768     20.0394     64.2358
  1078.0000    671.5005     23.0107     13.0969     19.7992     68.5043
  1078.2500    670.9007     22.5355     13.0607     19.5823     70.1920
  1078.5000    670.0335     21.9979     13.0794     19.3869     70.4936
  1078.7500    669.2078     21.4314     13.1742     19.2142     69.8142
  1079.0000    668.6993     20.8856     13.3692     19.0699     69.1729
  1079.2500    668.6475     20.4232     13.6823     18.9622     69.7014
  1079.5000    669.0306     20.1108     14.1185     18.8976     71.8938
  1079.7500    669.6609     20.0012     14.6656     18.8775     73.6490
  1080.0000    670.3575     20.1155     15.2952     18.8984     75.6826
  1080.2500    671.1048     20.4318     15.9671     18.9554     76.6562
  1080.5000    671.9114     20.8897     16.6367     19.0460     78.4253
  1080.7500    672.6371     21.4077     17.2620     19.1723     80.0178
  1081.0000    673.0938     21.9061     17.8101     19.3414     81.8005
  1081.2500    673.1905     22.3254     18.2603     19.5635     81.4032
  1081.5000    672.9706     22.6353     18.6056     19.8482     77.6710
  1081.7500    672.6630     22.8371     18.8511     20.2008     73.9433
  1082.0000    672.5776     22.9609     19.0110     20.6184     68.9791
  1082.2500    672.7763     23.0589     19.1051     21.0897     67.1048
  1082.5000    673.0598     23.1948     19.1547     21.5968     66.9133
  1082.7500    673.4096     23.4297     19.1792     22.1169     68.4611
  1083.0000    674.0795     23.8105     19.1930     22.6285     72.9079
  1083.2500    675.0788     24.3623     19.2045     23.1184     76.5754
  1083.5000    675.9563     25.0848     19.2153     23.5895     80.9214
  1083.7500    676.2877     25.9493     19.2212     24.0611     81.7998
  1084.0000    676.0815     26.9018     19.2136     24.5587     79.3196
  1084.2500    675.6033     27.8753     19.1808     25.1014     75.5464
  1084.5000    675.0631     28.8116     19.1095     25.6946     68.1109
  1084.7500    674.5369     29.6794     18.9849     26.3307     62.8764
  1085.0000    673.9968     30.4765     18.7915     26.9959     56.0933
  1085.2500    673.3759     31.2145     18.5119     27.6761     52.9270
  1085.5000    672.7353     31.8995     18.1270     28.3591     50.4632
  1085.7500    672.3580     32.5234     17.6154     29.0291     49.9921
  1086.0000    672.5215     33.0674     16.9526     29.6616     50.1631
  1086.2500    673.1748     33.5152     16.1117     30.2267     50.4543
  1086.5000    673.9730     33.8635     15.0635     30.7017     50.6827
  1086.7500    674.5964     34.1264     13.7776     31.0838     50.5308
  1087.0000    674.9340     34.3302     12.2252     31.3907     49.8895
  1087.2500    675.0552     34.5054     10.3829     31.6536     49.4528
  1087.5000    675.1274     34.6777      8.2395     31.9096     49.4348
  1087.7500    675.2775     34.8636      5.8036     32.1962     50.0967
  1088.0000    675.4608     35.0704      3.1131     32.5438     51.9399
  1088.2500    675.5403     35.2991      0.2435     32.9652     53.3226
  1088.5000    675.4662     35.5485     -2.6878     33.4504     54.8504
  1088.7500    675.2747     35.8191     -5.5244     33.9732     55.3086
  1089.0000    675.0170     36.1146     -8.0821     34.5082     55.4004
  1089.2500    674.8284     36.4443    -10.1704     35.0450     55.2749
  1089.5000    674.9088     36.8283    -11.6189     35.5860     54.6095
  1089.7500    675.2714     37.3059    -12.3059     36.1341     53.4271
  1090.0000    675.6889     37.9364    -12.1801     36.6821     50.2386
  1090.2500    675.9960     38.7813    -11.2703     37.2155     47.7337
  1090.5000    676.2383     39.8668     -9.6806     37.7222     45.3475
  1090.7500    676.4690     41.1462     -7.5724     38.1921     45.6305
  1091.0000    676.6170     42.4907     -5.1366     38.6064     49.1382
  1091.2500    676.5410     43.7210     -2.5644     38.9296     52.8960
  1091.5000    676.0753     44.6664     -0.0226     39.1237     58.9232
  1091.7500    675.2154     45.2188      2.3623     39.1730     62.2357
  1092.0000    674.3858     45.3572      4.5102     39.0919     65.2595
  1092.2500    674.1974     45.1387      6.3838     38.9051     66.0699
  1092.5000    674.7759     44.6653      7.9802     38.6258     66.2874
  1092.7500    675.6249     44.0457      9.3192     38.2563     66.1751
  1093.0000    676.2339     43.3671     10.4333     37.8039     65.6406
  1093.2500    676.5042     42.6825     11.3587     37.2916     64.7478
  1093.5000    676.5875     42.0149     12.1296     36.7545     62.3411
  1093.7500    676.6544     41.3677     12.7760     36.2311     60.3298
  1094.0000    676.7986     40.7369     13.3216     35.7562     57.7011
  1094.2500    676.9153     40.1193     13.7851     35.3541     56.5826
  1094.5000    676.7783     39.5165     14.1808     35.0332     55.7974
  1094.7500    676.3544     38.9362     14.5200     34.7806     55.6889
  1095.0000    675.8517     38.3890     14.8123     34.5617     55.9711
  1095.2500    675.4861     37.8832     15.0665     34.3287     56.2988
  1095.5000    675.4631     37.4197     15.2916     34.0412     56.5095
  1095.7500    675.9852     36.9910     15.4970     33.6904     56.3459
  1096.0000    676.9282     36.5853     15.6924     33.3089     56.1136
  1096.2500    677.7655     36.1932     15.8871     32.9571     56.2770
  1096.5000    678.1255     35.8134     16.0898     32.6914     56.6259
  1096.7500    678.1204     35.4535     16.3069     32.5354     56.3317
  1097.0000    677.9511     35.1267     16.5424     32.4687     54.9174
  1097.2500    677.6161     34.8443     16.7973     32.4419     54.1474
  1097.5000    677.1735     34.6110     17.0691     32.4091     55.1139
  1097.7500    676.8527     34.4243     17.3527     32.3558     57.4936
  1098.0000    676.7573     34.2798     17.6407     32.3009     62.4030
  1098.2500    676.7924     34.1768     17.9245     32.2779     65.4220
  1098.5000    676.9562     34.1229     18.1953     32.3151     68.1543
  1098.7500    677.4304     34.1333     18.4446     32.4322     68.4531
  1099.0000    678.3680     34.2279     18.6652     32.6451     66.9454
  1099.2500    679.7386     34.4247     18.8519     32.9646     65.3707
  1099.5000    681.2746     34.7348     19.0015     33.3857     63.6913
  1099.7500    682.4397     35.1571     19.1133     33.8779     63.3933
