~Version Information
VERS.                      2.0: CWLS Log ASCII Standard - VERSION 2.0
WRAP.                       NO: One line per depth step
~Well Information Block
STRT.FT               750.0000: 
STOP.FT              2433.0000: 
STEP.FT                 0.2500: 
NULL.                -999.2500: 
COMP.          Petrogulf Corporation: COMPANY
WELL.           McDaniel 9-34V: WELL
FLD.           Purgatorie River: FIELD
LOC.           620' FSL & 1800' FEL: LOCATION
PROV.                 Colorado: PROVINCE
CNTY.               Las Animas: COUNTRY
SRVC.                Patterson: SERVICE COMPANY
DATE.          Tue Sep 27 19:56:11 2005: LOG DATE
UWI.                          : UNIQUE WELL ID
~Curve Information Block
DEPT.FT            0 000 00 00: Depth
SP.mV                         : DIL Spontaneous Potential
RILD.Ohm-m                    : DIL Deep Resistivity
RILM.Ohm-m                    : DIL Medium Resistivity
RLL3.Ohm-m                    : DIL Shallow Resistivity
GR.GAPI                       : Gamma Ray
~Parameter Information Block
~A  Depth        SP         RILD        RILM        RLL3         GR     
# ...
  1842.0000    125.5940     16.8271     17.7178     25.7266     65.4051
  1842.2500    126.0482     16.6128     16.9572     21.6757     65.0214
  1842.5000    126.5144     16.4855     16.3197     18.3585     67.8587
  1842.7500    126.9532     16.4183     15.8298     16.1561     72.0401
  1843.0000    127.3315     16.3806     15.4956     15.0785     81.0751
  1843.2500    127.6266     16.3485     15.3131     14.9762     88.1062
  1843.5000    127.8271     16.3108     15.2704     15.6591     98.1299
  1843.7500    127.9317     16.2701     15.3512     16.9295    103.3565
  1844.0000    127.9463     16.2398     15.5368     18.5830    108.2289
  1844.2500    127.8813     16.2387     15.8075     20.4066    109.7038
  1844.5000    127.7488     16.2874     16.1435     22.1809    109.7035
  1844.7500    127.5612     16.4031     16.5258     23.6902    108.1292
  1845.0000    127.3305     16.5967     16.9373     24.7549    103.0530
  1845.2500    127.0687     16.8700     17.3635     25.2933     98.0620
  1845.5000    126.7873     17.2149     17.7938     25.3679     89.5510
  1845.7500    126.4970     17.6155     18.2223     25.1461     84.2005
  1846.0000    126.2077     18.0498     18.6480     24.7820     77.5359
  1846.2500    125.9269     18.4936     19.0752     24.3243     73.8143
  1846.5000    125.6589     18.9241     19.5127     23.7537     68.5375
  1846.7500    125.4044     19.3250     19.9723     23.1105     64.9959
  1847.0000    125.1599     19.6918     20.4661     22.5733     59.8026
  1847.2500    124.9179     20.0312     21.0024     22.4255     56.5325
  1847.5000    124.6681     20.3518     21.5819     22.9805     51.7391
  1847.7500    124.3985     20.6520     22.1940     24.5182     48.4670
  1848.0000    124.0980     20.9165     22.8149     27.1721     43.7090
  1848.2500    123.7579     21.1277     23.4109     30.7398     41.0187
  1848.5000    123.3740     21.2833     23.9440     34.5680     37.9998
  1848.7500    122.9474     21.4026     24.3820     37.7087     36.4795
  1849.0000    122.4844     21.5188     24.7075     39.3289     34.4947
  1849.2500    121.9957     21.6632     24.9230     39.1106     33.2688
  1849.5000    121.4946     21.8528     25.0502     37.3768     31.6126
  1849.7500    120.9954     22.0865     25.1232     34.8921     30.6865
  1850.0000    120.5116     22.3504     25.1794     32.4885     29.7683
  1850.2500    120.0554     22.6262     25.2510     30.7361     29.6261
  1850.5000    119.6376     22.8980     25.3602     29.7981     30.1524
  1850.7500    119.2677     23.1547     25.5182     29.4794     30.7674
  1851.0000    118.9545     23.3892     25.7270     29.4027     31.4302
  1851.2500    118.7052     23.6005     25.9837     29.2484     31.4009
  1851.5000    118.5249     23.7963     26.2831     28.9634     30.6625
  1851.7500    118.4142     23.9932     26.6207     28.8121     30.0558
  1852.0000    118.3686     24.2100     26.9916     29.2169     29.6969
  1852.2500    118.3779     24.4586     27.3908     30.4781     30.0138
  1852.5000    118.4290     24.7374     27.8126     32.5324     31.1799
  1852.7500    118.5091     25.0349     28.2516     34.8762     32.2565
  1853.0000    118.6111     25.3394     28.7043     36.7295     33.9568
  1853.2500    118.7367     25.6506     29.1693     37.4402     34.7447
  1853.5000    118.8983     25.9774     29.6464     36.9285     34.6700
  1853.7500    119.1164     26.3217     30.1323     35.8095     33.7877
  1854.0000    119.4149     26.6581     30.6156     35.0054     32.2074
  1854.2500    119.8153     26.9328     31.0725     35.1533     31.6698
  1854.5000    120.3304     27.0881     31.4656     36.3114     32.0553
  1854.7500    120.9618     27.0968     31.7480     38.0795     32.8823
  1855.0000    121.6990     26.9764     31.8727     39.8400     34.3825
  1855.2500    122.5217     26.7740     31.8055     40.9201     35.3774
  1855.5000    123.4046     26.5371     31.5346     40.7653     37.0715
  1855.7500    124.3217     26.2889     31.0750     39.1737     38.7827
  1856.0000    125.2506     26.0213     30.4612     36.4304     43.4353
  1856.2500    126.1753     25.7032     29.7352     33.1932     48.6097
  1856.5000    127.0872     25.2989     28.9327     30.1947     59.6879
  1856.7500    127.9836     24.7834     28.0747     27.9529     68.4419
  1857.0000    128.8652     24.1498     27.1660     26.6409     80.6912
  1857.2500    129.7326     23.4082     26.1999     26.1311     86.3508
  1857.5000    130.5839     22.5837     25.1687     26.1161     89.2318
  1857.7500    131.4133     21.7121     24.0722     26.2160     87.8207
  1858.0000    132.2114     20.8310     22.9234     26.0650     83.4361
  1858.2500    132.9675     19.9719     21.7474     25.4022     80.8415
  1858.5000    133.6715     19.1556     20.5762     24.1547     79.7605
  1858.7500    134.3154     18.3928     19.4418     22.4621     81.6437
  1859.0000    134.8926     17.6892     18.3716     20.6116     88.4865
  1859.2500    135.3971     17.0487     17.3857     18.9066     94.9687
  1859.5000    135.8206     16.4754     16.4974     17.5292    105.1367
  1859.7500    136.1519     15.9723     15.7142     16.4851    110.7988
  1860.0000    136.3765     15.5388     15.0391     15.6685    116.6324
  1860.2500    136.4781     15.1696     14.4717     14.9915    119.2291
  1860.5000    136.4415     14.8567     14.0090     14.4631    122.5473
  1860.7500    136.2556     14.5938     13.6467     14.1499    124.5164
  1861.0000    135.9178     14.3789     13.3796     14.0754    126.1099
  1861.2500    135.4367     14.2141     13.2033     14.1752    125.8889
  1861.5000    134.8351     14.1031     13.1138     14.3571    124.2753
  1861.7500    134.1514     14.0497     13.1080     14.5872    122.7908
  1862.0000    133.4384     14.0567     13.1830     14.9012    119.4282
  1862.2500    132.7608     14.1258     13.3355     15.3418    115.8481
  1862.5000    132.1879     14.2564     13.5613     15.9008    109.1725
  1862.7500    131.7845     14.4452     13.8547     16.5226    105.3438
  1863.0000    131.6001     14.6853     14.2088     17.1527    102.1870
  1863.2500    131.6589     14.9677     14.6152     17.7816    100.9979
  1863.5000    131.9532     15.2817     15.0644     18.4510     97.5278
  1863.7500    132.4420     15.6162     15.5457     19.2144     93.1879
  1864.0000    133.0577     15.9615     16.0469     20.0771     85.0662
  1864.2500    133.7170     16.3095     16.5546     20.9632     80.2056
  1864.5000    134.3359     16.6533     17.0546     21.7467     75.2942
  1864.7500    134.8438     16.9853     17.5334     22.3236     73.3053
  1865.0000    135.1934     17.2959     17.9800     22.6609     70.9631
  1865.2500    135.3640     17.5762     18.3867     22.7961     69.5708
  1865.5000    135.3598     17.8206     18.7492     22.8170     68.3478
  1865.7500    135.2023     18.0279     19.0653     22.8363     68.3953
  1866.0000    134.9223     18.1994     19.3331     22.9407     69.1957
  1866.2500    134.5522     18.3357     19.5503     23.1270     69.4942
  1866.5000    134.1218     18.4345     19.7141     23.2893     68.7110
  1866.7500    133.6562     18.4924     19.8226     23.2991     67.3666
  1867.0000    133.1766     18.5075     19.8763     23.1175     64.9750
  1867.2500    132.7009     18.4843     19.8794     22.8330     63.9922
  1867.5000    132.2446     18.4381     19.8407     22.5745     64.8788
  1867.7500    131.8191     18.3964     19.7738     22.3833     67.3142
  1868.0000    131.4306     18.3927     19.6954     22.1788     72.6664
  1868.2500    131.0785     18.4539     19.6243     21.8594     76.2578
  1868.5000    130.7557     18.5894     19.5796     21.4304     80.4034
  1868.7500    130.4513     18.7885     19.5782     21.0203     82.3180
  1869.0000    130.1545     19.0272     19.6340     20.7739     84.3598
  1869.2500    129.8609     19.2789     19.7561     20.7516     85.1445
  1869.5000    129.5758     19.5211     19.9488     20.9512     84.9267
  1869.7500    129.3160     19.7384     20.2111     21.4115     83.7649
