~Version Information
VERS.                      2.0: CWLS Log ASCII Standard - VERSION 2.0
WRAP.                       NO: One line per depth step
~Well Information Block
STRT.FT               840.0000: 
STOP.FT              2268.0000: 
STEP.FT                 0.2500: 
NULL.                -999.2500: 
COMP.          Pioneer Natural Resources: COMPANY
WELL.              Tonto 42-23: WELL
FLD.           Purgatoire River: FIELD
LOC.           2217' FNL & 423' FEL: LOCATION
PROV.                 Colorado: PROVINCE
CNTY.               Las Animas: COUNTRY
SRVC.                Patterson: SERVICE COMPANY
DATE.          Sun Apr 17 01:24:47 2005: LOG DATE
UWI.           05 071 08335 00: UNIQUE WELL ID
~Curve Information Block
DEPT.FT            0 000 00 00: Depth
SN.Ohm-m                      : IEL Short Normal
SP.mV                         : IEL Spontaneous Potential
DIR.Ohm-m                     : IEL Induction Resistivity
GR.GAPI                       : Gamma Ray
~Parameter Information Block
~A  Depth        SN          SP         DIR          GR     
# ...
  1208.5000     15.9700   -140.9581     17.2049     62.8084
  1208.7500     16.0290   -141.1776     17.0235     62.6677
  1209.0000     16.0941   -141.4401     16.8425     63.4213
  1209.2500     16.0530   -141.7276     16.6865     64.5103
  1209.5000     15.9340   -142.0081     16.5715     66.2157
  1209.7500     15.8963   -142.2468     16.5002     66.7793
  1210.0000     16.0252   -142.4218     16.4656     66.0956
  1210.2500     16.2585   -142.5327     16.4595     64.6209
  1210.5000     16.4774   -142.5989     16.4805     61.5417
  1210.7500     16.5926   -142.6509     16.5332     59.5677
  1211.0000     16.6023   -142.7192     16.6219     57.7175
  1211.2500     16.5695   -142.8202     16.7481     57.4151
  1211.5000     16.5491   -142.9467     16.9133     58.1259
  1211.7500     16.5952   -143.0725     17.1236     59.1648
  1212.0000     16.7600   -143.1688     17.3857     61.1520
  1212.2500     16.9841   -143.2218     17.6928     62.4081
  1212.5000     17.0787   -143.2401     18.0090     63.5892
  1212.7500     16.9114   -143.2502     18.2659     63.7679
  1213.0000     16.5619   -143.2850     18.3860     63.3294
  1213.2500     16.2388   -143.3740     18.3285     62.8291
  1213.5000     16.0804   -143.5382     18.1198     62.1133
  1213.7500     16.0869   -143.7884     17.8386     61.6201
  1214.0000     16.1906   -144.1229     17.5641     60.4181
  1214.2500     16.3202   -144.5296     17.3335     59.1638
  1214.5000     16.4616   -144.9941     17.1338     57.1175
  1214.7500     16.6872   -145.5091     16.9241     56.2512
  1215.0000     17.0221   -146.0777     16.6703     56.3219
  1215.2500     17.3479   -146.7133     16.3668     57.0200
  1215.5000     17.5850   -147.4385     16.0337     57.7396
  1215.7500     17.8076   -148.2854     15.6899     57.2959
  1216.0000     18.0905   -149.2956     15.3223     55.1957
  1216.2500     18.4477   -150.5194     14.8654     53.5406
  1216.5000     18.8759   -152.0113     14.2094     52.0780
  1216.7500     19.3177   -153.8226     13.2519     52.0920
  1217.0000     19.7113   -155.9961     11.9778     53.1089
  1217.2500     20.0847   -158.5675     10.4984     53.9128
  1217.5000     20.4687   -161.5708      8.9916     54.5805
  1217.7500     20.7993   -165.0466      7.6040     54.5581
  1218.0000     20.9717   -169.0545      6.4050     54.2239
  1218.2500     20.9084   -173.6865      5.4056     54.1436
  1218.5000     20.5973   -179.0831      4.5933     54.4768
  1218.7500     20.0757   -185.4489      3.9541     54.8901
  1219.0000     19.3324   -193.0580      3.4776     55.5317
  1219.2500     18.2694   -202.2252      3.1565     55.9800
  1219.5000     16.7604   -213.2214      2.9868     57.1460
  1219.7500     14.7559   -226.1337      2.9716     58.6828
  1220.0000     12.4392   -240.7016      3.1265     62.6233
  1220.2500     10.2705   -256.1758      3.4862     66.2698
  1220.5000      8.7173   -271.2755      4.1100     72.5561
  1220.7500      7.9079   -284.3694      5.0823     76.7042
  1221.0000      7.6928   -293.9557      6.4953     81.9261
  1221.2500      8.0830   -299.2678      8.3929     84.4001
  1221.5000      9.6473   -300.5994     10.6863     86.4681
  1221.7500     13.4182   -299.0688     13.1830     86.9128
  1222.0000     19.9342   -296.0109     15.9794     86.8453
  1222.2500     28.3945   -292.4673     20.4037     86.9056
  1222.5000     37.2337   -289.0444     33.1980     88.0936
  1222.7500     45.2172   -286.0408    404.8469     89.7315
  1223.0000     51.7536   -283.6194 100000.0000     92.5918
  1223.2500     56.6731   -281.9016 100000.0000     93.9685
  1223.5000     60.0595   -280.9940 100000.0000     94.3998
  1223.7500     62.2118   -280.9870 100000.0000     93.6102
  1224.0000     63.5768   -281.9590 100000.0000     91.1437
  1224.2500     64.5476   -283.9671 100000.0000     88.8036
  1224.5000     65.2725   -287.0063 100000.0000     84.7066
  1224.7500     65.7067   -290.9207 100000.0000     82.0384
  1225.0000     65.8054   -295.3476 100000.0000     78.8171
  1225.2500     65.5547   -299.8566 100000.0000     77.3336
  1225.5000     64.9229   -304.2823 100000.0000     76.0139
  1225.7500     63.9088   -308.9969 100000.0000     75.5993
  1226.0000     62.5439   -314.8926 100000.0000     75.3949
  1226.2500     60.7762   -323.0959      5.8423     75.4308
  1226.5000     58.3881   -334.4158      1.6473     75.8791
  1226.7500     55.0548   -348.5981      0.7279     76.6627
  1227.0000     50.4620   -363.9492      0.3735     78.6746
  1227.2500     44.4178   -377.9328      0.2036     80.2842
  1227.5000     36.9644   -388.4770      0.1187     82.4679
  1227.7500     28.5362   -394.9672      0.0775     83.7501
  1228.0000     20.1140   -398.1714      0.0581     86.0177
  1228.2500     13.0322   -399.3331      0.0499     88.1290
  1228.5000      8.2593   -399.2415      0.0485     92.4799
  1228.7500      5.7829   -397.7095      0.0529     96.1056
  1229.0000      4.8184   -393.4587      0.0636    101.8768
  1229.2500      4.5469   -384.5696      0.0829    105.1450
  1229.5000      4.5834   -369.7674      0.1147    108.0746
  1229.7500      4.8926   -349.9778      0.1655    108.7150
  1230.0000      5.5427   -328.6685      0.2471    108.5840
  1230.2500      6.6651   -310.2932      0.3843    108.2968
  1230.5000      8.3293   -298.1524      0.6386    108.0804
  1230.7500     10.2128   -293.5006      1.2131    108.2524
  1231.0000     11.6259   -296.2050      3.1975    109.1022
  1231.2500     11.9838   -305.7603   1601.0442    109.7705
  1231.5000     11.1677   -321.4167 100000.0000    109.4801
  1231.7500      9.4942   -341.3013 100000.0000    107.4292
  1232.0000      7.5184   -361.8575 100000.0000    101.0895
  1232.2500      5.8250   -379.0254 100000.0000     95.4801
  1232.5000      4.7681   -390.4577 100000.0000     87.0533
  1232.7500      4.3168   -396.4658 100000.0000     82.0601
  1233.0000      4.1820   -398.9250 100000.0000     75.0067
  1233.2500      4.1170   -399.6127 100000.0000     69.9206
  1233.5000      4.0881   -399.3723 100000.0000     61.3283
  1233.7500      4.2080   -398.0724 100000.0000     55.4890
  1234.0000      4.6252   -394.8991 100000.0000     48.1825
  1234.2500      5.4116   -388.9200 100000.0000     44.9879
  1234.5000      6.3819   -379.8755 100000.0000     42.7730
  1234.7500      7.0656   -368.6379 100000.0000     42.5749
  1235.0000      7.0461   -356.9615 100000.0000     43.6041
  1235.2500      6.3523   -346.7236 100000.0000     45.2373
  1235.5000      5.4247   -338.9555      4.0613     49.6352
  1235.7500      4.7165   -333.0565      1.7590     53.9874
  1236.0000      4.3839   -327.1639      1.0409     61.8822
  1236.2500      4.3343   -319.8107      0.6962     67.0354
  1236.5000      4.4300   -311.1527      0.4923     72.4978
  1236.7500      4.5653   -302.5135      0.3577     73.7428
  1237.0000      4.6845   -295.1299      0.2665     72.1524
  1237.2500      4.7804   -289.3281      0.2082     70.1260
  1237.5000      4.8321   -284.3628      0.1782     69.3068
  1237.7500      4.8144   -278.8114      0.1753     72.0156
  1238.0000      4.7780   -271.4439      0.2044     81.1162
  1238.2500      4.8279   -262.0535      0.2813     88.6963
  1238.5000      5.0504   -251.5904      0.4432     97.6863
  1238.7500      5.5665   -241.4565      0.7906     99.9329
  1239.0000      6.5919   -232.5424      1.7259     96.4179
  1239.2500      8.2848   -224.7351      6.8620     90.1364
  1239.5000     10.5289   -217.2116 100000.0000     77.4913
  1239.7500     13.0175   -209.1864 100000.0000     68.9371
  1240.0000     15.6294   -200.4903 100000.0000     59.4190
  1240.2500     18.5341   -191.5809 100000.0000     56.8339
  1240.5000     21.6586   -183.1096 100000.0000     59.4456
  1240.7500     24.3152   -175.4982 100000.0000     64.7956
  1241.0000     25.7673   -168.8375 100000.0000     75.6636
  1241.2500     25.8966   -163.0421 100000.0000     83.1343
  1241.5000     25.1469   -158.0279 100000.0000     92.3695
  1241.7500     24.1255   -153.7699 100000.0000     96.3829
