~Version Information
 VERS.                      2.0: CWLS Log ASCII Standard - VERSION 2.0
 WRAP.                       NO: One line per depth step
 ~Well Information Block
 STRT.FT               887.5000: 
 STOP.FT              2605.5000: 
 STEP.FT                 0.2500: 
 NULL.                -999.2500: 
 COMP.          Petrogulf Corporation: COMPANY
 WELL.               YWAM 7-23V: WELL
 FLD.           Purgatorie River: FIELD
 LOC.           230' FSL & 225' FWL: LOCATION
 CNTY.               Las Animas: COUNTY
 SRVC.                         : SERVICE COMPANY
 DATE.          Sat Oct 30 08:34:45 2004: LOG DATE
 UWI.           05 071 08227 00: UNIQUE WELL ID
 STAT.                 Colorado: STATE
 PROV.                         :Province
 ~Curve Information Block
 DEPT.FT            0 000 00 00: Depth
 SP.mV                         : DIL Spontaneous Potential
 RILD.Ohm-m                    : DIL Deep Resistivity
 RILM.Ohm-m                    : DIL Medium Resistivity
 RLL3.Ohm-m                    : DIL Shallow Resistivity
 GR.GAPI                       : Gamma Ray
 ~Parameter Information Block
 ~A  Depth        SP         RILD        RILM        RLL3         GR     
# ...
  2119.5000    -83.5341     17.1111     18.9523     21.6719     58.0851
  2119.7500    -82.5499     17.1501     19.0031     22.2977     54.2771
  2120.0000    -81.2640     17.2345     19.0754     22.8791     48.4121
  2120.2500    -79.7643     17.3635     19.1549     23.3285     45.4873
  2120.5000    -78.1572     17.5315     19.2305     23.6016     43.3296
  2120.7500    -76.5477     17.7295     19.2970     23.6970     43.2359
  2121.0000    -75.0261     17.9458     19.3556     23.6437     44.4470
  2121.2500    -73.6693     18.1675     19.4130     23.4844     45.6782
  2121.5000    -72.5507     18.3809     19.4791     23.2618     47.3688
  2121.7500    -71.7403     18.5740     19.5635     23.0125     48.1454
  2122.0000    -71.3074     18.7370     19.6723     22.7699     48.9105
  2122.2500    -71.2974     18.8641     19.8066     22.5692     49.3579
  2122.5000    -71.7088     18.9533     19.9611     22.4495     49.9245
  2122.7500    -72.4755     19.0071     20.1247     22.4466     49.9107
  2123.0000    -73.4721     19.0316     20.2825     22.5788     48.6328
  2123.2500    -74.5420     19.0352     20.4190     22.8329     46.8251
  2123.5000    -75.5374     19.0264     20.5214     23.1582     43.2945
  2123.7500    -76.3590     19.0128     20.5832     23.4763     41.1518
  2124.0000    -76.9682     18.9996     20.6054     23.7033     39.5516
  2124.2500    -77.3748     18.9900     20.5969     23.7784     39.8629
  2124.5000    -77.6161     18.9854     20.5721     23.6858     41.9496
  2124.7500    -77.7224     18.9857     20.5487     23.4631     43.9726
  2125.0000    -77.7073     18.9912     20.5442     23.1924     47.4253
  2125.2500    -77.5734     19.0024     20.5738     22.9791     49.7004
  2125.5000    -77.3275     19.0204     20.6483     22.9231     52.2092
  2125.7500    -77.0006     19.0475     20.7738     23.0940     52.7883
  2126.0000    -76.6561     19.0863     20.9516     23.5155     51.8731
  2126.2500    -76.3836     19.1404     21.1782     24.1622     50.4430
  2126.5000    -76.2834     19.2149     21.4472     24.9691     47.9384
  2126.7500    -76.4476     19.3165     21.7507     25.8504     46.4071
  2127.0000    -76.9337     19.4542     22.0808     26.7211     44.6623
  2127.2500    -77.7459     19.6381     22.4319     27.5158     43.9686
  2127.5000    -78.8262     19.8789     22.8021     28.1991     43.6190
  2127.7500    -80.0623     20.1850     23.1951     28.7686     43.6616
  2128.0000    -81.3080     20.5603     23.6185     29.2500     43.5855
  2128.2500    -82.4247     21.0018     24.0836     29.6930     43.1390
  2128.5000    -83.3235     21.4984     24.6038     30.1686     41.7172
  2128.7500    -83.9903     22.0321     25.1922     30.7701     40.4603
  2129.0000    -84.4936     22.5802     25.8615     31.6160     38.7683
  2129.2500    -84.9566     23.1218     26.6220     32.8472     38.0979
  2129.5000    -85.5159     23.6426     27.4822     34.6142     37.7750
  2129.7500    -86.2692     24.1401     28.4487     37.0483     37.6555
  2130.0000    -87.2401     24.6248     29.5249     40.2219     36.8910
  2130.2500    -88.3685     25.1163     30.7100     44.1122     35.8293
  2130.5000    -89.5291     25.6387     31.9964     48.5906     33.7657
  2130.7500    -90.5690     26.2137     33.3665     53.4462     32.4784
  2131.0000    -91.3527     26.8524     34.7903     58.4476     31.2276
  2131.2500    -91.7896     27.5532     36.2268     63.4180     30.9072
  2131.5000    -91.8544     28.2981     37.6272     68.2898     30.8278
  2131.7500    -91.5804     29.0526     38.9433     73.1000     30.7602
  2132.0000    -91.0389     29.7679     40.1348     77.9144     30.5617
  2132.2500    -90.3189     30.3855     41.1754     82.7029     30.5636
  2132.5000    -89.5080     30.8430     42.0495     87.2228     30.8920
  2132.7500    -88.6777     31.0827     42.7452     90.9808     31.0510
  2133.0000    -87.8801     31.0583     43.2398     93.3202     30.5490
  2133.2500    -87.1450     30.7424     43.4868     93.6256     29.6298
  2133.5000    -86.4778     30.1289     43.4094     91.5693     27.9185
  2133.7500    -85.8645     29.2354     42.9039     87.2870     27.0827
  2134.0000    -85.2799     28.1007     41.8645     81.3907     26.9942
  2134.2500    -84.7045     26.7781     40.2191     74.7943     27.7897
  2134.5000    -84.1473     25.3315     37.9698     68.4191     29.8262
  2134.7500    -83.6532     23.8262     35.2144     62.9028     31.3760
  2135.0000    -83.2934     22.3213     32.1327     58.4280     33.5817
  2135.2500    -83.1442     20.8654     28.9411     54.7328     34.9160
  2135.5000    -83.2465     19.4934     25.8422     51.2810     36.9155
  2135.7500    -83.5793     18.2258     22.9855     47.5145     38.6738
  2136.0000    -84.0452     17.0712     20.4566     43.0804     43.4557
  2136.2500    -84.4927     16.0293     18.2851     37.9536     49.1718
  2136.5000    -84.7461     15.0942     16.4615     32.4221     62.5799
  2136.7500    -84.6516     14.2572     14.9539     26.9626     74.2218
  2137.0000    -84.1109     13.5097     13.7203     22.0705     92.7832
  2137.2500    -83.0948     12.8446     12.7177     18.1120    103.6040
  2137.5000    -81.6453     12.2565     11.9058     15.2461    114.5830
  2137.7500    -79.8681     11.7424     11.2501     13.4235    118.0723
  2138.0000    -77.9181     11.3009     10.7224     12.4471    119.1081
  2138.2500    -75.9849     10.9319     10.3012     12.0531    118.2260
  2138.5000    -74.2621     10.6356      9.9717     11.9851    116.0192
  2138.7500    -72.9210     10.4120      9.7245     12.0423    114.5677
  2139.0000    -72.0786     10.2605      9.5548     12.1051    113.4104
  2139.2500    -71.7739     10.1789      9.4610     12.1402    113.6264
  2139.5000    -71.9661     10.1639      9.4435     12.1919    115.0774
  2139.7500    -72.5484     10.2107      9.5035     12.3691    116.3484
  2140.0000    -73.3766     10.3133      9.6416     12.8247    118.1254
  2140.2500    -74.2990     10.4652      9.8569     13.7255    118.8737
  2140.5000    -75.1755     10.6595     10.1462     15.2057    118.3576
  2140.7500    -75.8887     10.8901     10.5023     17.3081    116.4128
  2141.0000    -76.3508     11.1519     10.9143     19.9288    111.3119
  2141.2500    -76.5175     11.4408     11.3671     22.7922    107.1918
  2141.5000    -76.3951     11.7537     11.8423     25.4852    100.9846
  2141.7500    -76.0561     12.0882     12.3214     27.5586     96.8663
  2142.0000    -75.6335     12.4414     12.7875     28.6665     90.4189
  2142.2500    -75.2948     12.8100     13.2289     28.6877     86.1479
  2142.5000    -75.2057     13.1888     13.6406     27.7715     80.8387
  2142.7500    -75.4803     13.5715     14.0232     26.2785     78.6133
  2143.0000    -76.1508     13.9503     14.3815     24.6442     77.6053
  2143.2500    -77.1644     14.3169     14.7209     23.2267     78.3779
  2143.5000    -78.3983     14.6634     15.0445     22.2077     81.2088
  2143.7500    -79.6991     14.9835     15.3517     21.5780     83.7181
  2144.0000    -80.9163     15.2737     15.6384     21.2003     87.1562
  2144.2500    -81.9403     15.5332     15.8974     20.9030     88.4907
  2144.5000    -82.7064     15.7637     16.1215     20.5604     88.6823
  2144.7500    -83.1999     15.9682     16.3050     20.1290     88.1301
  2145.0000    -83.4410     16.1498     16.4457     19.6395     87.6258
  2145.2500    -83.4684     16.3112     16.5455     19.1623     87.8169
  2145.5000    -83.3230     16.4532     16.6101     18.7678     88.2510
  2145.7500    -83.0367     16.5759     16.6475     18.5007     88.0841
  2146.0000    -82.6261     16.6790     16.6675     18.3729     86.9774
  2146.2500    -82.0968     16.7628     16.6794     18.3668     86.0656
  2146.5000    -81.4501     16.8293     16.6922     18.4495     85.1189
  2146.7500    -80.6857     16.8827     16.7135     18.5846     84.8190
  2147.0000    -79.8076     16.9298     16.7496     18.7407     84.7486
  2147.2500    -78.8278     16.9788     16.8056     18.8946     85.1113
