~Version Information
VERS.                      2.0: CWLS Log ASCII Standard - VERSION 2.0
WRAP.                       NO: One line per depth step
~Well Information Block
STRT.FT               265.0000: 
STOP.FT              1214.0000: 
STEP.FT                 0.2500: 
NULL.                -999.2500: 
COMP.          Pioneer Natural Resources: COMPANY
WELL.          Pacheco 33-27 Tr: WELL
FLD.           Purgatoire River: FIELD
LOC.           2251' FSL & 2342' FEL: LOCATION
PROV.                 Colorado: PROVINCE
CNTY.               Las Animas: COUNTRY
SRVC.                Patterson: SERVICE COMPANY
DATE.          Fri Jun 10 13:29:04 2005: LOG DATE
UWI.           05 071 08384 00: UNIQUE WELL ID
~Curve Information Block
DEPT.FT            0 000 00 00: Depth
SN.Ohm-m                      : IEL Short Normal
SP.mV                         : IEL Spontaneous Potential
DIR.Ohm-m                     : IEL Induction Resistivity
GR.GAPI                       : Gamma Ray
~Parameter Information Block
~A  Depth        SN          SP         DIR          GR     
# ...
   432.5000   2000.0000   2000.0000     12.5005    163.0662
   432.7500   2000.0000   2000.0000     12.9780    165.1038
   433.0000   2000.0000   2000.0000     13.4752    167.7912
   433.2500   2000.0000   2000.0000     13.9981    168.7470
   433.5000   2000.0000   2000.0000     14.5389    168.2200
   433.7500   2000.0000   2000.0000     15.0749    166.6437
   434.0000   2000.0000   2000.0000     15.5819    163.0727
   434.2500   2000.0000   2000.0000     16.0507    160.1057
   434.5000   2000.0000   2000.0000     16.4969    154.8883
   434.7500   2000.0000   2000.0000     16.9565    151.2341
   435.0000   2000.0000   2000.0000     17.4749    146.8791
   435.2500   2000.0000   2000.0000     18.0950    145.6321
   435.5000   2000.0000   2000.0000     18.8422    146.8717
   435.7500   2000.0000   2000.0000     19.7103    149.2822
   436.0000   2000.0000   2000.0000     20.6530    153.1724
   436.2500   2000.0000   2000.0000     21.5944    154.5024
   436.5000   2000.0000   2000.0000     22.4620    153.1193
   436.7500   2000.0000   2000.0000     23.2193    150.1708
   437.0000   2000.0000   2000.0000     23.8667    144.5262
   437.2500   2000.0000   2000.0000     24.4164    140.9914
   437.5000   2000.0000   2000.0000     24.8732    136.5344
   437.7500   2000.0000   2000.0000     25.2514    133.7133
   438.0000   2000.0000   2000.0000     25.6102    128.7602
   438.2500   2000.0000   2000.0000     26.0613    124.6858
   438.5000   2000.0000   2000.0000     26.7315    117.3690
   438.7500   2000.0000   2000.0000     27.7024    111.7576
   439.0000   2000.0000   2000.0000     28.9673    102.4200
   439.2500   2000.0000   2000.0000     30.4305     95.8196
   439.5000   2000.0000   2000.0000     31.9505     86.1485
   439.7500   2000.0000   2000.0000     33.4042     80.4443
   440.0000   2000.0000   2000.0000     34.7244     73.7455
   440.2500   2000.0000   2000.0000     35.8919     70.5478
   440.5000   2000.0000   2000.0000     36.9014     67.0374
   440.7500   2000.0000   2000.0000     37.7390     65.1192
   441.0000   2000.0000   2000.0000     38.3866     62.6825
   441.2500   2000.0000   2000.0000     38.8424     61.6231
   441.5000   2000.0000   2000.0000     39.1404     61.3234
   441.7500   2000.0000   2000.0000     39.3349     61.7796
   442.0000   2000.0000   2000.0000     39.4640     62.2943
   442.2500   2000.0000   2000.0000     39.5146     61.8832
   442.5000   2000.0000   2000.0000     39.4355     59.9676
   442.7500   2000.0000   2000.0000     39.1940     58.2458
   443.0000   2000.0000   2000.0000     38.8273     55.9586
   443.2500   2000.0000   2000.0000     38.4356     55.0553
   443.5000   2000.0000   2000.0000     38.1277     54.8468
   443.7500   2000.0000   2000.0000     37.9677     55.1899
   444.0000   2000.0000   2000.0000     37.9686     55.4074
   444.2500   2000.0000   2000.0000     38.1197     54.8359
   444.5000   2000.0000   2000.0000     38.4100     52.8482
   444.7500   2000.0000   2000.0000     38.8201     51.1892
   445.0000   2000.0000   2000.0000     39.2957     48.9872
   445.2500   2000.0000   2000.0000     39.7409     47.8969
   445.5000   2000.0000   2000.0000     40.0495     46.7488
   445.7500   2000.0000   2000.0000     40.1632     46.2607
   446.0000   2000.0000   2000.0000     40.1081     46.0112
   446.2500   2000.0000   2000.0000     39.9826     46.1377
   446.5000   2000.0000   2000.0000     39.9030     46.3527
   446.7500   2000.0000   2000.0000     39.9515     46.1894
   447.0000   2000.0000   2000.0000     40.1596     45.3639
   447.2500   2000.0000   2000.0000     40.5093     44.7660
   447.5000   2000.0000   2000.0000     40.9261     44.6833
   447.7500   2000.0000   2000.0000     41.2703     45.4397
   448.0000   2000.0000   2000.0000     41.3848     47.4168
   448.2500   2000.0000   2000.0000     41.2077     48.7868
   448.5000   2000.0000   2000.0000     40.8467     50.2541
   448.7500   2000.0000   2000.0000     40.5128     50.7759
   449.0000   2000.0000   2000.0000     40.3716     51.2064
   449.2500   2000.0000   2000.0000     40.4413     51.5593
   449.5000   2000.0000   2000.0000     40.5990     52.6819
   449.7500   2000.0000   2000.0000     40.6751     53.9572
   450.0000   2000.0000   2000.0000     40.5715     56.2640
   450.2500   2000.0000   2000.0000     40.3251     57.5035
   450.5000   2000.0000   2000.0000     40.0603     58.1201
   450.7500   2000.0000   2000.0000     39.8873     57.6877
   451.0000   2000.0000   2000.0000     39.8344     56.3597
   451.2500   2000.0000   2000.0000     39.8558     55.4182
   451.5000   2000.0000   2000.0000     39.8827     54.4677
   451.7500   2000.0000   2000.0000     39.8629     54.3936
   452.0000   2000.0000   2000.0000     39.7637     55.3372
   452.2500   2000.0000   2000.0000     39.5582     56.5406
   452.5000   2000.0000   2000.0000     39.2287     58.4740
   452.7500   2000.0000   2000.0000     38.7857     59.3157
   453.0000   2000.0000   2000.0000     38.2790     59.4741
   453.2500   2000.0000   2000.0000     37.7844     59.0244
   453.5000   2000.0000   2000.0000     37.3728     58.1041
   453.7500   2000.0000   2000.0000     37.0812     57.5221
   454.0000   2000.0000   2000.0000     36.8949     56.9125
   454.2500   2000.0000   2000.0000     36.7472     56.9447
   454.5000   2000.0000   2000.0000     36.5422     58.1044
   454.7500   2000.0000   2000.0000     36.2027     59.5961
   455.0000   2000.0000   2000.0000     35.7275     62.4027
   455.2500   2000.0000   2000.0000     35.2174     64.3602
   455.5000   2000.0000   2000.0000     34.8419     67.0927
   455.7500   2000.0000   2000.0000     34.7645     68.5292
   456.0000   2000.0000   2000.0000     35.0712     69.5723
   456.2500   2000.0000   2000.0000     35.7313     69.4298
   456.5000   2000.0000   2000.0000     36.5936     68.5154
   456.7500   2000.0000   2000.0000     37.4225     68.0209
   457.0000   2000.0000   2000.0000     37.9716     68.3767
   457.2500   2000.0000   2000.0000     38.0707     69.7402
   457.5000   2000.0000   2000.0000     37.6747     73.8352
   457.7500   2000.0000   2000.0000     36.8504     77.8319
   458.0000   2000.0000   2000.0000     35.7296     84.9226
   458.2500   2000.0000   2000.0000     34.4674     89.7542
   458.5000   2000.0000   2000.0000     33.2161     96.5030
   458.7500   2000.0000   2000.0000     32.0978    100.7373
   459.0000   2000.0000   2000.0000     31.1681    107.3467
   459.2500   2000.0000   2000.0000     30.3916    112.2548
   459.5000   2000.0000   2000.0000     29.6554    120.2292
   459.7500   2000.0000   2000.0000     28.8296    125.3860
   460.0000   2000.0000   2000.0000     27.8452    131.7046
   460.2500   2000.0000   2000.0000     26.7334    134.6918
   460.5000   2000.0000   2000.0000     25.6018    137.8697
   460.7500   2000.0000   2000.0000     24.5776    139.6621
   461.0000   2000.0000   2000.0000     23.7639    142.4026
   461.2500   2000.0000   2000.0000     23.2206    144.3035
   461.5000   2000.0000   2000.0000     22.9617    147.1242
   461.7500   2000.0000   2000.0000     22.9637    148.7883
   462.0000   2000.0000   2000.0000     23.1800    150.2283
   462.2500   2000.0000   2000.0000     23.5575    149.8943
   462.5000   2000.0000   2000.0000     24.0464    146.5385
   462.7500   2000.0000   2000.0000     24.6068    141.9720
   463.0000   2000.0000   2000.0000     25.2206    130.9237
   463.2500   2000.0000   2000.0000     25.9075    120.5153
   463.5000   2000.0000   2000.0000     26.7291    100.9651
   463.7500   2000.0000   2000.0000     27.7695     86.4801
   464.0000   2000.0000   2000.0000     29.1028     65.3234
   464.2500   2000.0000   2000.0000     30.7744     53.0428
   464.5000   2000.0000   2000.0000     32.8059     38.8453
   464.7500   2000.0000   2000.0000     35.2150     32.4166
   465.0000   2000.0000   2000.0000     38.0319     26.8213
   465.2500   2000.0000   2000.0000     41.2895     25.2034
   465.5000   2000.0000   2000.0000     44.9758     24.8569
   465.7500   2000.0000   2000.0000     48.9480     25.4337
