~Version Information
VERS.                      2.0: CWLS Log ASCII Standard - VERSION 2.0
WRAP.                       NO: One line per depth step
~Well Information Block
STRT.FT               987.5000: 
STOP.FT              2426.0000: 
STEP.FT                 0.5000: 
NULL.                -999.2500: 
COMP.          Evergreen Operating Corporation: COMPANY
WELL.          McCullough 34-32: WELL
FLD.           Purgatorie River: FIELD
LOC.           261' FSL & 2098' FEL--: LOCATION
PROV.                 Colorado: PROVINCE
CNTY.               Las Animas: COUNTRY
SRVC.          Patterson Wireline: SERVICE COMPANY
DATE.          Mon May 17 13:38:56 2004: LOG DATE
UWI.           05-071-07953-00: UNIQUE WELL ID
~Curve Information Block
DEPT.FT            0 000 00 00: Depth
CCL.                          : Casing Collar Locator
TT3.usec                      : CBL 3' Travel Time
AMP3.mV                       : CBL 3' Amplitude
GR.GAPI                       : Gamma Ray
~Parameter Information Block
~A  Depth       CCL         TT3         AMP3         GR     
# ...
  1791.5000      0.0000    624.0205      8.2012    104.0942
  1792.0000      0.0000    503.5898      8.4201     85.5168
  1792.5000      0.0000    435.7738      8.6753     73.4561
  1793.0000      0.0000    507.4700      8.8460     70.7962
  1793.5000      0.0000    636.8988      8.8951     74.5303
  1794.0000      0.0000    698.7897      8.6834     80.6651
  1794.5000      0.0000    680.2281      8.5293     85.1172
  1795.0000      0.0000    612.0546      8.6796     84.4777
  1795.5000      0.0000    588.1254      8.8171     77.2535
  1796.0000      0.0000    655.4792      8.5720     71.2253
  1796.5000      0.0000    701.2057      8.2218     72.4455
  1797.0000      0.0000    703.2469      8.0297     72.6473
  1797.5000      0.0000    700.4634      8.0489     70.1816
  1798.0000      0.0000    700.2640      8.0928     70.3144
  1798.5000      0.0000    699.9111      7.9276     69.8870
  1799.0000      0.0000    698.9343      7.6974     65.7084
  1799.5000      0.0000    698.1232      7.5769     66.5784
  1800.0000      0.0000    697.6557      7.6071     85.9602
  1800.5000      0.0000    697.8276      7.6796    116.6046
  1801.0000      0.0000    698.3513      7.6942    143.1926
  1801.5000      0.0000    699.0510      7.5889    159.1049
  1802.0000      0.0000    700.4252      7.6086    160.0637
  1802.5000      0.0000    705.0527      7.7834    153.1977
  1803.0000      0.0000    713.2899      7.8283    143.2260
  1803.5000      0.0000    716.4913      7.6560    131.0548
  1804.0000      0.0000    708.5961      7.3589    124.0647
  1804.5000      0.0000    699.8598      7.2091    125.8969
  1805.0000      0.0000    698.0833      7.2559    130.2654
  1805.5000      0.0000    694.5104      7.4324    130.2740
  1806.0000      0.0000    674.5583      7.6301    134.7027
  1806.5000      0.0000    639.3345      7.7978    143.4029
  1807.0000      0.0000    627.2899      7.9084    142.8434
  1807.5000      0.0000    645.1205      7.9717    140.8537
  1808.0000      0.0000    622.2420      8.0042    143.3999
  1808.5000      0.0000    542.6420      8.0320    149.4018
  1809.0000      0.0000    499.1448      7.6624    154.4121
  1809.5000      0.0000    535.0797      6.6210    148.9543
  1810.0000      0.0000    603.7231      5.9785    135.5849
  1810.5000     -5.0000    645.0581      6.0480    122.6258
  1811.0000      0.0000    649.2789      6.2807    119.4799
  1811.5000      0.0000    584.7055      6.7382    126.7320
  1812.0000      0.0000    528.4180      7.7026    134.1196
  1812.5000      0.0000    594.3364      8.2978    139.9224
  1813.0000      0.0000    669.9965      8.1257    142.3125
  1813.5000      0.0000    633.5225      8.0007    138.8182
  1814.0000      0.0000    510.4436      8.1289    132.9188
  1814.5000      0.0000    412.0868      8.2972    129.1650
  1815.0000      0.0000    388.1380      8.1598    127.2542
  1815.5000      0.0000    401.2567      7.8508    130.0872
  1816.0000      0.0000    439.8780      7.7558    139.3223
  1816.5000      0.0000    496.1317      7.9717    147.2162
  1817.0000      0.0000    518.2963      8.3117    147.3101
  1817.5000      0.0000    520.8287      8.4943    146.1003
  1818.0000      0.0000    569.9462      8.4871    143.4648
  1818.5000      0.0000    637.5013      8.4253    138.9984
  1819.0000      0.0000    635.6754      8.5614    141.2228
  1819.5000      0.0000    550.9617      8.7535    152.7756
  1820.0000      0.0000    475.9117      8.8795    163.6083
  1820.5000      0.0000    445.4305      8.8790    163.9194
  1821.0000      0.0000    435.9585      8.8309    153.4231
  1821.5000      0.0000    402.6951      8.9070    145.8921
  1822.0000      0.0000    368.0473      9.1110    147.2958
  1822.5000      0.0000    353.5735      9.1472    146.6138
  1823.0000      0.0000    352.8565      8.8871    141.0524
  1823.5000      0.0000    357.2646      8.7574    137.0764
  1824.0000      0.0000    354.7219      8.8348    138.3597
  1824.5000      0.0000    347.6243      8.9555    145.5897
  1825.0000      0.0000    342.8252      9.1389    152.1735
  1825.5000      0.0000    342.7835      9.2439    152.1342
  1826.0000      0.0000    351.7122      9.1953    153.3406
  1826.5000      0.0000    374.1610      9.0869    156.1646
  1827.0000      0.0000    412.2620      8.9145    153.2635
  1827.5000      0.0000    455.1982      8.7050    148.7424
  1828.0000      0.0000    510.1409      8.3990    144.0698
  1828.5000      0.0000    577.0397      8.0965    134.2918
  1829.0000      0.0000    640.5603      8.0298    128.2083
  1829.5000      0.0000    678.0629      7.9793    134.4631
  1830.0000      0.0000    676.0269      7.8823    146.9268
  1830.5000      0.0000    642.3573      7.8216    154.5509
  1831.0000      0.0000    630.8879      7.7636    153.1349
  1831.5000      0.0000    670.7971      7.8616    144.2155
  1832.0000      0.0000    687.6153      8.0452    132.1500
  1832.5000      0.0000    627.1569      8.2621    119.3045
  1833.0000      0.0000    501.0206      8.4581    110.1199
  1833.5000      0.0000    415.2774      8.4243    116.4211
  1834.0000      0.0000    449.9958      8.3325    124.1841
  1834.5000      0.0000    571.0458      8.3762    120.9414
  1835.0000      0.0000    667.4833      8.3262    118.8141
  1835.5000      0.0000    700.3907      8.2662    114.3397
  1836.0000      0.0000    703.8004      8.2442    108.1636
  1836.5000      0.0000    700.3446      8.2075    107.7274
  1837.0000      0.0000    702.2977      8.3260    111.4014
  1837.5000      0.0000    705.7150      8.4047    109.6006
  1838.0000      0.0000    705.5686      8.3182    103.8624
  1838.5000      0.0000    710.0019      8.3426     98.8371
  1839.0000      0.0000    712.8341      8.2535     97.7044
  1839.5000      0.0000    708.7499      8.0784     94.8133
  1840.0000      0.0000    698.7156      8.1208     88.8582
  1840.5000      0.0000    648.9346      8.1964     83.1772
  1841.0000      0.0000    579.5470      8.2718     82.4352
  1841.5000      0.0000    606.7968      8.4451     85.0360
  1842.0000      0.0000    693.4448      8.4604     84.1543
  1842.5000      0.0000    734.1565      8.3452     78.1525
  1843.0000      0.0000    739.4500      8.2543     68.9445
  1843.5000      0.0000    732.3087      8.1976     63.4012
  1844.0000      0.0000    720.7170      8.1308     62.1733
  1844.5000      0.0000    717.3793      8.2330     56.8315
  1845.0000      0.0000    721.5965      8.3317     52.3698
  1845.5000      0.0000    730.1431      8.1471     56.9599
  1846.0000      0.0000    739.6981      7.8555     61.2712
  1846.5000      0.0000    728.0013      7.6877     63.1408
  1847.0000      0.0000    659.8859      7.7694     68.1132
  1847.5000      0.0000    577.3553      8.0780     74.8799
  1848.0000      0.0000    575.1671      8.4302     82.9645
  1848.5000      0.0000    573.5256      8.6548     88.2279
  1849.0000      0.0000    501.4901      8.8482     89.9351
  1849.5000      0.0000    444.4334      9.2083     90.5921
  1850.0000      0.0000    495.2257      9.4877     91.6716
  1850.5000      0.0000    603.1820      9.5116     96.4232
  1851.0000      0.0000    663.4423      9.3655    109.0638
  1851.5000      0.0000    652.7009      8.9793    117.6889
  1852.0000      0.0000    618.7603      8.1837    107.8710
  1852.5000      0.0000    616.2186      7.2089     91.3660
  1853.0000      0.0000    614.7376      6.5538     79.2901
  1853.5000      0.0000    619.6953      6.2957     70.9383
  1854.0000      3.1870    655.9943      6.2709     67.0611
  1854.5000      0.0000    686.3746      6.1146     68.0495
  1855.0000      0.0000    693.5020      6.0507     69.5674
  1855.5000      0.0000    675.1408      6.5999     66.4260
  1856.0000      0.0000    629.4015      7.4729     61.3665
  1856.5000      0.0000    611.1981      7.9586     55.7727
  1857.0000      0.0000    633.9727      7.9991     50.0522
  1857.5000      0.0000    651.4673      8.0167     50.5513
  1858.0000      0.0000    664.0135      8.2069     53.7063
