~Version Information
VERS.                      2.0: CWLS Log ASCII Standard - VERSION 2.0
WRAP.                       NO: One line per depth step
~Well Information Block
STRT.FT               682.0000: 
STOP.FT              2190.5000: 
STEP.FT                 0.1000: 
NULL.                -999.2500: 
COMP.          Pioneer Natural Resources: COMPANY
WELL.               King 22-13: WELL
FLD.           Purgatoire River: FIELD
LOC.           2419' FNL & 1806' FWL----: LOCATION
PROV.                 Colorado: PROVINCE
CNTY.               Las Animas: COUNTRY
SRVC.                Patterson: SERVICE COMPANY
DATE.          Fri Apr 01 07:38:12 2005: LOG DATE
UWI.           05 071 08318 00: UNIQUE WELL ID
~Curve Information Block
DEPT.FT            0 000 00 00: Depth
DCAL.in                       : CDL Caliper
RHOB.g/cc                     : CDL Bulk Density
RHOC.g/cc                     : CDL Density Correction
DPOR.pu                       : CDL Density Porosity
NPOR.pu                       : Neutron Porosity
GR.GAPI                       : Gamma Ray
~Parameter Information Block
~A  Depth       DCAL        RHOB        RHOC        DPOR        NPOR         GR     
# ...
  1277.2000      8.1806      2.5330      0.1167      7.0903     31.3510    127.0358
  1277.3000      8.1797      2.5090      0.1205      8.5481     30.7876    128.5913
  1277.4000      8.1797      2.4928      0.0648      9.5248     30.6650    124.1433
  1277.5000      8.1805      2.4836      0.0573     10.0853     31.1670    119.0501
  1277.6000      8.1805      2.4755      0.0432     10.5757     31.7317    117.6335
  1277.7000      8.1805      2.4651      0.0631     11.2054     31.8665    120.5803
  1277.8000      8.1814      2.4594      0.0352     11.5538     31.7116    124.9820
  1277.9000      8.1814      2.4596      0.0679     11.5409     31.5904    127.2543
  1278.0000      8.1868      2.4542      0.0527     11.8667     31.4709    127.3057
  1278.1000      8.1868      2.4366      0.1049     12.9324     31.4817    128.5989
  1278.2000      8.1868      2.4111      0.0484     14.4769     31.7612    133.4104
  1278.3000      8.1995      2.3883      0.0485     15.8613     32.0847    135.3414
  1278.4000      8.1995      2.3712      0.0500     16.8978     32.1914    127.5200
  1278.5000      8.2133      2.3576      0.0467     17.7216     32.2192    117.1895
  1278.6000      8.2133      2.3504      0.0341     18.1586     32.5660    113.8450
  1278.7000      8.2133      2.3544      0.0446     17.9153     33.1757    116.0066
  1278.8000      8.2247      2.3725      0.0433     16.8192     33.4545    117.9336
  1278.9000      8.2247      2.4032      0.1232     14.9575     33.2123    118.9286
  1279.0000      8.2343      2.4417      0.1722     12.6270     32.9110    122.3158
  1279.1000      8.2343      2.4794      0.2187     10.3367     32.8803    127.3634
  1279.2000      8.2343      2.5052      0.2122      8.7739     32.9975    128.3608
  1279.3000      8.2377      2.5176      0.2572      8.0239     32.9772    123.1432
  1279.4000      8.2377      2.5165      0.2730      8.0906     32.5998    117.7617
  1279.5000      8.2358      2.4944      0.2008      9.4333     32.0030    120.6232
  1279.6000      8.2358      2.4572      0.1253     11.6831     31.5937    131.0999
  1279.7000      8.2358      2.4329      0.0660     13.1582     31.4560    139.3203
  1279.8000      8.2227      2.4428      0.1017     12.5554     30.9605    138.7807
  1279.9000      8.2227      2.4723      0.1331     10.7671     30.0237    132.6689
  1280.0000      8.2000      2.4936      0.1209      9.4800     29.5594    128.6996
  1280.1000      8.2000      2.5021      0.1387      8.9612     29.6814    128.7533
  1280.2000      8.2000      2.5045      0.1502      8.8156     29.6856    130.7438
  1280.3000      8.1832      2.4980      0.1569      9.2135     29.2675    133.9146
  1280.4000      8.1832      2.4814      0.1249     10.2197     28.9463    133.1918
  1280.5000      8.1727      2.4655      0.0919     11.1825     29.3099    125.8152
  1280.6000      8.1727      2.4618      0.0584     11.4057     30.0909    118.4652
  1280.7000      8.1727      2.4757      0.0114     10.5660     30.6199    115.6790
  1280.8000      8.1641      2.4979      0.1035      9.2161     30.7769    116.1682
  1280.9000      8.1641      2.5025      0.0709      8.9380     30.9404    116.1808
  1281.0000      8.1628      2.4830      0.0072     10.1204     30.9136    113.2184
  1281.1000      8.1628      2.4610      0.0373     11.4555     30.3915    110.2665
  1281.2000      8.1628      2.4503      0.0511     12.1008     29.8063    113.2885
  1281.3000      8.1700      2.4507      0.0403     12.0788     29.5513    121.4551
  1281.4000      8.1700      2.4594      0.0658     11.5536     30.0109    124.0808
  1281.5000      8.1817      2.4636      0.0882     11.2998     31.0248    119.5679
  1281.6000      8.1817      2.4547      0.0466     11.8386     31.3422    116.9375
  1281.7000      8.1817      2.4462      0.0449     12.3543     30.9740    117.3191
  1281.8000      8.2014      2.4520      0.0760     11.9985     31.0729    118.2517
  1281.9000      8.2014      2.4658      0.0875     11.1631     31.7246    121.7660
  1282.0000      8.2334      2.4723      0.0965     10.7710     32.4635    128.8377
  1282.1000      8.2334      2.4651      0.1064     11.2066     32.7613    135.8329
  1282.2000      8.2334      2.4518      0.0633     12.0116     32.2618    136.0900
  1282.3000      8.2641      2.4413      0.1009     12.6505     31.5093    129.5284
  1282.4000      8.2641      2.4280      0.0953     13.4525     31.0488    123.5270
  1282.5000      8.2880      2.4064      0.1226     14.7648     30.7074    121.5200
  1282.6000      8.2880      2.3873      0.0845     15.9193     30.4851    120.2035
  1282.7000      8.2880      2.3974      0.1304     15.3096     30.6484    115.6658
  1282.8000      8.3005      2.4567      0.0984     11.7143     30.8866    111.3242
  1282.9000      8.3005      2.5625      0.1351      5.3040     30.8258    111.8473
  1283.0000      8.2784      2.6918      0.2207     -2.5321     30.5875    110.8499
  1283.1000      8.2784      2.8178      0.3035    -10.1702     30.2241    103.7859
  1283.2000      8.2784      2.9077      0.3516    -15.6182     29.6600     95.2646
  1283.3000      8.2199      2.9244      0.3285    -16.6273     29.0576     87.7653
  1283.4000      8.2199      2.8651      0.1994    -13.0344     28.9371     82.0375
  1283.5000      8.1420      2.7714      0.1034     -7.3557     29.4799     79.6024
  1283.6000      8.1420      2.6819      0.0654     -1.9358     30.0482     80.1005
  1283.7000      8.1420      2.6070     -0.0893      2.6087     30.2624     80.7315
  1283.8000      8.0718      2.5513     -0.1640      5.9831     30.5031     79.7208
  1283.9000      8.0718      2.5234     -0.1311      7.6749     30.7895     81.7726
  1284.0000      8.0607      2.5186     -0.0434      7.9609     30.8367     91.6029
  1284.1000      8.0607      2.5180      0.0488      8.0016     30.9536    107.3266
  1284.2000      8.0607      2.5137      0.0558      8.2604     31.5671    121.6505
  1284.3000      8.0958      2.5189      0.1281      7.9433     32.1068    125.3598
  1284.4000      8.0958      2.5396      0.1661      6.6923     31.9574    117.2021
  1284.5000      8.1265      2.5588      0.2035      5.5286     31.6891    104.4305
  1284.6000      8.1265      2.5522      0.1995      5.9288     32.0500     96.6050
  1284.7000      8.1265      2.5113      0.1669      8.4052     32.8301     98.8466
  1284.8000      8.1520      2.4449      0.1466     12.4319     33.8163    106.3535
  1284.9000      8.1520      2.3663      0.1149     17.1924     35.0072    109.4752
  1285.0000      8.1929      2.2907      0.0126     21.7773     35.7806    107.1949
  1285.1000      8.1929      2.2251      0.0265     25.7489     35.8656    103.0003
  1285.2000      8.1929      2.1606      0.0228     29.6631     35.8348     96.8225
  1285.3000      8.2621      2.0923     -0.0097     33.7994     36.1710     90.4268
  1285.4000      8.2621      2.0210      0.0675     38.1211     36.6895     87.5887
  1285.5000      8.3953      1.9440      0.0783     42.7859     37.0316     90.2098
  1285.6000      8.3953      1.8709      0.1152     47.2172     37.1495     95.1264
  1285.7000      8.3953      1.8132      0.1631     50.7171     37.0131     96.9183
  1285.8000      8.6367      1.7789      0.1234     52.7936     36.7432     95.5599
  1285.9000      8.6367      1.7815      0.1374     52.6355     36.8582     93.7607
  1286.0000      9.0400      1.8260      0.2232     49.9371     37.5877     93.0184
  1286.1000      9.0400      1.8974      0.2932     45.6111     38.1260     93.8289
  1286.2000      9.0400      1.9722      0.3076     41.0804     37.5645     92.7463
  1286.3000      9.6102      2.0378      0.3122     37.1040     36.3090     88.8271
  1286.4000      9.6102      2.0925      0.3325     33.7904     35.4970     88.6213
  1286.5000     10.0047      2.1350      0.3412     31.2117     35.5334     93.6777
  1286.6000     10.0047      2.1797      0.2557     28.5014     36.0879     99.0208
  1286.7000     10.0047      2.2520      0.2670     24.1214     36.6044    102.2394
