~Version Information
VERS.                      2.0: CWLS Log ASCII Standard - VERSION 2.0
WRAP.                       NO: One line per depth step
~Well Information Block
STRT.FT               928.1000: 
STOP.FT              2417.7000: 
STEP.FT                 0.1000: 
NULL.                -999.2500: 
COMP.          Pioneer Natural Resources: COMPANY
WELL.            Chevron 13-13: WELL
FLD.           Purgatoire River: FIELD
LOC.           1560' FSL & 711' FWL--: LOCATION
CNTY.               Las Animas: COUNTY
SRVC.          Superior Well Services: SERVICE COMPANY
DATE.          Mon Feb 12 14:51:53 2007: LOG DATE
UWI.           05 071 08319 00: UNIQUE WELL ID
STAT.                 Colorado: STATE
~Curve Information Block
DEPT.FT            0 000 00 00: Depth
DIR.Ohm-m                     : IEL Induction Resistivity
GR.GAPI                       : Gamma Ray
SN.Ohm-m                      : IEL Short Normal
SP.mV                         : IEL Spontaneous Potential
~Parameter Information Block
~A  Depth       DIR          GR          SN          SP     
# ...
  1531.1000     25.1478     46.9697     27.1452    -40.5862
  1531.2000     25.1478     47.0079     27.1452    -40.5862
  1531.3000     24.8011     47.2010     27.1522    -40.8013
  1531.4000     24.8011     47.5443     27.1522    -40.8013
  1531.5000     24.4636     48.0200     27.1335    -41.0246
  1531.6000     24.4636     48.5967     27.1335    -41.0246
  1531.7000     24.4636     49.2332     27.1335    -41.0246
  1531.8000     24.1355     49.8873     27.0371    -41.2371
  1531.9000     24.1355     50.5173     27.0371    -41.2371
  1532.0000     23.7925     51.0923     26.8128    -41.4141
  1532.1000     23.7925     51.5923     26.8128    -41.4141
  1532.2000     23.7925     52.0124     26.8128    -41.4141
  1532.3000     23.3903     52.3612     26.5011    -41.5275
  1532.4000     23.3903     52.6593     26.5011    -41.5275
  1532.5000     22.8727     52.9361     26.1011    -41.5493
  1532.6000     22.8727     53.2290     26.1011    -41.5493
  1532.7000     22.8727     53.5783     26.1011    -41.5493
  1532.8000     22.1881     54.0297     25.5039    -41.4553
  1532.9000     22.1881     54.6320     25.5039    -41.4553
  1533.0000     21.3135     55.4374     24.5354    -41.2292
  1533.1000     21.3135     56.4997     24.5354    -41.2292
  1533.2000     21.3135     57.8769     24.5354    -41.2292
  1533.3000     20.2747     59.6245     23.2213    -40.8653
  1533.4000     20.2747     61.7944     23.2213    -40.8653
  1533.5000     19.1440     64.4301     21.7674    -40.3701
  1533.6000     19.1440     67.5584     21.7674    -40.3701
  1533.7000     19.1440     71.1862     21.7674    -40.3701
  1533.8000     18.0139     75.2932     20.3270    -39.7609
  1533.9000     18.0139     79.8322     20.3270    -39.7609
  1534.0000     16.9610     84.7266     18.9994    -39.0632
  1534.1000     16.9610     89.8743     18.9994    -39.0632
  1534.2000     16.9610     95.1544     18.9994    -39.0632
  1534.3000     16.0229    100.4339     17.8475    -38.3066
  1534.4000     16.0229    105.5724     17.8475    -38.3066
  1534.5000     15.1931    110.4318     16.8464    -37.5200
  1534.6000     15.1931    114.8814     16.8464    -37.5200
  1534.7000     15.1931    118.8057     16.8464    -37.5200
  1534.8000     14.4322    122.1158     15.8937    -36.7276
  1534.9000     14.4322    124.7553     15.8937    -36.7276
  1535.0000     13.6896    126.7094     14.9289    -35.9471
  1535.1000     13.6896    128.0121     14.9289    -35.9471
  1535.2000     13.6896    128.7469     14.9289    -35.9471
  1535.3000     12.9296    129.0405     13.9118    -35.1883
  1535.4000     12.9296    129.0536     13.9118    -35.1883
  1535.5000     12.1490    128.9611     12.8769    -34.4548
  1535.6000     12.1490    128.9300     12.8769    -34.4548
  1535.7000     12.1490    129.1017     12.8769    -34.4548
  1535.8000     11.3757    129.5731     12.0000    -33.7459
  1535.9000     11.3757    130.3848     12.0000    -33.7459
  1536.0000     10.6510    131.5256     11.3426    -33.0600
  1536.1000     10.6510    132.9327     11.3426    -33.0600
  1536.2000     10.6510    134.5099     11.3426    -33.0600
  1536.3000     10.0095    136.1424     10.9080    -32.3966
  1536.4000     10.0095    137.7154     10.9080    -32.3966
  1536.5000      9.4675    139.1284     10.6608    -31.7580
  1536.6000      9.4675    140.3067     10.6608    -31.7580
  1536.7000      9.4675    141.2075     10.6608    -31.7580
  1536.8000      9.0232    141.8227     10.3938    -31.1503
  1536.9000      9.0232    142.1747     10.3938    -31.1503
  1537.0000      8.6617    142.3106      9.9830    -30.5822
  1537.1000      8.6617    142.2974      9.9830    -30.5822
  1537.2000      8.6617    142.2146      9.9830    -30.5822
  1537.3000      8.3637    142.1416      9.4942    -30.0638
  1537.4000      8.3637    142.1563      9.4942    -30.0638
  1537.5000      8.1128    142.3224      9.0167    -29.6045
  1537.6000      8.1128    142.6814      9.0167    -29.6045
  1537.7000      8.1128    143.2489      9.0167    -29.6045
  1537.8000      7.9016    144.0131      8.6043    -29.2107
  1537.9000      7.9016    144.9294      8.6043    -29.2107
  1538.0000      7.7324    145.9308      8.2764    -28.8850
  1538.1000      7.7324    146.9337      8.2764    -28.8850
  1538.2000      7.7324    147.8478      8.2764    -28.8850
  1538.3000      7.6137    148.5877      8.0485    -28.6244
  1538.4000      7.6137    149.0818      8.0485    -28.6244
  1538.5000      7.5527    149.2838      7.9713    -28.4210
  1538.6000      7.5527    149.1721      7.9713    -28.4210
  1538.7000      7.5527    148.7567      7.9713    -28.4210
  1538.8000      7.5497    148.0715      8.0112    -28.2628
  1538.9000      7.5497    147.1720      8.0112    -28.2628
  1539.0000      7.5955    146.1268      8.1764    -28.1353
  1539.1000      7.5955    145.0074      8.1764    -28.1353
  1539.2000      7.5955    143.8824      8.1764    -28.1353
  1539.3000      7.6723    142.8085      8.5035    -28.0238
  1539.4000      7.6723    141.8251      8.5035    -28.0238
  1539.5000      7.7580    140.9553      8.8737    -27.9160
  1539.6000      7.7580    140.2068      8.8737    -27.9160
  1539.7000      7.7580    139.5725      8.8737    -27.9160
  1539.8000      7.8333    139.0368      9.1181    -27.8038
  1539.9000      7.8333    138.5773      9.1181    -27.8038
  1540.0000      7.8861    138.1681      9.2272    -27.6852
  1540.1000      7.8861    137.7758      9.2272    -27.6852
  1540.2000      7.8861    137.3669      9.2272    -27.6852
  1540.3000      7.9138    136.9065      9.2882    -27.5646
  1540.4000      7.9138    136.3605      9.2882    -27.5646
  1540.5000      7.9224    135.7064      9.3446    -27.4528
  1540.6000      7.9224    134.9356      9.3446    -27.4528
  1540.7000      7.9224    134.0619      9.3446    -27.4528
  1540.8000      7.9241    133.1197      9.3775    -27.3653
  1540.9000      7.9241    132.1628      9.3775    -27.3653
  1541.0000      7.9350    131.2551      9.3791    -27.3198
  1541.1000      7.9350    130.4631      9.3791    -27.3198
  1541.2000      7.9350    129.8374      9.3791    -27.3198
  1541.3000      7.9725    129.4065      9.4257    -27.3344
  1541.4000      7.9725    129.1694      9.4257    -27.3344
  1541.5000      8.0529    129.0892      9.5730    -27.4239
  1541.6000      8.0529    129.1010      9.5730    -27.4239
  1541.7000      8.0529    129.1216      9.5730    -27.4239
  1541.8000      8.1889    129.0573      9.7546    -27.5978
  1541.9000      8.1889    128.8211      9.7546    -27.5978
  1542.0000      8.3884    128.3451      9.9335    -27.8592
  1542.1000      8.3884    127.5876      9.9335    -27.8592
  1542.2000      8.3884    126.5373      9.9335    -27.8592
  1542.3000      8.6558    125.2120     10.1082    -28.2034
  1542.4000      8.6558    123.6558     10.1082    -28.2034
  1542.5000      8.9944    121.9251     10.2756    -28.6189
  1542.6000      8.9944    120.0856     10.2756    -28.6189
  1542.7000      8.9944    118.2043     10.2756    -28.6189
  1542.8000      9.4098    116.3433     10.4605    -29.0886
  1542.9000      9.4098    114.5611     10.4605    -29.0886
  1543.0000      9.9141    112.9109     10.7917    -29.5920
  1543.1000      9.9141    111.4402     10.7917    -29.5920
  1543.2000      9.9141    110.1849     10.7917    -29.5920
  1543.3000     10.5261    109.1661     11.4323    -30.1076
  1543.4000     10.5261    108.3819     11.4323    -30.1076
  1543.5000     11.2681    107.8046     12.5413    -30.6147
  1543.6000     11.2681    107.3813     12.5413    -30.6147
  1543.7000     11.2681    107.0376     12.5413    -30.6147
  1543.8000     12.1550    106.6964     14.2994    -31.0957
  1543.9000     12.1550    106.2858     14.2994    -31.0957
  1544.0000     13.1781    105.7595     16.4809    -31.5372
  1544.1000     13.1781    105.1017     16.4809    -31.5372
  1544.2000     13.1781    104.3334     16.4809    -31.5372
  1544.3000     14.2881    103.5019     18.4986    -31.9302
  1544.4000     14.2881    102.6701     18.4986    -31.9302
