~Version Information
VERS.                      2.0: CWLS Log ASCII Standard - VERSION 2.0
WRAP.                       NO: One line per depth step
~Well Information Block
STRT.FT                 0.0000: 
STOP.FT              2159.0000: 
STEP.FT                 0.2500: 
NULL.                -999.2500: 
COMP.          Petrogulf Corporation: COMPANY
WELL.               Furu 6-23R: WELL
FLD.           Purgatoire River: FIELD
LOC.           2211' FSL & 1780' FWL: LOCATION
CNTY.               Las Animas: COUNTY
SRVC.                         : SERVICE COMPANY
DATE.          Fri Jul 14 16:00:32 2006: LOG DATE
UWI.           05 071 08266 00: UNIQUE WELL ID
STAT.                       CO: STATE
~Curve Information Block
DEPT.FT            0 000 00 00: Depth
GR.GAPI                       : Gamma Ray
CCL.                          : Casing Collar Locator
TT3.usec                      : CBL 3' Travel Time
AMP3.mV                       : CBL 3' Amplitude
~Parameter Information Block
~A  Depth        GR         CCL         TT3         AMP3    
# ...
   703.5000    187.8159      0.0000    256.7367     85.7484
   703.7500    190.9968      0.0000    256.7062     85.2191
   704.0000    197.6582      0.0000    256.6848     84.2271
   704.2500    206.9682      0.0000    256.7654     82.5453
   704.5000    215.7929      0.0000    257.1779     79.9657
   704.7500    219.5178      0.0000    258.3412     76.3716
   705.0000    215.7419      0.0000    260.6947     71.8071
   705.2500    206.9966      0.0000    264.1817     66.5095
   705.5000    198.3154      0.0000    267.7974     60.8830
   705.7500    192.1284      0.0000    270.0008     55.4080
   706.0000    186.8463      0.0000    269.9555     50.5228
   706.2500    180.1687      0.0000    268.2570     46.5242
   706.5000    172.0216      0.0000    266.2869     43.5344
   706.7500    164.1144      0.0000    265.1061     41.5470
   707.0000    158.3169     -2.0000    265.1205     40.5285
   707.2500    156.0315     -1.0605    266.3423     40.5188
   707.5000    157.7306      0.0000    268.3853     41.6696
   707.7500    161.9359      0.0000    270.1949     44.1822
   708.0000    165.3696      0.0000    270.3754     48.1632
   708.2500    165.2467      0.0000    268.2951     53.4736
   708.5000    161.3890      0.0000    264.7475     59.6667
   708.7500    155.6689      0.0000    261.2493     66.0720
   709.0000    149.9624      0.0000    258.8183     71.9898
   709.2500    145.2983      0.0000    257.5510     76.8979
   709.5000    142.4024      0.0000    257.0442     80.5680
   709.7500    142.0602      0.0000    256.8911     83.0527
   710.0000    144.8414      0.0000    256.8606     84.5818
   710.2500    150.6977      0.0000    256.8642     85.4388
   710.5000    158.5051      0.0000    256.8802     85.8735
   710.7500    165.9695      0.0000    256.9026     86.0660
   711.0000    170.7753      0.0000    256.9278     86.1309
   711.2500    172.3051      0.0000    256.9525     86.1359
   711.5000    171.8754      0.0000    256.9718     86.1199
   711.7500    171.0935      0.0000    256.9789     86.1035
   712.0000    170.2660      0.0000    256.9696     86.0975
   712.2500    168.2499      0.0000    256.9490     86.1039
   712.5000    163.3730      0.0000    256.9304     86.1217
   712.7500    154.7803      0.0000    256.9243     86.1490
   713.0000    143.7429      0.0000    256.9278     86.1845
   713.2500    133.6308      0.0000    256.9269     86.2252
   713.5000    127.7992      0.0000    256.9132     86.2654
   713.7500    127.1136      0.0000    256.8933     86.2967
   714.0000    129.4194      0.0000    256.8814     86.3114
   714.2500    131.0922      0.0000    256.8849     86.3059
   714.5000    129.2667      0.0000    256.8996     86.2821
   714.7500    123.4192      0.0000    256.9162     86.2468
   715.0000    115.4356      0.0000    256.9287     86.2083
   715.2500    108.1633      0.0000    256.9370     86.1736
   715.5000    103.5753      0.0000    256.9426     86.1473
   715.7500    101.9720      0.0000    256.9422     86.1317
   716.0000    102.5483      0.0000    256.9300     86.1287
   716.2500    104.4096      0.0000    256.9072     86.1408
   716.5000    107.0265      0.0000    256.8859     86.1704
   716.7500    109.8375      0.0000    256.8758     86.2169
   717.0000    111.4623      0.0000    256.8719     86.2715
   717.2500    109.7056      0.0000    256.8625     86.3146
   717.5000    103.1596      0.0000    256.8474     86.3189
   717.7500     93.2124      0.0000    256.8405     86.2608
   718.0000     84.0614      0.0000    256.8531     86.1328
   718.2500     80.0791      0.0000    256.8820     85.9502
   718.5000     82.5021      0.0000    256.9134     85.7474
   718.7500     88.1999      0.0000    256.9364     85.5643
   719.0000     91.9197      0.0000    256.9490     85.4314
   719.2500     90.3817      0.0000    256.9549     85.3606
   719.5000     84.4407      0.0000    256.9583     85.3447
   719.7500     77.5085      0.0000    256.9616     85.3650
   720.0000     72.4713      0.0000    256.9659     85.4011
   720.2500     70.1557      0.0000    256.9711     85.4394
   720.5000     69.8670      0.0000    256.9748     85.4758
   720.7500     70.5909      0.0000    256.9715     85.5119
   721.0000     71.5469      0.0000    256.9558     85.5489
   721.2500     72.0322      0.0000    256.9292     85.5816
   721.5000     71.4466      0.0000    256.9026     85.5998
   721.7500     69.8799      0.0000    256.8901     85.5935
   722.0000     68.4234      0.0000    256.8949     85.5605
   722.2500     68.5711      0.0000    256.9044     85.5099
   722.5000     71.1817      0.0000    256.9028     85.4593
   722.7500     75.7243      0.0000    256.8877     85.4267
   723.0000     80.2381      0.0000    256.8727     85.4235
   723.2500     82.4122      0.0000    256.8715     85.4508
   723.5000     81.3538      0.0000    256.8834     85.5001
   723.7500     78.2996      0.0000    256.8980     85.5574
   724.0000     75.3505      0.0000    256.9088     85.6078
   724.2500     73.8694      0.0000    256.9192     85.6402
   724.5000     74.1521      0.0000    256.9338     85.6496
   724.7500     75.7854      0.0000    256.9503     85.6395
   725.0000     77.8234      0.0000    256.9613     85.6193
   725.2500     79.1474      0.0000    256.9613     85.6009
   725.5000     79.2012      0.0000    256.9492     85.5942
   725.7500     78.4979      0.0000    256.9272     85.6032
   726.0000     78.2825      0.0000    256.9009     85.6262
   726.2500     79.3352      0.0000    256.8806     85.6572
   726.5000     81.0439      0.0000    256.8759     85.6905
   726.7500     82.2207      0.0000    256.8901     85.7241
   727.0000     82.6997      0.0000    256.9171     85.7606
   727.2500     83.1828      0.0000    256.9435     85.8053
   727.5000     83.6807      0.0000    256.9561     85.8608
   727.7500     83.2933      0.0000    256.9513     85.9240
   728.0000     81.5971      0.0000    256.9367     85.9871
   728.2500     79.3460      0.0000    256.9234     86.0424
   728.5000     77.6229      0.0000    256.9170     86.0874
   728.7500     76.8566      0.0000    256.9178     86.1261
   729.0000     76.7918      0.0000    256.9220     86.1664
   729.2500     77.0805      0.0000    256.9222     86.2131
   729.5000     77.6596      0.0000    256.9098     86.2626
   729.7500     78.4366      0.0000    256.8833     86.3032
   730.0000     78.7346      0.0000    256.8552     86.3212
   730.2500     77.4492      0.0000    256.8434     86.3092
   730.5000     74.1205      0.0000    256.8509     86.2710
   730.7500     69.8785      0.0000    256.8610     86.2189
   731.0000     66.9880      0.0000    256.8570     86.1652
   731.2500     67.0322      0.0000    256.8414     86.1160
   731.5000     69.4988      0.0000    256.8313     86.0706
   731.7500     72.5092      0.0000    256.8380     86.0274
   732.0000     74.9737      0.0000    256.8562     85.9900
   732.2500     77.6823      0.0000    256.8719     85.9682
   732.5000     82.3532      0.0000    256.8748     85.9718
   732.7500     90.1225      0.0000    256.8645     86.0039
   733.0000    101.1049      0.0000    256.8482     86.0580
   733.2500    114.9003      0.0000    256.8329     86.1209
   733.5000    130.8377      0.0000    256.8209     86.1789
   733.7500    147.3065      0.0000    256.8083     86.2218
   734.0000    161.4890      0.0000    256.7904     86.2432
   734.2500    170.9655      0.0000    256.7697     86.2375
   734.5000    175.8884      0.0000    256.7579     86.1994
   734.7500    179.0788      0.0000    256.7665     86.1261
   735.0000    183.9256      0.0000    256.7962     86.0214
   735.2500    192.1917      0.0000    256.8378     85.8966
   735.5000    203.0601      0.0000    256.8801     85.7688
   735.7500    213.7091      0.0000    256.9120     85.6554
   736.0000    221.2541      0.0000    256.9244     85.5708
   736.2500    224.8206      0.0000    256.9159     85.5225
   736.5000    225.9079      0.0000    256.8933     85.5101
   736.7500    226.6575      0.0000    256.8639     85.5242
