~Version Information
VERS.                      2.0: CWLS Log ASCII Standard - VERSION 2.0
WRAP.                       NO: One line per depth step
~Well Information Block
STRT.FT               845.0000: 
STOP.FT              2308.2000: 
STEP.FT                 0.1000: 
NULL.                -999.2500: 
COMP.          Pioneer Natural Resources: COMPANY
WELL.             Vector 33-23: WELL
FLD.           Purgatoire River: FIELD
LOC.           1560' FEL & 1988' FSL----: LOCATION
PROV.                 Colorado: PROVINCE
CNTY.               Las Animas: COUNTRY
SRVC.                Patterson: SERVICE COMPANY
DATE.          Mon Mar 28 08:17:25 2005: LOG DATE
UWI.           05 071 08336 00: UNIQUE WELL ID
~Curve Information Block
DEPT.FT            0 000 00 00: Depth
DCAL.in                       : CDL Caliper
RHOB.g/cc                     : CDL Bulk Density
RHOC.g/cc                     : CDL Density Correction
DPOR.pu                       : CDL Density Porosity
NPOR.pu                       : Neutron Porosity
GR.GAPI                       : Gamma Ray
~Parameter Information Block
~A  Depth       DCAL        RHOB        RHOC        DPOR        NPOR         GR     
# ...
  1421.0000      8.4371      2.0817      0.0419     34.4446     35.0175    106.1022
  1421.1000      8.4371      1.9729      0.0388     41.0361     35.7679     99.0383
  1421.2000      8.4371      1.8573     -0.0568     48.0453     36.4841     96.8650
  1421.3000      8.5029      1.7381     -0.0628     55.2690     36.7581     96.6232
  1421.4000      8.5029      1.5919     -0.0540     64.1274     36.8839     93.0403
  1421.5000      8.5710      1.4082     -0.1258     75.2625     36.8965     89.9173
  1421.6000      8.5710      1.2488     -0.2194     84.9198     36.7419     89.8265
  1421.7000      8.5710      1.1965     -0.1601     88.0885     36.5920     90.9608
  1421.8000      8.7387      1.2602      0.0389     84.2298     36.6030     92.4236
  1421.9000      8.7387      1.3842      0.1260     76.7170     36.5281     93.3266
  1422.0000      9.1134      1.5230      0.1605     68.3033     35.8911     92.0153
  1422.1000      9.1134      1.6663      0.2085     59.6186     34.8315     87.4715
  1422.2000      9.1134      1.8164      0.2566     50.5224     34.0131     83.3650
  1422.3000      9.6398      1.9681      0.3294     41.3298     33.5205     84.7513
  1422.4000      9.6398      2.1076      0.3560     32.8727     32.8105     91.4540
  1422.5000     10.0407      2.2309      0.3658     25.4001     31.7413     98.0050
  1422.6000     10.0407      2.3477      0.3610     18.3238     30.6585    100.9410
  1422.7000     10.0407      2.4538      0.3580     11.8888     29.8348    103.6624
  1422.8000      9.7807      2.5253      0.3182      7.5587     29.4995    108.6085
  1422.9000      9.7807      2.5531      0.2840      5.8715     29.5588    113.9742
  1423.0000      8.9100      2.5534      0.2543      5.8528     29.6135    118.5148
  1423.1000      8.9100      2.5438      0.2035      6.4377     29.5635    122.2825
  1423.2000      8.9100      2.5311      0.1781      7.2045     29.8169    122.7791
  1423.3000      8.3206      2.5141      0.1312      8.2355     30.6676    117.8905
  1423.4000      8.3206      2.4912      0.1129      9.6228     31.6694    113.3334
  1423.5000      8.1819      2.4703      0.0516     10.8939     31.9931    117.3186
  1423.6000      8.1819      2.4650      0.0702     11.2104     31.1511    127.3490
  1423.7000      8.1819      2.4724      0.1118     10.7622     29.6089    134.2367
  1423.8000      8.1696      2.4736      0.0994     10.6909     28.5116    134.8088
  1423.9000      8.1696      2.4616      0.0747     11.4158     28.4011    131.6893
  1424.0000      8.1676      2.4445      0.0827     12.4533     28.7403    128.8068
  1424.1000      8.1676      2.4322      0.0581     13.2026     29.1826    127.8422
  1424.2000      8.1676      2.4327      0.0410     13.1693     29.7774    128.4479
  1424.3000      8.1676      2.4439      0.1064     12.4931     30.2561    131.0441
  1424.4000      8.1676      2.4567      0.0941     11.7181     30.4056    132.6954
  1424.5000      8.1656      2.4641      0.1031     11.2640     30.3985    128.1662
  1424.6000      8.1656      2.4590      0.1250     11.5734     30.4359    119.9020
  1424.7000      8.1656      2.4540      0.0683     11.8808     30.2240    118.5103
  1424.8000      8.1518      2.4850      0.0966      9.9978     29.4820    126.3624
  1424.9000      8.1518      2.5717      0.1584      4.7475     28.5248    131.8108
  1425.0000      8.1267      2.7025      0.1870     -3.1817     27.9311    129.3954
  1425.1000      8.1267      2.8545      0.2734    -12.3927     27.6402    124.5615
  1425.2000      8.1267      3.0084      0.3007    -21.7210     26.9988    118.6430
  1425.3000      8.1058      3.1505      0.3533    -30.3358     26.2393    110.6007
  1425.4000      8.1058      3.2612      0.3694    -37.0423     26.1335    101.9364
  1425.5000      8.0969      3.3190      0.3509    -40.5434     26.5962     92.3303
  1425.6000      8.0969      3.3166      0.3038    -40.4007     26.8644     79.9653
  1425.7000      8.0969      3.2727      0.1672    -37.7370     26.7958     68.3295
  1425.8000      8.0962      3.2085      0.1063    -33.8474     26.9543     63.5777
  1425.9000      8.0962      3.1083      0.0357    -27.7757     27.3772     64.7576
  1426.0000      8.0969      2.9631     -0.1366    -18.9781     27.4841     68.7531
  1426.1000      8.0969      2.8218     -0.2231    -10.4128     27.3685     74.4513
  1426.2000      8.0969      2.7293     -0.2116     -4.8071     27.2223     79.9906
  1426.3000      8.0962      2.6671     -0.1788     -1.0369     26.8028     85.8412
  1426.4000      8.0962      2.5996     -0.1885      3.0537     26.3809     94.1012
  1426.5000      8.0952      2.5356     -0.1744      6.9347     26.0822    103.4749
  1426.6000      8.0952      2.5120     -0.1042      8.3653     25.8506    110.3783
  1426.7000      8.0952      2.5359      0.0480      6.9158     26.0207    116.4161
  1426.8000      8.0948      2.5734      0.1655      4.6452     26.3308    121.7249
  1426.9000      8.0948      2.5921      0.1424      3.5119     25.7835    117.9062
  1427.0000      8.0963      2.5892      0.1360      3.6842     24.0537    105.4630
  1427.1000      8.0963      2.5770      0.1110      4.4226     22.1170     96.9959
  1427.2000      8.0963      2.5653      0.1232      5.1350     21.2358     97.1868
  1427.3000      8.0969      2.5571      0.1200      5.6306     21.3214     99.3302
  1427.4000      8.0969      2.5507      0.0951      6.0197     21.5550     99.7654
  1427.5000      8.0988      2.5453      0.0843      6.3464     21.7495     98.5761
  1427.6000      8.0988      2.5378      0.1173      6.7996     21.8743     92.8863
  1427.7000      8.0988      2.5215      0.1009      7.7869     22.1773     83.7904
  1427.8000      8.1050      2.5024      0.0503      8.9435     23.2177     78.8287
  1427.9000      8.1050      2.4933      0.0591      9.4945     24.9368     80.2033
  1428.0000      8.1125      2.4928      0.0697      9.5297     26.6090     86.3844
  1428.1000      8.1125      2.5013      0.0594      9.0150     27.6873     95.9852
  1428.2000      8.1125      2.5348      0.0699      6.9791     28.4073    105.2355
  1428.3000      8.1207      2.5907      0.1653      3.5937     29.0724    110.1561
  1428.4000      8.1207      2.6315      0.2156      1.1203     29.4175    112.6620
  1428.5000      8.1308      2.6320      0.1894      1.0922     29.1714    117.3786
  1428.6000      8.1308      2.6108      0.1659      2.3736     28.6193    122.8058
  1428.7000      8.1308      2.6031      0.1583      2.8445     28.3795    125.1858
  1428.8000      8.1381      2.6111      0.2351      2.3600     28.7879    122.4447
  1428.9000      8.1381      2.6105      0.1804      2.3919     29.4220    116.2599
  1429.0000      8.1409      2.5971      0.1285      3.2034     29.4224    115.1208
  1429.1000      8.1409      2.5839      0.1479      4.0064     28.5093    122.8314
  1429.2000      8.1409      2.5814      0.1373      4.1564     27.4943    131.9169
  1429.3000      8.1438      2.5950      0.1476      3.3329     27.1742    134.7856
  1429.4000      8.1438      2.6095      0.2183      2.4536     27.2966    132.9674
  1429.5000      8.1455      2.6063      0.1595      2.6485     27.3388    134.4600
  1429.6000      8.1455      2.6045      0.1191      2.7574     27.5590    140.9635
  1429.7000      8.1455      2.6243      0.1687      1.5558     28.3023    145.8066
  1429.8000      8.1451      2.6442      0.1986      0.3493     29.0323    143.2379
  1429.9000      8.1451      2.6393      0.1358      0.6462     29.2672    135.9210
  1430.0000      8.1448      2.6204      0.0840      1.7957     29.2405    132.6839
  1430.1000      8.1448      2.6063      0.1400      2.6468     29.2577    135.1201
  1430.2000      8.1448      2.5973      0.1192      3.1934     29.2576    138.2107
  1430.3000      8.1442      2.5872      0.1089      3.8050     29.1971    140.9534
  1430.4000      8.1442      2.5730      0.0881      4.6692     29.3783    142.9142
  1430.5000      8.1437      2.5563      0.0640      5.6800     29.8586    139.7234
