~Version Information
VERS.                      2.0: CWLS Log ASCII Standard - VERSION 2.0
WRAP.                       NO: One line per depth step
~Well Information Block
STRT.FT                 3.5000: 
STOP.FT              1971.5000: 
STEP.FT                 0.2500: 
NULL.                -999.2500: 
COMP.          Evergreen Operating Corporation: COMPANY
WELL.          McCullough 34-32 Tr: WELL
FLD.           Purgatorie River: FIELD
LOC.           394' FSL & 2077' FEL: LOCATION
PROV.                 Colorado: PROVINCE
CNTY.               Las Animas: COUNTRY
SRVC.                         : SERVICE COMPANY
DATE.          Fri Sep 24 11:00:22 2004: LOG DATE
UWI.           05 071 08157 00: UNIQUE WELL ID
~Curve Information Block
DEPT.FT            0 000 00 00: Depth
GR.GAPI                       : Gamma Ray
CCL.                          : Casing Collar Locator
TT3.usec                      : CBL 3' Travel Time
AMP3.mV                       : CBL 3' Amplitude
~Parameter Information Block
~A  Depth        GR         CCL         TT3         AMP3    
     3.5000   -999.2500   -999.2500   -999.2500   -999.2500
     3.7500   -999.2500   -999.2500   -999.2500   -999.2500
     4.0000   -999.2500   -999.2500   -999.2500   -999.2500
     4.2500   -999.2500   -999.2500   -999.2500   -999.2500
     4.5000   -999.2500   -999.2500   -999.2500   -999.2500
     4.7500   -999.2500   -999.2500   -999.2500   -999.2500
     5.0000   -999.2500   -999.2500   -999.2500   -999.2500
     5.2500   -999.2500   -999.2500   -999.2500   -999.2500
     5.5000   -999.2500   -999.2500   -999.2500   -999.2500
     5.7500   -999.2500   -999.2500   -999.2500   -999.2500
     6.0000   -999.2500   -999.2500   -999.2500   -999.2500
     6.2500   -999.2500   -999.2500   -999.2500   -999.2500
     6.5000   -999.2500   -999.2500    768.0000      1.2000
     6.7500   -999.2500   -999.2500    768.0000      1.1851
     7.0000   -999.2500   -999.2500    768.0000      1.1677
     7.2500   -999.2500   -999.2500    768.0000      1.1508
     7.5000   -999.2500   -999.2500    768.0000      1.1374
     7.7500   -999.2500   -999.2500    768.0000      1.1336
     8.0000   -999.2500   -999.2500    768.0000      1.1454
     8.2500   -999.2500   -999.2500    768.0000      1.1717
     8.5000   -999.2500   -999.2500    768.0000      1.2020
     8.7500   -999.2500   -999.2500    768.0000      1.2230
     9.0000   -999.2500   -999.2500    768.0000      1.2275
     9.2500   -999.2500   -999.2500    768.0000      1.2179
     9.5000   -999.2500   -999.2500    768.0000      1.2030
     9.7500   -999.2500   -999.2500    767.9673      1.1967
    10.0000   -999.2500   -999.2500    767.7540      1.2332
    10.2500   -999.2500   -999.2500    766.6711      1.4372
    10.5000   -999.2500   -999.2500    762.3901      2.1841
    10.7500   -999.2500   -999.2500    749.2098      4.3226
    11.0000   -999.2500   -999.2500    717.6114      9.1962
    11.2500   -999.2500   -999.2500    658.6240     18.0252
    11.5000   -999.2500   -999.2500    572.8826     30.7081
    11.7500   -999.2500   -999.2500    475.8494     45.1151
    12.0000   -999.2500      0.0000    390.3730     57.9497
    12.2500   -999.2500      0.0000    331.8433     66.5897
    12.5000   -999.2500      0.0000    300.9647     70.1897
    12.7500   -999.2500      0.0000    289.2064     69.3811
    13.0000   -999.2500      0.0000    287.8587     65.3999
    13.2500   -999.2500      0.0000    291.9686     59.4917
    13.5000   -999.2500      0.0000    299.1425     52.6959
    13.7500   -999.2500      0.0000    307.4291     45.7859
    14.0000   -999.2500      0.0000    314.8629     39.2492
    14.2500   -999.2500      0.0000    320.2686     33.3226
    14.5000   -999.2500      0.0000    323.8185     28.0889
    14.7500   -999.2500      0.0000    326.6592     23.5916
    15.0000   -999.2500      0.0000    330.2052     19.8901
    15.2500   -999.2500      0.0000    335.4914     17.0341
    15.5000   -999.2500      0.0000    342.5716     15.0037
    15.7500   -999.2500      0.0000    350.2902     13.6829
    16.0000   -999.2500      0.0000    356.9406     12.8898
    16.2500   -999.2500      0.0000    361.4165     12.4405
    16.5000   -999.2500      0.0000    363.7456     12.1997
    16.7500   -999.2500      0.0000    364.6563     12.0837
    17.0000   -999.2500      0.0000    364.8780     12.0319
    17.2500   -999.2500      0.0000    364.8243     11.9958
    17.5000     48.9881      0.0000    364.6504     11.9609
    17.7500     50.4942      0.0000    364.4059     11.9530
    18.0000     51.8662      0.0000    364.1268     11.9939
    18.2500     52.1370      0.0000    363.8564     12.0540
    18.5000     51.2108      0.0000    363.6307     12.0671
    18.7500     49.7717      0.0000    363.4664     11.9982
    19.0000     48.6341      0.0000    363.3627     11.8856
    19.2500     48.2522      0.0000    363.3128     11.8064
    19.5000     48.7258      0.0000    363.3271     11.8097
    19.7500     50.0419      0.0000    363.4903     11.8905
    20.0000     52.0795      0.0000    364.1365     12.0161
    20.2500     54.3730      0.0000    366.2119     12.1618
    20.5000     56.1865      0.0000    371.6358     12.3118
    20.7500     57.0175      0.0000    382.9687     12.4304
    21.0000     56.8830      0.0000    401.7050     12.4504
    21.2500     56.0776      0.0000    426.2298     12.3029
    21.5000     54.7849      0.0000    452.2458     11.9648
    21.7500     52.8630      0.0000    476.6929     11.4781
    22.0000     49.9917      0.0000    501.3475     10.9309
    22.2500     46.2875      0.0000    531.2357     10.4225
    22.5000     42.8425      0.0000    568.9180     10.0295
    22.7500     41.2925      0.0000    610.7922      9.7837
    23.0000     42.5716      0.0000    649.1315      9.6795
    23.2500     46.1484      0.0000    676.8412      9.7001
    23.5000     50.5604      0.0000    690.4302      9.8273
    23.7500     54.6002      0.0000    690.5566     10.0338
    24.0000     57.9156      0.0000    681.0680     10.2873
    24.2500     60.6435      0.0000    666.1143     10.5722
    24.5000     62.6790      0.0000    647.0027     10.8935
    24.7500     63.3955      0.0000    623.3165     11.2413
    25.0000     62.2212      0.0000    597.8690     11.5517
    25.2500     59.5907      0.0000    578.7452     11.7240
    25.5000     57.0242      0.0000    575.3089     11.6961
    25.7500     56.0047      0.0000    592.3589     11.5110
    26.0000     56.9643      0.0000    626.5643     11.3097
    26.2500     59.4100      0.0000    666.8534     11.2400
    26.5000     62.3923      0.0000    699.5714     11.3429
    26.7500     64.4812      0.0000    715.3622     11.5330
    27.0000     64.1610      0.0000    712.0498     11.7000
    27.2500     61.1883      0.0000    692.5829     11.8115
    27.5000     57.1686      0.0000    662.7468     11.9023
    27.7500     54.0224      0.0000    630.5351     11.9895
    28.0000     52.0143      0.0000    604.6306     12.0243
    28.2500     49.7447      0.0000    591.7008     11.9294
    28.5000     45.8872      0.0000    595.1834     11.6838
    28.7500     40.5724      0.0000    615.4798     11.3641
    29.0000     35.2212      0.0000    649.0509     11.0910
    29.2500     31.3415      0.0000    687.6454     10.9379
    29.5000     29.4995      0.0000    721.3271     10.9012
    29.7500     29.2493      0.0000    744.1176     10.9377
    30.0000     29.7716      0.0000    756.4193     11.0129
    30.2500     30.4262      0.0000    762.2074     11.1118
    30.5000     30.8844      0.0000    765.0371     11.2196
    30.7500     31.1315      0.0000    766.6014     11.3078
    31.0000     31.4682      0.0000    767.4451     11.3483
    31.2500     32.2731      0.0000    767.8241     11.3360
    31.5000     33.6260      0.0000    767.9555     11.2881
    31.7500     35.3046      0.0000    767.9913     11.2286
    32.0000     37.1395      0.0000    767.9987     11.1826
    32.2500     39.1261      0.0000    768.0000     11.1790
    32.5000     41.2298      0.0000    768.0000     11.2340
    32.7500     43.3867      0.0000    768.0000     11.3295
    33.0000     45.6944      0.0000    768.0000     11.4194
    33.2500     48.3120      0.0000    768.0000     11.4617
    33.5000     51.1598      0.0000    768.0000     11.4472
    33.7500     53.9940      0.0000    768.0000     11.4009
    34.0000     56.8338      0.0000    768.0000     11.3627
    34.2500     60.0592      0.0000    768.0000     11.3590
    34.5000     63.9389      0.0000    768.0000     11.3863
    34.7500     68.1027      0.0000    768.0000     11.4251
    35.0000     71.4711      0.0000    768.0000     11.4709
    35.2500     72.8582      0.0000    768.0000     11.5386
    35.5000     71.9706      0.0000    768.0000     11.6341
    35.7500     69.8779      0.0000    768.0000     11.7306
    36.0000     68.2868      0.0000    768.0000     11.7869
    36.2500     68.2262      0.0000    768.0000     11.7882
    36.5000     69.4184      0.0000    768.0000     11.7622
    36.7500     70.7548      0.0000    768.0000     11.7502
