~Version Information
VERS.                      2.0: CWLS Log ASCII Standard - VERSION 2.0
WRAP.                       NO: One line per depth step
~Well Information Block
STRT.FT               294.0000: 
STOP.FT              1958.0000: 
STEP.FT                 0.1000: 
NULL.                -999.2500: 
COMP.          Pioneer Natural Resources: COMPANY
WELL.          Commander 43-26 Tr: WELL
FLD.           Purgatoire River: FIELD
LOC.           2439' FSL & 446' FEL: LOCATION
PROV.                 Colorado: PROVINCE
CNTY.               Las Animas: COUNTRY
SRVC.                Patterson: SERVICE COMPANY
DATE.          Fri Apr 15 07:31:08 2005: LOG DATE
UWI.           05 071 08341 00: UNIQUE WELL ID
~Curve Information Block
DEPT.FT            0 000 00 00: Depth
DCAL.in                       : CDL Caliper
RHOB.g/cc                     : CDL Bulk Density
RHOC.g/cc                     : CDL Density Correction
DPOR.pu                       : CDL Density Porosity
GR.GAPI                       : Gamma Ray
NPOR.pu                       : Neutron Porosity
~Parameter Information Block
~A  Depth       DCAL        RHOB        RHOC        DPOR         GR         NPOR    
# ...
  1839.6000      8.4188      2.6372      0.0815      0.7738     77.3119     24.6376
  1839.7000      8.4188      2.6301      0.0918      1.2056     76.1202     24.0207
  1839.8000      8.1156      2.6210      0.0447      1.7573     78.6201     23.8820
  1839.9000      8.1156      2.6120      0.0773      2.3043     84.9955     24.4230
  1840.0000      8.0051      2.5977      0.0558      3.1674     89.5314     24.7656
  1840.1000      8.0051      2.5762      0.0409      4.4749     87.9970     24.5325
  1840.2000      8.0051      2.5506      0.0111      6.0240     81.5194     24.1562
  1840.3000      7.9954      2.5336     -0.0005      7.0553     76.0100     24.4676
  1840.4000      7.9954      2.5375     -0.0029      6.8209     76.5452     25.4718
  1840.5000      8.0019      2.5489      0.0557      6.1296     81.0330     26.0418
  1840.6000      8.0019      2.5385      0.0675      6.7599     84.1628     25.4506
  1840.7000      8.0019      2.5068      0.0048      8.6762     82.9512     24.3499
  1840.8000      8.0009      2.4922     -0.0228      9.5651     78.4826     23.6054
  1840.9000      8.0009      2.5083      0.0433      8.5880     74.5639     23.5091
  1841.0000      7.9541      2.5250      0.0567      7.5750     71.8327     23.8752
  1841.1000      7.9541      2.5296      0.0325      7.2989     69.3654     24.3915
  1841.2000      7.9541      2.5398      0.1004      6.6762     69.6131     25.0404
  1841.3000      7.9251      2.5615      0.1312      5.3606     72.8066     25.1553
  1841.4000      7.9251      2.5847      0.1192      3.9579     74.3578     24.1617
  1841.5000      7.9038      2.6043      0.1398      2.7678     73.4024     22.7805
  1841.6000      7.9038      2.6239      0.1343      1.5846     73.2605     21.8284
  1841.7000      7.9038      2.6424      0.1341      0.4587     73.8256     21.5378
  1841.8000      7.8952      2.6541      0.1052     -0.2471     72.4092     21.9225
  1841.9000      7.8952      2.6519      0.1211     -0.1171     71.1884     23.1337
  1842.0000      7.9359      2.6258      0.1135      1.4649     72.2375     24.7095
  1842.1000      7.9359      2.5843      0.0265      3.9846     72.3895     25.2738
  1842.2000      7.9359      2.5519      0.0332      5.9470     69.4647     24.5123
  1842.3000      7.9617      2.5356      0.0490      6.9341     64.9872     23.3901
  1842.4000      7.9617      2.5228      0.0556      7.7094     61.8932     22.7848
  1842.5000      7.9871      2.5061      0.0263      8.7230     61.5303     22.9128
  1842.6000      7.9871      2.4883      0.0396      9.8008     62.4105     23.2069
  1842.7000      7.9871      2.4702      0.0215     10.8964     62.2576     22.9156
  1842.8000      7.9909      2.4571      0.0385     11.6923     62.0680     22.4250
  1842.9000      7.9909      2.4570      0.0543     11.6983     63.7774     22.5163
  1843.0000      7.9910      2.4653      0.0250     11.1961     63.9455     22.7204
  1843.1000      7.9910      2.4710      0.0229     10.8499     60.0115     22.4702
  1843.2000      7.9910      2.4697      0.0410     10.9289     54.0036     22.5219
  1843.3000      7.9833      2.4667      0.0491     11.1061     48.4640     23.3338
  1843.4000      7.9833      2.4657      0.1062     11.1717     45.4999     23.5168
  1843.5000      7.9689      2.4625      0.0780     11.3640     46.0677     22.4076
  1843.6000      7.9689      2.4572      0.0460     11.6874     49.3897     21.4289
  1843.7000      7.9689      2.4565      0.0708     11.7248     55.3193     21.2764
  1843.8000      7.9633      2.4698      0.0592     10.9191     64.0926     21.3620
  1843.9000      7.9633      2.4997      0.0942      9.1065     72.0038     21.3915
  1844.0000      7.9601      2.5285      0.1521      7.3662     73.9184     21.8107
  1844.1000      7.9601      2.5375      0.1528      6.8175     71.0254     22.6385
  1844.2000      7.9601      2.5310      0.1225      7.2101     66.7833     23.2532
  1844.3000      7.9694      2.5209      0.0816      7.8225     63.5962     23.5878
  1844.4000      7.9694      2.5127      0.0870      8.3212     64.0302     23.6720
  1844.5000      7.9919      2.5151      0.0550      8.1751     66.6332     23.4357
  1844.6000      7.9919      2.5349      0.0542      6.9756     67.0018     23.1447
  1844.7000      7.9919      2.5517      0.0907      5.9592     64.6164     22.5278
  1844.8000      8.0024      2.5460      0.0384      6.3017     61.2565     21.5866
  1844.9000      8.0024      2.5370      0.0124      6.8479     59.3776     21.3272
  1845.0000      8.0118      2.5448      0.0466      6.3762     61.2454     22.0220
  1845.1000      8.0118      2.5606      0.0553      5.4197     66.1128     22.7234
  1845.2000      8.0118      2.5727      0.0372      4.6868     71.9936     22.9044
  1845.3000      8.0421      2.5733      0.0539      4.6502     76.1902     22.8387
  1845.4000      8.0421      2.5533      0.0516      5.8586     77.1257     23.0292
  1845.5000      8.0603      2.5248      0.0510      7.5884     77.0167     23.5907
  1845.6000      8.0603      2.5098      0.0449      8.4991     76.8646     23.8414
  1845.7000      8.0603      2.5057      0.0886      8.7484     75.5655     23.3861
  1845.8000      8.0554      2.5035      0.0942      8.8775     73.4555     22.9052
  1845.9000      8.0554      2.5070      0.0485      8.6659     72.0222     22.7992
  1846.0000      8.0121      2.5103      0.0714      8.4663     69.3965     22.7119
  1846.1000      8.0121      2.5027      0.0602      8.9255     63.6697     22.2489
  1846.2000      8.0121      2.4946      0.0353      9.4204     60.4944     21.3117
  1846.3000      8.0080      2.5049      0.0680      8.7950     64.6197     20.5077
  1846.4000      8.0080      2.5289      0.0763      7.3393     71.8580     20.6614
  1846.5000      7.9918      2.5435      0.1047      6.4543     75.1570     21.5754
  1846.6000      7.9918      2.5401      0.1104      6.6583     73.0173     22.4176
  1846.7000      7.9918      2.5282      0.1025      7.3795     71.4884     22.6650
  1846.8000      7.9404      2.5161      0.0868      8.1170     71.8814     22.5298
  1846.9000      7.9404      2.5070      0.0491      8.6656     69.7518     22.5475
  1847.0000      7.9140      2.5066      0.0645      8.6931     69.0429     22.5920
  1847.1000      7.9140      2.5244      0.0624      7.6112     72.8727     22.8776
  1847.2000      7.9140      2.5488      0.1605      6.1333     74.1898     23.1504
  1847.3000      7.9332      2.5419      0.1263      6.5513     70.1351     22.2736
  1847.4000      7.9332      2.5063      0.0637      8.7076     66.8028     20.8586
  1847.5000      7.9652      2.4869      0.0339      9.8841     68.0940     20.2980
  1847.6000      7.9652      2.4971      0.0634      9.2696     70.3889     20.5708
  1847.7000      7.9652      2.5064      0.0716      8.7022     70.4954     20.9423
  1847.8000      7.9739      2.4980      0.0437      9.2148     69.2086     21.0632
  1847.9000      7.9739      2.4857      0.0461      9.9566     68.6784     21.1832
  1848.0000      7.9853      2.4731      0.0610     10.7201     70.0996     21.5577
  1848.1000      7.9853      2.4554      0.0374     11.7945     71.2816     21.9859
  1848.2000      7.9853      2.4474      0.0173     12.2814     70.5751     22.2935
  1848.3000      7.9875      2.4588      0.0629     11.5899     67.9322     22.4040
  1848.4000      7.9875      2.4772      0.0765     10.4738     63.8278     22.3952
  1848.5000      7.9824      2.4936      0.0440      9.4784     61.1578     22.4981
  1848.6000      7.9824      2.5071      0.0557      8.6625     63.0714     22.6773
  1848.7000      7.9824      2.5092      0.0748      8.5357     67.1046     22.6046
  1848.8000      7.9824      2.4903      0.0899      9.6786     67.3770     22.2808
  1848.9000      7.9824      2.4596      0.0256     11.5407     64.5432     21.6542
  1849.0000      7.9951      2.4388      0.0489     12.8014     61.9464     20.3495
  1849.1000      7.9951      2.4315      0.0061     13.2403     59.7969     18.9110
