~Version Information
VERS.                      2.0: CWLS Log ASCII Standard - VERSION 2.0
WRAP.                       NO: One line per depth step
~Well Information Block
STRT.FT               500.0000: 
STOP.FT              2732.5000: 
STEP.FT                 0.1000: 
NULL.                -999.2500: 
COMP.          Pioneer Natural Resources: COMPANY
WELL.          Dude Canyon 22-32: WELL
FLD.           Purgatoire River: FIELD
LOC.           1662' FNL & 2446' FWL----: LOCATION
PROV.                 Colorado: PROVINCE
CNTY.               Las Animas: COUNTRY
SRVC.                Patterson: SERVICE COMPANY
DATE.          Thu Mar 10 07:06:34 2005: LOG DATE
UWI.           05 071 08257 00: UNIQUE WELL ID
~Curve Information Block
DEPT.FT            0 000 00 00: Depth
GR.GAPI                       : Gamma Ray
DCAL.in                       : CDL Caliper
DPOR.pu                       : CDL Density Porosity
NPOR.pu                       : Neutron Porosity
RHOB.g/cc                     : CDL Bulk Density
RHOC.g/cc                     : CDL Density Correction
~Parameter Information Block
~A  Depth        GR         DCAL        DPOR        NPOR        RHOB        RHOC    
# ...
  2122.4000    142.3177      8.1124      4.1956     23.2115      2.5808      0.0595
  2122.5000    141.9864      8.1069      2.9849     22.3774      2.6007      0.0647
  2122.6000    143.5534      8.1069      1.9770     21.5316      2.6174      0.0957
  2122.7000    140.8725      8.1069      2.1057     20.8806      2.6153      0.0703
  2122.8000    128.5295      8.1052      3.2331     20.4920      2.5967      0.0710
  2122.9000    113.3635      8.1052      4.7663     20.5041      2.5714      0.0535
  2123.0000    107.4609      8.1042      5.9368     20.4729      2.5520      0.0006
  2123.1000    115.8860      8.1042      6.1296     19.8313      2.5489      0.0207
  2123.2000    125.6273      8.1042      5.8109     19.0486      2.5541      0.0254
  2123.3000    121.5699      8.0999      6.0523     18.7796      2.5501      0.0472
  2123.4000    106.9491      8.0999      7.2953     19.0468      2.5296     -0.0110
  2123.5000     90.9611      8.0955      8.8068     19.7874      2.5047     -0.0171
  2123.6000     77.8210      8.0955      9.2122     20.7092      2.4980     -0.0487
  2123.7000     72.5663      8.0955      7.7103     21.1511      2.5228     -0.0041
  2123.8000     73.4789      8.0928      4.8758     20.9192      2.5696      0.0313
  2123.9000     69.9071      8.0928      2.2183     20.4567      2.6134      0.0556
  2124.0000     58.2876      8.0909      1.0229     19.9019      2.6331      0.0694
  2124.1000     48.2635      8.0909      1.5184     19.2215      2.6249      0.0797
  2124.2000     48.0432      8.0909      2.8039     18.7248      2.6037      0.0418
  2124.3000     52.5982      8.0893      3.6531     18.4735      2.5897     -0.0059
  2124.4000     53.5538      8.0893      3.9000     18.1677      2.5857      0.0021
  2124.5000     51.0012      8.0886      4.6034     17.7841      2.5740      0.0500
  2124.6000     50.5464      8.0886      6.2064     17.5477      2.5476      0.0143
  2124.7000     53.1420      8.0886      7.5216     17.3625      2.5259      0.0228
  2124.8000     55.2689      8.0892      7.3371     17.1647      2.5289     -0.0050
  2124.9000     54.6006      8.0892      6.2795     17.4294      2.5464      0.0481
  2125.0000     50.9605      8.0908      5.9067     18.2854      2.5525      0.0202
  2125.1000     48.1968      8.0908      6.1098     18.9573      2.5492      0.0052
  2125.2000     52.4958      8.0908      5.9450     18.9101      2.5519      0.0381
  2125.3000     65.5550      8.0920      5.1926     18.3707      2.5643      0.0345
  2125.4000     72.6726      8.0920      3.8984     17.7066      2.5857      0.0415
  2125.5000     63.4777      8.0881      3.2040     17.4615      2.5971      0.0959
  2125.6000     51.3328      8.0881      4.3966     17.8211      2.5775      0.0183
  2125.7000     48.5087      8.0881      6.3997     18.3060      2.5444      0.0029
  2125.8000     51.9552      8.0829      7.6928     18.5044      2.5231      0.0024
  2125.9000     54.3495      8.0829      8.2131     18.2399      2.5145      0.0123
  2126.0000     52.9471      8.0814      8.1765     17.5583      2.5151      0.0177
  2126.1000     48.5468      8.0814      7.7219     16.8286      2.5226      0.0290
  2126.2000     43.0743      8.0814      7.5371     16.4966      2.5256      0.0746
  2126.3000     40.7670      8.0822      8.0913     16.4403      2.5165      0.0209
  2126.4000     39.4194      8.0822      8.8693     16.2914      2.5037      0.0252
  2126.5000     34.9995      8.0812      9.5552     16.2286      2.4923      0.0389
  2126.6000     32.3954      8.0812     10.3577     16.2431      2.4791      0.0474
  2126.7000     34.7251      8.0812     10.9857     16.0795      2.4687      0.0152
  2126.8000     37.8745      8.0794     10.9568     15.9510      2.4692     -0.0004
  2126.9000     39.6140      8.0794     10.4268     16.1241      2.4780      0.0404
  2127.0000     38.5798      8.0788      9.9599     16.4456      2.4857      0.0482
  2127.1000     31.9695      8.0788      9.6941     16.6579      2.4900      0.0610
  2127.2000     27.0523      8.0788      9.5301     16.6704      2.4928      0.0886
  2127.3000     33.4061      8.0793      9.5206     16.5875      2.4929      0.0687
  2127.4000     43.0725      8.0793      9.4005     16.6943      2.4949      0.0367
  2127.5000     42.7503      8.0794      9.2471     16.8340      2.4974      0.0658
  2127.6000     35.8297      8.0794      9.6753     16.6666      2.4904      0.0275
  2127.7000     33.5504      8.0794     10.3748     16.5286      2.4788      0.0035
  2127.8000     37.3474      8.0779     10.8984     16.5745      2.4702      0.0378
  2127.9000     41.0360      8.0779     11.4611     16.3362      2.4609      0.0275
  2128.0000     41.9279      8.0779     11.7245     15.9524      2.4565     -0.0138
  2128.1000     41.6485      8.0779     11.3534     15.8005      2.4627      0.0587
  2128.2000     42.4589      8.0779     10.5432     15.5737      2.4760      0.0201
  2128.3000     46.8832      8.0785      9.5216     15.1546      2.4929      0.0464
  2128.4000     52.2337      8.0785      9.1036     14.7066      2.4998      0.0667
  2128.5000     52.0812      8.0804      9.6320     14.1000      2.4911      0.0495
  2128.6000     46.4218      8.0804     10.1616     13.2106      2.4823      0.0056
  2128.7000     42.2862      8.0804     10.3552     12.3087      2.4791      0.0525
  2128.8000     43.7462      8.0826     11.0383     11.8612      2.4679      0.0679
  2128.9000     46.0879      8.0826     12.2792     11.9187      2.4474      0.0023
  2129.0000     47.4004      8.0809     13.3712     11.9936      2.4294      0.0487
  2129.1000     49.3070      8.0809     13.9075     11.6326      2.4205     -0.0121
  2129.2000     50.7441      8.0809     13.7600     11.1313      2.4230      0.0261
  2129.3000     53.5736      8.0789     13.5503     10.9044      2.4264      0.0313
  2129.4000     59.2858      8.0789     13.4694     11.0041      2.4278     -0.0122
  2129.5000     60.5040      8.0788     13.0466     11.3243      2.4347      0.0449
  2129.6000     53.6191      8.0788     12.6810     11.5553      2.4408      0.0462
  2129.7000     45.8338      8.0788     12.7984     11.6250      2.4388      0.0251
  2129.8000     39.7531      8.0783     13.0577     11.7659      2.4345      0.0199
  2129.9000     34.9288      8.0783     13.0526     11.8182      2.4346      0.0070
  2130.0000     29.5273      8.0760     12.6671     11.3759      2.4410     -0.0065
  2130.1000     22.7412      8.0760     12.2834     10.7053      2.4473      0.0727
  2130.2000     19.4698      8.0760     12.7242     10.4112      2.4401      0.0547
  2130.3000     22.0414      8.0750     14.0834     10.5446      2.4176      0.0611
  2130.4000     28.1213      8.0750     15.1522     10.7773      2.4000     -0.0256
  2130.5000     35.5363      8.0765     14.8421     10.8103      2.4051      0.0021
  2130.6000     41.3928      8.0765     13.6730     10.6451      2.4244      0.0247
  2130.7000     42.9487      8.0765     12.8424     10.3535      2.4381      0.0533
  2130.8000     41.6429      8.0780     13.0589      9.8592      2.4345      0.0299
  2130.9000     41.3346      8.0780     14.0206      9.3407      2.4187     -0.0274
  2131.0000     43.2980      8.0778     14.7194      9.1945      2.4071      0.0014
  2131.1000     44.7507      8.0778     14.5795      9.5797      2.4094      0.0119
  2131.2000     43.0970      8.0778     13.7499     10.3308      2.4231      0.0307
  2131.3000     40.4053      8.0775     12.7035     11.0897      2.4404      0.0359
  2131.4000     39.7072      8.0775     11.5742     11.6300      2.4590      0.0440
  2131.5000     42.5479      8.0803     10.6206     12.0366      2.4748      0.0654
  2131.6000     48.6319      8.0803     10.5920     12.5409      2.4752      0.0662
  2131.7000     56.0538      8.0803     11.6290     13.0493      2.4581      0.0374
  2131.8000     60.0902      8.0831     13.1781     13.4568      2.4326      0.0416
  2131.9000     52.7730      8.0831     14.8991     14.1190      2.4042      0.0264
