~Version Information
VERS.                      2.0: CWLS Log ASCII Standard - VERSION 2.0
WRAP.                       NO: One line per depth step
~Well Information Block
STRT.FT               665.0000: 
STOP.FT              1972.0000: 
STEP.FT                 0.2500: 
NULL.                -999.2500: 
COMP.          Petrogulf Corporation: COMPANY
WELL.          Great Plains 22-21V: WELL
FLD.           Purgatorie River: FIELD
LOC.           63' FNL & 1895' FWL: LOCATION
PROV.                 Colorado: PROVINCE
CNTY.               Las Animas: COUNTRY
SRVC.                Patterson: SERVICE COMPANY
DATE.          Thu Sep 01 07:36:33 2005: LOG DATE
UWI.                          : UNIQUE WELL ID
~Curve Information Block
DEPT.FT            0 000 00 00: Depth
SP.mV                         : DIL Spontaneous Potential
RILD.Ohm-m                    : DIL Deep Resistivity
RILM.Ohm-m                    : DIL Medium Resistivity
RLL3.Ohm-m                    : DIL Shallow Resistivity
GR.GAPI                       : Gamma Ray
~Parameter Information Block
~A  Depth        SP         RILD        RILM        RLL3         GR     
# ...
  1869.0000    166.2558     10.2414     10.5356     11.8427     66.5121
  1869.2500    166.0809     10.3953     10.5409     11.0872     64.1934
  1869.5000    166.0378     10.3878     10.6025     10.8054     68.9068
  1869.7500    166.0999     10.5565     10.5535     10.7832     85.3425
  1870.0000    166.3024     10.7107     10.6992     11.1212     68.2689
  1870.2500    166.5690     10.7279     10.8891     11.5570     74.7169
  1870.5000    166.8617     11.0595     11.0477     12.1143     81.5856
  1870.7500    167.0692     11.1189     11.2583     12.6587     73.7473
  1871.0000    167.0363     11.1973     11.5492     12.8050     81.5110
  1871.2500    166.7006     11.3039     11.6372     13.4406     82.9076
  1871.5000    166.1964     11.3501     11.7341     13.7482     83.2644
  1871.7500    165.6103     11.4965     11.9538     13.2224     68.7759
  1872.0000    164.9938     11.5299     11.8222     12.7870     58.7070
  1872.2500    164.3536     11.3548     12.0005     12.5337     63.3949
  1872.5000    163.6938     11.5524     12.3873     12.7563     67.3532
  1872.7500    163.0272     11.9685     12.7245     13.9443     52.5846
  1873.0000    162.4701     12.2859     12.8981     15.1433     57.8754
  1873.2500    161.9988     12.6469     12.7864     15.9488     63.9628
  1873.5000    161.7231     12.7247     12.3487     15.8599     66.0982
  1873.7500    161.5940     13.4443     12.4312     14.0536     60.8679
  1874.0000    161.5171     13.9084     13.0643     12.1789     67.3605
  1874.2500    161.5663     14.5544     13.1099     11.3363     67.9925
  1874.5000    161.9340     14.6956     13.5610     12.1419     48.5441
  1874.7500    162.6770     14.9287     14.5482     15.2575     51.3608
  1875.0000    163.9335     15.0715     15.8697     20.0246     53.3797
  1875.2500    165.4848     14.9728     17.5894     26.2506     45.0332
  1875.5000    167.1895     14.8778     18.6480     34.7378     40.9169
  1875.7500    168.8708     14.4486     19.3850     52.4288     33.0382
  1876.0000    170.8213     13.6831     21.2310     76.1851     29.7292
  1876.2500    172.9765     13.9630     21.4451     85.3982     28.4337
  1876.5000    175.3302     13.2927     19.7463     93.9445     41.6144
  1876.7500    177.8858     12.4107     17.8019     93.6170     41.7501
  1877.0000    180.4363     11.9264     15.7162     67.5655     41.5201
  1877.2500    182.7977     11.4788     14.0574     37.3971     51.6569
  1877.5000    184.8131     11.0119     12.0525     18.9733     56.7529
  1877.7500    186.4576     10.6181     10.6994     10.5780     70.6141
  1878.0000    187.6349     10.0572      9.5525      7.5644     74.7471
  1878.2500    188.4648      9.8267      9.1029      7.2192     90.5769
  1878.5000    189.0080      9.3872      8.7694      7.7055     86.0455
  1878.7500    189.2745      8.8456      8.5728      8.2658     86.3563
  1879.0000    189.3150      8.5102      8.4781      9.0163    104.1595
  1879.2500    189.3039      8.2024      8.2801      9.3032     91.7333
  1879.5000    189.2992      7.9656      8.0882      9.3979     86.2943
  1879.7500    189.1936      7.7972      7.9586      9.3559    104.2097
  1880.0000    189.0432      7.6744      7.5870      9.2896    113.2706
  1880.2500    188.8387      7.6973      7.4881      9.6567     97.8801
  1880.5000    188.6252      7.6149      7.5173      9.8067     80.0943
  1880.7500    188.3060      7.6846      7.5554     10.0484     80.0863
  1881.0000    188.0630      7.5769      7.6545     10.4640     86.7495
  1881.2500    187.8308      7.8822      7.8063     10.9688     79.8943
  1881.5000    187.5047      8.0864      7.9743     11.3459     95.9666
  1881.7500    187.0439      8.1554      8.2893     10.9741     99.3039
  1882.0000    186.3845      8.2872      8.2950     10.5770    108.7305
  1882.2500    185.5715      8.5364      8.4156     10.7225     94.8115
  1882.5000    184.6776      8.7428      8.7584     10.8018     83.1489
  1882.7500    183.5910      9.0421      8.9424     10.6227     92.7784
  1883.0000    182.2224      9.2721      9.1288     10.2648     95.2534
  1883.2500    180.6786      9.6291      9.4322      9.9828     91.6463
  1883.5000    178.9670      9.7924      9.7777     10.5892     71.5561
  1883.7500    177.3477     10.2182     10.4329     12.7405     74.4058
  1884.0000    175.9855     10.5090     10.8361     15.5094     67.8719
  1884.2500    174.9725     10.8874     11.4280     15.6179     60.1150
  1884.5000    174.2499     11.0479     12.0006     16.0399     65.7731
  1884.7500    173.6236     11.1879     12.8948     18.4906     54.2310
  1885.0000    173.1181     11.5713     13.2894     19.9486     59.5248
  1885.2500    172.6531     11.8990     13.9796     19.9998     51.6224
  1885.5000    172.1688     11.7545     14.4588     21.6087     39.2946
  1885.7500    171.7016     11.5469     14.8995     23.9047     50.1179
  1886.0000    171.3699     11.4277     14.8758     24.9008     61.3055
  1886.2500    171.2094     11.0108     14.4600     24.7511     50.1010
  1886.5000    171.1510     11.0024     13.6615     23.3614     52.6711
  1886.7500    171.0689     10.8151     12.7712     18.1229     69.4436
  1887.0000    170.8979     10.5553     11.6630     13.4272     80.3979
  1887.2500    170.4259     10.1599     10.8578     11.3735     82.0605
  1887.5000    169.7627     10.0287      9.9227     10.8779     87.6983
  1887.7500    169.1063      9.7942      9.4032     10.7683     89.4407
  1888.0000    168.7003      9.7659      8.9299      9.8760     95.1631
  1888.2500    168.4227      9.6809      8.6159      8.8843    100.9444
  1888.5000    168.2743      9.4461      8.5086      8.5652     91.7674
  1888.7500    168.2379      9.2041      8.4336      8.7090     82.8525
  1889.0000    168.2704      9.0138      8.4951      9.0213     77.7202
  1889.2500    168.3802      8.7950      8.7130     10.0150     73.0085
  1889.5000    168.5583      8.8040      8.8159     11.8250     90.0398
  1889.7500    168.7237      8.7115      8.7199     14.5247     72.5652
  1890.0000    168.8669      8.7254      8.7894     15.1610     70.8638
  1890.2500    168.9482      8.7846      8.6985     12.0915     72.5925
  1890.5000    168.8497      8.8101      8.7292      9.9797     75.2203
  1890.7500    168.6091      8.8957      8.8696      9.6113     58.5513
  1891.0000    168.3506      9.2606      9.1499     11.0313     59.6760
  1891.2500    168.1186      9.5384      9.3883     13.5672     49.5674
  1891.5000    167.9120      9.8486      9.6318     14.5068     56.9471
  1891.7500    167.6890      9.9692      9.7059     13.1308     62.4861
  1892.0000    167.4198     10.3845      9.8583     12.0857     66.6676
  1892.2500    167.1159     10.7616     10.0220     11.5760     79.5090
  1892.5000    166.9075     10.8949     10.2949     10.7563     77.7209
  1892.7500    166.7197     10.9575     10.8703     10.5166     72.0341
  1893.0000    166.5618     11.1851     11.4538     11.6366     63.0396
  1893.2500    166.5176     11.3077     12.0377     13.9648     55.8476
  1893.5000    166.4907     11.6065     12.6522     16.5639     36.3824
  1893.7500    166.4105     11.6061     13.3219     19.4662     37.5297
  1894.0000    166.3153     11.9568     13.6931     21.2755     47.5348
  1894.2500    166.2752     12.1303     13.8495     20.5947     41.7058
  1894.5000    166.3218     12.4538     14.1365     18.0370     52.5120
  1894.7500    166.4729     12.4938     14.0134     15.4344     53.7714
  1895.0000    166.6446     12.7895     13.9965     13.4497     51.1832
  1895.2500    166.9212     13.2534     14.3020     12.9716     55.3021
  1895.5000    167.3066     13.2081     14.8621     15.0899     42.6230
  1895.7500    167.6209     13.0159     15.2808     19.6389     41.5715
  1896.0000    167.7794     12.6216     15.1097     24.6424     44.2118
  1896.2500    167.8415     12.5757     15.1365     27.5846     42.8697
  1896.5000    167.9879     12.6651     14.7950     27.1612     51.0114
  1896.7500    168.1461     12.5439     13.9310     23.2333     60.7792
