~Version Information
VERS.                      2.0: CWLS Log ASCII Standard - VERSION 2.0
WRAP.                       NO: One line per depth step
~Well Information Block
STRT.FT               765.4000: 
STOP.FT              2581.2000: 
STEP.FT                 0.1000: 
NULL.                -999.2500: 
COMP.          Petrogulf Corporation: COMPANY
WELL.            Montoya 7-12V: WELL
FLD.           Purgatorie River: FIELD
LOC.           728' FWL & 1764' FNL: LOCATION
CNTY.               Las Animas: COUNTY
SRVC.                         : SERVICE COMPANY
DATE.          Fri Feb 20 09:23:58 2004: LOG DATE
UWI.           05-071-07887-00: UNIQUE WELL ID
STAT.                 Colorado: STATE
~Curve Information Block
DEPT.FT            0 000 00 00: Depth
DCAL.in                       : CDL Caliper
RHOB.g/cc                     : CDL Bulk Density
RHOC.g/cc                     : CDL Density Correction
DPOR.pu                       : CDL Density Porosity
GR.GAPI                       : Gamma Ray
NPOR.pu                       : Neutron Porosity
~Parameter Information Block
~A  Depth       DCAL        RHOB        RHOC        DPOR         GR         NPOR    
# ...
  1370.2000      8.2246      2.5881      0.2536      3.7535     69.4667     29.4307
  1370.3000      8.1911      2.6471      0.2209      0.1772     75.5690     29.2639
  1370.4000      8.1911      2.6839      0.1583     -2.0553     79.2793     28.6543
  1370.5000      8.1822      2.7049      0.1612     -3.3251     77.8888     27.3626
  1370.6000      8.1822      2.6981      0.1287     -2.9164     75.6964     25.7440
  1370.7000      8.1822      2.6737     -0.0047     -1.4355     80.1732     24.3071
  1370.8000      8.1680      2.6537      0.0827     -0.2216     91.7085     23.2073
  1370.9000      8.1680      2.6355      0.0022      0.8782    101.0114     22.4149
  1371.0000      8.1590      2.6127      0.0249      2.2608    100.4080     21.8978
  1371.1000      8.1590      2.5836     -0.0233      4.0219     91.9905     21.5682
  1371.2000      8.1590      2.5616     -0.0461      5.3589     81.2906     21.4044
  1371.3000      8.1507      2.5706     -0.0714      4.8137     74.6872     21.2926
  1371.4000      8.1507      2.6047     -0.0077      2.7474     78.1319     21.3274
  1371.5000      8.1428      2.6254      0.0496      1.4899     88.7302     21.6545
  1371.6000      8.1428      2.6152     -0.0147      2.1100     94.5847     22.0078
  1371.7000      8.1428      2.5885      0.0113      3.7302     94.2933     22.4948
  1371.8000      8.1448      2.5608     -0.0235      5.4086     95.7594     23.4670
  1371.9000      8.1448      2.5433     -0.0675      6.4686     93.3713     24.5749
  1372.0000      8.1429      2.5324     -0.0327      7.1269     81.7610     25.3357
  1372.1000      8.1429      2.5113     -0.0099      8.4068     71.2575     25.6320
  1372.2000      8.1429      2.4849     -0.0614     10.0031     69.8299     25.6697
  1372.3000      8.1116      2.4711      0.0006     10.8410     75.3834     25.9934
  1372.4000      8.1116      2.4597      0.0072     11.5354     85.0726     26.6960
  1372.5000      8.0987      2.4428     -0.0770     12.5551     93.0954     27.2366
  1372.6000      8.0987      2.4471     -0.0970     12.2948     92.6332     27.3684
  1372.7000      8.0987      2.4841     -0.0073     10.0531     87.5274     27.3634
  1372.8000      8.1012      2.5277     -0.0110      7.4139     88.3972     27.4810
  1372.9000      8.1012      2.5468      0.0712      6.2522     94.1816     27.8538
  1373.0000      8.1097      2.5344      0.0024      7.0069     95.5613     28.3817
  1373.1000      8.1097      2.5153     -0.0107      8.1619     91.2432     28.3928
  1373.2000      8.1097      2.5170     -0.0225      8.0628     85.8813     27.7155
  1373.3000      8.1216      2.5359     -0.0113      6.9147     83.5912     27.2116
  1373.4000      8.1216      2.5433      0.0103      6.4688     85.8330     27.1994
  1373.5000      8.1628      2.5266     -0.0212      7.4766     91.7336     27.5058
  1373.6000      8.1628      2.5121     -0.0373      8.3546     98.9548     27.9995
  1373.7000      8.1628      2.5263      0.0250      7.4957    105.4766     28.0417
  1373.8000      8.1744      2.5562      0.0093      5.6871    113.1305     27.6103
  1373.9000      8.1744      2.5713      0.0669      4.7726    120.3294     27.7966
  1374.0000      8.1661      2.5650      0.0092      5.1543    119.9309     28.7136
  1374.1000      8.1661      2.5479      0.0355      6.1887    112.8670     29.2005
  1374.2000      8.1661      2.5268      0.0160      7.4693    105.7628     28.9735
  1374.3000      8.1504      2.5110     -0.0319      8.4214     99.7844     28.7184
  1374.4000      8.1504      2.5023      0.0214      8.9499     97.7312     28.6116
  1374.5000      8.0915      2.4893      0.0127      9.7386    101.7539     28.3428
  1374.6000      8.0915      2.4771     -0.0293     10.4767    102.7771     28.0571
  1374.7000      8.0915      2.4781     -0.0519     10.4205     92.5618     28.1632
  1374.8000      8.0492      2.4855      0.0005      9.9712     79.8960     28.3582
  1374.9000      8.0492      2.4935     -0.0031      9.4849     75.7240     28.2670
  1375.0000      8.0362      2.5140     -0.0148      8.2411     72.0793     27.9063
  1375.1000      8.0362      2.5451      0.0571      6.3573     63.7485     27.4075
  1375.2000      8.0362      2.5648      0.0162      5.1616     62.6024     27.0642
  1375.3000      8.0342      2.5705      0.0831      4.8174     72.2749     26.8174
  1375.4000      8.0342      2.5799      0.0619      4.2491     82.6483     26.3725
  1375.5000      8.0338      2.6023      0.0963      2.8884     88.6941     25.8794
  1375.6000      8.0338      2.6243      0.1562      1.5581     88.5473     25.4770
  1375.7000      8.0338      2.6216      0.2082      1.7240     82.6472     24.8868
  1375.8000      8.0309      2.5867      0.0967      3.8340     76.3251     24.3213
  1375.9000      8.0309      2.5542     -0.0903      5.8081     70.5153     24.1916
  1376.0000      8.0240      2.5523     -0.0222      5.9227     67.6620     24.2443
  1376.1000      8.0240      2.5459      0.0084      6.3077     71.3108     24.0375
  1376.2000      8.0240      2.5032     -0.0300      8.8963     81.2988     23.9596
  1376.3000      8.0286      2.4614     -0.0474     11.4298     97.1790     24.9104
  1376.4000      8.0286      2.4576      0.0042     11.6578    111.5674     26.6221
  1376.5000      8.0379      2.4661      0.0517     11.1429    115.2820     27.9873
  1376.6000      8.0379      2.4524      0.0175     11.9769    110.4186     28.4586
  1376.7000      8.0379      2.4276     -0.1121     13.4761    106.8242     28.2724
  1376.8000      8.0530      2.4225     -0.0306     13.7873    108.6138     28.0484
  1376.9000      8.0530      2.4466      0.0170     12.3282    108.0180     28.1673
  1377.0000      8.0860      2.4885      0.0961      9.7895    102.1565     28.6611
  1377.1000      8.0860      2.5291      0.1761      7.3297     96.1406     29.3714
  1377.2000      8.0860      2.5573      0.1772      5.6193     91.6254     30.1086
  1377.3000      8.1108      2.5727      0.1525      4.6873     94.5186     30.6219
  1377.4000      8.1108      2.5583      0.1979      5.5580    104.9242     30.8514
  1377.5000      8.1452      2.4882      0.1287      9.8074    111.5898     31.1892
  1377.6000      8.1452      2.3736      0.1178     16.7542    114.0232     31.8229
  1377.7000      8.1452      2.2609     -0.0158     23.5809    116.7099     32.4999
  1377.8000      8.1567      2.1832      0.0208     28.2908    114.5137     33.0546
  1377.9000      8.1567      2.1394     -0.0324     30.9428    103.0346     33.5958
  1378.0000      8.1549      2.1181      0.0460     32.2389     86.7707     33.9217
  1378.1000      8.1549      2.1160     -0.0396     32.3631     75.3291     33.8038
  1378.2000      8.1549      2.1373      0.0331     31.0750     71.3547     33.5499
  1378.3000      8.1369      2.1735      0.0756     28.8770     68.2977     33.2251
  1378.4000      8.1369      2.2166      0.1350     26.2652     62.6080     32.3747
  1378.5000      8.1001      2.2718      0.1715     22.9221     57.1102     30.9354
  1378.6000      8.1001      2.3526      0.2478     18.0247     53.5079     29.5964
  1378.7000      8.1001      2.4724      0.2180     10.7659     52.4527     28.5929
  1378.8000      8.0583      2.6032      0.3255      2.8391     54.6039     27.1076
  1378.9000      8.0583      2.6753      0.2311     -1.5323     56.9973     25.1506
  1379.0000      8.0252      2.6694      0.0691     -1.1736     56.9728     23.7426
  1379.1000      8.0252      2.6352      0.0363      0.8989     55.8004     22.5955
  1379.2000      8.0252      2.6161      0.0518      2.0526     59.7806     20.6773
  1379.3000      8.0169      2.6126      0.0263      2.2678     68.4049     18.6427
  1379.4000      8.0169      2.6124      0.0462      2.2812     72.9012     17.6191
  1379.5000      8.0296      2.6130      0.0231      2.2451     71.4012     17.1421
  1379.6000      8.0296      2.6152      0.0565      2.1093     70.3951     16.6808
  1379.7000      8.0296      2.6198     -0.0117      1.8325     74.3111     16.5582
