~Version Information
VERS.                      2.0: CWLS Log ASCII Standard - VERSION 2.0
WRAP.                       NO: One line per depth step
~Well Information Block
STRT.FT               240.0000: 
STOP.FT              1709.2000: 
STEP.FT                 0.1000: 
NULL.                -999.2500: 
COMP.          Pioneer Natural Resources: COMPANY
WELL.              Patten 22-2: WELL
FLD.           Purgatoire River: FIELD
LOC.           2157' FNL & 1528' FWL: LOCATION
PROV.                 Colorado: PROVINCE
CNTY.               Las Animas: COUNTRY
SRVC.                Patterson: SERVICE COMPANY
DATE.          Fri Dec 10 09:15:13 2004: LOG DATE
UWI.           05 071 08168 00: UNIQUE WELL ID
~Curve Information Block
DEPT.FT            0 000 00 00: Depth
DCAL.in                       : CDL Caliper
RHOB.g/cc                     : CDL Bulk Density
RHOC.g/cc                     : CDL Density Correction
DPOR.pu                       : CDL Density Porosity
NPOR.pu                       : Neutron Porosity
GR.GAPI                       : Gamma Ray
~Parameter Information Block
~A  Depth       DCAL        RHOB        RHOC        DPOR        NPOR         GR     
# ...
  1680.0000      7.8889      2.5576      0.0337      5.5994     19.8050   -999.2500
  1680.1000      7.8889      2.5614      0.0841      5.3680     19.6249   -999.2500
  1680.2000      7.8889      2.5710      0.1050      4.7870     19.6770   -999.2500
  1680.3000      7.8874      2.5778      0.0896      4.3745     19.7058   -999.2500
  1680.4000      7.8874      2.5833      0.0697      4.0410     19.8574   -999.2500
  1680.5000      7.8847      2.5861      0.0896      3.8708     20.5416   -999.2500
  1680.6000      7.8847      2.5773      0.0785      4.4031     21.2933   -999.2500
  1680.7000      7.8847      2.5529      0.0952      5.8831     21.4632   -999.2500
  1680.8000      7.8820      2.5196      0.0458      7.9058     21.3231   -999.2500
  1680.9000      7.8820      2.4970      0.0330      9.2752     21.3749   -999.2500
  1681.0000      7.8692      2.4950      0.0469      9.3963     21.7121   -999.2500
  1681.1000      7.8692      2.4989      0.0733      9.1577     22.1731   -999.2500
  1681.2000      7.8692      2.4953      0.0519      9.3759     22.7445   -999.2500
  1681.3000      7.8429      2.4917      0.0503      9.5913     23.1936   -999.2500
  1681.4000      7.8429      2.5000      0.0390      9.0928     23.1297   -999.2500
  1681.5000      7.8177      2.5160      0.0804      8.1228     22.7295   -999.2500
  1681.6000      7.8177      2.5306      0.0892      7.2337     22.4110   -999.2500
  1681.7000      7.8177      2.5439      0.0803      6.4306     22.2283   -999.2500
  1681.8000      7.8020      2.5508      0.1246      6.0144     22.2143   -999.2500
  1681.9000      7.8020      2.5406      0.1281      6.6301     22.4769   -999.2500
  1682.0000      7.7873      2.5203      0.0502      7.8592     22.7199   -999.2500
  1682.1000      7.7873      2.5098      0.0813      8.4963     22.8268   -999.2500
  1682.2000      7.7873      2.5192      0.0619      7.9265     22.7724   -999.2500
  1682.3000      7.7771      2.5389      0.1169      6.7334     22.6036   -999.2500
  1682.4000      7.7771      2.5500      0.1059      6.0584     24.3129   -999.2500
  1682.5000      7.7879      2.5561      0.0818      5.6917     31.2653   -999.2500
  1682.6000      7.7879      2.5705      0.1079      4.8185     42.0461   -999.2500
  1682.7000      7.7879      2.5821      0.1083      4.1171     49.6677   -999.2500
  1682.8000      7.8136      2.5758      0.0960      4.4951     52.3911   -999.2500
  1682.9000      7.8136      2.5630      0.0779      5.2744     52.9231   -999.2500
  1683.0000      7.8412      2.5649      0.0793      5.1583     52.9794   -999.2500
  1683.1000      7.8412      2.5757      0.1054      4.5053     52.9826   -999.2500
  1683.2000      7.8412      2.5691      0.0884      4.9040   -999.2500   -999.2500
  1683.3000      7.8562      2.5432      0.0358      6.4741   -999.2500   -999.2500
  1683.4000      7.8562      2.5194      0.0455      7.9132   -999.2500   -999.2500
  1683.5000      7.8604      2.5079      0.0408      8.6129   -999.2500   -999.2500
  1683.6000      7.8604      2.5039      0.0641      8.8531   -999.2500   -999.2500
  1683.7000      7.8604      2.5070      0.0401      8.6670   -999.2500   -999.2500
  1683.8000      7.8610      2.5209      0.0481      7.8234   -999.2500   -999.2500
  1683.9000      7.8610      2.5340      0.0812      7.0287   -999.2500   -999.2500
  1684.0000      7.8601      2.5287      0.0687      7.3512   -999.2500   -999.2500
  1684.1000      7.8601      2.5097      0.0567      8.5014   -999.2500   -999.2500
  1684.2000      7.8601      2.4985      0.0374      9.1833   -999.2500   -999.2500
  1684.3000      7.8608      2.5102      0.0414      8.4753   -999.2500   -999.2500
  1684.4000      7.8608      2.5388      0.0949      6.7413   -999.2500   -999.2500
  1684.5000      7.8639      2.5645      0.0586      5.1821   -999.2500   -999.2500
  1684.6000      7.8639      2.5782      0.0741      4.3523   -999.2500   -999.2500
  1684.7000      7.8639      2.5831      0.0676      4.0525   -999.2500   -999.2500
  1684.8000      7.8652      2.5802      0.0956      4.2277   -999.2500   -999.2500
  1684.9000      7.8652      2.5692      0.0568      4.8986   -999.2500   -999.2500
  1685.0000      7.8580      2.5556      0.0521      5.7227   -999.2500   -999.2500
  1685.1000      7.8580      2.5406      0.0755      6.6331   -999.2500   -999.2500
  1685.2000      7.8580      2.5250      0.0347      7.5749   -999.2500   -999.2500
  1685.3000      7.8452      2.5218      0.0464      7.7707   -999.2500   -999.2500
  1685.4000      7.8452      2.5312      0.0560      7.2015   -999.2500   -999.2500
  1685.5000      7.8406      2.5321      0.1012      7.1447   -999.2500   -999.2500
  1685.6000      7.8406      2.5202      0.0125      7.8688   -999.2500   -999.2500
  1685.7000      7.8406      2.5103      0.0712      8.4683   -999.2500   -999.2500
  1685.8000      7.8481      2.5011      0.0703      9.0263   -999.2500   -999.2500
  1685.9000      7.8481      2.4909      0.0299      9.6432   -999.2500   -999.2500
  1686.0000      7.8578      2.4908      0.0588      9.6463   -999.2500   -999.2500
  1686.1000      7.8578      2.5096      0.0157      8.5118   -999.2500   -999.2500
  1686.2000      7.8578      2.5424      0.0602      6.5240   -999.2500   -999.2500
  1686.3000      7.8607      2.5624      0.1022      5.3116   -999.2500   -999.2500
  1686.4000      7.8607      2.5554      0.0434      5.7310   -999.2500   -999.2500
  1686.5000      7.8490      2.5444      0.0458      6.4004   -999.2500   -999.2500
  1686.6000      7.8490      2.5492      0.0637      6.1093   -999.2500   -999.2500
  1686.7000      7.8490      2.5603      0.1114      5.4367   -999.2500   -999.2500
  1686.8000      7.8254      2.5629      0.0850      5.2784   -999.2500   -999.2500
  1686.9000      7.8254      2.5637      0.0843      5.2285   -999.2500   -999.2500
  1687.0000      7.8114      2.5775      0.0867      4.3967   -999.2500   -999.2500
  1687.1000      7.8114      2.6004      0.0971      3.0041   -999.2500   -999.2500
  1687.2000      7.8114      2.6118      0.1304      2.3151   -999.2500   -999.2500
  1687.3000      7.8240      2.6014      0.1141      2.9451   -999.2500   -999.2500
  1687.4000      7.8240      2.5798      0.0853      4.2574   -999.2500   -999.2500
  1687.5000      7.8501      2.5584      0.0769      5.5537   -999.2500   -999.2500
  1687.6000      7.8501      2.5454      0.0390      6.3399   -999.2500   -999.2500
  1687.7000      7.8501      2.5460      0.0400      6.3043   -999.2500   -999.2500
  1687.8000      7.8686      2.5460      0.0662      6.3038   -999.2500   -999.2500
  1687.9000      7.8686      2.5322      0.0335      7.1382   -999.2500   -999.2500
  1688.0000      7.8812      2.5189      0.0344      7.9479   -999.2500   -999.2500
  1688.1000      7.8812      2.5192      0.0659      7.9292   -999.2500   -999.2500
  1688.2000      7.8812      2.5274      0.0750      7.4295   -999.2500   -999.2500
  1688.3000      7.8883      2.5378      0.0622      6.7997   -999.2500   -999.2500
  1688.4000      7.8883      2.5473      0.0720      6.2260   -999.2500   -999.2500
  1688.5000      7.8911      2.5506      0.0805      6.0221   -999.2500   -999.2500
  1688.6000      7.8911      2.5474      0.0819      6.2154   -999.2500   -999.2500
  1688.7000      7.8911      2.5415      0.0840      6.5787   -999.2500   -999.2500
  1688.8000      7.8927      2.5379      0.0345      6.7912   -999.2500   -999.2500
  1688.9000      7.8927      2.5368      0.0675      6.8582   -999.2500   -999.2500
  1689.0000      7.8936      2.5251      0.0696      7.5700   -999.2500   -999.2500
  1689.1000      7.8936      2.5000      0.0220      9.0886   -999.2500   -999.2500
  1689.2000      7.8936      2.4824     -0.0263     10.1592   -999.2500   -999.2500
  1689.3000      7.8956      2.4842      0.0033     10.0456   -999.2500   -999.2500
  1689.4000      7.8956      2.4926      0.0283      9.5394   -999.2500   -999.2500
  1689.5000      7.8983      2.4981      0.0334      9.2042   -999.2500   -999.2500
