~Version Information
VERS.                      2.0: CWLS Log ASCII Standard - VERSION 2.0
WRAP.                       NO: One line per depth step
~Well Information Block
STRT.FT                10.0000: 
STOP.FT               859.0000: 
STEP.FT                 0.2500: 
NULL.                -999.2500: 
COMP.          Pioneer Natural Resources: COMPANY
WELL.          Prospector 12-19: WELL
FLD.           Purgatoire River: FIELD
LOC.           2262' FNL & 634' FWL: LOCATION
PROV.                 Colorado: PROVINCE
CNTY.               Las Animas: COUNTRY
SRVC.                Patterson: SERVICE COMPANY
DATE.          Tue May 10 11:52:48 2005: LOG DATE
UWI.           05 071 08191 00: UNIQUE WELL ID
~Curve Information Block
DEPT.FT            0 000 00 00: Depth
CCL.                          : Casing Collar Locator
TT3.usec                      : CBL 3' Travel Time
AMP3.mV                       : CBL 3' Amplitude
GR.GAPI                       : Gamma Ray
~Parameter Information Block
~A  Depth       CCL         TT3         AMP3         GR     
# ...
    77.0000      0.0000   1464.0000      6.3735     94.4725
    77.2500      0.0000   1464.0000      6.3350     90.8478
    77.5000      0.0000   1464.0000      6.3260     89.2422
    77.7500      0.0000   1464.0000      6.3493     90.4902
    78.0000      0.0000   1464.0000      6.3990     93.8219
    78.2500      0.0000   1463.9606      6.4659     97.1067
    78.5000      0.0000   1463.7427      6.5401     98.1977
    78.7500      0.0000   1462.6932      6.6151     96.6344
    79.0000      0.0000   1458.8314      6.6917     94.0851
    79.2500      0.0000   1448.0797      6.7748     92.6366
    79.5000      0.0000   1425.8093      6.8514     92.7950
    79.7500      0.0000   1392.6504      6.8656     93.7312
    80.0000      0.0000   1360.1870      6.7308     94.8722
    80.2500      0.0000   1346.3645      6.3996     96.0595
    80.5000      0.0000   1360.1870      5.9264     96.5245
    80.7500      0.0000   1392.6504      5.4357     95.1265
    81.0000      0.0000   1425.8093      5.0213     91.8251
    81.2500      0.0000   1448.0797      4.6981     88.2225
    81.5000      0.0000   1458.8314      4.4482     86.4508
    81.7500     -2.0000   1462.6932      4.2805     87.6055
    82.0000      0.0000   1463.7427      4.2358     90.9090
    82.2500      0.0000   1463.9606      4.3574     94.1510
    82.5000      0.0000   1464.0000      4.6656     95.2325
    82.7500      0.0000   1464.0000      5.1372     93.6123
    83.0000      0.0000   1464.0000      5.6892     90.3906
    83.2500      0.0000   1464.0000      6.1948     87.2727
    83.5000      0.0000   1464.0000      6.5442     85.6157
    83.7500      0.0000   1464.0000      6.7040     86.0622
    84.0000      0.0000   1464.0000      6.7164     88.3914
    84.2500      0.0000   1464.0000      6.6522     91.3923
    84.5000      0.0000   1464.0000      6.5667     93.2363
    84.7500      0.0000   1464.0000      6.4830     92.6920
    85.0000      0.0000   1464.0000      6.3971     90.2648
    85.2500      0.0000   1464.0000      6.2911     87.8685
    85.5000      0.0000   1464.0000      6.1518     87.1965
    85.7500      0.0000   1464.0000      5.9850     88.5298
    86.0000      0.0000   1464.0000      5.8167     91.0779
    86.2500      0.0000   1464.0000      5.6774     94.0978
    86.5000      0.0000   1464.0000      5.5833     97.4226
    86.7500      0.0000   1464.0000      5.5344    100.9637
    87.0000      0.0000   1464.0000      5.5281    104.1199
    87.2500      0.0000   1464.0000      5.5678    106.1102
    87.5000      0.0000   1464.0000      5.6568    106.8240
    87.7500      0.0000   1464.0000      5.7850    106.8826
    88.0000      0.0000   1464.0000      5.9260    106.8329
    88.2500      0.0000   1464.0000      6.0487    106.6352
    88.5000      0.0000   1464.0000      6.1358    105.9230
    88.7500      0.0000   1464.0000      6.1922    104.4776
    89.0000      0.0000   1464.0000      6.2357    102.4963
    89.2500      0.0000   1464.0000      6.2822    100.4097
    89.5000      0.0000   1464.0000      6.3385     98.3333
    89.7500      0.0000   1464.0000      6.4034     95.8941
    90.0000      0.0000   1464.0000      6.4688     92.7561
    90.2500      0.0000   1464.0000      6.5164     89.0846
    90.5000      0.0000   1464.0000      6.5221     85.4952
    90.7500      0.0000   1464.0000      6.4757     82.8409
    91.0000      0.0000   1464.0000      6.4058     81.9811
    91.2500      0.0000   1464.0000      6.3757     83.2747
    91.5000      0.0000   1464.0000      6.4437     86.1423
    91.7500      0.0000   1464.0000      6.6199     89.4009
    92.0000      0.0000   1464.0000      6.8655     92.1292
    92.2500      0.0000   1464.0000      7.1309     94.0470
    92.5000      0.0000   1464.0000      7.3857     95.1072
    92.7500      0.0000   1464.0000      7.6140     95.0581
    93.0000      0.0000   1464.0000      7.8017     93.6955
    93.2500      0.0000   1464.0000      7.9380     91.4991
    93.5000      0.0000   1464.0000      8.0234     89.8109
    93.7500      0.0000   1464.0000      8.0612     90.1237
    94.0000      0.0000   1464.0000      8.0450     92.8219
    94.2500      0.0000   1464.0000      7.9636     96.3759
    94.5000      0.0000   1464.0000      7.8273     98.0481
    94.7500      0.0000   1464.0000      7.6918     95.9470
    95.0000      0.0000   1464.0000      7.6449     90.6938
    95.2500      0.0000   1464.0000      7.7524     85.1146
    95.5000      0.0000   1464.0000      8.0085     82.3348
    95.7500      0.0000   1464.0000      8.3389     83.9434
    96.0000      0.0000   1464.0000      8.6532     89.3046
    96.2500      0.0000   1464.0000      8.8916     96.0401
    96.5000      0.0000   1464.0000      9.0310    101.3017
    96.7500      0.0000   1464.0000      9.0646    103.3121
    97.0000      0.0000   1464.0000      8.9903    102.2991
    97.2500      0.0000   1464.0000      8.8224     99.9570
    97.5000      0.0000   1464.0000      8.6072     97.7940
    97.7500      0.0000   1464.0000      8.4175     96.0684
    98.0000      0.0000   1464.0000      8.3199     94.2195
    98.2500      0.0000   1464.0000      8.3371     91.8035
    98.5000      0.0000   1464.0000      8.4380     88.7590
    98.7500      0.0000   1464.0000      8.5597     85.1214
    99.0000      0.0000   1464.0000      8.6367     80.9895
    99.2500      0.0000   1464.0000      8.6201     76.9671
    99.5000      0.0000   1464.0000      8.4870     74.3223
    99.7500      0.0000   1463.9664      8.2472     74.1576
   100.0000      0.0000   1463.7480      7.9464     76.2524
   100.2500      0.0000   1462.6356      7.6571     78.9914
   100.5000      0.0000   1458.2661      7.4500     80.5872
   100.7500      0.0000   1444.8639      7.3592     80.4464
   101.0000      0.0000   1413.0671      7.3678     79.5705
   101.2500      0.0000   1355.0225      7.4257     79.7667
   101.5000      0.0000   1274.4082      7.4758     82.2552
   101.7500      0.0000   1190.8650      7.4685     86.7270
   102.0000      0.0000   1127.8265      7.3732     91.6073
   102.2500      0.0000   1092.1719      7.1989     95.2224
   102.5000      0.0000   1069.7687      7.0088     96.8356
   102.7500      0.0000   1043.4651      6.8999     96.8173
   103.0000      0.0000   1010.4154      6.9432     96.0499
   103.2500      0.0000    979.3784      7.1272     95.2116
   103.5000      0.0000    957.7988      7.3570     94.5495
   103.7500      0.0000    946.4063      7.5120     94.2257
   104.0000      0.0000    942.0971      7.5189     94.5501
   104.2500      0.0000    941.2153      7.3943     95.6138
   104.5000      0.0000    941.2285      7.2307     96.9304
   104.7500      0.0000    941.6195      7.1322     97.7853
   105.0000      0.0000    943.0480      7.1446     97.8196
   105.2500      0.0000    945.0634      7.2300     97.2632
   105.5000      0.0000    945.9805      7.3024     96.8264
   105.7500      0.0000    945.8925      7.2915     97.2565
   106.0000      0.0000    949.5538      7.1890     98.5811
   106.2500      0.0000    964.4468      7.0506     99.8796
   106.5000      0.0000    993.1039      6.9533    100.3146
   106.7500      0.0000   1025.9934      6.9361    100.3646
   107.0000      0.0000   1045.2427      6.9727    101.4361
   107.2500      0.0000   1039.4841      6.9966    104.0903
   107.5000      0.0000   1014.2281      6.9580    107.0209
   107.7500      0.0000    985.7877      6.8657    108.0674
   108.0000      0.0000    967.3435      6.7811    106.3151
   108.2500      0.0000    962.4113      6.7658    103.1604
   108.5000      0.0000    968.4539      6.8287    101.1495
   108.7500      0.0000    984.1050      6.9193    101.7759
   109.0000      0.0000   1012.7253      6.9690    104.4304
   109.2500      0.0000   1058.9510      6.9446    107.1048
   109.5000      0.0000   1122.2458      6.8719    107.7509
   109.7500      0.0000   1195.5134      6.8133    105.3664
   110.0000      0.0000   1269.8058      6.8124    100.6033
   110.2500      0.0000   1337.5925      6.8556     95.7496
