~Version Information
VERS.                      2.0: CWLS Log ASCII Standard - VERSION 2.0
WRAP.                       NO: One line per depth step
~Well Information Block
STRT.FT               450.0000: 
STOP.FT              2753.5000: 
STEP.FT                 0.1000: 
NULL.                -999.2500: 
COMP.          Pioneer Natural Resources: COMPANY
WELL.             Squeal 11-26: WELL
FLD.           Purgatoire River: FIELD
LOC.           1186' FNL & 152' FWL: LOCATION
PROV.                 Colorado: PROVINCE
CNTY.               Las Animas: COUNTRY
SRVC.                Patterson: SERVICE COMPANY
DATE.          Wed Jun 15 09:11:52 2005: LOG DATE
UWI.           05 071 08404 00: UNIQUE WELL ID
~Curve Information Block
DEPT.FT            0 000 00 00: Depth
DCAL.in                       : CDL Caliper
RHOB.g/cc                     : CDL Bulk Density
RHOC.g/cc                     : CDL Density Correction
DPOR.pu                       : CDL Density Porosity
GR.GAPI                       : Gamma Ray
NPOR.pu                       : Neutron Porosity
~Parameter Information Block
~A  Depth       DCAL        RHOB        RHOC        DPOR         GR         NPOR    
# ...
  2734.8000      7.8644      2.5520     -0.0057      5.9421     97.8685     19.8057
  2734.9000      7.8644      2.5651      0.0329      5.1482     95.7834     19.7127
  2735.0000      7.8653      2.5967      0.0567      3.2330     92.6570     19.1317
  2735.1000      7.8653      2.6230      0.1500      1.6393     91.6518     18.7842
  2735.2000      7.8653      2.6253      0.0704      1.4948     93.9234     19.0962
  2735.3000      7.8658      2.6160      0.0678      2.0578     95.5010     19.8305
  2735.4000      7.8658      2.6115      0.0877      2.3362     93.3791     20.2518
  2735.5000      7.8680      2.6083      0.0763      2.5254     89.4333     19.8889
  2735.6000      7.8680      2.6011      0.0403      2.9634     86.9504     19.0840
  2735.7000      7.8680      2.5920      0.0407      3.5153     85.8132     18.7798
  2735.8000      7.8666      2.5829     -0.0004      4.0641     84.7181     19.2637
  2735.9000      7.8666      2.5773      0.0181      4.4059     86.3200     19.4060
  2736.0000      7.8639      2.5810      0.0092      4.1837     90.7661     18.6462
  2736.1000      7.8639      2.5888      0.0576      3.7087     93.5658     17.9297
  2736.2000      7.8639      2.5831      0.0332      4.0520     93.8632     17.7938
  2736.3000      7.8632      2.5712     -0.0062      4.7786     93.4916     17.9869
  2736.4000      7.8632      2.5810      0.0031      4.1819     92.1203     18.3099
  2736.5000      7.8666      2.6085      0.0637      2.5127     84.3113     18.7856
  2736.6000      7.8666      2.6258      0.0714      1.4651     62.4848     19.5001
  2736.7000      7.8666      2.6216      0.0331      1.7209     32.1353     20.1671
  2736.8000      7.8611      2.6129     -0.0302      2.2506     10.2101     20.5495
  2736.9000      7.8611      2.6219      0.0534      1.7045      1.8658     20.8566
  2737.0000      7.8567      2.6429      0.0767      0.4289      0.1881     20.9015
  2737.1000      7.8567      2.6525      0.0630     -0.1490      0.0100     20.6283
  2737.2000      7.8567      2.6367      0.0601      0.8047      0.0000     20.4161
  2737.3000      7.8547      2.6021      0.0150      2.9003   -999.2500     20.2019
  2737.4000      7.8547      2.5686     -0.0147      4.9311   -999.2500     20.0929
  2737.5000      7.8598      2.5518     -0.0070      5.9505   -999.2500     20.3538
  2737.6000      7.8598      2.5580      0.0114      5.5777   -999.2500     20.8128
  2737.7000      7.8598      2.5784      0.0307      4.3406   -999.2500     21.4172
  2737.8000      7.8555      2.5939      0.0754      3.3992   -999.2500     21.8071
  2737.9000      7.8555      2.6010      0.0342      2.9668   -999.2500     21.4285
  2738.0000      7.8552      2.6082      0.0617      2.5333   -999.2500     20.6458
  2738.1000      7.8552      2.6120      0.0241      2.3003   -999.2500     20.0318
  2738.2000      7.8552      2.6017      0.0861      2.9261   -999.2500     19.7044
  2738.3000      7.8575      2.5860     -0.0242      3.8768   -999.2500     19.5360
  2738.4000      7.8575      2.5865      0.0028      3.8476   -999.2500     19.4109
  2738.5000      7.8538      2.5899      0.0817      3.6450   -999.2500     19.6222
  2738.6000      7.8538      2.5792      0.0316      4.2920   -999.2500     21.8559
  2738.7000      7.8538      2.5743      0.0063      4.5895   -999.2500     29.1448
  2738.8000      7.8513      2.5892      0.0053      3.6828   -999.2500     40.3000
  2738.9000      7.8513      2.6127      0.0328      2.2632   -999.2500     48.1742
  2739.0000      7.8544      2.6271      0.0698      1.3887   -999.2500     50.9655
  2739.1000      7.8544      2.6255      0.0347      1.4850   -999.2500     51.5081
  2739.2000      7.8544      2.6158      0.0152      2.0735   -999.2500     51.5655
  2739.3000      7.8587      2.6090      0.0288      2.4874   -999.2500     51.5687
  2739.4000      7.8587      2.6036      0.0226      2.8104   -999.2500   -999.2500
  2739.5000      7.8578      2.5890      0.0488      3.6968   -999.2500   -999.2500
  2739.6000      7.8578      2.5681     -0.0263      4.9650   -999.2500   -999.2500
  2739.7000      7.8578      2.5552     -0.0215      5.7473   -999.2500   -999.2500
  2739.8000      7.8599      2.5462      0.0621      6.2937   -999.2500   -999.2500
  2739.9000      7.8599      2.5344      0.0006      7.0051   -999.2500   -999.2500
  2740.0000      7.8572      2.5302     -0.0161      7.2635   -999.2500   -999.2500
  2740.1000      7.8572      2.5368      0.0050      6.8631   -999.2500   -999.2500
  2740.2000      7.8572      2.5505     -0.0029      6.0281   -999.2500   -999.2500
  2740.3000      7.8581      2.5757      0.0183      4.5052   -999.2500   -999.2500
  2740.4000      7.8581      2.6123      0.0283      2.2850   -999.2500   -999.2500
  2740.5000      7.8570      2.6456      0.0635      0.2645   -999.2500   -999.2500
  2740.6000      7.8570      2.6564      0.1096     -0.3895   -999.2500   -999.2500
  2740.7000      7.8570      2.6409      0.0558      0.5495   -999.2500   -999.2500
  2740.8000      7.8532      2.6115      0.0744      2.3330   -999.2500   -999.2500
  2740.9000      7.8532      2.5766      0.0389      4.4473   -999.2500   -999.2500
  2741.0000      7.8437      2.5489     -0.0001      6.1253   -999.2500   -999.2500
  2741.1000      7.8437      2.5516      0.0236      5.9618   -999.2500   -999.2500
  2741.2000      7.8437      2.5773      0.0659      4.4052   -999.2500   -999.2500
  2741.3000      7.8431      2.5918      0.0421      3.5299   -999.2500   -999.2500
  2741.4000      7.8431      2.5961     -0.0247      3.2690   -999.2500   -999.2500
  2741.5000      7.8422      2.6067      0.0616      2.6249   -999.2500   -999.2500
  2741.6000      7.8422      2.6037      0.0654      2.8061   -999.2500   -999.2500
  2741.7000      7.8422      2.5815     -0.0361      4.1519   -999.2500   -999.2500
  2741.8000      7.8454      2.5753     -0.0148      4.5293   -999.2500   -999.2500
  2741.9000      7.8454      2.6034     -0.0097      2.8215   -999.2500   -999.2500
  2742.0000      7.8488      2.6464      0.0349      0.2172   -999.2500   -999.2500
  2742.1000      7.8488      2.6687      0.0973     -1.1327   -999.2500   -999.2500
  2742.2000      7.8488      2.6544      0.0420     -0.2687   -999.2500   -999.2500
  2742.3000      7.8408      2.6308     -0.0060      1.1612   -999.2500   -999.2500
  2742.4000      7.8408      2.6186      0.0123      1.9017   -999.2500   -999.2500
  2742.5000      7.8478      2.6007      0.0401      2.9887   -999.2500   -999.2500
  2742.6000      7.8478      2.5719     -0.0025      4.7334   -999.2500   -999.2500
  2742.7000      7.8478      2.5582     -0.0609      5.5634   -999.2500   -999.2500
  2742.8000      7.8614      2.5703      0.0355      4.8326   -999.2500   -999.2500
  2742.9000      7.8614      2.5871      0.0228      3.8091   -999.2500   -999.2500
  2743.0000      7.8409      2.5941      0.0268      3.3852   -999.2500   -999.2500
  2743.1000      7.8409      2.5899      0.0483      3.6422   -999.2500   -999.2500
  2743.2000      7.8409      2.5745      0.0618      4.5787   -999.2500   -999.2500
  2743.3000      7.8398      2.5534     -0.0081      5.8535   -999.2500   -999.2500
  2743.4000      7.8398      2.5377      0.0096      6.8033   -999.2500   -999.2500
  2743.5000      7.8413      2.5397     -0.0269      6.6874   -999.2500   -999.2500
  2743.6000      7.8413      2.5612      0.0202      5.3797   -999.2500   -999.2500
  2743.7000      7.8413      2.5788      0.0609      4.3142   -999.2500   -999.2500
  2743.8000      7.8458      2.5785      0.0026      4.3347   -999.2500   -999.2500
  2743.9000      7.8458      2.5784      0.0152      4.3396   -999.2500   -999.2500
  2744.0000      7.8609      2.5879      0.0560      3.7619   -999.2500   -999.2500
  2744.1000      7.8609      2.5995      0.0716      3.0630   -999.2500   -999.2500
  2744.2000      7.8609      2.6100      0.0725      2.4237   -999.2500   -999.2500
  2744.3000      7.8605      2.6170      0.1060      2.0011   -999.2500   -999.2500
