~Version Information
VERS.                      2.0: CWLS Log ASCII Standard - VERSION 2.0
WRAP.                       NO: One line per depth step
~Well Information Block
STRT.FT               460.5000: 
STOP.FT              2197.0000: 
STEP.FT                 0.2500: 
NULL.                -999.2500: 
COMP.          Petrogulf Corporation: COMPANY
WELL.              Silva 1-43R: WELL
FLD.           Purgatorie River: FIELD
LOC.           1971' FSL & 526' FEL: LOCATION
CNTY.               Las Animas: COUNTY
SRVC.                Patterson: SERVICE COMPANY
DATE.          Sun Jun 18 03:37:26 2006: LOG DATE
UWI.           05 071 08372 00: UNIQUE WELL ID
STAT.                 Colorado: STATE
~Curve Information Block
DEPT.FT            0 000 00 00: Depth
SN.Ohm-m                      : IEL Short Normal
SP.mV                         : IEL Spontaneous Potential
DIR.Ohm-m                     : IEL Induction Resistivity
GR.GAPI                       : Gamma Ray
~Parameter Information Block
~A  Depth        SN          SP         DIR          GR     
# ...
  1733.5000      9.6238     35.7295      7.9610    142.9738
  1733.7500      9.6889     35.7182      8.0813    144.1639
  1734.0000      9.6813     35.7240      8.2392    146.7975
  1734.2500      9.5996     35.7440      8.4339    148.5034
  1734.5000      9.5132     35.7717      8.6600    149.6932
  1734.7500      9.4987     35.7985      8.9087    148.8202
  1735.0000      9.5715     35.8149      9.1704    144.2667
  1735.2500      9.7149     35.8119      9.4386    139.3680
  1735.5000      9.9374     35.7799      9.7124    131.0946
  1735.7500     10.2992     35.7105      9.9978    126.3855
  1736.0000     10.8923     35.6024     10.3097    122.3989
  1736.2500     11.7761     35.4653     10.6722    122.1524
  1736.5000     12.9033     35.3182     11.1166    124.5865
  1736.7500     14.1167     35.1814     11.6768    126.9620
  1737.0000     15.2433     35.0692     12.3799    129.4745
  1737.2500     16.2021     34.9878     13.2372    129.5187
  1737.5000     17.0325     34.9352     14.2361    126.4231
  1737.7500     17.8484     34.9040     15.3371    122.0783
  1738.0000     18.7677     34.8846     16.4779    111.9063
  1738.2500     19.8624     34.8687     17.5850    102.8844
  1738.5000     21.1802     34.8546     18.5892     87.5608
  1738.7500     22.8321     34.8491     19.4374     77.5729
  1739.0000     25.0106     34.8670     20.0951     65.1199
  1739.2500     27.7968     34.9248     20.5422     59.3409
  1739.5000     30.8768     35.0333     20.7693     55.4100
  1739.7500     33.5346     35.1888     20.7798     56.3065
  1740.0000     35.0285     35.3692     20.5907     62.7483
  1740.2500     34.9673     35.5393     20.2279     69.6792
  1740.5000     33.4229     35.6668     19.7185     82.0313
  1740.7500     30.8636     35.7377     19.0889     90.4830
  1741.0000     27.9346     35.7617     18.3699    102.3953
  1741.2500     25.1601     35.7630     17.6010    109.6809
  1741.5000     22.7971     35.7644     16.8265    119.8514
  1741.7500     20.8793     35.7731     16.0882    126.2017
  1742.0000     19.3320     35.7789     15.4187    134.7695
  1742.2500     18.0698     35.7660     14.8391    139.5477
  1742.5000     17.0429     35.7270     14.3583    145.0239
  1742.7500     16.2340     35.6657     13.9722    147.4149
  1743.0000     15.6395     35.5919     13.6682    148.5912
  1743.2500     15.2465     35.5128     13.4347    147.4946
  1743.5000     15.0293     35.4294     13.2736    143.3895
  1743.7500     14.9744     35.3367     13.2004    139.6659
  1744.0000     15.0789     35.2275     13.2338    133.5385
  1744.2500     15.3206     35.0976     13.3798    129.2773
  1744.5000     15.6810     34.9522     13.6298    122.9151
  1744.7500     16.1904     34.8081     13.9704    119.1905
  1745.0000     16.9121     34.6892     14.3990    115.3291
  1745.2500     17.8837     34.6167     14.9288    113.9711
  1745.5000     19.0738     34.5997     15.5805    112.7922
  1745.7500     20.3770     34.6314     16.3712    111.8202
  1746.0000     21.6549     34.6925     17.3053    109.3510
  1746.2500     22.8140     34.7607     18.3696    107.0284
  1746.5000     23.8548     34.8209     19.5273    102.8115
  1746.7500     24.8442     34.8719     20.7155     99.6228
  1747.0000     25.8830     34.9262     21.8471     94.3985
  1747.2500     27.0889     35.0013     22.8219     90.8255
  1747.5000     28.4963     35.1090     23.5436     86.0773
  1747.7500     29.9584     35.2492     23.9415     83.8598
  1748.0000     31.2562     35.4116     23.9900     82.5184
  1748.2500     32.2655     35.5820     23.7132     82.8630
  1748.5000     32.8934     35.7473     23.1688     84.6965
  1748.7500     32.9811     35.8976     22.4236     86.6634
  1749.0000     32.4130     36.0278     21.5384     91.2229
  1749.2500     31.1965     36.1391     20.5700     95.8136
  1749.5000     29.3858     36.2370     19.5739    105.1942
  1749.7500     27.0723     36.3281     18.5986    112.4090
  1750.0000     24.4495     36.4164     17.6730    122.4342
  1750.2500     21.7956     36.5009     16.8018    127.5055
  1750.5000     19.3899     36.5765     15.9711    132.4438
  1750.7500     17.4160     36.6363     15.1640    134.5750
  1751.0000     15.9072     36.6733     14.3728    137.2596
  1751.2500     14.7835     36.6829     13.6042    139.1620
  1751.5000     13.9302     36.6629     12.8761    142.4052
  1751.7500     13.2519     36.6134     12.2110    144.6448
  1752.0000     12.6881     36.5365     11.6286    147.6232
  1752.2500     12.2108     36.4353     11.1407    149.2710
  1752.5000     11.8120     36.3112     10.7487    151.4709
  1752.7500     11.4841     36.1620     10.4453    152.7586
  1753.0000     11.2126     35.9860     10.2184    153.8943
  1753.2500     10.9810     35.7905     10.0534    153.8026
  1753.5000     10.7845     35.5945      9.9367    152.4626
  1753.7500     10.6392     35.4206      9.8567    151.1421
  1754.0000     10.5607     35.2834      9.8049    149.1635
  1754.2500     10.5359     35.1832      9.7761    147.9577
  1754.5000     10.5414     35.1077      9.7673    146.1004
  1754.7500     10.5814     35.0424      9.7778    144.7140
  1755.0000     10.6820     34.9810      9.8092    142.5951
  1755.2500     10.8629     34.9300      9.8646    141.4506
  1755.5000     11.0968     34.9050      9.9465    140.7956
  1755.7500     11.2791     34.9216     10.0537    141.4479
  1756.0000     11.3224     34.9859     10.1801    144.0536
  1756.2500     11.2665     35.0902     10.3159    146.0995
  1756.5000     11.1875     35.2173     10.4511    147.4888
  1756.7500     11.0819     35.3492     10.5781    146.4698
  1757.0000     10.9368     35.4706     10.6924    142.1873
  1757.2500     10.8084     35.5708     10.7932    138.1412
  1757.5000     10.7258     35.6464     10.8838    131.5213
  1757.7500     10.6318     35.7054     10.9713    127.5694
  1758.0000     10.5235     35.7627     11.0666    124.0686
  1758.2500     10.5307     35.8304     11.1827    124.1691
  1758.5000     10.8173     35.9088     11.3343    128.0296
  1758.7500     11.4472     35.9864     11.5349    132.1940
  1759.0000     12.3002     36.0464     11.7919    138.4491
  1759.2500     13.1300     36.0741     12.1009    141.2578
  1759.5000     13.7571     36.0610     12.4418    141.9434
  1759.7500     14.1738     36.0071     12.7808    140.0010
  1760.0000     14.4700     35.9198     13.0819    134.6685
  1760.2500     14.7410     35.8079     13.3266    130.4414
  1760.5000     15.0493     35.6753     13.5308    124.4068
  1760.7500     15.3967     35.5223     13.7432    121.0942
  1761.0000     15.7538     35.3541     14.0225    117.5967
  1761.2500     16.1255     35.1847     14.4077    116.2451
  1761.5000     16.5393     35.0337     14.9028    115.6646
  1761.7500     16.9891     34.9190     15.4805    116.3022
  1762.0000     17.4192     34.8492     16.1003    118.3751
  1762.2500     17.7600     34.8212     16.7240    119.5892
  1762.5000     18.0016     34.8203     17.3211    118.9719
  1762.7500     18.2238     34.8270     17.8675    116.1408
  1763.0000     18.5059     34.8271     18.3464    108.9503
  1763.2500     18.8225     34.8190     18.7521    103.7373
  1763.5000     19.1104     34.8131     19.0917     98.4578
  1763.7500     19.4475     34.8262     19.3835     97.7984
  1764.0000     20.0597     34.8726     19.6516    101.1706
  1764.2500     21.0645     34.9571     19.9233    105.6291
  1764.5000     22.2753     35.0723     20.2243    113.9067
  1764.7500     23.3761     35.2004     20.5703    119.1377
  1765.0000     24.2252     35.3198     20.9573    124.0210
  1765.2500     24.8690     35.4115     21.3572    124.5555
  1765.5000     25.3722     35.4666     21.7246    122.3939
  1765.7500     25.7623     35.4914     22.0165    120.4128
  1766.0000     26.0764     35.5051     22.2160    117.9358
  1766.2500     26.3842     35.5272     22.3525    116.0379
  1766.5000     26.7723     35.5658     22.4998    110.9077
  1766.7500     27.3097     35.6168     22.7459    105.6245
