~Version Information
VERS.                      2.0: CWLS Log ASCII Standard - VERSION 2.0
WRAP.                       NO: One line per depth step
~Well Information Block
STRT.FT               954.4000: 
STOP.FT              2380.0000: 
STEP.FT                 0.1000: 
NULL.                -999.2500: 
COMP.          Petrogulf Corporation: COMPANY
WELL.             State 16-24V: WELL
FLD.           Purgatorie River: FIELD
LOC.           481' FSL & 2419' FWL: LOCATION
CNTY.               Las Animas: COUNTY
SRVC.                         : SERVICE COMPANY
DATE.          Tue May 04 07:31:25 2004: LOG DATE
UWI.           05 071 08014 00: UNIQUE WELL ID
STAT.                 Colorado: STATE
~Curve Information Block
DEPT.FT            0 000 00 00: Depth
DCAL.in                       : CDL Caliper
RHOB.g/cc                     : CDL Bulk Density
RHOC.g/cc                     : CDL Density Correction
DPOR.pu                       : CDL Density Porosity
GR.GAPI                       : Gamma Ray
~Parameter Information Block
~A  Depth       DCAL        RHOB        RHOC        DPOR         GR     
# ...
  1245.6000      7.7218      2.5553      0.1634      5.7399    101.8240
  1245.7000      7.7218      2.5239      0.0917      7.6396    105.3794
  1245.8000      7.7607      2.5243      0.0616      7.6181    110.5421
  1245.9000      7.7607      2.5425      0.1181      6.5137    106.8463
  1246.0000      7.7912      2.5361      0.1354      6.9027     98.4237
  1246.1000      7.7912      2.4878      0.1620      9.8300     96.9153
  1246.2000      7.7912      2.4297      0.0808     13.3501    101.3849
  1246.3000      7.8586      2.4078      0.1085     14.6776    104.6327
  1246.4000      7.8586      2.4377      0.1170     12.8670    108.5556
  1246.5000      7.8474      2.5101      0.2008      8.4812    115.4979
  1246.6000      7.8474      2.5982      0.2695      3.1414    120.5498
  1246.7000      7.8474      2.6577      0.3329     -0.4663    121.2832
  1246.8000      7.7418      2.6655      0.3176     -0.9374    119.0619
  1246.9000      7.7418      2.6490      0.2790      0.0578    113.9966
  1247.0000      7.7243      2.6424      0.2421      0.4578    106.8691
  1247.1000      7.7243      2.6356      0.3002      0.8746    106.1380
  1247.2000      7.7243      2.5934      0.2305      3.4311    115.9018
  1247.3000      7.7180      2.5287      0.1059      7.3526    122.6773
  1247.4000      7.7180      2.5011      0.0730      9.0230    113.9396
  1247.5000      7.7524      2.5282      0.1285      7.3806     98.3957
  1247.6000      7.7524      2.5722      0.1105      4.7147     88.2893
  1247.7000      7.7524      2.5938      0.2267      3.4066     82.6874
  1247.8000      7.7631      2.5975      0.0957      3.1818     80.7706
  1247.9000      7.7631      2.6306      0.1147      1.1780     82.3103
  1248.0000      7.8375      2.6878      0.2507     -2.2893     83.0708
  1248.1000      7.8375      2.7232      0.1704     -4.4338     87.1440
  1248.2000      7.8375      2.7396      0.1747     -5.4326     98.6987
  1248.3000      7.8140      2.7562      0.1853     -6.4348    108.0935
  1248.4000      7.8140      2.7772      0.1599     -7.7066    108.1410
  1248.5000      7.7748      2.8049      0.2291     -9.3891    110.1646
  1248.6000      7.7748      2.8308      0.1400    -10.9551    125.7313
  1248.7000      7.7748      2.8352      0.2075    -11.2212    149.1329
  1248.8000      7.8201      2.8024      0.0514     -9.2392    165.5236
  1248.9000      7.8201      2.7311      0.1175     -4.9169    166.3436
  1249.0000      7.8662      2.6328      0.1295      1.0405    158.8877
  1249.1000      7.8662      2.5463      0.0511      6.2822    156.3651
  1249.2000      7.8662      2.5098      0.1186      8.4963    161.8706
  1249.3000      7.8729      2.5127      0.1521      8.3228    164.7746
  1249.4000      7.8729      2.5099      0.1783      8.4937    159.4732
  1249.5000      7.9039      2.4741      0.0608     10.6591    157.1108
  1249.6000      7.9039      2.4250      0.0014     13.6342    160.7120
  1249.7000      7.9039      2.3965      0.0296     15.3656    161.4369
  1249.8000      7.9145      2.3959     -0.0121     15.4022    156.9425
  1249.9000      7.9145      2.4287     -0.0487     13.4139    151.0157
  1250.0000      7.9195      2.4926      0.0947      9.5401    151.3722
  1250.1000      7.9195      2.5480      0.1752      6.1788    155.4492
  1250.2000      7.9195      2.5752      0.1095      4.5329    149.3357
  1250.3000      7.9220      2.5924      0.1900      3.4896    134.6007
  1250.4000      7.9220      2.5995      0.2107      3.0591    126.0415
  1250.5000      7.9248      2.5887      0.1389      3.7177    128.7395
  1250.6000      7.9248      2.5718      0.1175      4.7399    135.5591
  1250.7000      7.9248      2.5642      0.1327      5.1974    142.1920
  1250.8000      7.9401      2.5729      0.0452      4.6711    142.4767
  1250.9000      7.9401      2.5848      0.1152      3.9535    132.6615
  1251.0000      7.9166      2.5737      0.1192      4.6250    127.5253
  1251.1000      7.9166      2.5429      0.0658      6.4935    133.7310
  1251.2000      7.9166      2.5225      0.0525      7.7255    143.9692
  1251.3000      7.9115      2.5188      0.1813      7.9537    149.2202
  1251.4000      7.9115      2.5221      0.1072      7.7498    149.9484
  1251.5000      7.9203      2.5393      0.0297      6.7076    154.1890
  1251.6000      7.9203      2.5575      0.1225      5.6034    154.8162
  1251.7000      7.9203      2.5513      0.1003      5.9822    142.2910
  1251.8000      7.9164      2.5320      0.0944      7.1527    131.1033
  1251.9000      7.9164      2.5173      0.1374      8.0449    138.9976
  1252.0000      7.9134      2.5079      0.0163      8.6113    160.7935
  1252.1000      7.9134      2.5085      0.0560      8.5750    175.5765
  1252.2000      7.9134      2.5243      0.1167      7.6206    171.7409
  1252.3000      7.9098      2.5525      0.1216      5.9112    162.8892
  1252.4000      7.9098      2.5749      0.1662      4.5495    160.9728
  1252.5000      7.9053      2.5744      0.0421      4.5803    164.0891
  1252.6000      7.9053      2.5488      0.1580      6.1359    163.6711
  1252.7000      7.9053      2.5106      0.0486      8.4497    154.9216
  1252.8000      7.8972      2.4872      0.0514      9.8671    150.4099
  1252.9000      7.8972      2.4894      0.0917      9.7326    158.1059
  1253.0000      7.8974      2.5002      0.1541      9.0784    165.6984
  1253.1000      7.8974      2.5142      0.0523      8.2289    162.8244
  1253.2000      7.8974      2.5430      0.1569      6.4819    154.0038
  1253.3000      7.8984      2.5748      0.1390      4.5578    147.3948
  1253.4000      7.8984      2.5722      0.2610      4.7152    146.4116
  1253.5000      7.8912      2.5077      0.2249      8.6264    144.7924
  1253.6000      7.8912      2.4129      0.0003     14.3720    135.9134
  1253.7000      7.8912      2.3501      0.0329     18.1786    125.4830
  1253.8000      7.8942      2.3239      0.0960     19.7633    127.2463
  1253.9000      7.8942      2.3104      0.0188     20.5825    139.5517
  1254.0000      7.9216      2.3072      0.0215     20.7777    151.7096
  1254.1000      7.9216      2.3106      0.0803     20.5691    166.2860
  1254.2000      7.9216      2.3136      0.0506     20.3885    183.2265
  1254.3000      8.0745      2.3294     -0.0046     19.4278    186.1828
  1254.4000      8.0745      2.3590      0.1473     17.6374    173.6357
  1254.5000      8.1702      2.3617      0.2538     17.4756    162.8876
  1254.6000      8.1702      2.3319      0.1223     19.2765    159.7917
  1254.7000      8.1702      2.3149      0.1723     20.3109    157.4352
  1254.8000      8.1572      2.3189      0.1545     20.0641    152.6418
  1254.9000      8.1572      2.3095      0.1696     20.6387    155.4755
  1255.0000      8.1552      2.2524      0.0903     24.0948    165.4057
  1255.1000      8.1552      2.1351      0.0769     31.2069    164.2712
  1255.2000      8.1552      1.9995     -0.1024     39.4214    150.5158
  1255.3000      8.1217      1.9155     -0.0262     44.5134    139.4314
  1255.4000      8.1217      1.8882      0.0369     46.1684    134.7244
  1255.5000      8.1099      1.8718     -0.0226     47.1633    130.0222
  1255.6000      8.1099      1.8425      0.0374     48.9419    122.5832
  1255.7000      8.1099      1.8192      0.0360     50.3532    116.9485
  1255.8000      8.1046      1.8348      0.1051     49.4062    114.5081
  1255.9000      8.1046      1.8856      0.2246     46.3302    113.3281
  1256.0000      8.1551      1.9410      0.2593     42.9709    113.3231
  1256.1000      8.1551      1.9976      0.2507     39.5372    110.0408
  1256.2000      8.1551      2.0677      0.2236     35.2897    105.1198
  1256.3000      8.2510      2.1316      0.2323     31.4173    113.4873
  1256.4000      8.2510      2.1704      0.1903     29.0660    140.7598
  1256.5000      8.2409      2.2171      0.1489     26.2371    165.3919
  1256.6000      8.2409      2.3054      0.1016     20.8869    161.0415
  1256.7000      8.2409      2.4063      0.2484     14.7699    131.6021
