~Version Information
VERS.                      2.0: CWLS Log ASCII Standard - VERSION 2.0
WRAP.                       NO: One line per depth step
~Well Information Block
STRT.FT               475.0000: 
STOP.FT              2336.7500: 
STEP.FT                 0.2500: 
NULL.                -999.2500: 
COMP.          Pioneer Natural Resources: COMPANY
WELL.              Bobsy 34-11: WELL
FLD.           Purgatoire River: FIELD
LOC.           1937' FEL & 451' FSL----: LOCATION
PROV.                 Colorado: PROVINCE
CNTY.               Las Animas: COUNTRY
SRVC.                Patterson: SERVICE COMPANY
DATE.          Fri Apr 08 05:21:25 2005: LOG DATE
UWI.           05 071 08330 00: UNIQUE WELL ID
~Curve Information Block
DEPT.FT            0 000 00 00: Depth
SN.Ohm-m                      : IEL Short Normal
SP.mV                         : IEL Spontaneous Potential
DIR.Ohm-m                     : IEL Induction Resistivity
GR.GAPI                       : Gamma Ray
~Parameter Information Block
~A  Depth        SN          SP         DIR          GR     
# ...
   843.5000   2000.0000   2000.0000     25.0745     94.6291
   843.7500   2000.0000   2000.0000     25.2029     94.8129
   844.0000   2000.0000   2000.0000     25.2627     94.3343
   844.2500   2000.0000   2000.0000     25.2557     93.3011
   844.5000   2000.0000   2000.0000     25.1930     90.7059
   844.7500   2000.0000   2000.0000     25.0952     88.5841
   845.0000   2000.0000   2000.0000     24.9823     85.9795
   845.2500   2000.0000   2000.0000     24.8653     85.4177
   845.5000   2000.0000   2000.0000     24.7428     86.8906
   845.7500   2000.0000   2000.0000     24.6049     89.0517
   846.0000   2000.0000   2000.0000     24.4377     92.8340
   846.2500   2000.0000   2000.0000     24.2272     95.0680
   846.5000   2000.0000   2000.0000     23.9647     97.3530
   846.7500   2000.0000   2000.0000     23.6508     98.1496
   847.0000   2000.0000   2000.0000     23.2948     98.8311
   847.2500   2000.0000   2000.0000     22.9088     99.3818
   847.5000   2000.0000   2000.0000     22.5014    100.5819
   847.7500   2000.0000   2000.0000     22.0762    101.4011
   848.0000   2000.0000   2000.0000     21.6345    102.3063
   848.2500   2000.0000   2000.0000     21.1760    102.7864
   848.5000   2000.0000   2000.0000     20.6977    103.7400
   848.7500   2000.0000   2000.0000     20.1950    104.6491
   849.0000   2000.0000   2000.0000     19.6658    106.3004
   849.2500   2000.0000   2000.0000     19.1173    107.5097
   849.5000   2000.0000   2000.0000     18.5695    109.6169
   849.7500   2000.0000   2000.0000     18.0507    111.4259
   850.0000   2000.0000   2000.0000     17.5864    114.8714
   850.2500   2000.0000   2000.0000     17.1872    117.4302
   850.5000   2000.0000   2000.0000     16.8444    121.0649
   850.7500   2000.0000   2000.0000     16.5373    123.1758
   851.0000   2000.0000   2000.0000     16.2463    125.9657
   851.2500   2000.0000   2000.0000     15.9663    127.7213
   851.5000   2000.0000   2000.0000     15.7102    130.3917
   851.7500   2000.0000   2000.0000     15.5012    132.1469
   852.0000   2000.0000   2000.0000     15.3641    134.0849
   852.2500   2000.0000   2000.0000     15.3187    134.3082
   852.5000   2000.0000   2000.0000     15.3783    132.5638
   852.7500   2000.0000   2000.0000     15.5491    130.4849
   853.0000   2000.0000   2000.0000     15.8288    127.4529
   853.2500   2000.0000   2000.0000     16.2056    125.8441
   853.5000   2000.0000   2000.0000     16.6601    123.1946
   853.7500   2000.0000   2000.0000     17.1688    120.5635
   854.0000   2000.0000   2000.0000     17.7065    115.1100
   854.2500   2000.0000   2000.0000     18.2460    110.9683
   854.5000   2000.0000   2000.0000     18.7582    105.1806
   854.7500   2000.0000   2000.0000     19.2156    102.2074
   855.0000   2000.0000   2000.0000     19.5982     99.7408
   855.2500   2000.0000   2000.0000     19.8970     99.5135
   855.5000   2000.0000   2000.0000     20.1124    100.8682
   855.7500   2000.0000   2000.0000     20.2487    102.3850
   856.0000   2000.0000   2000.0000     20.3106    104.5507
   856.2500   2000.0000   2000.0000     20.2994    105.4418
   856.5000   2000.0000   2000.0000     20.2134    105.5267
   856.7500   2000.0000   2000.0000     20.0493    104.7819
   857.0000   2000.0000   2000.0000     19.8074    103.0437
   857.2500   2000.0000   2000.0000     19.4944    101.9349
   857.5000   2000.0000   2000.0000     19.1197    100.7460
   857.7500   2000.0000   2000.0000     18.6871    100.2894
   858.0000   2000.0000   2000.0000     18.1922    100.6079
   858.2500   2000.0000   2000.0000     17.6308    102.1785
   858.5000   2000.0000   2000.0000     17.0145    107.3029
   858.7500   2000.0000   2000.0000     16.3792    112.0563
   859.0000   2000.0000   2000.0000     15.7799    119.1031
   859.2500   2000.0000   2000.0000     15.2768    122.7351
   859.5000   2000.0000   2000.0000     14.9205    126.2569
   859.7500   2000.0000   2000.0000     14.7443    127.6001
   860.0000   2000.0000   2000.0000     14.7639    128.1024
   860.2500   2000.0000   2000.0000     14.9816    126.8456
   860.5000   2000.0000   2000.0000     15.3950    121.1649
   860.7500   2000.0000   2000.0000     16.0039    114.4716
   861.0000   2000.0000   2000.0000     16.8175    101.1813
   861.2500   2000.0000   2000.0000     17.8571     91.6588
   861.5000   2000.0000   2000.0000     19.1582     78.9539
   861.7500   2000.0000   2000.0000     20.7663     72.3257
   862.0000   2000.0000   2000.0000     22.7260     65.1149
   862.2500   2000.0000   2000.0000     25.0593     61.6552
   862.5000   2000.0000   2000.0000     27.7330     57.6304
   862.7500   2000.0000   2000.0000     30.6258     55.4600
   863.0000   2000.0000   2000.0000     33.5174     52.9579
   863.2500   2000.0000   2000.0000     36.1254     51.8498
   863.5000   2000.0000   2000.0000     38.1923     50.9046
   863.7500   2000.0000   2000.0000     39.5823     50.5494
   864.0000   2000.0000   2000.0000     40.3352     50.1322
   864.2500   2000.0000   2000.0000     40.6507     49.8856
   864.5000   2000.0000   2000.0000     40.8181     49.5736
   864.7500   2000.0000   2000.0000     41.1188     49.3931
   865.0000   2000.0000   2000.0000     41.7382     49.2755
   865.2500   2000.0000   2000.0000     42.6988     49.4883
   865.5000   2000.0000   2000.0000     43.8232     50.4645
   865.7500   2000.0000   2000.0000     44.7537     51.5360
   866.0000   2000.0000   2000.0000     45.0610     53.9263
   866.2500   2000.0000   2000.0000     44.4184     56.3902
   866.5000   2000.0000   2000.0000     42.7360     61.8949
   866.7500   2000.0000   2000.0000     40.1848     66.6623
   867.0000   2000.0000   2000.0000     37.1255     74.8182
   867.2500   2000.0000   2000.0000     33.9823     80.7123
   867.5000   2000.0000   2000.0000     31.1056     90.4455
   867.7500   2000.0000   2000.0000     28.6863     97.6457
   868.0000   2000.0000   2000.0000     26.7531    108.7638
   868.2500   2000.0000   2000.0000     25.2238    115.2764
   868.5000   2000.0000   2000.0000     23.9682    121.5944
   868.7500   2000.0000   2000.0000     22.8631    122.9144
   869.0000   2000.0000   2000.0000     21.8316    121.1611
   869.2500   2000.0000   2000.0000     20.8572    118.4603
   869.5000   2000.0000   2000.0000     19.9682    113.8363
   869.7500   2000.0000   2000.0000     19.2022    111.2187
   870.0000   2000.0000   2000.0000     18.5757    109.2525
   870.2500   2000.0000   2000.0000     18.0718    109.8108
   870.5000   2000.0000   2000.0000     17.6467    113.6742
   870.7500   2000.0000   2000.0000     17.2428    117.8136
   871.0000   2000.0000   2000.0000     16.8029    124.7604
   871.2500   2000.0000   2000.0000     16.2854    128.8128
   871.5000   2000.0000   2000.0000     15.6788    132.8723
   871.7500   2000.0000   2000.0000     15.0083    134.2464
   872.0000   2000.0000   2000.0000     14.3259    134.9628
   872.2500   2000.0000   2000.0000     13.6892    134.7438
   872.5000   2000.0000   2000.0000     13.1421    133.2967
   872.7500   2000.0000   2000.0000     12.7083    131.7849
   873.0000   2000.0000   2000.0000     12.3957    129.7670
   873.2500   2000.0000   2000.0000     12.2034    129.0571
   873.5000   2000.0000   2000.0000     12.1277    128.4400
   873.7500   2000.0000   2000.0000     12.1640    127.5281
   874.0000   2000.0000   2000.0000     12.3069    124.5932
   874.2500   2000.0000   2000.0000     12.5501    121.7588
   874.5000   2000.0000   2000.0000     12.8875    116.9680
   874.7500   2000.0000   2000.0000     13.3151    113.8258
   875.0000   2000.0000   2000.0000     13.8313    109.7981
   875.2500   2000.0000   2000.0000     14.4319    107.7860
   875.5000   2000.0000   2000.0000     15.1008    105.3892
   875.7500   2000.0000   2000.0000     15.7970    103.6388
   876.0000   2000.0000   2000.0000     16.4448    100.4646
   876.2500   2000.0000   2000.0000     16.9378     98.5871
   876.5000   2000.0000   2000.0000     17.1649     97.5028
   876.7500   2000.0000   2000.0000     17.0515     98.0512
