~Version Information
VERS.                      2.0: CWLS Log ASCII Standard - VERSION 2.0
WRAP.                       NO: One line per depth step
~Well Information Block
STRT.FT               360.0000: 
STOP.FT              1622.7500: 
STEP.FT                 0.2500: 
NULL.                -999.2500: 
COMP.          Pioneer Natural Resources: COMPANY
WELL.                Eric 42-9: WELL
FLD.           Purgatoire River: FIELD
LOC.           2050' FNL & 850' FEL: LOCATION
PROV.                 Colorado: PROVINCE
CNTY.               Las Animas: COUNTRY
SRVC.                Patterson: SERVICE COMPANY
DATE.          Sun Oct 31 17:26:46 2004: LOG DATE
UWI.           05 071 07999 00: UNIQUE WELL ID
~Curve Information Block
DEPT.FT            0 000 00 00: Depth
SN.Ohm-m                      : IEL Short Normal
SP.mV                         : IEL Spontaneous Potential
DIR.Ohm-m                     : IEL Induction Resistivity
GR.GAPI                       : Gamma Ray
~Parameter Information Block
~A  Depth        SN          SP         DIR          GR     
# ...
  1097.0000      7.5900     74.1716      7.5165    108.8068
  1097.2500      8.1937     74.1927      7.8531    106.5373
  1097.5000      8.7693     74.2072      8.2299    105.2069
  1097.7500      9.3146     74.2151      8.6470    105.5549
  1098.0000      9.8457     74.2143      9.1014    106.9670
  1098.2500     10.3878     74.2011      9.5894    107.5299
  1098.5000     10.9538     74.1721     10.1074    106.3145
  1098.7500     11.5388     74.1271     10.6509    104.0227
  1099.0000     12.1393     74.0711     11.2153     99.6361
  1099.2500     12.7733     74.0138     11.7981     97.0297
  1099.5000     13.4764     73.9678     12.4001     94.2214
  1099.7500     14.2745     73.9441     13.0240     92.7371
  1100.0000     15.1638     73.9480     13.6662     90.1668
  1100.2500     16.1158     73.9777     14.3104     88.0162
  1100.5000     17.0975     74.0261     14.9308     84.6330
  1100.7500     18.0821     74.0856     15.5067     82.9396
  1101.0000     19.0420     74.1517     16.0375     82.4425
  1101.2500     19.9339     74.2250     16.5395     83.6891
  1101.5000     20.6958     74.3097     17.0244     86.7851
  1101.7500     21.2675     74.4113     17.4763     88.4474
  1102.0000     21.6258     74.5351     17.8544     88.8637
  1102.2500     21.8080     74.6844     18.1243     87.8347
  1102.5000     21.9051     74.8589     18.2940     85.7476
  1102.7500     22.0328     75.0523     18.4194     84.8306
  1103.0000     22.2901     75.2513     18.5763     84.4132
  1103.2500     22.7215     75.4375     18.8254     84.1698
  1103.5000     23.3025     75.5930     19.1982     82.4678
  1103.7500     23.9720     75.7076     19.7023     79.9147
  1104.0000     24.7028     75.7841     20.3311     73.8429
  1104.2500     25.5483     75.8381     21.0584     68.6698
  1104.5000     26.6057     75.8922     21.8207     60.4272
  1104.7500     27.9220     75.9669     22.5122     55.4089
  1105.0000     29.4351     76.0726     23.0276     49.6720
  1105.2500     31.0014     76.2079     23.3359     47.3326
  1105.5000     32.4673     76.3641     23.5121     45.7592
  1105.7500     33.7183     76.5329     23.6813     45.4135
  1106.0000     34.6905     76.7122     23.9308     44.9525
  1106.2500     35.3634     76.9057     24.2676     44.5057
  1106.5000     35.7525     77.1166     24.6372     43.9076
  1106.7500     35.9020     77.3423     24.9721     43.7417
  1107.0000     35.8727     77.5733     25.2284     44.0223
  1107.2500     35.7246     77.7981     25.3884     44.6160
  1107.5000     35.5075     78.0098     25.4444     45.9178
  1107.7500     35.2625     78.2084     25.3920     46.7432
  1108.0000     35.0274     78.3992     25.2417     47.5685
  1108.2500     34.8318     78.5872     25.0311     48.0859
  1108.5000     34.6872     78.7729     24.8221     49.7890
  1108.7500     34.5849     78.9509     24.6803     51.8982
  1109.0000     34.5051     79.1118     24.6528     55.8908
  1109.2500     34.4322     79.2456     24.7541     58.0880
  1109.5000     34.3646     79.3457     24.9658     58.9879
  1109.7500     34.3191     79.4117     25.2458     57.6512
  1110.0000     34.3323     79.4497     25.5466     53.4354
  1110.2500     34.4566     79.4710     25.8342     49.9748
  1110.5000     34.7393     79.4893     26.0994     45.3582
  1110.7500     35.1888     79.5167     26.3563     43.4393
  1111.0000     35.7563     79.5619     26.6331     42.9720
  1111.2500     36.3579     79.6279     26.9554     44.0845
  1111.5000     36.9162     79.7133     27.3265     46.6512
  1111.7500     37.3779     79.8134     27.7184     48.0160
  1112.0000     37.7098     79.9229     28.0853     48.3323
  1112.2500     37.9028     80.0369     28.4048     47.2641
  1112.5000     37.9812     80.1520     28.7149     44.5993
  1112.7500     37.9889     80.2654     29.1033     42.8777
  1113.0000     37.9623     80.3739     29.6348     41.2219
  1113.2500     37.9198     80.4743     30.2592     40.7608
  1113.5000     37.8722     80.5634     30.7792     40.6431
  1113.7500     37.8331     80.6396     30.9477     40.7293
  1114.0000     37.8162     80.7028     30.6556     40.8690
  1114.2500     37.8261     80.7543     30.0189     40.8681
  1114.5000     37.8501     80.7950     29.2628     40.7047
  1114.7500     37.8568     80.8241     28.5527     40.6460
  1115.0000     37.8049     80.8388     27.9372     41.0068
  1115.2500     37.6560     80.8347     27.3967     41.5268
  1115.5000     37.3870     80.8078     26.9103     42.0847
  1115.7500     37.0010     80.7569     26.4823     41.9001
  1116.0000     36.5308     80.6860     26.1240     40.8758
  1116.2500     36.0182     80.6066     25.8241     40.2272
  1116.5000     35.4752     80.5382     25.5338     40.0972
  1116.7500     34.8564     80.5075     25.1745     40.5224
  1117.0000     34.0694     80.5440     24.6558     41.2577
  1117.2500     33.0167     80.6732     23.8996     41.5512
  1117.5000     31.6362     80.9093     22.8624     41.7771
  1117.7500     29.9186     81.2497     21.5544     42.0147
  1118.0000     27.9144     81.6741     20.0482     43.1495
  1118.2500     25.7339     82.1499     18.4629     45.0200
  1118.5000     23.5192     82.6403     16.9270     50.7558
  1118.7500     21.3947     83.1144     15.5361     57.1324
  1119.0000     19.4305     83.5536     14.3310     70.6139
  1119.2500     17.6416     83.9534     13.3012     81.4940
  1119.5000     16.0022     84.3201     12.4075     98.4096
  1119.7500     14.4683     84.6646     11.6077    108.6545
  1120.0000     13.0070     84.9956     10.8735    120.6541
  1120.2500     11.6219     85.3152     10.1925    125.9656
  1120.5000     10.3492     85.6178      9.5627    130.1255
  1120.7500      9.2249     85.8924      8.9864    130.8634
  1121.0000      8.2599     86.1270      8.4681    130.2263
  1121.2500      7.4493     86.3125      8.0150    129.6146
  1121.5000      6.7984     86.4455      7.6363    129.9381
  1121.7500      6.3270     86.5284      7.3395    131.3702
  1122.0000      6.0463     86.5677      7.1240    134.8244
  1122.2500      5.9407     86.5736      6.9775    137.1459
  1122.5000      5.9697     86.5587      6.8768    139.0097
  1122.7500      6.0842     86.5386      6.7971    138.6788
  1123.0000      6.2404     86.5302      6.7221    136.4768
  1123.2500      6.4076     86.5492      6.6496    134.7472
  1123.5000      6.5624     86.6066      6.5875    132.4914
  1123.7500      6.6711     86.7061      6.5460    130.8414
  1124.0000      6.6834     86.8434      6.5312    127.2186
  1124.2500      6.5556     87.0082      6.5434    123.9877
  1124.5000      6.2895     87.1880      6.5777    118.7332
  1124.7500      5.9420     87.3703      6.6253    115.6363
  1125.0000      5.5931     87.5453      6.6752    112.6038
  1125.2500      5.3081     87.7060      6.7178    111.8798
  1125.5000      5.1277     87.8493      6.7491    112.2731
  1125.7500      5.0774     87.9751      6.7727    112.9709
  1126.0000      5.1737     88.0869      6.7974    113.7863
  1126.2500      5.4209     88.1902      6.8302    113.7858
  1126.5000      5.7995     88.2908      6.8718    112.6300
  1126.7500      6.2580     88.3935      6.9169    111.2513
  1127.0000      6.7184     88.5014      6.9587    108.9656
  1127.2500      7.1004     88.6165      6.9937    107.5550
  1127.5000      7.3492     88.7403      7.0230    105.5255
  1127.7500      7.4506     88.8736      7.0494    104.2011
  1128.0000      7.4280     89.0154      7.0750    102.7143
  1128.2500      7.3258     89.1626      7.0997    102.4399
  1128.5000      7.1878     89.3108      7.1222    103.3503
  1128.7500      7.0435     89.4565      7.1413    104.6711
  1129.0000      6.9078     89.5990      7.1570    107.3314
  1129.2500      6.7879     89.7408      7.1686    109.5481
  1129.5000      6.6896     89.8847      7.1748    113.8338
  1129.7500      6.6172     90.0308      7.1738    117.3508
  1130.0000      6.5712     90.1734      7.1655    122.9439
  1130.2500      6.5469     90.3027      7.1519    126.2239
