~Version Information
VERS.                      2.0: CWLS Log ASCII Standard - VERSION 2.0
WRAP.                       NO: One line per depth step
~Well Information Block
STRT.FT                 0.0000: 
STOP.FT              1439.5000: 
STEP.FT                 0.2500: 
NULL.                -999.2500: 
COMP.          Petrogulf Corporation: COMPANY
WELL.          Robinson 15-12R: WELL
FLD.           Purgatorie River: FIELD
LOC.           1752' FNL & 561' FWL: LOCATION
PROV.                 Colorado: PROVINCE
CNTY.               Las Animas: COUNTRY
SRVC.                Patterson: SERVICE COMPANY
DATE.          Tue Oct 04 09:17:52 2005: LOG DATE
UWI.                          : UNIQUE WELL ID
~Curve Information Block
DEPT.FT            0 000 00 00: Depth
GR.GAPI                       : Gamma Ray
CCL.                          : Casing Collar Locator
TT3.usec                      : CBL 3' Travel Time
AMP3.mV                       : CBL 3' Amplitude
~Parameter Information Block
~A  Depth        GR         CCL         TT3         AMP3    
# ...
   368.5000    120.1339      0.0000    801.9046     11.6438
   368.7500    120.0440      0.0000    801.4714     12.9861
   369.0000    122.6516      0.0000    799.4539     14.2815
   369.2500    126.2984      0.0000    790.4919     15.3458
   369.5000    128.7664      0.0000    766.9437     16.0938
   369.7500    128.9118      0.0000    733.5966     16.5793
   370.0000    127.2415      0.0000    716.7334     16.8177
   370.2500    125.2043      0.0000    734.1981     16.7906
   370.5000    124.0831      0.0000    767.8567     16.6435
   370.7500    124.3398      0.0000    791.3861     16.6656
   371.0000    125.5545      0.0000    800.1702     17.0329
   371.2500    126.7233      0.0000    802.0316     17.6538
   371.5000    126.8079      0.0000    802.4244     18.2260
   371.7500    125.4441      0.0000    802.7618     18.3933
   372.0000    123.3082      0.0000    802.8309     17.9691
   372.2500    121.5163      0.0000    800.9467     17.1104
   372.5000    120.6657      0.0000    791.4500     16.2287
   372.7500    120.7329      0.0000    764.8004     15.7099
   373.0000    121.5657      0.0000    718.9990     15.6971
   373.2500    122.8277      0.0000    670.3140     16.0943
   373.5000    123.7106      0.0000    641.3439     16.6997
   373.7500    123.4430      0.0000    645.0856     17.2646
   374.0000    122.0797      0.0000    677.4427     17.5091
   374.2500    120.3895      0.0000    715.8127     17.2265
   374.5000    119.0638      0.0000    740.3586     16.4316
   374.7500    118.3780      0.0000    747.3295     15.3818
   375.0000    118.4318      0.0000    739.5806     14.4642
   375.2500    119.1343      0.0000    721.2366     14.0521
   375.5000    119.9113      0.0000    698.3616     14.3022
   375.7500    120.0129      0.0000    682.7066     15.0087
   376.0000    119.2217      0.0000    687.7631     15.7133
   376.2500    117.7223      0.0000    710.0505     16.0032
   376.5000    115.2864      0.0000    725.5822     15.8317
   376.7500    111.2558      0.0000    716.1393     15.5993
   377.0000    105.5273      0.0000    693.2134     15.7001
   377.2500     99.0491      0.0000    686.7803     15.9958
   377.5000     93.1747      0.0000    704.2724     16.0115
   377.7500     88.8729      0.0000    717.5554     15.5425
   378.0000     86.5604      0.0000    703.8885     14.8127
   378.2500     86.1283      0.0000    670.1644     14.1694
   378.5000     86.8205      0.0000    634.8979     13.7934
   378.7500     87.3858      0.0000    617.1615     13.6093
   379.0000     86.7481      0.0000    629.2221     13.4378
   379.2500     84.6926      0.0000    654.1510     13.2980
   379.5000     81.9966      0.0000    652.8512     13.4034
   379.7500     79.8626      0.0000    611.0480     13.7892
   380.0000     79.2026      0.0000    555.7725     14.2034
   380.2500     80.4765      0.0000    524.1136     14.4347
   380.5000     83.8406      0.0000    537.4387     14.5685
   380.7500     88.8342      0.0000    595.7558     14.8312
   381.0000     93.9529      0.0000    674.7039     15.2499
   381.2500     97.2368      0.0000    740.2106     15.5781
   381.5000     97.7329      0.0000    777.4998     15.5174
   381.7500     96.2542      0.0000    793.2173     14.9366
   382.0000     94.6219      0.0000    796.8992     13.9153
   382.2500     94.2698      0.0000    793.1563     12.6647
   382.5000     95.6034      0.0000    785.8922     11.4001
   382.7500     98.4290      0.0000    782.0128     10.2356
   383.0000    102.5781      0.0000    785.7241      9.2015
   383.2500    107.8301      0.0000    792.9954      8.3099
   383.5000    113.4167      0.0000    798.0633      7.5373
   383.7500    118.1551      0.0000    799.8787      6.8296
   384.0000    121.3097      0.0000    799.4783      6.1859
   384.2500    123.0901      0.0000    795.9097      5.6732
   384.5000    124.2505      0.0000    786.0863      5.3233
   384.7500    125.4884      0.0000    769.1873      5.0731
   385.0000    127.3282      0.0000    749.2378      4.8188
   385.2500    130.2920      0.0000    728.8892      4.4879
   385.5000    134.7211      0.0000    708.3160      4.0857
   385.7500    140.1090      0.0000    693.3446      3.6840
   386.0000    144.5127      0.0000    692.8470      3.2960
   386.2500    144.8650      0.0000    714.4509      2.8775
   386.5000    138.4408      0.0000    770.7435      2.5176
   386.7500    124.5041      0.0000    864.8365      2.3980
   387.0000    104.9387      0.0000    956.0746      2.5526
   387.2500     83.5659      0.0000    986.8879      2.8277
   387.5000     64.6131      0.0000    962.0235      3.0372
   387.7500     51.1471     -2.0000    940.4186      3.1136
   388.0000     44.3450      0.0000    953.0225      3.1681
   388.2500     43.8391      0.0000    987.0690      3.4559
   388.5000     48.5539      0.0000   1025.9689      4.2741
   388.7500     57.3408      0.0000   1068.6117      5.6448
   389.0000     68.9650      0.0000   1117.5813      6.9968
   389.2500     81.6302      0.0000   1160.4617      7.6544
   389.5000     93.0804      0.0000   1178.7507      7.5980
   389.7500    101.7967      0.0000   1161.0591      7.2423
   390.0000    108.0211      0.0000   1099.3164      6.9002
   390.2500    113.1753      0.0000   1000.1600      6.7382
   390.5000    118.1979      0.0000    899.3427      6.8263
   390.7500    122.6177      0.0000    834.3556      7.0895
   391.0000    125.2513      0.0000    807.2750      7.3540
   391.2500    125.6370      0.0000    794.8911      7.4604
   391.5000    124.5660      0.0000    781.3695      7.3338
   391.7500    123.1556      0.0000    769.5923      7.0472
   392.0000    121.6852      0.0000    769.3643      6.8095
   392.2500    119.6772      0.0000    780.5856      6.7936
   392.5000    116.9696      0.0000    793.0699      7.0057
   392.7500    114.0899      0.0000    799.9084      7.3668
   393.0000    111.4438      0.0000    801.9874      7.8461
   393.2500    108.6863      0.0000    802.2710      8.4319
   393.5000    105.2678      0.0000    801.8907      9.0368
   393.7500    101.2630      0.0000    800.2117      9.5489
   394.0000     97.3026      0.0000    796.2433      9.9575
   394.2500     93.8866      0.0000    791.0053     10.3682
   394.5000     91.2280      0.0000    788.3713     10.9145
   394.7500     89.7364      0.0000    790.6484     11.6381
   395.0000     90.0442      0.0000    794.6567     12.3928
   395.2500     92.1734      0.0000    793.7605     12.9251
   395.5000     95.0542      0.0000    777.1788     13.1261
   395.7500     97.3196      0.0000    727.6107     13.1378
   396.0000     98.4355      0.0000    636.8227     13.1823
   396.2500     98.8150      0.0000    531.3704     13.3456
   396.5000     99.0691      0.0000    463.3801     13.5346
   396.7500     99.3967      0.0000    469.0239     13.5985
   397.0000     99.5063      0.0000    541.9212     13.4759
   397.2500     98.8548      0.0000    635.6594     13.2181
   397.5000     97.0758      0.0000    704.5266     12.8708
   397.7500     94.2867      0.0000    744.0367     12.4120
   398.0000     91.0422      0.0000    767.6081     11.8550
   398.2500     88.0407      0.0000    778.8787     11.2932
   398.5000     85.7530      0.0000    790.0815     10.8077
   398.7500     84.0991      0.0000    818.2271     10.4645
   399.0000     82.5081      0.0000    852.5441     10.3649
   399.2500     80.5312      0.0000    866.3131     10.5298
   399.5000     78.4809      0.0000    853.7213     10.7978
   399.7500     77.3768      0.0000    824.2155     10.9957
   400.0000     78.1942      0.0000    778.2902     11.1296
   400.2500     81.2441      0.0000    716.0900     11.3112
   400.5000     86.3176      0.0000    661.4188     11.6187
   400.7500     93.0601      0.0000    645.4827     12.1139
   401.0000    100.6929      0.0000    660.0635     12.8978
   401.2500    107.5795      0.0000    664.4091     14.0443
   401.5000    111.9149      0.0000    637.7290     15.4810
   401.7500    113.1932      0.0000    585.7697     16.9867
