~Version Information
VERS.                      2.0: CWLS Log ASCII Standard - VERSION 2.0
WRAP.                       NO: One line per depth step
~Well Information Block
STRT.FT                15.0000: 
STOP.FT              2265.2500: 
STEP.FT                 0.2500: 
NULL.                -999.2500: 
COMP.          Pioneer Natural Resources: COMPANY
WELL.             Vector 33-23: WELL
FLD.           Purgatoire River: FIELD
LOC.           1988' FSL & 1560' FEL: LOCATION
PROV.                 Colorado: PROVINCE
CNTY.               Las Animas: COUNTRY
SRVC.                Patterson: SERVICE COMPANY
DATE.          Fri Apr 01 13:14:24 2005: LOG DATE
UWI.           05 071 08336 00: UNIQUE WELL ID
~Curve Information Block
DEPT.FT            0 000 00 00: Depth
GR.GAPI                       : Gamma Ray
CCL.                          : Casing Collar Locator
TT3.usec                      : CBL 3' Travel Time
AMP3.mV                       : CBL 3' Amplitude
AMP5.mV                       : CBL 5' Amplitude
~Parameter Information Block
~A  Depth        GR         CCL         TT3         AMP3        AMP5    
# ...
  1919.0000     65.0257      0.0000   1028.8750      5.9694      0.5693
  1919.2500     60.1237      0.0000   1026.3665      5.9286      0.5612
  1919.5000     55.5631      0.0000   1019.8762      5.9180      0.5555
  1919.7500     52.7936      0.0000   1020.2056      5.9561      0.5560
  1920.0000     53.1770      0.0000   1034.3693      6.0476      0.5630
  1920.2500     57.3723      0.0000   1053.9475      6.1810      0.5744
  1920.5000     64.9301      0.0000   1063.3130      6.3349      0.5882
  1920.7500     74.5652      0.0000   1058.8433      6.4854      0.6034
  1921.0000     84.8273      0.0000   1050.4460      6.6144      0.6201
  1921.2500     94.5793      0.0000   1043.4615      6.7157      0.6388
  1921.5000    102.8686      0.0000   1028.9750      6.7952      0.6592
  1921.7500    108.5239      0.0000    995.2047      6.8649      0.6811
  1922.0000    110.3718      0.0000    942.8516      6.9354      0.7042
  1922.2500    108.2186      0.0000    886.5255      7.0098      0.7295
  1922.5000    103.2982      0.0000    842.9274      7.0873      0.7582
  1922.7500     97.3550      0.0000    819.4129      7.1757      0.7897
  1923.0000     91.4168      0.0000    812.5144      7.3017      0.8204
  1923.2500     85.5570      0.0000    813.9000      7.5025      0.8469
  1923.5000     79.5179      0.0000    816.3145      7.8013      0.8691
  1923.7500     73.4238      0.0000    816.1146      8.1861      0.8909
  1924.0000     68.1553      0.0000    812.9006      8.6112      0.9175
  1924.2500     65.1120      0.0000    808.0007      9.0173      0.9521
  1924.5000     65.4061      0.0000    803.1738      9.3548      0.9930
  1924.7500     69.1115      0.0000    800.1052      9.5995      1.0355
  1925.0000     75.1715      0.0000    799.8197      9.7592      1.0751
  1925.2500     81.9778      0.0000    801.9537      9.8673      1.1091
  1925.5000     88.1412      0.0000    804.7482      9.9643      1.1370
  1925.7500     92.9349      0.0000    806.1089     10.0784      1.1596
  1926.0000     96.1279      0.0000    804.9285     10.2202      1.1800
  1926.2500     97.6066      0.0000    801.7297     10.3864      1.2016
  1926.5000     97.4197      0.0000    798.2234     10.5629      1.2258
  1926.7500     96.2346      0.0000    796.0445     10.7259      1.2507
  1927.0000     95.3188      0.0000    795.3016     10.8511      1.2721
  1927.2500     95.5919      0.0000    794.1112     10.9275      1.2863
  1927.5000     96.7365      0.0000    790.2274     10.9647      1.2921
  1927.7500     97.4539      0.0000    784.0022     10.9857      1.2913
  1928.0000     96.3727      0.0000    779.1978     11.0090      1.2863
  1928.2500     92.6162      0.0000    779.6148     11.0354      1.2779
  1928.5000     86.2210      0.0000    785.1611     11.0544      1.2662
  1928.7500     78.5145      0.0000    792.0792     11.0586      1.2546
  1929.0000     71.6406      0.0000    796.5407     11.0522      1.2488
  1929.2500     67.2127      0.0000    797.3411     11.0449      1.2539
  1929.5000     65.3935      0.0000    795.7465     11.0421      1.2706
  1929.7500     65.1119      0.0000    793.6840     11.0443      1.2945
  1930.0000     65.0021      0.0000    792.2636     11.0550      1.3187
  1930.2500     64.3243      0.0000    791.5696     11.0841      1.3375
  1930.5000     63.1097      0.0000    791.2499     11.1401      1.3495
  1930.7500     61.5078      0.0000    791.0428     11.2205      1.3573
  1931.0000     59.4795      0.0000    790.8787     11.3144      1.3640
  1931.2500     57.3837      0.0000    790.7831     11.4116      1.3697
  1931.5000     56.0715      0.0000    790.7780     11.5061      1.3715
  1931.7500     55.7582      0.0000    790.8464     11.5881      1.3670
  1932.0000     55.4127      0.0000    790.9507     11.6382      1.3555
  1932.2500     53.8960      0.0000    791.0518     11.6368      1.3384
  1932.5000     51.3350      0.0000    791.1130     11.5809      1.3183
  1932.7500     48.9839      0.0000    791.1071     11.4905      1.2990
  1933.0000     48.0301      0.0000    791.0400     11.3950      1.2837
  1933.2500     48.7343      0.0000    790.9689     11.3121      1.2726
  1933.5000     50.4304      0.0000    791.0106     11.2338      1.2643
  1933.7500     51.9780      0.0000    791.3895     11.1364      1.2589
  1934.0000     52.2024      0.0000    792.5529     11.0061      1.2587
  1934.2500     50.3350      0.0000    795.1888     10.8545      1.2652
  1934.5000     46.5308      0.0000    799.8194     10.7054      1.2755
  1934.7500     41.9088      0.0000    805.9924     10.5727      1.2813
  1935.0000     37.7771      0.0000    811.9068     10.4573      1.2741
  1935.2500     34.8845      0.0000    815.4480     10.3654      1.2521
  1935.5000     33.5039      0.0000    816.0748     10.3161      1.2224
  1935.7500     33.8855      0.0000    815.4238     10.3233      1.1962
  1936.0000     36.2908      0.0000    815.4973     10.3708      1.1802
  1936.2500     40.7186      0.0000    816.3112     10.4179      1.1744
  1936.5000     46.8605      0.0000    815.8653     10.4336      1.1754
  1936.7500     54.2407      0.0000    812.4941     10.4185      1.1820
  1937.0000     62.1530      0.0000    806.7407     10.3936      1.1945
  1937.2500     69.6152      0.0000    800.7535     10.3772      1.2105
  1937.5000     75.8359      0.0000    796.3220     10.3770      1.2240
  1937.7500     80.6025      0.0000    793.8061     10.3979      1.2294
  1938.0000     83.6854      0.0000    792.5801     10.4464      1.2250
  1938.2500     84.2785      0.0000    791.9650     10.5224      1.2129
  1938.5000     82.0921      0.0000    791.7258     10.6093      1.1979
  1938.7500     78.7066      0.0000    792.0651     10.6798      1.1853
  1939.0000     76.4633      0.0000    793.3284     10.7190      1.1789
  1939.2500     75.8740      0.0000    795.5347     10.7397      1.1801
  1939.5000     75.0861      0.0000    798.0222     10.7705      1.1878
  1939.7500     72.0416      0.0000    799.8162     10.8299      1.1991
  1940.0000     66.5614      0.0000    800.5697     10.9138      1.2112
  1940.2500     60.3550      0.0000    800.8004     11.0047      1.2233
  1940.5000     55.4823      0.0000    800.9027     11.0807      1.2352
  1940.7500     52.8904      0.0000    800.4594     11.1188      1.2447
  1941.0000     52.1976      0.0000    799.0322     11.1035      1.2488
  1941.2500     52.4926      0.0000    797.2224     11.0372      1.2459
  1941.5000     52.9013      0.0000    796.3737     10.9350      1.2375
  1941.7500     52.5022      0.0000    797.3210     10.8117      1.2267
  1942.0000     50.5146      0.0000    799.7650     10.6787      1.2165
  1942.2500     47.0212      0.0000    802.9483     10.5484      1.2079
  1942.5000     43.2197      0.0000    806.7291     10.4338      1.2018
  1942.7500     40.7089      0.0000    811.5714     10.3440      1.1994
  1943.0000     40.4996      0.0000    817.4149     10.2834      1.2014
  1943.2500     42.4504      0.0000    823.1453     10.2545      1.2068
  1943.5000     45.3587      0.0000    827.4830     10.2602      1.2140
  1943.7500     47.7533      0.0000    830.0228     10.3017      1.2221
  1944.0000     48.9160      0.0000    831.2320     10.3709      1.2306
  1944.2500     49.2854      0.0000    831.7973     10.4488      1.2370
  1944.5000     49.9597      0.0000    832.1566     10.5137      1.2389
  1944.7500     51.9234      0.0000    832.3726     10.5527      1.2351
  1945.0000     55.7873      0.0000    832.1331     10.5656      1.2282
  1945.2500     62.0809      0.0000    830.7952     10.5599      1.2225
  1945.5000     71.2276      0.0000    827.7097     10.5449      1.2219
  1945.7500     82.6878      0.0000    823.0300     10.5278      1.2268
  1946.0000     94.3850      0.0000    818.4117     10.5128      1.2348
  1946.2500    103.6771      0.0000    816.3133     10.5024      1.2425
  1946.5000    108.9736      0.0000    817.9331     10.4998      1.2475
  1946.7500    110.1537      0.0000    822.0478     10.5034      1.2486
