~Version Information
VERS.                      2.0: CWLS Log ASCII Standard - VERSION 2.0
WRAP.                       NO: One line per depth step
~Well Information Block
STRT.FT               185.5000: 
STOP.FT              2039.2500: 
STEP.FT                 0.2500: 
NULL.                -999.2500: 
COMP.          Petrogulf Corporation: COMPANY
WELL.            Montoya 7-12R: WELL
FLD.           Purgatorie River: FIELD
LOC.           1769' FNL & 658' FWL--: LOCATION
PROV.                       CO: PROVINCE
CNTY.               Las Animas: COUNTRY
SRVC.                         : SERVICE COMPANY
DATE.          Wed Feb 09 09:05:42 2005: LOG DATE
UWI.         005 071 08240  : UNIQUE WELL ID
~Curve Information Block
DEPT.FT            0 000 00 00: Depth
CCL.                          : Casing Collar Locator
CCLRT.                        : CCLRT
TT3.usec                      : CBL 3' Travel Time
AMP3.mV                       : CBL 3' Amplitude
GR.GAPI                       : Gamma Ray
~Parameter Information Block
~A  Depth       CCL        CCLRT        TT3         AMP3         GR     
# ...
  1277.5000      0.0000   -999.2500    441.9627      3.9938     94.3927
  1277.7500      0.0000   -999.2500    439.4896      3.9934     95.9227
  1278.0000      2.0000   -999.2500    460.9013      4.0486     96.0564
  1278.2500      2.0000   -999.2500    509.4422      4.0530     94.7898
  1278.5000      0.0000   -999.2500    569.3969      3.9381     92.9354
  1278.7500      0.0000   -999.2500    614.9357      3.7138     91.8902
  1279.0000      0.0000   -999.2500    627.5519      3.4531     92.5072
  1279.2500      0.0000   -999.2500    606.5848      3.2372     94.2305
  1279.5000      0.0000   -999.2500    565.3763      3.0995     95.6761
  1279.7500      0.0000   -999.2500    520.5857      3.0153     95.8416
  1280.0000      0.0000   -999.2500    485.1651      2.9488     94.5131
  1280.2500      0.0000   -999.2500    465.5449      2.8990     92.0067
  1280.5000      0.0000   -999.2500    459.3731      2.8903     89.2226
  1280.7500      0.0000   -999.2500    458.4305      2.9299     87.7716
  1281.0000      0.0000   -999.2500    458.6595      2.9922     89.2063
  1281.2500      0.0000   -999.2500    465.4192      3.0420     93.8216
  1281.5000      0.0000   -999.2500    485.8026      3.0601    100.5415
  1281.7500      0.0000   -999.2500    519.1586      3.0416    108.0906
  1282.0000      0.0000   -999.2500    558.2001      2.9839    115.8675
  1282.2500      0.0000   -999.2500    595.9611      2.8910    123.4499
  1282.5000      0.0000   -999.2500    628.7033      2.7882    129.7963
  1282.7500      0.0000   -999.2500    654.8083      2.7168    133.7061
  1283.0000      0.0000   -999.2500    673.6782      2.7041    135.0296
  1283.2500      0.0000   -999.2500    685.6714      2.7420    134.8775
  1283.5000      0.0000   -999.2500    692.2191      2.8001    134.6610
  1283.7500      0.0000   -999.2500    695.3668      2.8567    135.3152
  1284.0000      0.0000   -999.2500    696.4727      2.9141    137.1628
  1284.2500      0.0000   -999.2500    695.6130      2.9867    139.9066
  1284.5000      0.0000   -999.2500    692.6450      3.0764    142.7095
  1284.7500      0.0000   -999.2500    688.5612      3.1589    144.6000
  1285.0000      0.0000   -999.2500    685.2849      3.1988    144.9175
  1285.2500      0.0000   -999.2500    684.2955      3.1795    143.4476
  1285.5000      0.0000   -999.2500    685.6266      3.1181    140.4211
  1285.7500      0.0000   -999.2500    688.3243      3.0481    136.5258
  1286.0000      0.0000   -999.2500    691.5959      2.9937    132.7637
  1286.2500      0.0000   -999.2500    695.1018      2.9634    130.1684
  1286.5000      0.0000   -999.2500    698.4980      2.9609    129.3223
  1286.7500      0.0000   -999.2500    701.4041      2.9924    129.6721
  1287.0000      0.0000   -999.2500    703.7438      3.0574    129.6285
  1287.2500      0.0000   -999.2500    705.6119      3.1397    128.1927
  1287.5000      0.0000   -999.2500    706.7754      3.2187    126.5380
  1287.7500      0.0000   -999.2500    706.5656      3.2975    127.2331
  1288.0000      0.0000   -999.2500    704.4075      3.4134    131.3616
  1288.2500      0.0000   -999.2500    700.6119      3.6139    136.7087
  1288.5000      0.0000   -999.2500    696.7577      3.9175    139.6576
  1288.7500      0.0000   -999.2500    695.1855      4.2915    139.2879
  1289.0000      0.0000   -999.2500    697.7332      4.6637    138.7399
  1289.2500      0.0000   -999.2500    704.3682      4.9544    141.6855
  1289.5000      0.0000   -999.2500    712.5828      5.1162    148.0674
  1289.7500      0.0000   -999.2500    718.5634      5.1526    154.3554
  1290.0000      0.0000   -999.2500    720.0060      5.1003    157.7648
  1290.2500      0.0000   -999.2500    718.0094      4.9875    158.9457
  1290.5000      0.0000   -999.2500    715.4478      4.8123    159.9677
  1290.7500      0.0000   -999.2500    713.3906      4.5654    160.9295
  1291.0000      0.0000   -999.2500    710.0854      4.2635    160.2672
  1291.2500      0.0000   -999.2500    703.7024      3.9480    158.0596
  1291.5000      0.0000   -999.2500    695.1855      3.6546    156.9896
  1291.7500      0.0000   -999.2500    688.0552      3.3979    159.1225
  1292.0000      0.0000   -999.2500    685.8284      3.1870    162.8522
  1292.2500      0.0000   -999.2500    689.5315      3.0387    164.0066
  1292.5000      0.0000   -999.2500    696.9980      2.9637    159.7361
  1292.7500      0.0000   -999.2500    704.1779      2.9490    150.9626
  1293.0000      0.0000   -999.2500    707.1935      2.9666    141.0310
  1293.2500      0.0000   -999.2500    703.8845      3.0016    132.2926
  1293.5000      0.0000   -999.2500    694.8076      3.0658    124.4196
  1293.7500      0.0000   -999.2500    683.5438      3.1843    115.9430
  1294.0000      0.0000   -999.2500    674.8866      3.3710    106.6274
  1294.2500      0.0000   -999.2500    671.2198      3.6223     97.8073
  1294.5000      0.0000   -999.2500    671.0794      3.9291     90.7983
  1294.7500      0.0000   -999.2500    671.7857      4.2850     85.6848
  1295.0000      0.0000   -999.2500    672.2964      4.6870     81.7508
  1295.2500      0.0000   -999.2500    672.1654      5.1491     78.6202
  1295.5000      0.0000   -999.2500    669.1069      5.7087     76.6415
  1295.7500      0.0000   -999.2500    660.6490      6.3804     76.2939
  1296.0000      0.0000   -999.2500    649.4982      7.0880     77.5852
  1296.2500      0.0000   -999.2500    644.3788      7.6725     80.1858
  1296.5000      0.0000   -999.2500    651.9020      7.9982     84.1033
  1296.7500      0.0000   -999.2500    668.8352      8.0536     90.0129
  1297.0000      0.0000   -999.2500    685.4323      7.9475     98.5800
  1297.2500      0.0000   -999.2500    695.3914      7.8193    109.3608
  1297.5000      0.0000   -999.2500    700.4751      7.7425    120.5434
  1297.7500      0.0000   -999.2500    706.7621      7.6758    129.9666
  1298.0000      0.0000   -999.2500    718.3453      7.4986    136.3992
  1298.2500      0.0000   -999.2500    734.0523      7.1144    139.8357
  1298.5000      0.0000   -999.2500    748.5928      6.5345    140.8450
  1298.7500      0.0000   -999.2500    756.3294      5.8674    139.9827
  1299.0000      0.0000   -999.2500    754.9771      5.2457    137.6091
  1299.2500      0.0000   -999.2500    746.7878      4.7676    133.8432
  1299.5000      0.0000   -999.2500    736.6119      4.4736    128.7645
  1299.7500      0.0000   -999.2500    728.5047      4.3417    122.9001
  1300.0000      0.0000   -999.2500    723.7686      4.2914    117.3870
  1300.2500      0.0000   -999.2500    721.2606      4.2156    113.4630
  1300.5000      0.0000   -999.2500    718.7159      4.0394    111.8902
  1300.7500      0.0000   -999.2500    714.0350      3.7695    112.6903
  1301.0000      0.0000   -999.2500    706.0619      3.4839    114.9866
  1301.2500      0.0000   -999.2500    694.3010      3.2727    117.1094
  1301.5000      0.0000   -999.2500    677.9974      3.1857    117.4515
  1301.7500      0.0000   -999.2500    656.8660      3.2240    115.5963
  1302.0000      0.0000   -999.2500    633.9680      3.3624    112.3822
  1302.2500      0.0000   -999.2500    616.4446      3.5728    108.7836
  1302.5000      0.0000   -999.2500    609.9987      3.8328    104.9970
  1302.7500      0.0000   -999.2500    612.4579      4.1258    100.6345
  1303.0000      0.0000   -999.2500    616.4753      4.4468     95.4361
  1303.2500      0.0000   -999.2500    619.4071      4.8052     89.5826
  1303.5000      0.0000   -999.2500    625.8260      5.2174     83.6108
  1303.7500      0.0000   -999.2500    637.0012      5.6959     78.5193
  1304.0000      0.0000   -999.2500    641.6336      6.2394     75.7555
  1304.2500      0.0000   -999.2500    622.4214      6.8220     76.2186
  1304.5000      0.0000   -999.2500    572.5419      7.3926     78.9526
  1304.7500      0.0000   -999.2500    503.9507      7.9026     81.3685
  1305.0000      0.0000   -999.2500    439.3999      8.3401     81.1918
  1305.2500      0.0000   -999.2500    398.0519      8.7147     78.1232
