~Version Information
VERS.                      2.0: CWLS Log ASCII Standard - VERSION 2.0
WRAP.                       NO: One line per depth step
~Well Information Block
STRT.FT               275.0000: 
STOP.FT               811.2000: 
STEP.FT                 0.1000: 
NULL.                -999.2500: 
COMP.          Pioneer Natural Resources: COMPANY
WELL.          Barrelman 41-27: WELL
FLD.           Purgatoire River: FIELD
LOC.           371' FNL & 493' FEL--: LOCATION
PROV.                 Colorado: PROVINCE
CNTY.               Las Animas: COUNTRY
SRVC.                Patterson: SERVICE COMPANY
DATE.          Fri May 20 11:50:01 2005: LOG DATE
UWI.           05 071 08334 00: UNIQUE WELL ID
~Curve Information Block
DEPT.FT            0 000 00 00: Depth
DCAL.in                       : CDL Caliper
RHOB.g/cc                     : CDL Bulk Density
RHOC.g/cc                     : CDL Density Correction
DPOR.pu                       : CDL Density Porosity
NPOR.pu                       : Neutron Porosity
GR.GAPI                       : Gamma Ray
~Parameter Information Block
~A  Depth       DCAL        RHOB        RHOC        DPOR        NPOR         GR     
# ...
   745.4000      7.9121      2.3963      0.0438     15.3742     24.6729    127.7108
   745.5000      7.9108      2.4178      0.0741     14.0714     24.5810    125.1394
   745.6000      7.9108      2.4311      0.0573     13.2642     24.6651    122.2659
   745.7000      7.9108      2.4380      0.0607     12.8510     24.3882    120.6032
   745.8000      7.9100      2.4400      0.0977     12.7259     23.6170    116.2378
   745.9000      7.9100      2.4363      0.0490     12.9488     22.9311    113.1836
   746.0000      7.9107      2.4310      0.0593     13.2751     22.4466    116.0909
   746.1000      7.9107      2.4243      0.0617     13.6791     22.2106    124.0056
   746.2000      7.9107      2.4097      0.0743     14.5641     22.4896    133.9659
   746.3000      7.9119      2.3898      0.0199     15.7683     22.9055    138.8860
   746.4000      7.9119      2.3812      0.0424     16.2897     23.0366    136.3597
   746.5000      7.9126      2.3917      0.0518     15.6561     23.0767    132.5227
   746.6000      7.9126      2.4109      0.0677     14.4902     23.1630    128.7205
   746.7000      7.9126      2.4232      0.0876     13.7454     23.1451    123.0299
   746.8000      7.9133      2.4252      0.0550     13.6263     22.9110    118.4723
   746.9000      7.9133      2.4248      0.0900     13.6503     22.5723    116.6042
   747.0000      7.9133      2.4246      0.0771     13.6580     22.3983    117.6386
   747.1000      7.9133      2.4199      0.0974     13.9478     22.5028    120.8944
   747.2000      7.9133      2.4090      0.0668     14.6032     22.4983    121.1780
   747.3000      7.9129      2.4040      0.0345     14.9064     22.3942    120.1850
   747.4000      7.9129      2.4081      0.0504     14.6614     22.5804    124.9946
   747.5000      7.9125      2.4080      0.0688     14.6660     22.6905    130.1377
   747.6000      7.9125      2.4040      0.0426     14.9112     22.3968    128.0265
   747.7000      7.9125      2.4062      0.0572     14.7786     22.0876    123.9693
   747.8000      7.9132      2.4121      0.0707     14.4178     22.2121    122.4286
   747.9000      7.9132      2.4118      0.0776     14.4335     22.4801    119.5604
   748.0000      7.9130      2.4043      0.0387     14.8923     22.3024    116.5637
   748.1000      7.9130      2.3955      0.0583     15.4220     21.9319    119.2106
   748.2000      7.9130      2.3850      0.0320     16.0634     22.0422    127.1573
   748.3000      7.9109      2.3769      0.0174     16.5508     22.7565    134.5771
   748.4000      7.9109      2.3805      0.0452     16.3352     23.5238    135.2967
   748.5000      7.9105      2.3954      0.0243     15.4280     24.0800    129.1061
   748.6000      7.9105      2.4115      0.0755     14.4567     24.7043    122.5023
   748.7000      7.9105      2.4124      0.0628     14.3984     25.3688    117.4175
   748.8000      7.9110      2.4026      0.0231     14.9937     25.6484    112.4132
   748.9000      7.9110      2.4022      0.0392     15.0163     25.1052    110.2444
   749.0000      7.9091      2.4110      0.0696     14.4867     23.7639    110.1997
   749.1000      7.9091      2.4162      0.0448     14.1721     22.7249    108.4426
   749.2000      7.9091      2.4132      0.0713     14.3544     22.9348    105.2405
   749.3000      7.9034      2.4036      0.0377     14.9351     23.8095    103.0014
   749.4000      7.9034      2.4002      0.0398     15.1412     24.1487    101.7286
   749.5000      7.8962      2.4141      0.0335     14.2977     23.5864    100.4332
   749.6000      7.8962      2.4339      0.0914     13.0994     22.7425    102.2955
   749.7000      7.8962      2.4415      0.0806     12.6372     22.2138    107.0797
   749.8000      7.8913      2.4416      0.0574     12.6296     22.1839    109.2250
   749.9000      7.8913      2.4478      0.0556     12.2559     22.3602    108.0767
   750.0000      7.8890      2.4621      0.0645     11.3866     22.3449    104.9515
   750.1000      7.8890      2.4811      0.0630     10.2337     22.1315    103.8593
   750.2000      7.8890      2.4978      0.0651      9.2232     21.7427    108.8963
   750.3000      7.8889      2.5015      0.0791      8.9987     21.0206    113.1031
   750.4000      7.8889      2.4923      0.0532      9.5562     20.0037    109.8779
   750.5000      7.8899      2.4850      0.0175     10.0017     18.8872    106.6095
   750.6000      7.8899      2.4922      0.0239      9.5632     17.9431    110.3538
   750.7000      7.8899      2.5230      0.0317      7.6955     17.3944    116.8063
   750.8000      7.8903      2.5751      0.0749      4.5392     17.1291    119.3285
   750.9000      7.8903      2.6163      0.1043      2.0414     16.8852    114.9739
   751.0000      7.8893      2.6193      0.0713      1.8597     16.5903    103.7495
   751.1000      7.8893      2.5986      0.0589      3.1126     16.3492     89.1387
   751.2000      7.8893      2.5791      0.0630      4.2957     16.4917     79.3841
   751.3000      7.8867      2.5680      0.0563      4.9690     17.3578     82.3455
   751.4000      7.8867      2.5683      0.0732      4.9497     18.6135     93.3998
   751.5000      7.8857      2.5782      0.0633      4.3512     19.4628     97.8234
   751.6000      7.8857      2.5852      0.0785      3.9300     19.6188     93.8081
   751.7000      7.8857      2.5783      0.0596      4.3474     19.6501     92.6702
   751.8000      7.8900      2.5599      0.0626      5.4629     20.0264     97.5763
   751.9000      7.8900      2.5431      0.0164      6.4805     20.7052    101.3667
   752.0000      7.8967      2.5384      0.0313      6.7631     21.4625     98.3043
   752.1000      7.8967      2.5367      0.0746      6.8652     21.7889     93.6660
   752.2000      7.8967      2.5199      0.0796      7.8872     21.4550     96.5275
   752.3000      7.9015      2.4910      0.0431      9.6378     21.2792    104.5092
   752.4000      7.9015      2.4689      0.0164     10.9769     21.9221    109.9164
   752.5000      7.9085      2.4572      0.0420     11.6827     22.6713    110.1689
   752.6000      7.9085      2.4468      0.0154     12.3138     22.6942    106.2376
   752.7000      7.9085      2.4370      0.0257     12.9078     22.3746    100.9752
   752.8000      7.9146      2.4295      0.0462     13.3664     22.2138     97.3970
   752.9000      7.9146      2.4174      0.0622     14.0986     22.0230     95.6960
   753.0000      7.9158      2.3981      0.0504     15.2649     21.8313     94.5314
   753.1000      7.9158      2.3831      0.0416     16.1750     21.8257     94.1321
   753.2000      7.9158      2.3820      0.0236     16.2418     21.8917     96.3528
   753.3000      7.9164      2.3867      0.0580     15.9571     22.1167    103.1374
   753.4000      7.9164      2.3857      0.0627     16.0167     22.9286    114.7920
   753.5000      7.9179      2.3853      0.0540     16.0404     23.8696    128.0282
   753.6000      7.9179      2.3957      0.0393     15.4134     23.9326    136.2469
   753.7000      7.9179      2.4099      0.0793     14.5512     23.3492    135.2441
   753.8000      7.9173      2.4092      0.1005     14.5961     23.0017    127.2576
   753.9000      7.9173      2.3914      0.0498     15.6706     22.7577    116.1090
   754.0000      7.9163      2.3793      0.0282     16.4078     22.1902    107.7440
   754.1000      7.9163      2.3843      0.0445     16.1027     21.8901    106.8529
   754.2000      7.9163      2.3935      0.0608     15.5465     22.4771    110.2883
   754.3000      7.9176      2.3998      0.0117     15.1660     23.6588    114.1039
   754.4000      7.9176      2.4127      0.0335     14.3788     24.5968    118.0162
   754.5000      7.9192      2.4254      0.0972     13.6116     24.7351    119.8622
   754.6000      7.9192      2.4206      0.0621     13.9047     24.5751    120.2267
   754.7000      7.9192      2.4061      0.0647     14.7802     24.6991    119.7154
   754.8000      7.9185      2.3968      0.0581     15.3458     25.0933    115.8174
   754.9000      7.9185      2.3922      0.0434     15.6263     25.6850    111.9080
