~Version Information
VERS.                      2.0: CWLS Log ASCII Standard - VERSION 2.0
WRAP.                       NO: One line per depth step
~Well Information Block
STRT.FT               748.2500: 
STOP.FT              2498.5000: 
STEP.FT                 0.2500: 
NULL.                -999.2500: 
COMP.          Petrogulf Corporation: COMPANY
WELL.           Montoya 13-41V: WELL
FLD.           Purgatorie River: FIELD
LOC.           449' FNL & 891' FEL: LOCATION
CNTY.               Las Animas: COUNTY
SRVC.                         : SERVICE COMPANY
DATE.          Tue Aug 17 13:22:31 2004: LOG DATE
UWI.           05 071 08021 00: UNIQUE WELL ID
STAT.                 Colorado: STATE
~Curve Information Block
DEPT.FT            0 000 00 00: Depth
SP.mV                         : DIL Spontaneous Potential
RILD.Ohm-m                    : DIL Deep Resistivity
RILM.Ohm-m                    : DIL Medium Resistivity
RLL3.Ohm-m                    : DIL Shallow Resistivity
GR.GAPI                       : Gamma Ray
~Parameter Information Block
~A  Depth        SP         RILD        RILM        RLL3         GR     
# ...
  2456.2500     65.7992      9.1059      8.6816     14.9408    115.9905
  2456.5000     65.9791      9.0874      8.5563     12.7152    122.1636
  2456.7500     66.1482      9.0631      8.4987     11.4458    124.4942
  2457.0000     66.3096      9.0278      8.4968     11.4971    124.4413
  2457.2500     66.4651      8.9887      8.5365     12.6383    122.1588
  2457.5000     66.6149      8.9635      8.6052     14.1940    116.3076
  2457.7500     66.7574      8.9753      8.6948     15.3907    111.6887
  2458.0000     66.8893      9.0467      8.8041     15.7118    105.7627
  2458.2500     67.0073      9.1944      8.9388     15.0857    103.6408
  2458.5000     67.1082      9.4254      9.1099     13.8316    103.9319
  2458.7500     67.1894      9.7340      9.3302     12.4445    105.8885
  2459.0000     67.2485     10.1017      9.6110     11.3761    109.6198
  2459.2500     67.2829     10.4993      9.9587     10.9334    111.6119
  2459.5000     67.2900     10.8918     10.3721     11.3021    112.7394
  2459.7500     67.2674     11.2469     10.8400     12.6137    112.1049
  2460.0000     67.2138     11.5420     11.3401     14.9564    109.6817
  2460.2500     67.1303     11.7697     11.8398     18.2813    107.6465
  2460.5000     67.0209     11.9385     12.3001     22.2630    104.5686
  2460.7500     66.8925     12.0695     12.6827     26.2459    102.5415
  2461.0000     66.7541     12.1904     12.9598     29.3737     99.5705
  2461.2500     66.6153     12.3273     13.1212     30.8797     97.9105
  2461.5000     66.4841     12.4986     13.1776     30.3884     96.7777
  2461.7500     66.3651     12.7100     13.1561     28.0621     97.3822
  2462.0000     66.2575     12.9525     13.0927     24.5205    100.5133
  2462.2500     66.1550     13.2048     13.0238     20.5924    103.7825
  2462.5000     66.0467     13.4387     12.9793     17.0355    109.4368
  2462.7500     65.9193     13.6280     12.9801     14.3514    112.9600
  2463.0000     65.7607     13.7569     13.0366     12.7429    116.5734
  2463.2500     65.5624     13.8240     13.1497     12.1751    117.2043
  2463.5000     65.3226     13.8410     13.3121     12.4659    114.8398
  2463.7500     65.0464     13.8275     13.5102     13.3562    111.2677
  2464.0000     64.7457     13.8042     13.7268     14.5602    104.5416
  2464.2500     64.4372     13.7883     13.9436     15.8135    100.4330
  2464.5000     64.1395     13.7910     14.1442     16.9121     96.3947
  2464.7500     63.8695     13.8167     14.3167     17.7250     95.3708
  2465.0000     63.6397     13.8654     14.4545     18.1816     95.9227
  2465.2500     63.4555     13.9350     14.5569     18.2589     97.1606
  2465.5000     63.3152     14.0236     14.6272     17.9832     99.3451
  2465.7500     63.2112     14.1310     14.6716     17.4374    100.6579
  2466.0000     63.1332     14.2568     14.6970     16.7471    102.1824
  2466.2500     63.0715     14.3985     14.7100     16.0439    102.7769
  2466.5000     63.0196     14.5484     14.7165     15.4248    102.7559
  2466.7500     62.9766     14.6920     14.7213     14.9339    102.1516
  2467.0000     62.9464     14.8098     14.7280     14.5740    100.7708
  2467.2500     62.9365     14.8820     14.7387     14.3391     99.7605
  2467.5000     62.9554     14.8949     14.7543     14.2432     98.2274
  2467.7500     63.0103     14.8457     14.7738     14.3258     97.1459
  2468.0000     63.1040     14.7437     14.7949     14.6202     95.1555
  2468.2500     63.2332     14.6072     14.8143     15.1044     93.4116
  2468.5000     63.3877     14.4575     14.8277     15.6726     90.4997
  2468.7500     63.5508     14.3113     14.8304     16.1612     89.0046
  2469.0000     63.7016     14.1767     14.8170     16.4256     88.2023
  2469.2500     63.8190     14.0504     14.7806     16.4200     88.1422
  2469.5000     63.8866     13.9207     14.7129     16.2262     86.0516
  2469.7500     63.8963     13.7732     14.6049     16.0133     81.2239
  2470.0000     63.8508     13.5983     14.4481     15.9503     66.5673
  2470.2500     63.7628     13.3958     14.2376     16.1175     52.6202
  2470.5000     63.6519     13.1744     13.9751     16.4517     30.4846
  2470.7500     63.5407     12.9474     13.6701     16.7503     18.2983
  2471.0000     63.4494     12.7275     13.3397     16.7444      6.6811
  2471.2500     63.3924     12.5217     13.0054     16.2275      2.8779
  2471.5000     63.3761     12.3309     12.6891     15.1777      0.6222
  2471.7500     63.3992     12.1500     12.4092     13.7929      0.1856
  2472.0000     63.4540     11.9699     12.1785     12.4060      0.0214
  2472.2500     63.5298     11.7810     12.0023     11.3421      0.0030
  2472.5000     63.6153     11.5760     11.8797     10.8113   -999.2500
  2472.7500     63.7013     11.3533     11.8043     10.8762   -999.2500
  2473.0000     63.7823     11.1188     11.7660     11.4603   -999.2500
  2473.2500     63.8570     10.8849     11.7537     12.3668   -999.2500
  2473.5000     63.9279     10.6671     11.7562     13.3229   -999.2500
  2473.7500     64.0010     10.4792     11.7646     14.0753   -999.2500
  2474.0000     64.0845     10.3289     11.7721     14.5013   -999.2500
  2474.2500     64.1870     10.2164     11.7749     14.6486   -999.2500
  2474.5000     64.3154     10.1353     11.7706     14.6589   -999.2500
  2474.7500     64.4735     10.0756     11.7581     14.6361   -999.2500
  2475.0000     64.6604     10.0270     11.7364     14.5747   -999.2500
  2475.2500     64.8706      9.9819     11.7043     14.4037   -999.2500
  2475.5000     65.0939      9.9375     11.6598     14.0892   -999.2500
  2475.7500     65.3180      9.8958     11.6009     13.6880   -999.2500
  2476.0000     65.5293      9.8624     11.5257     13.3034   -999.2500
  2476.2500     65.7150      9.8437     11.4340     12.9964   -999.2500
  2476.5000     65.8645      9.8985     11.3273     12.7412   -999.2500
  2476.7500     65.9682      9.9725     11.2101     12.4575   -999.2500
  2477.0000     66.0203     10.0034     11.0886     12.0822   -999.2500
  2477.2500     66.0139     10.0371     10.9705     11.6207   -999.2500
  2477.5000     65.9356     10.0650     10.8636     11.1468   -999.2500
  2477.7500     65.7549     10.0852     10.7745     10.7611   -999.2500
  2478.0000     65.4088     10.1058     10.7081     10.5386   -999.2500
  2478.2500     64.7831     10.1474     10.6673     10.4948   -999.2500
  2478.5000     63.7001     10.2470     10.6523     10.5867   -999.2500
  2478.7500     61.9223     10.4632     10.6616     10.7504   -999.2500
  2479.0000     59.1868     10.8869     10.6911     10.9561   -999.2500
  2479.2500     55.2715     11.6579     10.7347     11.2474   -999.2500
  2479.5000     50.0824     12.9979     10.7842     11.7362   -999.2500
  2479.7500     43.7291     15.2821     10.8304     12.5390   -999.2500
  2480.0000     36.5521     19.2017     10.8646     13.6728   -999.2500
  2480.2500     29.0763     25.7423     10.8809     14.9641   -999.2500
  2480.5000     21.8981     38.4943     10.8782     16.0494   -999.2500
  2480.7500     15.5454     65.3827     10.8616     16.5165   -999.2500
  2481.0000     10.3640    136.1363     10.8427     16.1289   -999.2500
  2481.2500      6.4692    492.1925     10.8380     14.9814   -999.2500
  2481.5000      3.7712 100000.0000     10.8676     13.4658   -999.2500
  2481.7500      2.0487 100000.0000     10.9544     12.0665   -999.2500
  2482.0000      1.0353 100000.0000     11.1250     11.1346   -999.2500
  2482.2500      0.4858 100000.0000     11.4118     10.7770   -999.2500
  2482.5000      0.2112 100000.0000     11.8572     10.8891   -999.2500
  2482.7500      0.0847 100000.0000     12.5183     11.2714   -999.2500
  2483.0000      0.0311 100000.0000     13.4745     11.7448   -999.2500
  2483.2500      0.0101    509.2990     14.8379     12.2115   -999.2500
  2483.5000      0.0025    819.3566     16.7691     12.6477   -999.2500
  2483.7500   -999.2500   1682.9385     19.5003     13.0537   -999.2500
  2484.0000   -999.2500   8215.8271     23.3675     13.4016   -999.2500
