~Version Information
VERS.                      2.0: CWLS Log ASCII Standard - VERSION 2.0
WRAP.                       NO: One line per depth step
~Well Information Block
STRT.FT               858.7000: 
STOP.FT              2478.2000: 
STEP.FT                 0.1000: 
NULL.                -999.2500: 
COMP.          Petrogulf Corporation: COMPANY
WELL.           Torcom 17-33 V: WELL
FLD.           Purgatoire River: FIELD
LOC.           1544' FSL & 1746' FEL: LOCATION
PROV.                 Colorado: PROVINCE
CNTY.               Las Animas: COUNTRY
SRVC.                Patterson: SERVICE COMPANY
DATE.          Wed Dec 03 09:22:08 2003: LOG DATE
UWI.                          : UNIQUE WELL ID
~Curve Information Block
DEPT.FT            0 000 00 00: Depth
DCAL.in                       : CDL Caliper
RHOB.g/cc                     : CDL Bulk Density
RHOC.g/cc                     : CDL Density Correction
DPOR.pu                       : CDL Density Porosity
GR.GAPI                       : Gamma Ray
NPOR.pu                       : Neutron Porosity
~Parameter Information Block
~A  Depth       DCAL        RHOB        RHOC        DPOR         GR         NPOR    
# ...
  1521.1000      8.3157      2.5581      0.0883      5.5711    153.8614     22.2146
  1521.2000      8.3157      2.5330      0.0989      7.0939    156.4406     22.5549
  1521.3000      8.2909      2.5127      0.1620      8.3239    158.7000     22.7334
  1521.4000      8.2909      2.4913      0.0863      9.6192    161.3793     22.8545
  1521.5000      8.2473      2.4729      0.1100     10.7353    164.7584     23.3629
  1521.6000      8.2473      2.4528      0.1548     11.9528    169.4447     24.3479
  1521.7000      8.2473      2.4258      0.0694     13.5857    178.4256     25.3064
  1521.8000      8.2687      2.4058      0.0201     14.7983    186.0863     25.6535
  1521.9000      8.2687      2.4026      0.0530     14.9930    182.8122     25.5047
  1522.0000      8.3042      2.3974      0.0877     15.3090    174.6550     25.3486
  1522.1000      8.3042      2.3726      0.1149     16.8148    174.6896     25.3616
  1522.2000      8.3042      2.3544      0.0350     17.9174    178.7688     25.2975
  1522.3000      8.3805      2.3665      0.2059     17.1830    175.2483     25.0719
  1522.4000      8.3805      2.3914      0.1872     15.6712    167.1572     24.8794
  1522.5000      8.3555      2.4273      0.1738     13.4979    160.5046     24.7488
  1522.6000      8.3555      2.4883      0.2831      9.7990    149.5305     24.5416
  1522.7000      8.3555      2.5574      0.3426      5.6125    136.8949     24.3426
  1522.8000      8.2726      2.6082      0.3208      2.5335    134.5991     24.2418
  1522.9000      8.2726      2.6338      0.3547      0.9794    139.1999     23.8814
  1523.0000      8.1785      2.6304      0.4703      1.1906    140.7850     23.3357
  1523.1000      8.1785      2.6076      0.3318      2.5686    139.4282     23.4163
  1523.2000      8.1785      2.6013      0.2073      2.9526    138.2964     24.0040
  1523.3000      8.1555      2.6099      0.3260      2.4325    138.3963     24.3963
  1523.4000      8.1555      2.5885      0.2050      3.7290    140.2650     24.8220
  1523.5000      8.1671      2.5366      0.1050      6.8732    146.7850     25.6349
  1523.6000      8.1671      2.5005      0.1278      9.0621    157.1258     26.3438
  1523.7000      8.1671      2.5098      0.1175      8.4999    163.2514     26.5715
  1523.8000      8.1864      2.5583      0.1796      5.5568    163.0900     26.7974
  1523.9000      8.1864      2.6129      0.3053      2.2499    160.4036     27.2332
  1524.0000      8.1152      2.6413      0.2855      0.5257    156.4588     27.4752
  1524.1000      8.1152      2.6413      0.2287      0.5246    151.8365     27.4960
  1524.2000      8.1152      2.6283      0.1501      1.3171    148.7407     27.3815
  1524.3000      8.1002      2.6127      0.1672      2.2628    148.1709     27.1760
  1524.4000      8.1002      2.5935      0.1200      3.4225    148.7268     27.2348
  1524.5000      8.1462      2.5730      0.0460      4.6653    150.6667     27.6558
  1524.6000      8.1462      2.5672      0.0130      5.0164    150.9350     28.0990
  1524.7000      8.1462      2.5772      0.0691      4.4129    148.9137     28.1672
  1524.8000      8.1656      2.5815      0.0405      4.1519    151.4620     27.8484
  1524.9000      8.1656      2.5751      0.0560      4.5393    158.0212     27.6076
  1525.0000      8.1980      2.5688      0.0730      4.9229    158.2813     27.6309
  1525.1000      8.1980      2.5677      0.0451      4.9853    150.2300     27.4147
  1525.2000      8.1980      2.5709      0.0888      4.7969    141.9275     26.8221
  1525.3000      8.1949      2.5739      0.0600      4.6145    137.7399     26.5600
  1525.4000      8.1949      2.5778      0.0506      4.3731    137.8637     26.8409
  1525.5000      8.1983      2.5895      0.0508      3.6681    142.8915     26.9017
  1525.6000      8.1983      2.6075      0.0773      2.5763    148.3002     26.2756
  1525.7000      8.1983      2.6221      0.0843      1.6884    147.7390     25.4504
  1525.8000      8.2109      2.6264      0.1261      1.4298    144.0249     24.8585
  1525.9000      8.2109      2.6113      0.1220      2.3455    144.3582     24.7122
  1526.0000      8.1961      2.5847      0.0010      3.9561    146.7569     24.9145
  1526.1000      8.1961      2.5734      0.0749      4.6433    144.9120     24.7164
  1526.2000      8.1961      2.5814      0.0498      4.1566    141.9982     23.9205
  1526.3000      8.1686      2.5910      0.0387      3.5778    142.9276     23.1482
  1526.4000      8.1686      2.5876      0.0505      3.7822    147.8409     22.5655
  1526.5000      8.1695      2.5621      0.0697      5.3277    155.9494     21.7780
  1526.6000      8.1695      2.5108      0.1022      8.4375    159.9222     20.4914
  1526.7000      8.1695      2.4550     -0.0080     11.8177    153.5010     18.4821
  1526.8000      8.1804      2.4341      0.0223     13.0869    144.6910     15.8942
  1526.9000      8.1804      2.4572      0.0786     11.6854    146.6111     13.6185
  1527.0000      8.2136      2.4942      0.0567      9.4437    162.8627     12.4551
  1527.1000      8.2136      2.5117      0.0847      8.3830    177.4664     12.5391
  1527.2000      8.2136      2.5004      0.0783      9.0696    173.4519     13.6264
  1527.3000      8.2698      2.4687      0.1244     10.9886    158.3954     15.4232
  1527.4000      8.2698      2.4248      0.1050     13.6467    149.5133     17.5145
  1527.5000      8.2905      2.3741      0.1591     16.7237    149.3295     19.6396
  1527.6000      8.2905      2.3172      0.1701     20.1683    150.0922     21.7660
  1527.7000      8.2905      2.2480      0.1751     24.3621    149.0521     23.4239
  1527.8000      8.2783      2.1688      0.0581     29.1629    146.1699     24.3410
  1527.9000      8.2783      2.1057      0.0445     32.9879    141.9123     25.4632
  1528.0000      8.2732      2.0806      0.0643     34.5089    138.6795     27.1358
  1528.1000      8.2732      2.0919      0.1338     33.8272    135.6744     28.1353
  1528.2000      8.2732      2.1266      0.2020     31.7209    130.9145     28.0762
  1528.3000      8.2710      2.1720      0.2301     28.9692    126.9718     27.5247
  1528.4000      8.2710      2.2281      0.2405     25.5725    125.9826     26.6943
  1528.5000      8.2770      2.3150      0.2633     20.3027    125.5254     25.6942
  1528.6000      8.2770      2.4495      0.3325     12.1542    124.0552     24.5953
  1528.7000      8.2770      2.6078      0.3712      2.5575    118.3814     23.5410
  1528.8000      8.1894      2.7183      0.3845     -4.1418    112.2905     22.7441
  1528.9000      8.1894      2.7257      0.2371     -4.5848    118.3542     22.6921
  1529.0000      8.1500      2.6638      0.1283     -0.8356    132.8711     23.5316
  1529.1000      8.1500      2.6092      0.1302      2.4755    139.1718     24.4347
  1529.2000      8.1500      2.5936      0.0969      3.4158    136.1800     24.5253
  1529.3000      8.1365      2.5976      0.1347      3.1744    133.6999     23.7748
  1529.4000      8.1365      2.5945      0.0709      3.3634    136.0569     22.8490
  1529.5000      8.1467      2.5814      0.0764      4.1604    140.8769     22.2551
  1529.6000      8.1467      2.5699      0.0606      4.8544    143.7895     22.1219
  1529.7000      8.1467      2.5746      0.0756      4.5709    144.9433     22.4314
  1529.8000      8.1589      2.5947      0.0967      3.3506    146.9600     23.0669
  1529.9000      8.1589      2.6105      0.1197      2.3966    150.1591     23.6411
  1530.0000      8.1713      2.6151      0.1239      2.1145    153.7829     23.7751
  1530.1000      8.1713      2.6232      0.1165      1.6240    157.5869     23.6876
  1530.2000      8.1713      2.6397      0.1898      0.6231    161.0531     23.5854
  1530.3000      8.1858      2.6510      0.1920     -0.0580    162.4038     23.4235
  1530.4000      8.1858      2.6482      0.2184      0.1092    162.4463     23.6619
  1530.5000      8.1594      2.6276      0.1562      1.3570    162.2639     24.7061
  1530.6000      8.1594      2.5872      0.1545      3.8086    159.7217     26.0732
