~Version Information
VERS.                      2.0: CWLS Log ASCII Standard - VERSION 2.0
WRAP.                       NO: One line per depth step
~Well Information Block
STRT.FT               423.0000: 
STOP.FT              2308.2500: 
STEP.FT                 0.2500: 
NULL.                -999.2500: 
COMP.          Pioneer Natural Resources: COMPANY
WELL.             Culver 14-12: WELL
FLD.           Purgatoire River: FIELD
LOC.           913' FSL & 1140' FWL: LOCATION
PROV.                 Colorado: PROVINCE
CNTY.               Las Animas: COUNTRY
SRVC.                Patterson: SERVICE COMPANY
DATE.          Tue Jun 07 00:21:41 2005: LOG DATE
UWI.           05 071 08386 00: UNIQUE WELL ID
~Curve Information Block
DEPT.FT            0 000 00 00: Depth
SN.Ohm-m                      : IEL Short Normal
SP.mV                         : IEL Spontaneous Potential
DIR.Ohm-m                     : IEL Induction Resistivity
GR.GAPI                       : Gamma Ray
~Parameter Information Block
~A  Depth        SN          SP         DIR          GR     
   423.0000   2000.0000   2000.0000    159.3329    111.7746
   423.2500   2000.0000   2000.0000    156.6440    108.7862
   423.5000   2000.0000   2000.0000    154.4075    104.4224
   423.7500   2000.0000   2000.0000    153.0016    101.7291
   424.0000   2000.0000   2000.0000    151.8875     97.2701
   424.2500   2000.0000   2000.0000    150.3369     93.4313
   424.5000   2000.0000   2000.0000    148.2361     86.3529
   424.7500   2000.0000   2000.0000    146.2522     81.4756
   425.0000   2000.0000   2000.0000    145.3058     75.3469
   425.2500   2000.0000   2000.0000    145.8879     72.3315
   425.5000   2000.0000   2000.0000    147.7198     68.8261
   425.7500   2000.0000   2000.0000    149.8857     66.6761
   426.0000   2000.0000   2000.0000    151.3971     63.4884
   426.2500   2000.0000   2000.0000    151.8127     61.6320
   426.5000   2000.0000   2000.0000    151.4166     59.7674
   426.7500   2000.0000   2000.0000    150.8798     59.2907
   427.0000   2000.0000   2000.0000    150.8931     59.8256
   427.2500   2000.0000   2000.0000    152.0304     60.9655
   427.5000   2000.0000   2000.0000    154.6789     63.1786
   427.7500   2000.0000   2000.0000    158.8072     64.2667
   428.0000   2000.0000   2000.0000    163.5681     64.3802
   428.2500   2000.0000   2000.0000    167.1185     63.5090
   428.5000   2000.0000   2000.0000    167.2804     61.6523
   428.7500   2000.0000   2000.0000    163.1182     60.4414
   429.0000   2000.0000   2000.0000    155.9095     58.6684
   429.2500   2000.0000   2000.0000    148.2467     57.3698
   429.5000   2000.0000   2000.0000    142.3524     55.2220
   429.7500   2000.0000   2000.0000    139.2859     53.7132
   430.0000   2000.0000   2000.0000    139.0758     51.2906
   430.2500   2000.0000   2000.0000    141.2257     49.5292
   430.5000   2000.0000   2000.0000    145.2135     46.8850
   430.7500   2000.0000   2000.0000    150.7403     45.4268
   431.0000   2000.0000   2000.0000    157.3930     44.2289
   431.2500   2000.0000   2000.0000    163.7799     44.2195
   431.5000   2000.0000   2000.0000    167.1166     45.1686
   431.7500   2000.0000   2000.0000    164.7977     46.1393
   432.0000   2000.0000   2000.0000    157.2824     47.5756
   432.2500   2000.0000   2000.0000    148.2012     48.3486
   432.5000   2000.0000   2000.0000    141.2886     49.2592
   432.7500   2000.0000   2000.0000    138.2953     49.8423
   433.0000   2000.0000   2000.0000    139.0714     50.9507
   433.2500   2000.0000   2000.0000    142.3427     52.0046
   433.5000   2000.0000   2000.0000    146.4268     54.3278
   433.7500   2000.0000   2000.0000    149.7391     56.2918
   434.0000   2000.0000   2000.0000    151.0319     58.8835
   434.2500   2000.0000   2000.0000    149.4461     59.6342
   434.5000   2000.0000   2000.0000    144.6873     58.9826
   434.7500   2000.0000   2000.0000    137.3367     57.8937
   435.0000   2000.0000   2000.0000    128.8772     56.3332
   435.2500   2000.0000   2000.0000    121.1819     55.5382
   435.5000   2000.0000   2000.0000    115.6615     54.6106
   435.7500   2000.0000   2000.0000    112.6154     54.2179
   436.0000   2000.0000   2000.0000    110.8868     54.1821
   436.2500   2000.0000   2000.0000    108.1253     54.4163
   436.5000   2000.0000   2000.0000    102.0861     54.5777
   436.7500   2000.0000   2000.0000     92.4472     54.3596
   437.0000   2000.0000   2000.0000     81.0272     53.7597
   437.2500   2000.0000   2000.0000     70.2621     53.4385
   437.5000   2000.0000   2000.0000     62.0361     53.3694
   437.7500   2000.0000   2000.0000     57.6625     53.6346
   438.0000   2000.0000   2000.0000     58.6042     54.2282
   438.2500   2000.0000   2000.0000     68.2166     54.4001
   438.5000   2000.0000   2000.0000     98.0195     53.8339
   438.7500   2000.0000   2000.0000    215.8053     52.9471
   439.0000   2000.0000   2000.0000 100000.0000     51.2878
   439.2500   2000.0000   2000.0000 100000.0000     50.1146
   439.5000   2000.0000   2000.0000 100000.0000     48.2352
   439.7500   2000.0000   2000.0000 100000.0000     46.9404
   440.0000   2000.0000   2000.0000 100000.0000     45.3215
   440.2500   2000.0000   2000.0000 100000.0000     44.7553
   440.5000   2000.0000   2000.0000 100000.0000     44.9339
   440.7500   2000.0000   2000.0000 100000.0000     45.6712
   441.0000   2000.0000   2000.0000 100000.0000     47.4775
   441.2500   2000.0000   2000.0000 100000.0000     49.1043
   441.5000   2000.0000   2000.0000 100000.0000     52.2537
   441.7500   2000.0000   2000.0000 100000.0000     54.8800
   442.0000   2000.0000   2000.0000 100000.0000     59.7702
   442.2500   2000.0000   2000.0000 100000.0000     63.7982
   442.5000   2000.0000   2000.0000 100000.0000     70.9134
   442.7500   2000.0000   2000.0000 100000.0000     76.0121
   443.0000   2000.0000   2000.0000 100000.0000     83.5570
   443.2500   2000.0000   2000.0000 100000.0000     88.6700
   443.5000   2000.0000   2000.0000 100000.0000     97.6296
   443.7500   2000.0000   2000.0000 100000.0000     97.9351
   444.0000   2000.0000   2000.0000 100000.0000    109.0902
   444.2500   2000.0000   2000.0000 100000.0000    115.7630
   444.5000   2000.0000   2000.0000 100000.0000    122.7255
   444.7500   2000.0000   2000.0000 100000.0000    116.5966
   445.0000   2000.0000   2000.0000 100000.0000    120.5182
   445.2500   2000.0000   2000.0000      9.6849    124.6709
   445.5000   2000.0000   2000.0000      4.7136    133.7278
   445.7500   2000.0000   2000.0000      3.5012    129.6280
   446.0000   2000.0000   2000.0000      3.2115    137.0922
   446.2500   2000.0000   2000.0000      3.3559    139.8652
   446.5000   2000.0000   2000.0000      3.8129    140.6752
   446.7500   2000.0000   2000.0000      4.6049    127.9766
   447.0000   2000.0000   2000.0000      5.9348    125.7025
   447.2500   2000.0000   2000.0000      8.3895    124.3871
   447.5000   2000.0000   2000.0000     13.5540    123.2581
   447.7500   2000.0000   2000.0000     25.8176    111.7103
   448.0000   2000.0000   2000.0000     52.3944    111.1556
   448.2500   2000.0000   2000.0000     65.5418    110.5826
   448.5000   2000.0000   2000.0000     43.4236    109.4114
   448.7500   2000.0000   2000.0000     27.9292    108.4199
   449.0000   2000.0000   2000.0000     20.9871    106.4344
   449.2500   2000.0000   2000.0000     18.0168    104.6392
   449.5000   2000.0000   2000.0000     16.8988    101.3048
   449.7500   2000.0000   2000.0000     16.7136     98.9694
   450.0000   2000.0000   2000.0000     17.0382     96.0307
   450.2500   2000.0000   2000.0000     17.6727     94.7149
   450.5000   2000.0000   2000.0000     18.5266     93.7263
   450.7500   2000.0000   2000.0000     19.6113     93.5567
   451.0000   2000.0000   2000.0000     21.0870     93.5275
   451.2500   2000.0000   2000.0000     23.2704     93.2869
   451.5000   2000.0000   2000.0000     26.5281     92.1861
   451.7500   2000.0000   2000.0000     30.9853     91.0021
   452.0000   2000.0000   2000.0000     36.0166     89.0387
   452.2500   2000.0000   2000.0000     40.0048     88.1178
   452.5000   2000.0000   2000.0000     41.4421     88.6630
   452.7500   2000.0000   2000.0000     40.4463     91.1219
   453.0000   2000.0000   2000.0000     38.2373     98.2879
   453.2500   2000.0000   2000.0000     35.7410    104.5695
   453.5000   2000.0000   2000.0000     33.2787    113.7000
   453.7500   2000.0000   2000.0000     30.9311    118.2154
   454.0000   2000.0000   2000.0000     28.8111    121.4065
   454.2500   2000.0000   2000.0000     27.0778    121.0741
   454.5000   2000.0000   2000.0000     25.8340    117.4099
   454.7500   2000.0000   2000.0000     25.0688    113.4169
   455.0000   2000.0000   2000.0000     24.6782    106.4324
   455.2500   2000.0000   2000.0000     24.5309    101.9921
   455.5000   2000.0000   2000.0000     24.5297     96.8761
   455.7500   2000.0000   2000.0000     24.6344     94.8070
   456.0000   2000.0000   2000.0000     24.8388     93.5180
   456.2500   2000.0000   2000.0000     25.1340     93.4774
