~Version Information
VERS.                      2.0: CWLS Log ASCII Standard - VERSION 2.0
WRAP.                       NO: One line per depth step
~Well Information Block
STRT.FT               742.5000: 
STOP.FT              2463.5000: 
STEP.FT                 0.2500: 
NULL.                -999.2500: 
COMP.          Petrogulf Corporation: COMPANY
WELL.           Montoya 12-44V: WELL
FLD.           Purgatorie River: FIELD
LOC.           698' FSL & 599' FEL: LOCATION
CNTY.               Las Animas: COUNTY
SRVC.                         : SERVICE COMPANY
DATE.          Sun Aug 08 06:43:17 2004: LOG DATE
UWI.           05 071 08094 00: UNIQUE WELL ID
STAT.                 Colorado: STATE
~Curve Information Block
DEPT.FT            0 000 00 00: Depth
SN.Ohm-m                      : IEL Short Normal
SP.mV                         : IEL Spontaneous Potential
DIR.Ohm-m                     : IEL Induction Resistivity
GR.GAPI                       : Gamma Ray
~Parameter Information Block
~A  Depth        SN          SP         DIR          GR     
# ...
  1982.0000     15.6146    -71.4675     14.2242    151.6226
  1982.2500     15.3150    -70.2882     13.9573    151.9217
  1982.5000     15.1254    -69.3390     13.7114    151.5037
  1982.7500     14.9891    -68.7006     13.4972    150.9701
  1983.0000     14.8678    -68.4315     13.3269    149.8736
  1983.2500     14.7637    -68.5461     13.2143    148.9254
  1983.5000     14.7171    -68.9960     13.1733    147.5653
  1983.7500     14.7776    -69.6723     13.2145    146.9930
  1984.0000     14.9686    -70.4276     13.3414    146.2721
  1984.2500     15.2681    -71.1133     13.5490    145.1597
  1984.5000     15.6214    -71.6187     13.8199    141.7696
  1984.7500     15.9737    -71.8961     14.1208    138.7128
  1985.0000     16.2951    -71.9646     14.4094    134.2948
  1985.2500     16.5820    -71.8926     14.6522    132.0400
  1985.5000     16.8410    -71.7634     14.8384    129.7339
  1985.7500     17.0728    -71.6431     14.9693    128.3958
  1986.0000     17.2642    -71.5689     15.0345    125.4009
  1986.2500     17.3875    -71.5479     15.0065    122.3982
  1986.5000     17.4071    -71.5727     14.8698    117.3233
  1986.7500     17.2904    -71.6365     14.6547    114.6494
  1987.0000     17.0223    -71.7411     14.4290    113.2199
  1987.2500     16.6135    -71.8913     14.2472    114.4345
  1987.5000     16.0998    -72.0820     14.1054    119.6386
  1987.7500     15.5341    -72.2933     13.9464    124.9709
  1988.0000     14.9750    -72.4856     13.7124    134.3226
  1988.2500     14.4737    -72.6053     13.3972    140.4901
  1988.5000     14.0587    -72.5959     13.0446    148.2321
  1988.7500     13.7268    -72.4045     12.7060    151.7716
  1989.0000     13.4509    -71.9924     12.4057    154.2754
  1989.2500     13.2031    -71.3379     12.1436    154.5536
  1989.5000     12.9800    -70.4358     11.9169    154.7497
  1989.7500     12.8076    -69.3082     11.7358    155.7735
  1990.0000     12.7228    -67.9949     11.6166    158.9967
  1990.2500     12.7466    -66.5555     11.5629    161.5436
  1990.5000     12.8684    -65.0612     11.5530    164.3799
  1990.7500     13.0512    -63.5820     11.5451    165.1249
  1991.0000     13.2488    -62.1833     11.5012    164.2527
  1991.2500     13.4235    -60.9245     11.4118    162.2100
  1991.5000     13.5532    -59.8613     11.3055    157.1700
  1991.7500     13.6304    -59.0532     11.2335    153.2943
  1992.0000     13.6574    -58.5612     11.2418    148.8299
  1992.2500     13.6465    -58.4441     11.3474    147.5706
  1992.5000     13.6180    -58.7488     11.5311    147.8512
  1992.7500     13.5953    -59.4982     11.7475    148.5038
  1993.0000     13.5973    -60.6844     11.9497    148.8501
  1993.2500     13.6315    -62.2610     12.1140    148.4507
  1993.5000     13.6918    -64.1479     12.2499    146.6954
  1993.7500     13.7602    -66.2430     12.3943    144.4536
  1994.0000     13.8185    -68.4320     12.5950    139.7099
  1994.2500     13.8623    -70.6015     12.8896    136.6703
  1994.5000     13.9104    -72.6468     13.2792    134.4417
  1994.7500     13.9987    -74.4783     13.7091    134.8482
  1995.0000     14.1627    -76.0256     14.0794    136.8826
  1995.2500     14.4179    -77.2430     14.2954    137.9462
  1995.5000     14.7519    -78.1139     14.3289    137.6855
  1995.7500     15.1290    -78.6549     14.2295    136.1974
  1996.0000     15.5037    -78.9151     14.0779    133.0848
  1996.2500     15.8307    -78.9654     13.9309    131.3777
  1996.5000     16.0694    -78.8830     13.8004    130.4512
  1996.7500     16.1872    -78.7297     13.6696    130.8764
  1997.0000     16.1696    -78.5379     13.5272    132.0613
  1997.2500     16.0315    -78.3034     13.3930    132.4987
  1997.5000     15.8173    -77.9934     13.3145    132.0173
  1997.7500     15.5875    -77.5659     13.3395    131.1172
  1998.0000     15.3996    -76.9903     13.4852    129.5685
  1998.2500     15.2962    -76.2692     13.7208    128.5964
  1998.5000     15.3047    -75.4459     13.9766    127.2476
  1998.7500     15.4413    -74.5971     14.1820    126.5958
  1999.0000     15.7159    -73.8231     14.3143    126.7291
  1999.2500     16.1368    -73.2187     14.4158    127.8845
  1999.5000     16.7225    -72.8541     14.5633    130.8590
  1999.7500     17.5140    -72.7629     14.8248    132.8908
  2000.0000     18.5780    -72.9398     15.2460    134.3096
  2000.2500     19.9913    -73.3511     15.8629    133.3806
  2000.5000     21.8126    -73.9482     16.7160    128.6321
  2000.7500     24.0558    -74.6790     17.8479    123.4612
  2001.0000     26.6768    -75.4885     19.2927    114.0736
  2001.2500     29.5773    -76.3132     21.0576    108.0341
  2001.5000     32.6234    -77.0792     23.0856    101.5156
  2001.7500     35.6728    -77.7070     25.1922     99.3903
  2002.0000     38.6056    -78.1279     27.0517     98.6377
  2002.2500     41.3488    -78.3068     28.3608     98.7364
  2002.5000     43.8855    -78.2621     29.1122     98.5521
  2002.7500     46.2446    -78.0643     29.6573     97.9805
  2003.0000     48.4753    -77.8162     30.4634     96.3111
  2003.2500     50.6190    -77.6149     31.8526     94.5156
  2003.5000     52.6911    -77.5157     33.9082     90.7319
  2003.7500     54.6752    -77.5104     36.5006     87.6891
  2004.0000     56.5288    -77.5291     39.3618     82.8138
  2004.2500     58.1931    -77.4692     42.1507     79.5428
  2004.5000     59.6048    -77.2419     44.4599     74.9745
  2004.7500     60.7078    -76.8088     45.8244     72.4942
  2005.0000     61.4637    -76.2000     45.8700     69.9858
  2005.2500     61.8540    -75.5085     44.5877     68.9276
  2005.5000     61.8683    -74.8551     42.4168     67.5253
  2005.7500     61.4834    -74.3504     39.9807     66.4703
  2006.0000     60.6556    -74.0576     37.7376     64.7793
  2006.2500     59.3327    -73.9762     35.8337     63.6628
  2006.5000     57.4818    -74.0539     34.1785     62.1082
  2006.7500     55.1170    -74.2162     32.5991     61.4258
  2007.0000     52.3172    -74.3979     30.9814     61.9329
  2007.2500     49.2285    -74.5725     29.3325     63.9747
  2007.5000     46.0446    -74.7577     27.7430     70.4394
  2007.7500     42.9605    -75.0047     26.3147     77.0664
  2008.0000     40.1196    -75.3680     25.1148     89.3043
  2008.2500     37.5843    -75.8808     24.1684     97.6089
  2008.5000     35.3509    -76.5307     23.4533    107.8445
  2008.7500     33.3950    -77.2602     22.8907    112.4448
  2009.0000     31.7095    -77.9824     22.3620    116.3682
  2009.2500     30.3110    -78.6143     21.7777    117.9604
  2009.5000     29.2184    -79.1082     21.1561    120.8822
  2009.7500     28.4324    -79.4738     20.6259    123.9675
  2010.0000     27.9281    -79.7745     20.3376    130.0341
  2010.2500     27.6630    -80.1059     20.3625    134.1253
  2010.5000     27.5915    -80.5598     20.6499    138.8856
  2010.7500     27.6888    -81.1829     21.0595    141.0666
  2011.0000     27.9865    -81.9613     21.4595    143.8210
  2011.2500     28.6065    -82.8145     21.8247    145.4561
  2011.5000     29.7668    -83.6190     22.2403    145.4995
  2011.7500     31.7270    -84.2402     22.7932    141.8640
  2012.0000     34.6621    -84.5646     23.4492    128.9915
  2012.2500     38.4986    -84.5205     24.0020    116.3484
  2012.5000     42.7956    -84.0815     24.1660     95.4764
  2012.7500     46.7683    -83.2587     23.7888     82.9117
  2013.0000     49.4920    -82.0902     22.9872     68.7594
  2013.2500     50.2218    -80.6335     22.0369     62.7949
  2013.5000     48.6779    -78.9612     21.1561     58.8482
  2013.7500     45.1495    -77.1631     20.4009     59.5855
  2014.0000     40.3642    -75.3459     19.7022     65.8371
  2014.2500     35.1995    -73.6240     18.9661     73.0585
  2014.5000     30.3869    -72.1030     18.1549     86.8943
  2014.7500     26.3419    -70.8613     17.2962     96.9289
  2015.0000     23.1603    -69.9346     16.4315    111.2660
  2015.2500     20.7300    -69.3131     15.5761    119.5196
