~Version Information
VERS.                      2.0: CWLS Log ASCII Standard - VERSION 2.0
WRAP.                       NO: One line per depth step
~Well Information Block
STRT.FT               830.0000: 
STOP.FT              3122.7500: 
STEP.FT                 0.2500: 
NULL.                -999.2500: 
COMP.          Pioneer Natural Resources: COMPANY
WELL.              Stones 24-8: WELL
FLD.           Purgatoire River: FIELD
LOC.           648' FSL & 2264' FWL: LOCATION
PROV.                 Colorado: PROVINCE
CNTY.               Las Animas: COUNTRY
SRVC.                Patterson: SERVICE COMPANY
DATE.          Wed Jan 19 12:44:32 2005: LOG DATE
UWI.           05 071 07945 00: UNIQUE WELL ID
~Curve Information Block
DEPT.FT            0 000 00 00: Depth
SN.Ohm-m                      : IEL Short Normal
SP.mV                         : IEL Spontaneous Potential
DIR.Ohm-m                     : IEL Induction Resistivity
GR.GAPI                       : Gamma Ray
~Parameter Information Block
~A  Depth        SN          SP         DIR          GR     
   830.0000   2000.0000   2000.0000 100000.0000     54.0512
   830.2500   2000.0000   2000.0000 100000.0000     52.6030
   830.5000   2000.0000   2000.0000 100000.0000     50.0971
   830.7500   2000.0000   2000.0000 100000.0000     48.4463
   831.0000   2000.0000   2000.0000 100000.0000     46.2634
   831.2500   2000.0000   2000.0000 100000.0000     44.8886
   831.5000   2000.0000   2000.0000 100000.0000     42.5726
   831.7500   2000.0000   2000.0000 100000.0000     40.8740
   832.0000   2000.0000   2000.0000 100000.0000     38.6764
   832.2500   2000.0000   2000.0000 100000.0000     37.8888
   832.5000   2000.0000   2000.0000 100000.0000     38.1863
   832.7500   2000.0000   2000.0000 100000.0000     39.3303
   833.0000   2000.0000   2000.0000 100000.0000     41.8498
   833.2500   2000.0000   2000.0000 100000.0000     43.4974
   833.5000   2000.0000   2000.0000 100000.0000     45.0228
   833.7500   2000.0000   2000.0000 100000.0000     45.2095
   834.0000   2000.0000   2000.0000 100000.0000     44.6084
   834.2500   2000.0000   2000.0000 100000.0000     44.0731
   834.5000   2000.0000   2000.0000 100000.0000     43.9118
   834.7500   2000.0000   2000.0000 100000.0000     44.7031
   835.0000   2000.0000   2000.0000 100000.0000     47.8416
   835.2500   2000.0000   2000.0000 100000.0000     51.2897
   835.5000   2000.0000   2000.0000 100000.0000     57.9208
   835.7500   2000.0000   2000.0000 100000.0000     62.6496
   836.0000   2000.0000   2000.0000 100000.0000     68.7629
   836.2500   2000.0000   2000.0000 100000.0000     71.3899
   836.5000   2000.0000   2000.0000 100000.0000     72.4766
   836.7500   2000.0000   2000.0000 100000.0000     71.5941
   837.0000   2000.0000   2000.0000 100000.0000     69.4295
   837.2500   2000.0000   2000.0000 100000.0000     68.3841
   837.5000   2000.0000   2000.0000 100000.0000     67.9154
   837.7500   2000.0000   2000.0000 100000.0000     67.8548
   838.0000   2000.0000   2000.0000 100000.0000     66.9982
   838.2500   2000.0000   2000.0000 100000.0000     65.6763
   838.5000   2000.0000   2000.0000 100000.0000     63.1341
   838.7500   2000.0000   2000.0000 100000.0000     61.6451
   839.0000   2000.0000   2000.0000 100000.0000     60.4744
   839.2500   2000.0000   2000.0000 100000.0000     60.5674
   839.5000   2000.0000   2000.0000 100000.0000     61.8458
   839.7500   2000.0000   2000.0000 100000.0000     63.1425
   840.0000   2000.0000   2000.0000 100000.0000     65.0654
   840.2500   2000.0000   2000.0000 100000.0000     66.0325
   840.5000   2000.0000   2000.0000 100000.0000     66.8768
   840.7500   2000.0000   2000.0000 100000.0000     67.1381
   841.0000   2000.0000   2000.0000 100000.0000     67.3889
   841.2500   2000.0000   2000.0000 100000.0000     67.6154
   841.5000   2000.0000   2000.0000 100000.0000     67.9915
   841.7500   2000.0000   2000.0000 100000.0000     68.0105
   842.0000   2000.0000   2000.0000 100000.0000     67.3033
   842.2500   2000.0000   2000.0000 100000.0000     66.4388
   842.5000   2000.0000   2000.0000 100000.0000     65.1703
   842.7500   2000.0000   2000.0000 100000.0000     64.6344
   843.0000   2000.0000   2000.0000 100000.0000     64.4091
   843.2500   2000.0000   2000.0000 100000.0000     64.6092
   843.5000   2000.0000   2000.0000 100000.0000     65.3467
   843.7500   2000.0000   2000.0000 100000.0000     65.9491
   844.0000   2000.0000   2000.0000 100000.0000     66.2671
   844.2500   2000.0000   2000.0000 100000.0000     65.4964
   844.5000   2000.0000   2000.0000 100000.0000     62.3683
   844.7500   2000.0000   2000.0000 100000.0000     59.4302
   845.0000   2000.0000   2000.0000 100000.0000     55.6478
   845.2500   2000.0000   2000.0000 100000.0000     54.5643
   845.5000   2000.0000   2000.0000 100000.0000     55.4486
   845.7500   2000.0000   2000.0000 100000.0000     57.1508
   846.0000   2000.0000   2000.0000 100000.0000     60.1844
   846.2500   2000.0000   2000.0000 100000.0000     62.1223
   846.5000   2000.0000   2000.0000 100000.0000     64.6175
   846.7500   2000.0000   2000.0000 100000.0000     65.8584
   847.0000   2000.0000   2000.0000 100000.0000     66.7867
   847.2500   2000.0000   2000.0000     14.3887     66.7189
   847.5000   2000.0000   2000.0000      5.4330     65.8361
   847.7500   2000.0000   2000.0000      3.3107     65.0192
   848.0000   2000.0000   2000.0000      2.6520     63.9166
   848.2500   2000.0000   2000.0000      2.6788     63.3944
   848.5000   2000.0000   2000.0000      3.4296     62.9313
   848.7500   2000.0000   2000.0000      5.9946     62.8153
   849.0000   2000.0000   2000.0000     23.1134     62.9860
   849.2500   2000.0000   2000.0000 100000.0000     63.3197
   849.5000   2000.0000   2000.0000 100000.0000     63.9002
   849.7500   2000.0000   2000.0000 100000.0000     64.2301
   850.0000   2000.0000   2000.0000 100000.0000     64.9459
   850.2500   2000.0000   2000.0000 100000.0000     65.9273
   850.5000   2000.0000   2000.0000 100000.0000     68.3031
   850.7500   2000.0000   2000.0000    105.1096     70.0433
   851.0000   2000.0000   2000.0000     27.9181     71.5022
   851.2500   2000.0000   2000.0000     19.7532     71.0374
   851.5000   2000.0000   2000.0000     17.9837     68.2828
   851.7500   2000.0000   2000.0000     18.5087     65.9575
   852.0000   2000.0000   2000.0000     20.3849     63.4644
   852.2500   2000.0000   2000.0000     23.1747     62.7902
   852.5000   2000.0000   2000.0000     26.2951     62.5961
   852.7500   2000.0000   2000.0000     28.8575     62.5832
   853.0000   2000.0000   2000.0000     30.2491     62.4989
   853.2500   2000.0000   2000.0000     30.9015     62.2319
   853.5000   2000.0000   2000.0000     32.0656     60.8322
   853.7500   2000.0000   2000.0000     35.0897     58.8686
   854.0000   2000.0000   2000.0000     41.0599     54.3503
   854.2500   2000.0000   2000.0000     49.9701     50.6836
   854.5000   2000.0000   2000.0000     58.0846     45.4118
   854.7500   2000.0000   2000.0000     58.1905     42.7814
   855.0000   2000.0000   2000.0000     49.9578     40.7926
   855.2500   2000.0000   2000.0000     40.3137     40.6936
   855.5000   2000.0000   2000.0000     33.1235     41.9671
   855.7500   2000.0000   2000.0000     28.6302     43.5767
   856.0000   2000.0000   2000.0000     26.1403     46.9007
   856.2500   2000.0000   2000.0000     24.9874     49.5852
   856.5000   2000.0000   2000.0000     24.6123     54.2907
   856.7500   2000.0000   2000.0000     24.5059     58.1500
   857.0000   2000.0000   2000.0000     24.2494     65.8860
   857.2500   2000.0000   2000.0000     23.6351     72.6991
   857.5000   2000.0000   2000.0000     22.7070     85.0782
   857.7500   2000.0000   2000.0000     21.6408     94.0788
   858.0000   2000.0000   2000.0000     20.5907    107.3036
   858.2500   2000.0000   2000.0000     19.6231    115.2466
   858.5000   2000.0000   2000.0000     18.7387    124.9901
   858.7500   2000.0000   2000.0000     17.9199    129.8397
   859.0000   2000.0000   2000.0000     17.1630    135.0835
   859.2500   2000.0000   2000.0000     16.4824    137.7341
   859.5000   2000.0000   2000.0000     15.8974    140.7401
   859.7500   2000.0000   2000.0000     15.4184    141.6982
   860.0000   2000.0000   2000.0000     15.0420    140.7345
   860.2500   2000.0000   2000.0000     14.7539    138.5435
   860.5000   2000.0000   2000.0000     14.5367    134.0225
   860.7500   2000.0000   2000.0000     14.3744    130.9557
   861.0000   2000.0000   2000.0000     14.2547    127.0709
   861.2500   2000.0000   2000.0000     14.1679    124.9965
   861.5000   2000.0000   2000.0000     14.1077    122.2266
   861.7500   2000.0000   2000.0000     14.0729    120.3540
   862.0000   2000.0000   2000.0000     14.0669    117.5939
   862.2500   2000.0000   2000.0000     14.0939    116.1429
   862.5000   2000.0000   2000.0000     14.1525    115.0935
   862.7500   2000.0000   2000.0000     14.2337    115.0842
   863.0000   2000.0000   2000.0000     14.3274    115.3166
   863.2500   2000.0000   2000.0000     14.4328    115.1113
