~Version Information
VERS.                      2.0: CWLS Log ASCII Standard - VERSION 2.0
WRAP.                       NO: One line per depth step
~Well Information Block
STRT.FT                 0.7500: 
STOP.FT              2144.0000: 
STEP.FT                 0.2500: 
NULL.                -999.2500: 
COMP.          Petrogulf Corporation: COMPANY
WELL.            Montoya 1-44R: WELL
FLD.           Purgatorie River: FIELD
LOC.           658' FSL & 1052' FWL: LOCATION
CNTY.               Las Animas: COUNTY
SRVC.                         : SERVICE COMPANY
DATE.          Tue Nov 30 08:31:55 2004: LOG DATE
UWI.           05 071 08239 00: UNIQUE WELL ID
STAT.                 Colorado: STATE
~Curve Information Block
DEPT.FT            0 000 00 00: Depth
TT3.usec                      : CBL 3' Travel Time
AMP3.mV                       : CBL 3' Amplitude
GR.GAPI                       : Gamma Ray
CCL.                          : Casing Collar Locator
~Parameter Information Block
~A  Depth       TT3         AMP3         GR         CCL     
# ...
   436.2500    700.8765     16.1221     82.2628      0.0000
   436.5000    727.5155     16.2322     80.6048      0.0000
   436.7500    736.2732     16.4081     78.9580      0.0000
   437.0000    744.9418     16.5188     77.4530      0.0000
   437.2500    773.3617     16.5014     75.9944      0.0000
   437.5000    825.7896     16.3704     74.4205      0.0000
   437.7500    884.6593     16.1893     72.6672      0.0000
   438.0000    920.3199     16.0507     70.8104      0.0000
   438.2500    908.2446     16.0502     69.0052      0.0000
   438.5000    841.6897     16.2470     67.4153      0.0000
   438.7500    735.1414     16.6377     66.1640      0.0000
   439.0000    618.9053     17.1529     65.3129      0.0000
   439.2500    526.1625     17.6652     64.8694      0.0000
   439.5000    477.5141     18.0311     64.8474      0.0000
   439.7500    472.4065     18.1737     65.3690      0.0000
   440.0000    493.3068     18.1366     66.7293      0.0000
   440.2500    518.5070     18.0496     69.3149      0.0000
   440.5000    532.5936     18.0428     73.3317      0.0000
   440.7500    528.4994     18.1900     78.4844      0.0000
   441.0000    505.4682     18.5084     83.8819      0.0000
   441.2500    468.4559     18.9715     88.3232      0.0000
   441.5000    427.2820     19.5123     90.8794      0.0000
   441.7500    392.2834     20.0406     91.3839      0.0000
   442.0000    369.0002     20.4707     90.4822      0.0000
   442.2500    356.7863     20.7325     89.1616      0.0000
   442.5000    351.7431     20.7786     88.1175      0.0000
   442.7500    350.1548     20.6238     87.4329      0.0000
   443.0000    349.8515     20.3779     86.7570      0.0000
   443.2500    349.8906     20.2036     85.7655      0.0000
   443.5000    349.9232     20.2172     84.4884      0.0000
   443.7500    349.8511     20.4307     83.2810      0.0000
   444.0000    349.6784     20.7805     82.5460      0.0000
   444.2500    349.4542     21.1900     82.4982      0.0000
   444.5000    349.2275     21.6082     83.1465      0.0000
   444.7500    349.0201     22.0110     84.3809      0.0000
   445.0000    348.8205     22.3844     86.0045      0.0000
   445.2500    348.6065     22.7174     87.7156      0.0000
   445.5000    348.3371     23.0329     89.1603      0.0000
   445.7500    347.8494     23.4198     90.0776      0.0000
   446.0000    346.7104     23.9963     90.4166      0.0000
   446.2500    344.2734     24.8013     90.3535      0.0000
   446.5000    340.1951     25.7213     90.2553      0.0000
   446.7500    335.1454     26.5405     90.6299      0.0000
   447.0000    330.7350     27.0802     91.9597      0.0000
   447.2500    328.1983     27.3018     94.3670      0.0000
   447.5000    327.2801     27.2891     97.3196      0.0000
   447.7500    327.0521     27.1328     99.7329      0.0000
   448.0000    327.6092     26.8395    100.5640      0.0000
   448.2500    329.9966     26.3745     99.4862      0.0000
   448.5000    334.4421     25.7860     97.0900      0.0000
   448.7500    339.5973     25.2423     94.4690      0.0000
   449.0000    343.7580     24.9105     92.5363      0.0000
   449.2500    346.2247     24.8014     91.5811      0.0000
   449.5000    347.3486     24.7511     91.3192      0.0000
   449.7500    347.7877     24.5582     91.2791      0.0000
   450.0000    347.9839     24.1365     91.1580      0.0000
   450.2500    348.1039     23.5434     90.8813      0.0000
   450.5000    348.1776     22.8968     90.4282      0.0000
   450.7500    348.2162     22.2892     89.7142      0.0000
   451.0000    348.2511     21.7667     88.6790      0.0000
   451.2500    348.3136     21.3541     87.4524      0.0000
   451.5000    348.4061     21.0769     86.3739      0.0000
   451.7500    348.4967     20.9502     85.8400      0.0000
   452.0000    348.5369     20.9604     86.0834      0.0000
   452.2500    348.4880     21.0782     87.0406      0.0000
   452.5000    348.3547     21.2833     88.3633      0.0000
   452.7500    348.2026     21.5545     89.5790      0.0000
   453.0000    348.1225     21.8365     90.3167      0.0000
   453.2500    348.1538     22.0525     90.4367      0.0000
   453.5000    348.2413     22.1733     89.9679      0.0000
   453.7500    348.2815     22.2579     88.9000      0.0000
   454.0000    348.2181     22.3969     87.0472      0.0000
   454.2500    348.0822     22.6160     84.1706      0.0000
   454.5000    347.9389     22.8510     80.2789      0.0000
   454.7500    347.8167     23.0148     75.7981      0.0000
   455.0000    347.7016     23.0767     71.3949      0.0000
   455.2500    347.5889     23.0762     67.5781      0.0000
   455.5000    347.5196     23.0727     64.4416      0.0000
   455.7500    347.5644     23.0877     61.7427      0.0000
   456.0000    347.7748     23.0928     59.1763      0.0000
   456.2500    348.1422     23.0544     56.5838      0.0000
   456.5000    348.5921     22.9894     53.9772      0.0000
   456.7500    349.0196     22.9666     51.4440      0.0000
   457.0000    349.3421     23.0414     49.0248      0.0000
   457.2500    349.5260     23.1965     46.6453      0.0000
   457.5000    349.5716     23.3609     44.1326      0.0000
   457.7500    349.4904     23.4825     41.3339      0.0000
   458.0000    349.3058     23.5680     38.3088      0.0000
   458.2500    349.0615     23.6556     35.4577      0.0000
   458.5000    348.8157     23.7711     33.4964      0.0000
   458.7500    348.6283     23.9037     33.2620      0.0000
   459.0000    348.5448     24.0142     35.4717      0.0000
   459.2500    348.5681     24.0680     40.5249      0.0000
   459.5000    348.6420     24.0700     48.3588      0.0000
   459.7500    348.6860     24.0578     58.3602      0.0000
   460.0000    348.6657     24.0487     69.3974      0.0000
   460.2500    348.6264     24.0002     80.0765      0.0000
   460.5000    348.6492     23.8416     89.1656      0.0000
   460.7500    348.8098     23.5437     95.9824      0.0000
   461.0000    349.2533     23.1408    100.5311      0.0000
   461.2500    350.6977     22.6812    103.3409      0.0000
   461.5000    355.7337     22.1704    105.1347      0.0000
   461.7500    370.8842     21.5749    106.5074      0.0000
   462.0000    406.9692     20.8782    107.7384      0.0000
   462.2500    473.3397     20.1299    108.7901      0.0000
   462.5000    565.3999     19.4401    109.4670      0.0000
   462.7500    657.4208     18.9287    109.6481      0.0000
   463.0000    715.6252     18.6628    109.4347      0.0000
   463.2500    724.9466     18.6187    109.1037      0.0000
   463.5000    701.4085     18.7002    108.9512      0.0000
   463.7500    675.5889     18.8108    109.1519      0.0000
   464.0000    666.2561     18.9193    109.7327      0.0000
   464.2500    670.2571     19.0628    110.5970      0.0000
   464.5000    672.5005     19.2929    111.5425      0.0000
   464.7500    662.0596     19.6149    112.2623      0.0000
   465.0000    640.3239     19.9631    112.3895      0.0000
   465.2500    617.1347     20.2365    111.6314      0.0000
   465.5000    599.1115     20.3791    109.9519      0.0000
   465.7500    581.6171     20.4395    107.7061      0.0000
   466.0000    555.2908     20.5343    105.6062      0.0000
   466.2500    521.4941     20.7255    104.4636      0.0000
   466.5000    497.9154     20.9196    104.7863      0.0000
   466.7500    507.1296     20.9081    106.4725      0.0000
   467.0000    557.3876     20.5394    108.8270      0.0000
   467.2500    632.0537     19.8544    110.9240      0.0000
   467.5000    698.8657     19.0363    112.1088      0.0000
   467.7500    733.0364     18.2292    112.3180      0.0000
   468.0000    733.8069     17.4131    112.0389      0.0000
   468.2500    721.4823     16.4468    111.9743      0.0000
   468.5000    721.6566     15.2309    112.6281      0.0000
   468.7500    749.2321     13.8390    114.0171      0.0000
   469.0000    800.1462     12.4987    115.6198      0.0000
   469.2500    857.2936     11.4389    116.5850      0.0000
   469.5000    907.4728     10.7491    116.1833      0.0000
