~Version Information
VERS.                      2.0: CWLS Log ASCII Standard - VERSION 2.0
WRAP.                       NO: One line per depth step
~Well Information Block
STRT.FT               650.0000: 
STOP.FT              2087.0000: 
STEP.FT                 0.2500: 
NULL.                -999.2500: 
COMP.          Pioneer Natural Resources: COMPANY
WELL.           Galloway 32-13: WELL
FLD.           Purgatoire River: FIELD
LOC.           1809' FNL & 2004' FEL: LOCATION
PROV.                 Colorado: PROVINCE
CNTY.               Las Animas: COUNTRY
SRVC.                Patterson: SERVICE COMPANY
DATE.          Fri Jul 08 15:50:04 2005: LOG DATE
UWI.           05 071 08423 00: UNIQUE WELL ID
~Curve Information Block
DEPT.FT            0 000 00 00: Depth
SN.Ohm-m                      : IEL Short Normal
SP.mV                         : IEL Spontaneous Potential
DIR.Ohm-m                     : IEL Induction Resistivity
GR.GAPI                       : Gamma Ray
~Parameter Information Block
~A  Depth        SN          SP         DIR          GR     
# ...
  1219.5000     21.8731   -133.0901     24.5561     76.0610
  1219.7500     21.4332   -133.1419     24.5491     79.6042
  1220.0000     20.9157   -133.3117     24.5948     84.8044
  1220.2500     20.4271   -133.5824     24.6578     87.4826
  1220.5000     20.0402   -133.9134     24.6957     89.1189
  1220.7500     19.7576   -134.2491     24.6675     88.6021
  1221.0000     19.5831   -134.5369     24.5510     86.9078
  1221.2500     19.6044   -134.7490     24.3617     86.3441
  1221.5000     19.8655   -134.9028     24.1535     87.2239
  1221.7500     20.2163   -135.0604     23.9926     88.4585
  1222.0000     20.4852   -135.2976     23.9185     89.7061
  1222.2500     20.6722   -135.6626     23.9255     89.6816
  1222.5000     20.8341   -136.1577     23.9767     88.9954
  1222.7500     20.9804   -136.7534     24.0394     88.8593
  1223.0000     21.1340   -137.4149     24.1067     89.8376
  1223.2500     21.3244   -138.1196     24.1890     91.0819
  1223.5000     21.5033   -138.8579     24.2916     93.0162
  1223.7500     21.5687   -139.6239     24.4063     93.9706
  1224.0000     21.4696   -140.4043     24.5231     94.4538
  1224.2500     21.2660   -141.1724     24.6454     93.8774
  1224.5000     21.1195   -141.8943     24.7932     91.5284
  1224.7500     21.1901   -142.5430     24.9936     89.3856
  1225.0000     21.5115   -143.1019     25.2688     86.5845
  1225.2500     21.9929   -143.5429     25.6277     85.4372
  1225.5000     22.5134   -143.7897     26.0644     84.2087
  1225.7500     23.0325   -143.7244     26.5641     82.8537
  1226.0000     23.6203   -143.2667     27.1105     79.1386
  1226.2500     24.3344   -142.4635     27.6850     75.9382
  1226.5000     25.1840   -141.4776     28.2621     71.6720
  1226.7500     26.1994   -140.4783     28.8128     69.7591
  1227.0000     27.3605   -139.5510     29.3296     67.7120
  1227.2500     28.5718   -138.7039     29.8557     66.0286
  1227.5000     29.8156   -137.9230     30.4765     62.0964
  1227.7500     31.1531   -137.2018     31.2546     58.8462
  1228.0000     32.5779   -136.5424     32.1389     54.7271
  1228.2500     34.0298   -135.9677     32.9158     53.5151
  1228.5000     35.3782   -135.5453     33.2855     54.8774
  1228.7500     36.3134   -135.3802     33.0687     57.8040
  1229.0000     36.5015   -135.5580     32.3718     64.2089
  1229.2500     35.8878   -136.0856     31.5185     68.9838
  1229.5000     34.7167   -136.8872     30.8224     75.6781
  1229.7500     33.2777   -137.8579     30.4177     79.3736
  1230.0000     31.7443   -138.9180     30.2352     83.1478
  1230.2500     30.2417   -140.0190     30.0872     84.2152
  1230.5000     28.8964   -141.1042     29.8003     83.8393
  1230.7500     27.7605   -142.0508     29.3118     82.8086
  1231.0000     26.7661   -142.6243     28.6687     81.0085
  1231.2500     25.7949   -142.4912     27.9576     79.8024
  1231.5000     24.8104   -141.3316     27.2475     77.7018
  1231.7500     23.9316   -139.0373     26.5797     75.9448
  1232.0000     23.3267   -135.8725     25.9848     72.9882
  1232.2500     23.0378   -132.4409     25.4921     71.1911
  1232.5000     22.9452   -129.4130     25.1257     69.5086
  1232.7500     22.8965   -127.1709     24.8929     69.4046
  1233.0000     22.8094   -125.6394     24.7755     70.8881
  1233.2500     22.6501   -124.4390     24.7302     72.4995
  1233.5000     22.4548   -123.2225     24.7012     74.1603
  1233.7500     22.3419   -121.9173     24.6399     73.8329
  1234.0000     22.3599   -120.7089     24.5228     70.9253
  1234.2500     22.4213   -119.8283     24.3553     68.0690
  1234.5000     22.4855   -119.3536     24.1609     64.0992
  1234.7500     22.6130   -119.1742     23.9668     62.4789
  1235.0000     22.7590   -119.0924     23.7958     62.5427
  1235.2500     22.7728   -118.9473     23.6627     64.6060
  1235.5000     22.6072   -118.6865     23.5706     70.9490
  1235.7500     22.3070   -118.3710     23.5064     77.1390
  1236.0000     21.9002   -118.1222     23.4466     88.1526
  1236.2500     21.4437   -118.0394     23.3722     95.4425
  1236.5000     21.0291   -118.1372     23.2843    104.2423
  1236.7500     20.7047   -118.3389     23.2009    108.1625
  1237.0000     20.4738   -118.5265     23.1400    111.7463
  1237.2500     20.3423   -118.6117     23.1063    113.4056
  1237.5000     20.3487   -118.5737     23.0938    115.8009
  1237.7500     20.5006   -118.4441     23.0965    117.4078
  1238.0000     20.6927   -118.2672     23.1139    119.2627
  1238.2500     20.8359   -118.0769     23.1490    119.6341
  1238.5000     21.0151   -117.8946     23.2065    118.0274
  1238.7500     21.3653   -117.7339     23.2943    115.1745
  1239.0000     21.8699   -117.6061     23.4203    108.6026
  1239.2500     22.3472   -117.5186     23.5813    103.5851
  1239.5000     22.5991   -117.4705     23.7529     96.9009
  1239.7500     22.5791   -117.4575     23.8940     93.6258
  1240.0000     22.4230   -117.4873     23.9722     90.6257
  1240.2500     22.3339   -117.5819     23.9917     89.6559
  1240.5000     22.3969   -117.7523     23.9943     89.1346
  1240.7500     22.5117   -117.9784     24.0282     89.0727
  1241.0000     22.5628   -118.2200     24.1126     88.8999
  1241.2500     22.5674   -118.4453     24.2306     88.4127
  1241.5000     22.6245   -118.6428     24.3545     86.7496
  1241.7500     22.7868   -118.8155     24.4718     85.1091
  1242.0000     22.9958   -118.9737     24.5906     82.3255
  1242.2500     23.1525   -119.1336     24.7237     80.3661
  1242.5000     23.2511   -119.3162     24.8748     77.1371
  1242.7500     23.3644   -119.5409     25.0336     74.9210
  1243.0000     23.5003   -119.8121     25.1805     72.4778
  1243.2500     23.5835   -120.1068     25.2938     72.0516
  1243.5000     23.5597   -120.3665     25.3584     73.1893
  1243.7500     23.4517   -120.4982     25.3719     74.3785
  1244.0000     23.3466   -120.3985     25.3470     75.5120
  1244.2500     23.3288   -120.0156     25.3110     75.8215
  1244.5000     23.4049   -119.4233     25.3003     76.7011
  1244.7500     23.5001   -118.8278     25.3506     78.0562
  1245.0000     23.5229   -118.4642     25.4830     81.0535
  1245.2500     23.4425   -118.4587     25.6948     83.3330
  1245.5000     23.3343   -118.7820     25.9603     86.8976
  1245.7500     23.3096   -119.3150     26.2405     89.3394
  1246.0000     23.3525   -119.9405     26.5003     92.9067
  1246.2500     23.3008   -120.5814     26.7269     95.1152
  1246.5000     23.0731   -121.1870     26.9398     98.2739
  1246.7500     22.8369   -121.7125     27.1811    100.3785
  1247.0000     22.8279   -122.1279     27.4899    103.2521
  1247.2500     23.1134   -122.4458     27.8830    104.4008
  1247.5000     23.6560   -122.7279     28.3548    103.6510
  1247.7500     24.4327   -123.0486     28.8907    101.0710
  1248.0000     25.3874   -123.4464     29.4706     94.6536
  1248.2500     26.4396   -123.9062     30.0557     89.6082
  1248.5000     27.5604   -124.3777     30.5853     82.4631
  1248.7500     28.7490   -124.8066     31.0063     78.5039
  1249.0000     29.9520   -125.1614     31.3085     73.9913
  1249.2500     31.0319   -125.4460     31.5198     71.8430
  1249.5000     31.7917   -125.6972     31.6554     69.6017
  1249.7500     32.0369   -125.9649     31.6775     68.6044
  1250.0000     31.7565   -126.2863     31.5154     67.7938
  1250.2500     31.2163   -126.6702     31.1379     67.6935
  1250.5000     30.6546   -127.1022     30.6066     67.8829
  1250.7500     30.0523   -127.5634     30.0508     68.0117
  1251.0000     29.3538   -128.0491     29.5734     68.3330
  1251.2500     28.6346   -128.5723     29.1712     68.9662
  1251.5000     27.9618   -129.1544     28.7365     70.8395
  1251.7500     27.2825   -129.8131     28.1534     72.4890
  1252.0000     26.5534   -130.5549     27.4148     74.8466
  1252.2500     25.8850   -131.3738     26.6430     75.9769
  1252.5000     25.4142   -132.2556     25.9959     76.6691
  1252.7500     25.1015   -133.1866     25.5603     76.4367
