~Version Information
VERS.                      2.0: CWLS Log ASCII Standard - VERSION 2.0
WRAP.                       NO: One line per depth step
~Well Information Block
STRT.FT                 0.0000: 
STOP.FT              2006.5000: 
STEP.FT                 0.2500: 
NULL.                -999.2500: 
COMP.          Petrogulf Corporation: COMPANY
WELL.           Lavedure 7-44R: WELL
FLD.           Purgatorie River: FIELD
LOC.           946' FSL & 521' FEL: LOCATION
STAT.                 Colorado: State
CNTY.               Las Animas: COUNTY
CTRY. USA : Country
SECT. 7 : Section
TOWN. 33S : Township
RANG. 67W : Range
SRVC.                Patterson: SERVICE COMPANY
DATE.          Thu Nov 10 15:49:38 2005: LOG DATE
API. 05-071-08090       : UNIQUE WELL ID
~Curve Information Block
DEPT.FT            0 000 00 00: Depth
CCL.                          : Casing Collar Locator
TT3.usec                      : CBL 3' Travel Time
AMP3.mV                       : CBL 3' Amplitude
GR.GAPI                       : Gamma Ray
~Parameter Information Block
~A  Depth       CCL         TT3         AMP3         GR     
# ...
  1172.5000      0.0000    636.3875      5.9630    109.2930
  1172.7500      0.0000    640.4600      5.9683    112.7371
  1173.0000      0.0000    644.0717      5.9615    117.3259
  1173.2500      0.0000    646.4820      5.9861    121.1953
  1173.5000      0.0000    650.8228      6.0978    123.6489
  1173.7500      0.0000    656.2578      6.2525    125.3382
  1174.0000      0.0000    659.8242      6.3526    126.8646
  1174.2500      0.0000    660.7679      6.3835    127.9770
  1174.5000      0.0000    658.6653      6.4080    128.2585
  1174.7500      0.0000    651.1714      6.4509    127.8343
  1175.0000      0.0000    637.3937      6.4962    127.1700
  1175.2500      0.0000    622.8794      6.5631    126.5833
  1175.5000      0.0000    614.4191      6.6833    125.9974
  1175.7500      0.0000    609.8811      6.8453    124.9729
  1176.0000      0.0000    603.8932      7.0304    123.0585
  1176.2500      0.0000    599.8455      7.2375    120.2185
  1176.5000      0.0000    605.2115      7.4272    116.8860
  1176.7500      0.0000    619.7913      7.5378    113.6945
  1177.0000      0.0000    633.7921      7.5824    111.3529
  1177.2500      0.0000    636.1420      7.6368    110.6042
  1177.5000      0.0000    624.6669      7.7369    111.8001
  1177.7500      0.0000    607.4702      7.8613    114.2817
  1178.0000      0.0000    594.2038      7.9840    116.5136
  1178.2500      0.0000    588.4988      8.0888    117.2830
  1178.5000      0.0000    589.0391      8.1441    116.6936
  1178.7500      0.0000    592.6363      8.0952    115.6834
  1179.0000      0.0000    594.1749      7.9260    114.9777
  1179.2500      0.0000    589.6992      7.7122    115.0937
  1179.5000      0.0000    582.1155      7.5463    116.7733
  1179.7500      0.0000    577.3665      7.4490    120.3906
  1180.0000      0.0000    575.5758      7.3951    125.0430
  1180.2500      0.0000    574.9611      7.3581    129.0265
  1180.5000      0.0000    580.3043      7.3117    131.2621
  1180.7500      0.0000    596.3979      7.2398    131.8658
  1181.0000      0.0000    616.5739      7.1684    131.4133
  1181.2500      0.0000    628.4501      7.1365    130.1223
  1181.5000      0.0000    629.7521      7.1354    127.9648
  1181.7500      0.0000    627.2830      7.1331    125.4489
  1182.0000      0.0000    623.3626      7.1168    123.9766
  1182.2500      0.0000    616.5435      7.0601    125.1034
  1182.5000      0.0000    610.7584      6.9053    129.1589
  1182.7500      0.0000    611.5607      6.6008    134.4666
  1183.0000      0.0000    617.8344      6.1707    138.1011
  1183.2500      0.0000    624.8118      5.8072    137.7500
  1183.5000      0.0000    632.3596      5.7436    133.1489
  1183.7500      0.0000    644.0872      5.8973    126.0224
  1184.0000      0.0000    658.8320      5.9864    118.8146
  1184.2500      0.0000    669.7139      5.9909    113.3057
  1184.5000      0.0000    672.6686      6.0405    110.1526
  1184.7500      0.0000    670.4045      6.1307    109.5014
  1185.0000     -2.0000    666.0706      6.2108    111.6205
  1185.2500      0.0000    660.1313      6.2862    116.4979
  1185.5000      0.0000    654.3669      6.4078    122.9761
  1185.7500      0.0000    648.0339      6.6903    128.9870
  1186.0000      0.0000    632.0743      7.3286    132.8784
  1186.2500      0.0000    603.8497      8.3052    134.2266
  1186.5000      0.0000    582.0093      9.0926    133.5432
  1186.7500      0.0000    584.4885      9.2611    131.7580
  1187.0000      0.0000    602.9745      9.1013    129.9556
  1187.2500      0.0000    620.7207      9.0477    129.0675
  1187.5000      0.0000    630.6862      9.1363    129.5165
  1187.7500      0.0000    630.5956      9.2436    130.9568
  1188.0000      0.0000    625.6414      9.3048    132.3373
  1188.2500      0.0000    627.6671      9.3009    132.6178
  1188.5000      0.0000    639.6387      9.2479    131.7481
  1188.7500      0.0000    652.4319      9.1706    130.6753
  1189.0000      0.0000    657.4979      9.0569    130.2053
  1189.2500      0.0000    652.4706      8.8831    130.2070
  1189.5000      0.0000    639.7377      8.6654    130.2417
  1189.7500      0.0000    628.1057      8.4472    130.6132
  1190.0000      0.0000    628.1432      8.2659    132.2608
  1190.2500      0.0000    639.7493      8.1235    135.7179
  1190.5000      0.0000    652.3972      7.9671    140.5187
  1190.7500      0.0000    658.4070      7.7719    145.4898
  1191.0000      0.0000    658.6601      7.6007    149.3620
  1191.2500      0.0000    658.0548      7.4947    151.2928
  1191.5000      0.0000    659.9946      7.4241    151.1367
  1191.7500      0.0000    665.1765      7.3535    149.1514
  1192.0000      0.0000    674.7736      7.2613    145.5371
  1192.2500      0.0000    690.2916      7.1400    140.6822
  1192.5000      0.0000    708.3138      6.9960    135.7222
  1192.7500      0.0000    720.7789      6.8329    132.0866
  1193.0000      0.0000    722.4708      6.6658    130.1890
  1193.2500      0.0000    715.5099      6.5092    128.9523
  1193.5000      0.0000    707.3653      6.3493    126.9954
  1193.7500      0.0000    705.0411      6.1869    124.1785
  1194.0000      0.0000    710.8534      6.0704    121.7300
  1194.2500      0.0000    721.0272      6.0308    121.0101
  1194.5000      0.0000    727.5610      6.0339    122.3486
  1194.7500      0.0000    727.0833      6.0311    124.8822
  1195.0000      0.0000    723.7590      5.9987    127.2005
  1195.2500      0.0000    723.6257      5.9263    128.3158
  1195.5000      0.0000    731.3884      5.8243    128.3779
  1195.7500      0.0000    745.6094      5.7255    128.2511
  1196.0000      0.0000    757.2855      5.6637    128.0539
  1196.2500      0.0000    758.6345      5.6487    126.7360
  1196.5000      0.0000    752.1887      5.6347    123.8359
  1196.7500      0.0000    746.8329      5.5590    120.8398
  1197.0000      0.0000    745.3334      5.4084    119.6705
  1197.2500      0.0000    744.3046      5.2091    120.4572
  1197.5000      0.0000    744.0093      4.9978    121.9188
  1197.7500      0.0000    746.7891      4.8006    123.3649
  1198.0000      0.0000    749.3443      4.6251    125.0040
  1198.2500      0.0000    744.2706      4.4909    126.5866
  1198.5000      0.0000    727.3465      4.4268    127.2028
  1198.7500      0.0000    703.0354      4.4320    126.7194
  1199.0000      0.0000    682.4729      4.4714    126.2504
  1199.2500      0.0000    673.5770      4.5082    126.7586
  1199.5000      0.0000    677.7297      4.5316    128.0941
  1199.7500      0.0000    693.9600      4.5506    129.7445
  1200.0000      0.0000    718.4940      4.5814    131.5364
  1200.2500      0.0000    743.6553      4.6528    133.1815
  1200.5000      0.0000    761.1609      4.7963    134.0535
  1200.7500      0.0000    764.6977      5.0107    133.8543
  1201.0000      0.0000    752.4786      5.2536    132.8461
  1201.2500      0.0000    730.4684      5.5029    131.1797
  1201.5000      0.0000    710.2844      5.7891    128.6639
  1201.7500      0.0000    702.1176      6.1295    125.4574
  1202.0000      0.0000    709.1495      6.4937    122.4667
  1202.2500      0.0000    724.5060      6.8349    120.6641
  1202.5000      0.0000    730.7725      7.1143    120.2666
  1202.7500      0.0000    708.6351      7.3327    120.9385
  1203.0000      0.0000    656.0702      7.5310    122.4209
  1203.2500      0.0000    599.2482      7.7271    124.4455
  1203.5000      0.0000    572.7709      7.8843    126.2266
  1203.7500      0.0000    580.2688      7.9659    126.6460
  1204.0000      0.0000    596.4270      7.9863    125.1376
  1204.2500      0.0000    615.8170      7.9737    122.2906
  1204.5000      0.0000    651.4934      7.9064    119.6361
  1204.7500      0.0000    693.3077      7.7562    118.8600
  1205.0000      0.0000    719.5657      7.5539    120.7741
  1205.2500      0.0000    724.6866      7.3425    124.5241
  1205.5000      0.0000    710.6897      7.1307    127.9922
  1205.7500      0.0000    678.7985      6.9100    129.6381
