~Version Information
VERS.                      2.0: CWLS Log ASCII Standard - VERSION 2.0
WRAP.                       NO: One line per depth step
~Well Information Block
STRT.FT              2246.0000: 
STOP.FT              2472.6000: 
STEP.FT                 0.1000: 
NULL.                -999.2500: 
COMP.          Petrogulf Corporation: COMPANY
WELL.           Schedler 9-23V: WELL
FLD.           Purgatorie River: FIELD
LOC.           2185' FSL & 2328' FWL: LOCATION
CNTY.               Las Animas: COUNTY
SRVC.                         : SERVICE COMPANY
DATE.          Thu Jul 10 10:29:30 2003: LOG DATE
UWI.           05 071 07876 00: UNIQUE WELL ID
STAT.                 Colorado: STATE
~Curve Information Block
DEPT.FT            0 000 00 00: Depth
DCAL.in                       : CDL Caliper
RHOB.g/cc                     : CDL Bulk Density
RHOC.g/cc                     : CDL Density Correction
DPOR.pu                       : CDL Density Porosity
GR.GAPI                       : Gamma Ray
NPOR.pu                       : Neutron Porosity
~Parameter Information Block
~A  Depth       DCAL        RHOB        RHOC        DPOR         GR         NPOR    
# ...
  2438.0000      7.7900      2.5645      0.0454      5.1789     82.4550     17.2071
  2438.1000      7.7900      2.5598      0.0443      5.4671     82.6763     17.4046
  2438.2000      7.7900      2.5555      0.0435      5.7299     82.9685     17.5823
  2438.3000      7.7921      2.5516      0.0431      5.9628     83.3276     17.7420
  2438.4000      7.7921      2.5483      0.0431      6.1629     83.7357     17.8850
  2438.5000      7.7935      2.5456      0.0433      6.3294     84.1630     18.0120
  2438.6000      7.7935      2.5434      0.0438      6.4632     84.5738     18.1215
  2438.7000      7.7935      2.5416      0.0444      6.5670     84.9292     18.2117
  2438.8000      7.7934      2.5404      0.0452      6.6448     85.1947     18.2797
  2438.9000      7.7934      2.5394      0.0459      6.7012     85.3396     18.3233
  2439.0000      7.7976      2.5388      0.0466      6.7417     85.3407     18.3419
  2439.1000      7.7976      2.5383      0.0473      6.7714     85.1814     18.3379
  2439.2000      7.7976      2.5379      0.0479      6.7954     84.8564     18.3180
  2439.3000      7.8076      2.5375      0.0483      6.8179     84.3699     18.2926
  2439.4000      7.8076      2.5371      0.0487      6.8424     83.7396     18.2754
  2439.5000      7.8158      2.5366      0.0490      6.8712     82.9964     18.2815
  2439.6000      7.8158      2.5361      0.0492      6.9058     82.1830     18.3255
  2439.7000      7.8158      2.5354      0.0494      6.9465     81.3528     18.4186
  2439.8000      7.8225      2.5346      0.0495      6.9929     80.5654     18.5665
  2439.9000      7.8225      2.5338      0.0497      7.0440     79.8793     18.7683
  2440.0000      7.8295      2.5329      0.0499      7.0981     79.3475     19.0165
  2440.1000      7.8295      2.5320      0.0502      7.1535     79.0103     19.2969
  2440.2000      7.8295      2.5311      0.0506      7.2082     78.8920     19.5920
  2440.3000      7.8346      2.5302      0.0510      7.2604     78.9959     19.8823
  2440.4000      7.8346      2.5294      0.0515      7.3086     79.3043     20.1497
  2440.5000      7.8371      2.5287      0.0522      7.3514     79.7822     20.3799
  2440.6000      7.8371      2.5281      0.0528      7.3880     80.3808     20.5636
  2440.7000      7.8371      2.5276      0.0535      7.4178     81.0457     20.6973
  2440.8000      7.8368      2.5272      0.0543      7.4408     81.7235     20.7824
  2440.9000      7.8368      2.5270      0.0549      7.4572     82.3757     20.8244
  2441.0000      7.8356      2.5268      0.0556      7.4675     82.9756     20.8306
  2441.1000      7.8356      2.5267      0.0561      7.4724     83.5190     20.8092
  2441.2000      7.8356      2.5267      0.0565      7.4728     84.0140     20.7673
  2441.3000      7.8359      2.5268      0.0568      7.4691     84.4783     20.7109
  2441.4000      7.8359      2.5269      0.0570      7.4625     84.9266     20.6443
  2441.5000      7.8387      2.5270      0.0571      7.4532     85.3656     20.5712
  2441.6000      7.8387      2.5272      0.0571      7.4419     85.7838     20.4949
  2441.7000      7.8387      2.5274      0.0570      7.4289     86.1523     20.4195
  2441.8000      7.8391      2.5277      0.0569      7.4144     86.4319     20.3500
  2441.9000      7.8391      2.5279      0.0568      7.3988     86.5799     20.2920
  2442.0000      7.8306      2.5282      0.0567      7.3822     86.5584     20.2513
  2442.1000      7.8306      2.5285      0.0566      7.3650     86.3469     20.2332
  2442.2000      7.8306      2.5288      0.0565      7.3476     85.9485     20.2403
  2442.3000      7.8201      2.5291      0.0564      7.3303     85.3900     20.2725
  2442.4000      7.8201      2.5293      0.0563      7.3136     84.7208     20.3264
  2442.5000      7.8151      2.5296      0.0562      7.2979     84.0012     20.3950
  2442.6000      7.8151      2.5298      0.0560      7.2836     83.2949     20.4697
  2442.7000      7.8151      2.5300      0.0557      7.2710     82.6569     20.5413
  2442.8000      7.8145      2.5302      0.0555      7.2602     82.1261     20.6017
  2442.9000      7.8145      2.5304      0.0554      7.2510     81.7195     20.6459
  2443.0000      7.8164      2.5305      0.0553      7.2431     81.4353     20.6728
  2443.1000      7.8164      2.5306      0.0555      7.2361     81.2564     20.6847
  2443.2000      7.8164      2.5307      0.0559      7.2294     81.1575     20.6868
  2443.3000      7.8192      2.5308      0.0565      7.2225     81.1127     20.6851
  2443.4000      7.8192      2.5310      0.0574      7.2148     81.1026     20.6849
  2443.5000      7.8163      2.5311      0.0586      7.2060     81.1157     20.6884
  2443.6000      7.8163      2.5313      0.0601      7.1959     81.1499     20.6948
  2443.7000      7.8163      2.5315      0.0617      7.1846     81.2062     20.6996
  2443.8000      7.8136      2.5317      0.0635      7.1726     81.2881     20.6961
  2443.9000      7.8136      2.5319      0.0653      7.1603     81.3959     20.6778
  2444.0000      7.8153      2.5320      0.0670      7.1485     81.5276     20.6401
  2444.1000      7.8153      2.5322      0.0687      7.1378     81.6720     20.5817
  2444.2000      7.8153      2.5324      0.0702      7.1287     81.8149     20.5057
  2444.3000      7.8074      2.5325      0.0715      7.1214     81.9362     20.4188
  2444.4000      7.8074      2.5326      0.0726      7.1159     82.0137     20.3297
  2444.5000      7.7932      2.5327      0.0734      7.1116     82.0268     20.2473
  2444.6000      7.7932      2.5327      0.0740      7.1074     81.9559     20.1788
  2444.7000      7.7932      2.5328      0.0746      7.1018     81.7904     20.1289
  2444.8000      7.7793      2.5330      0.0750      7.0931     81.5282     20.0992
  2444.9000      7.7793      2.5332      0.0753      7.0796     81.1826     20.0889
  2445.0000      7.7692      2.5335      0.0757      7.0596     80.7785     20.0964
  2445.1000      7.7692      2.5340      0.0762      7.0319     80.3546     20.1200
  2445.2000      7.7692      2.5346      0.0766      6.9957     79.9545     20.1591
  2445.3000      7.7655      2.5353      0.0771      6.9512     79.6222     20.2147
  2445.4000      7.7655      2.5362      0.0774      6.8994     79.3925     20.2891
  2445.5000      7.7700      2.5371      0.0777      6.8422     79.2844     20.3852
  2445.6000      7.7700      2.5381      0.0778      6.7819     79.2970     20.5047
  2445.7000      7.7700      2.5391      0.0777      6.7217     79.4084     20.6480
  2445.8000      7.7804      2.5400      0.0773      6.6649     79.5805     20.8122
  2445.9000      7.7804      2.5409      0.0766      6.6147     79.7633     20.9914
  2446.0000      7.7880      2.5415      0.0757      6.5740     79.9077     21.1761
  2446.1000      7.7880      2.5420      0.0745      6.5448     79.9740     21.3549
  2446.2000      7.7880      2.5423      0.0731      6.5285     79.9376     21.5144
  2446.3000      7.7922      2.5423      0.0716      6.5251     79.7940     21.6423
  2446.4000      7.7922      2.5422      0.0699      6.5335     79.5587     21.7271
  2446.5000      7.7970      2.5419      0.0682      6.5515     79.2606     21.7608
  2446.6000      7.7970      2.5415      0.0664      6.5759     78.9393     21.7391
  2446.7000      7.7970      2.5411      0.0647      6.6027     78.6329     21.6614
  2446.8000      7.8014      2.5407      0.0630      6.6270     78.3758     21.5312
  2446.9000      7.8014      2.5404      0.0613      6.6443     78.1905     21.3547
  2447.0000      7.8037      2.5403      0.0597      6.6495     78.0881     21.1407
  2447.1000      7.8037      2.5405      0.0582      6.6383     78.0666     20.8998
  2447.2000      7.8037      2.5410      0.0569      6.6070     78.1137     20.6435
  2447.3000      7.8077      2.5419      0.0559      6.5530     78.2098     20.3842
  2447.4000      7.8077      2.5432      0.0552      6.4747     78.3328     20.1343
  2447.5000      7.8142      2.5449      0.0550      6.3719     78.4622     19.9059
