~Version Information
VERS.                      2.0: CWLS Log ASCII Standard - VERSION 2.0
WRAP.                       NO: One line per depth step
~Well Information Block
STRT.FT               395.0000: 
STOP.FT              1998.0000: 
STEP.FT                 0.2500: 
NULL.                -999.2500: 
COMP.          Pioneer Natural Resources: COMPANY
WELL.          Easton 12-30 Tr: WELL
FLD.           Purgatoire River: FIELD
LOC.           549' FWL & 2416' FNL--: LOCATION
PROV.                 Colorado: PROVINCE
CNTY.               Las Animas: COUNTRY
SRVC.                Patterson: SERVICE COMPANY
DATE.          Wed Jun 01 17:36:02 2005: LOG DATE
UWI.           05 071 08379 00: UNIQUE WELL ID
~Curve Information Block
DEPT.FT            0 000 00 00: Depth
SN.Ohm-m                      : IEL Short Normal
SP.mV                         : IEL Spontaneous Potential
DIR.Ohm-m                     : IEL Induction Resistivity
GR.GAPI                       : Gamma Ray
~Parameter Information Block
~A  Depth        SN          SP         DIR          GR     
# ...
  1668.0000   2000.0000   -999.2500     14.9095    111.6357
  1668.2500   2000.0000   -999.2500     14.1871    112.2526
  1668.5000   2000.0000   -999.2500     13.4665    114.4603
  1668.7500   2000.0000   -999.2500     12.7693    117.5401
  1669.0000   2000.0000   -999.2500     12.1143    124.7205
  1669.2500   2000.0000   -999.2500     11.5191    130.4764
  1669.5000   2000.0000   -999.2500     10.9972    138.6655
  1669.7500   2000.0000   -999.2500     10.5549    142.8902
  1670.0000   2000.0000   -999.2500     10.1922    146.7012
  1670.2500   2000.0000   -999.2500      9.9043    147.7885
  1670.5000   2000.0000   -999.2500      9.6848    148.1866
  1670.7500   2000.0000   -999.2500      9.5274    147.9901
  1671.0000   2000.0000   -999.2500      9.4255    146.8865
  1671.2500   2000.0000   -999.2500      9.3716    145.4963
  1671.5000   2000.0000   -999.2500      9.3559    143.0291
  1671.7500   2000.0000   -999.2500      9.3664    141.7788
  1672.0000   2000.0000   -999.2500      9.3913    140.7791
  1672.2500   2000.0000   -999.2500      9.4220    139.9479
  1672.5000   2000.0000   -999.2500      9.4545    136.2769
  1672.7500   2000.0000   -999.2500      9.4885    131.2395
  1673.0000   2000.0000   -999.2500      9.5249    119.9576
  1673.2500   2000.0000   -999.2500      9.5659    111.3407
  1673.5000   2000.0000   -999.2500      9.6154    100.3236
  1673.7500   2000.0000   -999.2500      9.6798     95.9051
  1674.0000   2000.0000   -999.2500      9.7675     94.4249
  1674.2500   2000.0000   -999.2500      9.8844     96.3155
  1674.5000   2000.0000   -999.2500     10.0315    102.0868
  1674.7500   2000.0000   -999.2500     10.2035    107.2474
  1675.0000   2000.0000   -999.2500     10.3907    116.0000
  1675.2500   2000.0000   -999.2500     10.5827    121.8640
  1675.5000   2000.0000   -999.2500     10.7734    129.4859
  1675.7500   2000.0000   -999.2500     10.9622    133.1490
  1676.0000   2000.0000   -999.2500     11.1544    135.7215
  1676.2500   2000.0000   -999.2500     11.3586    135.2498
  1676.5000   2000.0000   -999.2500     11.5857    131.4516
  1676.7500   2000.0000   -999.2500     11.8485    127.3690
  1677.0000   2000.0000   -999.2500     12.1607    120.0973
  1677.2500   2000.0000   -999.2500     12.5343    115.0019
  1677.5000   2000.0000   -999.2500     12.9762    107.3952
  1677.7500   2000.0000   -999.2500     13.4830    102.5339
  1678.0000   2000.0000   -999.2500     14.0381     95.9734
  1678.2500   2000.0000   -999.2500     14.6104     92.1307
  1678.5000   2000.0000   -999.2500     15.1606     86.6544
  1678.7500   2000.0000   -999.2500     15.6525     82.9583
  1679.0000   2000.0000   -999.2500     16.0625     77.9718
  1679.2500   2000.0000   -999.2500     16.3806     75.9771
  1679.5000   2000.0000   -999.2500     16.6026     76.7662
  1679.7500   2000.0000   -999.2500     16.7243     80.4192
  1680.0000   2000.0000   -999.2500     16.7447     90.1932
  1680.2500   2000.0000   -999.2500     16.6736     98.3647
  1680.5000   2000.0000   -999.2500     16.5342    109.9302
  1680.7500   2000.0000   -999.2500     16.3578    115.4616
  1681.0000   2000.0000   -999.2500     16.1765    119.1777
  1681.2500   2000.0000   -999.2500     16.0174    118.9354
  1681.5000   2000.0000   -999.2500     15.9032    116.0994
  1681.7500   2000.0000   -999.2500     15.8530    113.5197
  1682.0000   2000.0000   -999.2500     15.8830    109.6401
  1682.2500   2000.0000   -999.2500     16.0045    107.1326
  1682.5000   2000.0000   -999.2500     16.2194    102.8487
  1682.7500   2000.0000   -999.2500     16.5170     99.1438
  1683.0000   2000.0000   -999.2500     16.8759     92.1426
  1683.2500   2000.0000   -999.2500     17.2703     87.0636
  1683.5000   2000.0000   -999.2500     17.6788     80.3214
  1683.7500   2000.0000   -999.2500     18.0874     76.9483
  1684.0000   2000.0000   -999.2500     18.4845     73.2616
  1684.2500   2000.0000   -999.2500     18.8511     71.1440
  1684.5000   2000.0000   -999.2500     19.1566     68.0680
  1684.7500   2000.0000   -999.2500     19.3651     66.5165
  1685.0000   2000.0000   -999.2500     19.4492     66.2432
  1685.2500   2000.0000   -999.2500     19.4000     67.9125
  1685.5000   2000.0000   -999.2500     19.2278     72.9852
  1685.7500   2000.0000   -999.2500     18.9537     77.5397
  1686.0000   2000.0000   -999.2500     18.6003     85.1186
  1686.2500   2000.0000   -999.2500     18.1878     90.2073
  1686.5000   2000.0000   -999.2500     17.7343     97.4403
  1686.7500   2000.0000   -999.2500     17.2572    101.9427
  1687.0000   2000.0000   -999.2500     16.7738    108.2526
  1687.2500   2000.0000   -999.2500     16.2989    112.0054
  1687.5000   2000.0000   -999.2500     15.8422    116.3553
  1687.7500   2000.0000   -999.2500     15.4068    118.1577
  1688.0000   2000.0000   -999.2500     14.9909    119.3279
  1688.2500   2000.0000   -999.2500     14.5928    119.3630
  1688.5000   2000.0000   -999.2500     14.2131    118.9147
  1688.7500   2000.0000   -999.2500     13.8544    118.6708
  1689.0000   2000.0000   -999.2500     13.5166    118.9247
  1689.2500   2000.0000   -999.2500     13.1933    119.6517
  1689.5000   2000.0000   -999.2500     12.8736    121.4438
  1689.7500   2000.0000   -999.2500     12.5477    122.7209
  1690.0000   2000.0000   -999.2500     12.2131    123.7672
  1690.2500   2000.0000   -999.2500     11.8764    123.5450
  1690.5000   2000.0000   -999.2500     11.5493    122.2323
  1690.7500   2000.0000   -999.2500     11.2418    121.3463
  1691.0000   2000.0000   -999.2500     10.9588    121.2444
  1691.2500   2000.0000   -999.2500     10.7005    122.6427
  1691.5000   2000.0000   -999.2500     10.4645    127.4214
  1691.7500   2000.0000   -999.2500     10.2473    131.9785
  1692.0000   2000.0000   -999.2500     10.0450    139.1703
  1692.2500   2000.0000   -999.2500      9.8541    143.2319
  1692.5000   2000.0000   -999.2500      9.6750    147.3691
  1692.7500   2000.0000   -999.2500      9.5143    148.7381
  1693.0000   2000.0000   -999.2500      9.3848    148.9977
  1693.2500   2000.0000   -999.2500      9.3023    148.4272
  1693.5000   2000.0000   -999.2500      9.2794    147.6241
  1693.7500   2000.0000   -999.2500      9.3223    147.6918
  1694.0000   2000.0000   -999.2500      9.4303    148.6849
  1694.2500   2000.0000   -999.2500      9.5966    149.2803
  1694.5000   2000.0000   -999.2500      9.8111    148.6154
  1694.7500   2000.0000   -999.2500     10.0622    146.5804
  1695.0000   2000.0000   -999.2500     10.3393    140.8585
  1695.2500   2000.0000   -999.2500     10.6344    135.3167
  1695.5000   2000.0000   -999.2500     10.9432    124.8753
  1695.7500   2000.0000   -999.2500     11.2633    117.1497
  1696.0000   2000.0000   -999.2500     11.5931    106.2119
  1696.2500   2000.0000   -999.2500     11.9309    100.4737
  1696.5000   2000.0000   -999.2500     12.2736     95.2382
  1696.7500   2000.0000   -999.2500     12.6153     93.7546
  1697.0000   2000.0000   -999.2500     12.9451     93.1960
  1697.2500   2000.0000   -999.2500     13.2462     93.3668
  1697.5000   2000.0000   -999.2500     13.4994     94.6500
  1697.7500   2000.0000   -999.2500     13.6888     96.6302
  1698.0000   2000.0000   -999.2500     13.8064    101.2316
  1698.2500   2000.0000   -999.2500     13.8553    104.6883
  1698.5000   2000.0000   -999.2500     13.8476    109.1919
  1698.7500   2000.0000   -999.2500     13.8026    111.5689
  1699.0000   2000.0000   -999.2500     13.7428    114.6736
  1699.2500   2000.0000   -999.2500     13.6918    116.5865
  1699.5000   2000.0000   -999.2500     13.6706    118.7252
  1699.7500   2000.0000   -999.2500     13.6944    119.2204
  1700.0000   2000.0000   -999.2500     13.7701    118.4629
  1700.2500   2000.0000   -999.2500     13.8952    117.4365
  1700.5000   2000.0000   -999.2500     14.0614    116.1106
  1700.7500   2000.0000   -999.2500     14.2594    115.4426
  1701.0000   2000.0000   -999.2500     14.4821    113.7329
  1701.2500   2000.0000   -999.2500     14.7231    111.3426
