~Version Information
VERS.                      2.0: CWLS Log ASCII Standard - VERSION 2.0
WRAP.                       NO: One line per depth step
~Well Information Block
STRT.FT                -9.5000: 
STOP.FT              1862.5000: 
STEP.FT                 0.2500: 
NULL.                -999.2500: 
COMP.          Petrogulf Corporation: COMPANY
WELL.             State 16-34R: WELL
FLD.           Purgatoire River: FIELD
LOC.           1095' FSL & 1498' FEL--: LOCATION
CNTY.               Las Animas: COUNTY
SRVC.                         : SERVICE COMPANY
DATE.          Mon May 10 14:56:57 2004: LOG DATE
UWI.                          : UNIQUE WELL ID
STAT.                       CO: STATE
~Curve Information Block
DEPT.FT            0 000 00 00: Depth
GR.GAPI                       : Gamma Ray
CCL.                          : Casing Collar Locator
TT3.usec                      : CBL 3' Travel Time
AMP3.mV                       : CBL 3' Amplitude
~Parameter Information Block
~A  Depth        GR         CCL         TT3         AMP3    
# ...
   593.5000     62.1078      0.0000    789.5848      6.6332
   593.7500     60.1518      0.0000    790.1446      6.7214
   594.0000     59.2450      0.0000    788.0327      6.8400
   594.2500     60.9747      0.0000    771.1274      6.9504
   594.5000     65.3743      0.0000    733.9124      7.0056
   594.7500     70.7475      0.0000    695.2667      6.9175
   595.0000     75.1632      0.0000    684.5259      6.5877
   595.2500     77.4793      0.0000    713.3890      6.0943
   595.5000     77.0345      0.0000    765.8118      5.7058
   595.7500     73.3378      0.0000    805.0252      5.5722
   596.0000     66.6273      5.0000    803.5367      5.6037
   596.2500     58.2704      3.1421    773.9218      5.6796
   596.5000     50.1410      0.0000    750.1331      5.7557
   596.7500     43.7851      0.0000    750.5082      5.8107
   597.0000     40.2070      0.0000    775.5164      5.8409
   597.2500     39.8028      0.0000    812.5419      5.9120
   597.5000     42.1073      0.0000    831.9863      6.0944
   597.7500     46.0304      0.0000    817.8976      6.3073
   598.0000     50.7349      0.0000    789.2415      6.4655
   598.2500     56.1890      0.0000    765.6824      6.6641
   598.5000     62.6835      0.0000    752.1740      6.9345
   598.7500     69.9487      0.0000    752.7050      7.1439
   599.0000     76.9901      0.0000    764.7406      7.2178
   599.2500     82.7646      0.0000    776.7849      7.1964
   599.5000     86.7992      0.0000    782.7481      7.1396
   599.7500     89.2476      0.0000    783.9257      7.0799
   600.0000     90.6036      0.0000    780.6189      7.0296
   600.2500     91.1616      0.0000    773.4996      7.0007
   600.5000     90.6730      0.0000    766.5571      6.9920
   600.7500     89.0870      0.0000    762.8832      6.9797
   601.0000     87.6399      0.0000    762.6597      6.9550
   601.2500     88.2669      0.0000    765.8744      6.9420
   601.5000     91.5674      0.0000    772.2867      6.9618
   601.7500     96.0080      0.0000    778.1134      7.0069
   602.0000     99.3373      0.0000    777.7266      7.0391
   602.2500    100.2739      0.0000    770.3873      7.0220
   602.5000     98.7576      0.0000    760.7633      6.9621
   602.7500     95.2824      0.0000    754.0449      6.8895
   603.0000     90.5794      0.0000    754.6272      6.8270
   603.2500     85.8234      0.0000    763.4313      6.7980
   603.5000     82.4418      0.0000    773.3162      6.8146
   603.7500     81.1965      0.0000    774.5107      6.8616
   604.0000     81.6367      0.0000    764.8704      6.9155
   604.2500     82.8723      0.0000    749.9892      6.9588
   604.5000     84.7621      0.0000    736.8479      6.9897
   604.7500     87.9837      0.0000    730.2257      7.0439
   605.0000     93.0750      0.0000    730.7410      7.1472
   605.2500     99.5880      0.0000    735.2095      7.2456
   605.5000    105.9359      0.0000    740.8899      7.2639
   605.7500    110.0727      0.0000    747.0696      7.2069
   606.0000    110.7495      0.0000    752.4623      7.1351
   606.2500    108.0881      0.0000    755.4940      7.0874
   606.5000    102.7275      0.0000    755.7020      7.0639
   606.7500     94.9654      0.0000    752.1479      7.0459
   607.0000     85.2382      0.0000    743.5884      7.0218
   607.2500     75.0005      0.0000    732.0309      6.9920
   607.5000     66.5546      0.0000    722.6346      6.9533
   607.7500     61.9442      0.0000    719.0290      6.9036
   608.0000     62.0179      0.0000    721.7518      6.8619
   608.2500     66.4307      0.0000    729.0970      6.8587
   608.5000     74.2250      0.0000    736.0811      6.8947
   608.7500     84.0248      0.0000    737.4938      6.9403
   609.0000     93.8315      0.0000    735.2477      6.9795
   609.2500    101.4154      0.0000    736.4119      7.0209
   609.5000    105.4091      0.0000    742.9187      7.0644
   609.7500    105.8151      0.0000    749.9295      7.0953
   610.0000    103.4994      0.0000    751.6897      7.1081
   610.2500     99.7259      0.0000    741.9929      7.1083
   610.5000     96.1396      0.0000    716.8800      7.1110
   610.7500     94.2784      0.0000    686.0533      7.1289
   611.0000     94.4668      0.0000    667.8593      7.1472
   611.2500     95.5484      0.0000    668.3486      7.1397
   611.5000     96.2318      0.0000    682.9654      7.1154
   611.7500     96.5463      0.0000    706.3300      7.1073
   612.0000     97.5143      0.0000    726.9105      7.1247
   612.2500     99.4940      0.0000    732.5961      7.1471
   612.5000    101.3776      0.0000    722.3257      7.1533
   612.7500    101.6867      0.0000    705.8871      7.1391
   613.0000    100.1282      0.0000    698.8531      7.1073
   613.2500     97.8019      0.0000    708.3249      7.0553
   613.5000     96.1798      0.0000    723.1494      6.9907
   613.7500     96.1805      0.0000    730.5138      6.9450
   614.0000     97.8998      0.0000    730.0698      6.9483
   614.2500    100.5732      0.0000    727.5030      7.0094
   614.5000    102.6320      0.0000    726.5385      7.1050
   614.7500    102.2862      0.0000    726.1245      7.1861
   615.0000     98.5966      0.0000    723.5936      7.2244
   615.2500     92.3353      0.0000    719.6813      7.2239
   615.5000     85.9767      0.0000    716.6895      7.2043
   615.7500     82.4933      0.0000    715.1057      7.1927
   616.0000     83.4888      0.0000    714.0950      7.1916
   616.2500     88.3002      0.0000    711.8119      7.1832
   616.5000     94.8413      0.0000    703.5599      7.1686
   616.7500    100.9371      0.0000    682.8198      7.1701
   617.0000    104.9145      0.0000    652.7415      7.1977
   617.2500    105.9113      0.0000    633.6423      7.2243
   617.5000    104.2792      0.0000    640.2295      7.2175
   617.7500    101.4287      0.0000    661.1970      7.1846
   618.0000     98.8618      0.0000    678.4745      7.1632
   618.2500     97.1671      0.0000    682.7183      7.1672
   618.5000     95.8601      0.0000    666.3061      7.1698
   618.7500     94.3363      0.0000    629.2024      7.1563
   619.0000     92.9460      0.0000    594.1281      7.1560
   619.2500     92.6797      0.0000    592.3763      7.2106
   619.5000     93.8940      0.0000    623.7275      7.3034
   619.7500     96.0971      0.0000    653.4463      7.3495
   620.0000     98.8555      0.0000    660.1220      7.3036
   620.2500    101.9132      0.0000    659.3335      7.2228
   620.5000    104.4030      0.0000    670.7650      7.1782
   620.7500    105.0693      0.0000    689.7670      7.1722
   621.0000    103.5935      0.0000    703.1110      7.1748
   621.2500    101.0376      0.0000    708.4167      7.1811
   621.5000     98.8551      0.0000    709.9288      7.1906
   621.7500     97.8668      0.0000    710.5032      7.1866
   622.0000     98.0423      0.0000    710.8432      7.1749
   622.2500     98.7044      0.0000    710.7817      7.1805
   622.5000     98.9389      0.0000    709.6484      7.2033
   622.7500     98.2423      0.0000    706.5115      7.2156
   623.0000     96.7710      0.0000    702.0252      7.2045
   623.2500     94.7926      0.0000    699.7622      7.2030
   623.5000     92.2810      0.0000    702.3195      7.2356
   623.7500     89.3640      0.0000    707.1923      7.2730
   624.0000     86.7974      0.0000    708.8959      7.2861
   624.2500     85.6359      0.0000    699.4617      7.2734
   624.5000     86.6216      0.0000    665.3327      7.2379
   624.7500     89.9034      0.0000    597.4866      7.1848
   625.0000     94.8698      0.0000    512.3539      7.1389
   625.2500    100.2082      0.0000    444.2572      7.1407
   625.5000    104.6798      0.0000    411.3998      7.1856
   625.7500    107.9309      0.0000    411.2420      7.2085
   626.0000    110.2001      0.0000    443.9187      7.1892
   626.2500    111.3298      0.0000    512.7601      7.1765
   626.5000    110.6157      0.0000    601.5858      7.1939
   626.7500    107.6257      0.0000    677.8412      7.2283
