~Version Information
VERS.                      2.0: CWLS Log ASCII Standard - VERSION 2.0
WRAP.                       NO: One line per depth step
~Well Information Block
STRT.FT               318.1000: 
STOP.FT              2688.0000: 
STEP.FT                 0.1000: 
NULL.                -999.2500: 
COMP.          Petrogulf Corporation: COMPANY
WELL.            Montoya 1-24V: WELL
FLD.           Purgatorie River: FIELD
LOC.           605' FSL & 2557' FWL: LOCATION
CNTY.               Las Animas: COUNTY
SRVC.                         : SERVICE COMPANY
DATE.          Wed Oct 20 14:56:37 2004: LOG DATE
UWI.           05 071 08194 00: UNIQUE WELL ID
STAT.                 Colorado: STATE
~Curve Information Block
DEPT.FT            0 000 00 00: Depth
DCAL.in                       : CDL Caliper
RHOB.g/cc                     : CDL Bulk Density
RHOC.g/cc                     : CDL Density Correction
DPOR.pu                       : CDL Density Porosity
GR.GAPI                       : Gamma Ray
NPOR.pu                       : Neutron Porosity
~Parameter Information Block
~A  Depth       DCAL        RHOB        RHOC        DPOR         GR         NPOR    
# ...
   970.9000      7.9708      2.5596      0.0806      5.4766    140.0400     26.5046
   971.0000      7.9435      2.5621      0.0536      5.3252    131.3531     26.0561
   971.1000      7.9435      2.5649      0.1245      5.1557    133.5072     26.1497
   971.2000      7.9435      2.5513      0.0663      5.9809    144.6536     26.3728
   971.3000      7.9440      2.5226      0.0438      7.7201    155.4705     26.5450
   971.4000      7.9440      2.4956      0.0515      9.3586    162.9531     26.6370
   971.5000      7.9652      2.4793      0.0459     10.3459    169.0930     26.8219
   971.6000      7.9652      2.4669     -0.0088     11.0984    169.6716     27.4737
   971.7000      7.9652      2.4403      0.0630     12.7097    164.2769     28.3438
   971.8000      7.9794      2.4036     -0.0290     14.9309    161.0228     28.6117
   971.9000      7.9794      2.3962      0.0196     15.3802    163.1309     27.9325
   972.0000      7.9874      2.4287      0.1269     13.4126    165.3161     26.7554
   972.1000      7.9874      2.4715      0.1651     10.8180    160.4971     25.8709
   972.2000      7.9874      2.5157      0.1286      8.1380    151.7320     25.4671
   972.3000      7.9585      2.5704      0.1212      4.8223    146.9065     24.8776
   972.4000      7.9585      2.6209      0.1765      1.7656    142.6362     23.9115
   972.5000      7.9445      2.6397      0.1627      0.6251    137.1981     23.1597
   972.6000      7.9445      2.6225      0.2033      1.6669    138.2604     22.8120
   972.7000      7.9445      2.5830      0.1707      4.0628    145.2195     22.5812
   972.8000      7.9493      2.5393      0.0981      6.7090    148.5767     22.4949
   972.9000      7.9493      2.5079      0.1317      8.6101    146.8332     22.7878
   973.0000      7.9430      2.4909      0.1066      9.6422    145.0017     23.4160
   973.1000      7.9430      2.4830      0.0751     10.1230    144.5053     24.1686
   973.2000      7.9430      2.4810      0.1181     10.2416    147.4067     25.0381
   973.3000      7.8912      2.4821      0.1217     10.1775    154.1998     26.0593
   973.4000      7.8912      2.4852      0.1572      9.9894    161.4474     27.0227
   973.5000      7.9624      2.4897      0.1325      9.7150    167.1414     27.6399
   973.6000      7.9624      2.4960      0.1320      9.3344    168.3564     27.9558
   973.7000      7.9624      2.5144      0.1149      8.2162    164.3276     28.4627
   973.8000      8.1179      2.5499      0.1719      6.0690    162.2638     29.0973
   973.9000      8.1179      2.5843      0.1293      3.9822    162.4520     29.4161
   974.0000      8.1201      2.6103      0.0770      2.4043    155.4796     29.7055
   974.1000      8.1201      2.6393      0.0984      0.6500    142.7544     30.3847
   974.2000      8.1201      2.6724      0.1026     -1.3602    133.9197     31.0721
   974.3000      8.1160      2.7041      0.1821     -3.2807    130.8216     31.1387
   974.4000      8.1160      2.7335      0.1923     -5.0635    128.5927     30.6686
   974.5000      7.9902      2.7646      0.2102     -6.9440    124.9779     30.0608
   974.6000      7.9902      2.7854      0.2440     -8.2086    121.5247     29.3837
   974.7000      7.9902      2.7776      0.1988     -7.7322    120.5368     28.9133
   974.8000      7.9747      2.7448      0.1710     -5.7476    118.9673     28.8626
   974.9000      7.9747      2.7116      0.0892     -3.7333    113.1264     28.5557
   975.0000      7.9751      2.6980      0.0433     -2.9087    107.2556     27.4848
   975.1000      7.9751      2.6947      0.0814     -2.7070    106.2993     26.1247
   975.2000      7.9751      2.6794      0.0576     -1.7825    111.2395     25.0614
   975.3000      7.9631      2.6500      0.0377      0.0022    120.5319     24.6134
   975.4000      7.9631      2.6177      0.0498      1.9593    128.3996     24.8194
   975.5000      8.0119      2.5875      0.0195      3.7881    132.7915     25.3043
   975.6000      8.0119      2.5581      0.0374      5.5703    136.8757     25.1954
   975.7000      8.0119      2.5324      0.0061      7.1298    141.0750     24.2777
   975.8000      8.0014      2.5187      0.0025      7.9585    140.6749     23.5197
   975.9000      8.0014      2.5237      0.0142      7.6529    135.4988     23.4127
   976.0000      8.0207      2.5428      0.0322      6.4989    133.4165     23.6474
   976.1000      8.0207      2.5615      0.0491      5.3658    135.3392     24.0607
   976.2000      8.0207      2.5756      0.0807      4.5066    133.8339     24.7305
   976.3000      8.0252      2.5942      0.0248      3.3790    130.1035     25.4850
   976.4000      8.0252      2.6160      0.1077      2.0633    131.2000     25.9212
   976.5000      7.9887      2.6259      0.1182      1.4628    132.9271     26.1538
   976.6000      7.9887      2.6241      0.1440      1.5671    129.4678     26.4551
   976.7000      7.9887      2.6225      0.1065      1.6671    127.4995     26.7973
   976.8000      7.9872      2.6176      0.1240      1.9644    130.8070     27.2354
   976.9000      7.9872      2.6004      0.0786      3.0083    133.9473     27.9139
   977.0000      8.0132      2.5815      0.0689      4.1507    136.6420     28.5224
   977.1000      8.0132      2.5781      0.0723      4.3566    140.7675     28.8458
   977.2000      8.0132      2.5983      0.0480      3.1325    144.0398     29.1034
   977.3000      8.0063      2.6370      0.1277      0.7869    144.0520     29.2133
   977.4000      8.0063      2.6781      0.1687     -1.7032    140.0887     29.0648
   977.5000      7.9690      2.7043      0.1794     -3.2892    136.1472     28.7635
   977.6000      7.9690      2.6983      0.1585     -2.9290    136.6042     28.2124
   977.7000      7.9690      2.6745      0.0503     -1.4821    136.8261     27.6333
   977.8000      7.9316      2.6803      0.0929     -1.8359    131.6270     27.4767
   977.9000      7.9316      2.7199      0.1151     -4.2349    125.8485     27.6236
   978.0000      7.9461      2.7483      0.1428     -5.9577    126.1035     27.7575
   978.1000      7.9461      2.7389      0.1322     -5.3868    129.4524     27.7952
   978.2000      7.9461      2.7067      0.0564     -3.4372    129.4695     27.6759
   978.3000      7.9639      2.6848      0.0510     -2.1085    127.4998     27.2611
   978.4000      7.9639      2.6810      0.0074     -1.8764    128.1532     26.7629
   978.5000      7.9685      2.6775      0.0169     -1.6694    132.9472     26.7489
   978.6000      7.9685      2.6692     -0.0185     -1.1635    138.9480     27.1345
   978.7000      7.9685      2.6659      0.0177     -0.9617    140.0912     27.3063
   978.8000      7.9801      2.6686      0.0378     -1.1243    133.9738     26.9656
   978.9000      7.9801      2.6703      0.0321     -1.2286    125.6855     26.3952
   979.0000      7.9879      2.6613      0.0599     -0.6854    121.2383     26.0061
   979.1000      7.9879      2.6314      0.0634      1.1302    121.9953     25.6943
   979.2000      7.9879      2.5889     -0.0136      3.7032    122.5387     25.1232
   979.3000      8.0041      2.5586     -0.0070      5.5367    120.4920     24.4845
   979.4000      8.0041      2.5517     -0.0121      5.9578    117.5830     24.0863
   979.5000      7.9668      2.5582      0.0390      5.5629    112.2248     23.6382
   979.6000      7.9668      2.5607      0.0422      5.4120    103.1854     22.6964
   979.7000      7.9668      2.5553      0.0030      5.7404     91.9086     21.5228
   979.8000      8.0087      2.5562     -0.0213      5.6864     82.9181     20.7097
   979.9000      8.0087      2.5675      0.0037      5.0030     77.5583     20.3001
   980.0000      7.9914      2.5737      0.0312      4.6215     72.2345     19.9364
   980.1000      7.9914      2.5716      0.0064      4.7503     66.6064     19.3468
   980.2000      7.9914      2.5813     -0.0173      4.1610     64.2525     18.3831
   980.3000      7.9016      2.6055      0.0591      2.6959     66.7053     17.1362
   980.4000      7.9016      2.6178      0.0595      1.9516     72.3178     15.9260
