~Version Information
VERS.                      2.0: CWLS Log ASCII Standard - VERSION 2.0
WRAP.                       NO: One line per depth step
~Well Information Block
STRT.FT                15.0000: 
STOP.FT              2409.7500: 
STEP.FT                 0.2500: 
NULL.                -999.2500: 
COMP.          Pioneer Natural Resources: COMPANY
WELL.          Oink Oink 14-36: WELL
FLD.           Purgatoire River: FIELD
LOC.           216' FSL & 263' FWL: LOCATION
PROV.                 Colorado: PROVINCE
CNTY.               Las Animas: COUNTRY
SRVC.                Patterson: SERVICE COMPANY
DATE.          Wed Jun 22 11:05:26 2005: LOG DATE
UWI.           05 071 08394 00: UNIQUE WELL ID
~Curve Information Block
DEPT.FT            0 000 00 00: Depth
GR.GAPI                       : Gamma Ray
CCL.                          : Casing Collar Locator
TT3.usec                      : CBL 3' Travel Time
AMP3.mV                       : CBL 3' Amplitude
~Parameter Information Block
~A  Depth        GR         CCL         TT3         AMP3    
# ...
  1254.5000     57.9183      0.0000    636.4510      5.6229
  1254.7500     58.2515      0.0000    643.0579      5.6383
  1255.0000     57.0041      0.0000    650.0539      5.6380
  1255.2500     54.4075      0.0000    654.9291      5.6270
  1255.5000     51.5327      0.0000    655.1424      5.6124
  1255.7500     49.7941      0.0000    649.0413      5.6010
  1256.0000     50.3048      0.0000    636.5022      5.5982
  1256.2500     53.3915      0.0000    619.2655      5.6077
  1256.5000     58.3092      0.0000    600.9507      5.6318
  1256.7500     63.2861      0.0000    586.9283      5.6677
  1257.0000     66.2672      0.0000    583.3301      5.7054
  1257.2500     66.1884      0.0000    593.7126      5.7318
  1257.5000     63.7379      0.0000    615.2113      5.7419
  1257.7500     60.8411      0.0000    639.4435      5.7466
  1258.0000     59.3868      0.0000    658.3040      5.7622
  1258.2500     60.2433      0.0000    667.9650      5.7909
  1258.5000     63.1032      0.0000    668.3539      5.8116
  1258.7500     67.0211      0.0000    661.9906      5.7952
  1259.0000     71.2200      0.0000    653.7760      5.7282
  1259.2500     75.6637      0.0000    649.3940      5.6224
  1259.5000     81.0280      0.0000    652.0275      5.5022
  1259.7500     88.0365      0.0000    659.8582      5.3879
  1260.0000     96.6469      0.0000    666.4420      5.2907
  1260.2500    105.7190      0.0000    664.6637      5.2180
  1260.5000    113.5411      0.0000    652.6979      5.1788
  1260.7500    118.9834      0.0000    636.9338      5.1817
  1261.0000    122.4780      0.0000    627.4329      5.2264
  1261.2500    125.6666      0.0000    629.3566      5.2975
  1261.5000    129.4813      0.0000    639.5820      5.3718
  1261.7500    132.5644      0.0000    651.2242      5.4343
  1262.0000    132.2648      0.0000    658.1757      5.4880
  1262.2500    127.4409      0.0000    654.3538      5.5441
  1262.5000    119.9265      0.0000    633.2816      5.6044
  1262.7500    113.1263      0.0000    593.5781      5.6553
  1263.0000    109.3651      0.0000    545.0427      5.6800
  1263.2500    108.5348      0.0000    506.1289      5.6722
  1263.5000    108.9162      0.0000    492.8883      5.6383
  1263.7500    108.9778      0.0000    508.6841      5.5903
  1264.0000    108.2938      0.0000    542.9261      5.5364
  1264.2500    107.1582      0.0000    579.3715      5.4764
  1264.5000    106.0456      0.0000    606.7347      5.4019
  1264.7500    105.5196      0.0000    623.2365      5.3063
  1265.0000    106.1671      0.0000    633.4349      5.1966
  1265.2500    108.4571      0.0000    642.5013      5.0927
  1265.5000    112.7173      0.0000    652.8290      5.0142
  1265.7500    118.8600      0.0000    663.8911      4.9667
  1266.0000    125.8735      0.0000    673.6088      4.9426
  1266.2500    132.0877      0.0000    679.5092      4.9309
  1266.5000    136.4011      0.0000    679.5707      4.9251
  1266.7500    138.9581      0.0000    673.4385      4.9224
  1267.0000    140.4828      0.0000    663.3333      4.9175
  1267.2500    141.4951      0.0000    653.3644      4.9022
  1267.5000    142.2744      0.0000    647.4557      4.8730
  1267.7500    142.8507      0.0000    647.3259      4.8388
  1268.0000    142.7122      0.0000    651.7986      4.8165
  1268.2500    141.0275      0.0000    657.8990      4.8199
  1268.5000    137.5357      0.0000    662.7969      4.8542
  1268.7500    133.1836      0.0000    664.9152      4.9159
  1269.0000    129.7889      0.0000    663.8856      4.9939
  1269.2500    128.9741      0.0000    660.5721      5.0713
  1269.5000    131.3448      0.0000    657.0529      5.1284
  1269.7500    136.2983      0.0000    655.3967      5.1489
  1270.0000    142.0532      0.0000    656.1205      5.1272
  1270.2500    145.9591      0.0000    658.3920      5.0705
  1270.5000    145.6267      0.0000    661.4562      4.9940
  1270.7500    140.4035      0.0000    665.0308      4.9106
  1271.0000    131.7568      0.0000    668.6021      4.8267
  1271.2500    122.0388      0.0000    671.3031      4.7472
  1271.5000    112.7888      0.0000    672.4792      4.6785
  1271.7500    103.9656      0.0000    671.8224      4.6229
  1272.0000     94.5549      0.0000    668.9805      4.5734
  1272.2500     83.9208      0.0000    663.6073      4.5187
  1272.5000     72.6433      0.0000    656.2269      4.4548
  1272.7500     62.0854      0.0000    648.8556      4.3905
  1273.0000     53.3582      0.0000    644.1740      4.3439
  1273.2500     46.9143      0.0000    643.7750      4.3359
  1273.5000     42.9719      0.0000    647.4195      4.3803
  1273.7500     41.6763      0.0000    653.9696      4.4742
  1274.0000     42.5278      0.0000    662.6740      4.5958
  1274.2500     44.1502      0.0000    673.4241      4.7167
  1274.5000     45.1819      0.0000    685.8093      4.8196
  1274.7500     45.2318      0.0000    697.9645      4.9067
  1275.0000     44.5873      0.0000    707.0840      4.9917
  1275.2500     43.3144      0.0000    712.3026      5.0861
  1275.5000     41.3013      0.0000    716.8431      5.1929
  1275.7500     39.1107      0.0000    725.6082      5.3109
  1276.0000     38.0867      0.0000    739.8312      5.4375
  1276.2500     39.3661      0.0000    755.0169      5.5649
  1276.5000     43.0409      0.0000    764.7650      5.6822
  1276.7500     48.2674      0.0000    765.7161      5.7831
  1277.0000     53.9387      0.0000    758.4523      5.8637
  1277.2500     59.4234      0.0000    745.3207      5.9169
  1277.5000     65.0507      0.0000    728.7933      5.9374
  1277.7500     71.8363      0.0000    711.1431      5.9307
  1278.0000     80.3428      0.0000    694.5450      5.9098
  1278.2500     89.7309      0.0000    681.1419      5.8828
  1278.5000     98.1498      0.0000    672.5705      5.8524
  1278.7500    104.1644      0.0000    668.7929      5.8268
  1279.0000    107.6358      0.0000    667.6803      5.8225
  1279.2500    109.3026      0.0000    666.4732      5.8499
  1279.5000    109.9387      0.0000    663.8344      5.9018
  1279.7500    109.9714      0.0000    660.6744      5.9581
  1280.0000    109.3803      0.0000    659.6802      5.9988
  1280.2500    107.7970      0.0000    664.2521      6.0101
  1280.5000    105.1299      0.0000    676.5753      5.9855
  1280.7500    102.1901      0.0000    695.1123      5.9262
  1281.0000    100.2834      0.0000    714.0585      5.8408
  1281.2500    100.1271      0.0000    726.5178      5.7449
  1281.5000    101.5309      0.0000    728.8322      5.6596
  1281.7500    104.0965      0.0000    722.1729      5.6036
  1282.0000    107.7317      0.0000    711.0323      5.5847
  1282.2500    112.3849      0.0000    700.9312      5.6024
  1282.5000    117.5044      0.0000    696.5510      5.6582
  1282.7500    121.9143      0.0000    699.9608      5.7559
  1283.0000    124.2140      0.0000    709.1434      5.8852
  1283.2500    123.4457      0.0000    718.3463      6.0141
  1283.5000    119.6908      0.0000    721.3887      6.1068
  1283.7500    114.3124      0.0000    715.9577      6.1512
  1284.0000    109.4461      0.0000    704.8062      6.1657
  1284.2500    106.7997      0.0000    692.6672      6.1798
  1284.5000    106.7825      0.0000    682.4023      6.2080
  1284.7500    108.8728      0.0000    674.1833      6.2385
  1285.0000    112.5197      0.0000    667.3885      6.2379
  1285.2500    117.2443      0.0000    661.8961      6.1624
  1285.5000    121.9531      0.0000    657.1573      5.9779
  1285.7500    124.6983      0.0000    650.9487      5.6933
  1286.0000    123.6092      0.0000    640.2565      5.3814
  1286.2500    118.3234      0.0000    624.2473      5.1416
  1286.5000    110.5692      0.0000    607.1011      5.0290
  1286.7500    103.3223      0.0000    597.1083      5.0347
  1287.0000     99.1099      0.0000    599.8737      5.1211
  1287.2500     98.6399      0.0000    611.0645      5.2450
  1287.5000    100.6450      0.0000    618.3171      5.3579
  1287.7500    103.0012      2.1474    612.1939      5.4173
