~Version Information
VERS.                      2.0: CWLS Log ASCII Standard - VERSION 2.0
WRAP.                       NO: One line per depth step
~Well Information Block
STRT.FT                 3.0000: 
STOP.FT              1884.7500: 
STEP.FT                 0.2500: 
NULL.                -999.2500: 
COMP.          Pioneer Natural Resources: COMPANY
WELL.          Blackjack 32-11 Tr: WELL
FLD.           Purgatoire River: FIELD
LOC.           2066' FNL & 1453' FEL: LOCATION
PROV.                 Colorado: PROVINCE
CNTY.               Las Animas: COUNTRY
SRVC.                Patterson: SERVICE COMPANY
DATE.          Fri Aug 19 11:07:11 2005: LOG DATE
UWI.           05 071 08310 00: UNIQUE WELL ID
~Curve Information Block
DEPT.FT            0 000 00 00: Depth
CCL.                          : Casing Collar Locator
TT3.usec                      : CBL 3' Travel Time
AMP3.mV                       : CBL 3' Amplitude
GR.GAPI                       : Gamma Ray
~Parameter Information Block
~A  Depth       CCL         TT3         AMP3         GR     
     3.0000   -999.2500   -999.2500   -999.2500     24.1528
     3.2500   -999.2500   -999.2500   -999.2500     19.9871
     3.5000   -999.2500   -999.2500   -999.2500     17.4405
     3.7500   -999.2500   -999.2500   -999.2500     17.0017
     4.0000   -999.2500   -999.2500   -999.2500     18.8381
     4.2500   -999.2500   -999.2500   -999.2500     22.7487
     4.5000   -999.2500   -999.2500   -999.2500     28.0645
     4.7500   -999.2500   -999.2500   -999.2500     33.7601
     5.0000   -999.2500   -999.2500   -999.2500     38.6735
     5.2500   -999.2500   -999.2500   -999.2500     41.8030
     5.5000   -999.2500   -999.2500   -999.2500     42.8947
     5.7500   -999.2500   -999.2500   -999.2500     42.8713
     6.0000   -999.2500   -999.2500   -999.2500     43.2109
     6.2500   -999.2500   -999.2500   -999.2500     44.6142
     6.5000   -999.2500   -999.2500   -999.2500     46.4781
     6.7500   -999.2500   -999.2500   -999.2500     47.6905
     7.0000   -999.2500   -999.2500   -999.2500     47.6784
     7.2500   -999.2500   -999.2500   -999.2500     46.6772
     7.5000   -999.2500   -999.2500   -999.2500     45.3261
     7.7500   -999.2500   -999.2500   -999.2500     44.2636
     8.0000   -999.2500   1476.0000     -0.2162     43.9628
     8.2500   -999.2500   1476.0000     -0.2127     44.5819
     8.5000   -999.2500   1476.0000     -0.2107     45.8581
     8.7500   -999.2500   1476.0000     -0.2108     47.2847
     9.0000   -999.2500   1476.0000     -0.2133     48.4084
     9.2500   -999.2500   1476.0000     -0.2182     48.9484
     9.5000   -999.2500   1476.0000     -0.2247     48.8498
     9.7500   -999.2500   1476.0000     -0.2316     48.4244
    10.0000   -999.2500   1476.0000     -0.2374     48.2944
    10.2500   -999.2500   1476.0000     -0.2421     48.9131
    10.5000   -999.2500   1476.0000     -0.2457     50.0608
    10.7500   -999.2500   1476.0000     -0.2485     50.9414
    11.0000   -999.2500   1476.0000     -0.2497     50.8441
    11.2500   -999.2500   1476.0000     -0.2489     49.6297
    11.5000   -999.2500   1476.0000     -0.2454     47.6431
    11.7500   -999.2500   1476.0000     -0.2383     45.3936
    12.0000   -999.2500   1476.0000     -0.2279     43.4071
    12.2500   -999.2500   1475.9208     -0.2116     42.2666
    12.5000   -999.2500   1475.4017     -0.1724     42.5179
    12.7500   -999.2500   1472.7626     -0.0307     44.1817
    13.0000   -999.2500   1462.3064      0.4799     46.2899
    13.2500   -999.2500   1430.0281      2.0207     47.3478
    13.5000   -999.2500   1352.3781      5.7615     46.7057
    13.7500      0.0000   1206.7839     12.9922     45.3829
    14.0000      0.0000    993.9639     24.0873     45.3641
    14.2500      0.0000    751.3786     37.5941     48.2822
    14.5000      0.0000    535.6835     50.6460     54.6924
    14.7500      0.0000    386.0588     60.6459     63.8622
    15.0000      0.0000    305.2069     66.6251     73.8186
    15.2500      0.0000    271.6605     69.0866     82.1049
    15.5000      0.0000    262.1719     68.9459     87.0954
    15.7500      0.0000    262.7176     66.8486     88.5666
    16.0000      0.0000    267.3398     63.2172     87.0033
    16.2500      0.0000    273.7582     58.5020     82.8126
    16.5000      0.0000    280.7883     53.2749     76.5433
    16.7500      0.0000    287.4587     48.2446     69.5361
    17.0000      0.0000    292.9207     44.1538     63.5975
    17.2500      0.0000    296.6428     41.4657     59.7018
    17.5000     -3.0000    298.6771     40.1192     57.4040
    17.7500      3.0000    299.5065     39.6756     55.8617
    18.0000      3.0000    299.6266     39.6987     55.0946
    18.2500     -3.0000    299.2838     40.0378     55.7332
    18.5000      0.0000    298.5589     40.9043     57.7095
    18.7500      0.0000    297.5253     42.7578     59.8992
    19.0000      0.0000    296.0250     46.0160     61.2805
    19.2500      0.0000    293.1743     50.7284     62.0328
    19.5000      0.0000    287.6732     56.4570     63.1842
    19.7500      0.0000    279.3448     62.3935     65.3782
    20.0000      0.0000    270.0587     67.6225     68.2738
    20.2500      0.0000    262.4172     71.4795     70.9733
    20.5000      0.0000    257.7173     73.8289     72.6450
    20.7500      0.0000    255.5320     75.0090     72.7595
    21.0000      0.0000    254.7596     75.5103     71.2350
    21.2500      0.0000    254.5543     75.7105     68.6092
    21.5000      0.0000    254.5156     75.8136     65.7822
    21.7500      0.0000    254.5082     75.9035     63.3734
    22.0000      0.0000    254.5034     75.9995     61.3858
    22.2500      0.0000    254.4973     76.0948     59.4321
    22.5000      0.0000    254.4944     76.1783     57.2405
    22.7500      0.0000    254.4966     76.2451     55.0697
    23.0000      0.0000    254.5033     76.2960     53.4969
    23.2500      0.0000    254.5120     76.3331     52.5648
    23.5000      0.0000    254.5207     76.3572     51.4237
    23.7500      0.0000    254.5285     76.3699     49.2598
    24.0000      0.0000    254.5349     76.3791     46.3771
    24.2500      0.0000    254.5394     76.4009     43.9870
    24.5000      0.0000    254.5411     76.4493     43.1634
    24.7500      0.0000    254.5405     76.5224     44.1196
    25.0000      0.0000    254.5387     76.6004     46.0699
    25.2500      0.0000    254.5393     76.6480     47.6434
    25.5000      0.0000    254.5573     76.5950     47.9572
    25.7500      0.0000    254.6595     76.2899     47.5601
    26.0000      0.0000    255.0531     75.4677     48.0127
    26.2500      0.0000    256.2108     73.7943     50.2987
    26.5000      0.0000    258.8804     71.0065     53.7796
    26.7500      0.0000    263.7347     67.0650     56.7944
    27.0000      0.0000    270.7315     62.1883     58.1331
    27.2500      0.0000    278.8416     56.7391     57.8183
    27.5000      0.0000    287.0442     51.0783     56.6377
    27.7500      0.0000    296.4834     45.5062     55.2527
    28.0000      0.0000    312.7073     40.2649     53.8241
    28.2500      0.0000    345.8795     35.5038     52.2442
    28.5000      0.0000    406.2505     31.2226     50.5340
    28.7500      0.0000    495.2549     27.3107     48.9884
    29.0000      0.0000    599.7620     23.7023     48.0081
    29.2500      0.0000    697.6951     20.4803     47.8325
    29.5000      0.0000    771.4254     17.8142     48.4219
    29.7500      0.0000    816.0952     15.8224     49.5947
    30.0000      0.0000    837.1939     14.4988     51.2436
    30.2500      0.0000    843.4346     13.7244     53.2861
    30.5000      0.0000    842.0365     13.3227     55.4310
    30.7500      0.0000    837.4876     13.1236     57.2108
    31.0000      0.0000    831.8024     13.0076     58.1914
    31.2500      0.0000    825.3260     12.9135     57.9797
    31.5000      0.0000    817.9675     12.8221     56.3083
    31.7500      0.0000    809.9783     12.7355     53.5198
    32.0000      0.0000    801.7409     12.6613     50.7631
    32.2500      0.0000    793.4152     12.6034     49.2170
    32.5000      0.0000    785.3688     12.5568     49.1197
    32.7500      0.0000    778.5305     12.5116     49.8150
    33.0000      0.0000    773.7708     12.4625     50.6299
    33.2500      0.0000    771.1296     12.4175     51.3636
    33.5000      0.0000    769.9284     12.3934     51.8962
    33.7500      0.0000    769.4123     12.4005     51.7510
    34.0000      0.0000    769.1469     12.4323     50.4192
    34.2500      0.0000    769.0015     12.4717     47.9756
    34.5000      0.0000    769.0030     12.5084     45.0919
    34.7500      0.0000    769.1901     12.5525     42.5198
    35.0000      0.0000    769.5239     12.6268     40.6777
    35.2500      0.0000    769.8914     12.7426     39.5554
    35.5000      0.0000    770.1859     12.8827     38.9339
    35.7500      0.0000    770.3749     13.0134     38.8439
    36.0000      0.0000    770.4849     13.1113     39.6886
    36.2500      0.0000    770.5477     13.1750     41.6334
