~Version Information
VERS.                      2.0: CWLS Log ASCII Standard - VERSION 2.0
WRAP.                       NO: One line per depth step
~Well Information Block
STRT.FT               491.0000: 
STOP.FT              1055.5000: 
STEP.FT                 0.1000: 
NULL.                -999.2500: 
COMP.          Evergreen Operating Corporation: COMPANY
WELL.              Sunset 24-3: WELL
FLD.           Purgatorie River: FIELD
LOC.           467' FSL & 2262' FWL: LOCATION
PROV.                 Colorado: PROVINCE
CNTY.               Las Animas: COUNTRY
SRVC.                         : SERVICE COMPANY
DATE.          Wed Sep 22 14:05:09 2004: LOG DATE
UWI.           05 071 08158 00: UNIQUE WELL ID
~Curve Information Block
DEPT.FT            0 000 00 00: Depth
DCAL.in                       : CDL Caliper
RHOB.g/cc                     : CDL Bulk Density
RHOC.g/cc                     : CDL Density Correction
DPOR.pu                       : CDL Density Porosity
GR.GAPI                       : Gamma Ray
NPOR.pu                       : Neutron Porosity
~Parameter Information Block
~A  Depth       DCAL        RHOB        RHOC        DPOR         GR         NPOR    
# ...
   894.2000      7.9654      2.3782      0.0420     16.4726     96.4648     19.5534
   894.3000      7.9538      2.3882      0.1031     15.8661     92.1042     19.6968
   894.4000      7.9538      2.3890      0.0530     15.8210     90.3722     19.7004
   894.5000      7.9493      2.3772      0.0643     16.5348     88.0248     18.6542
   894.6000      7.9493      2.3659     -0.0005     17.2171     82.7024     16.9808
   894.7000      7.9493      2.3661      0.0348     17.2033     76.8926     15.8769
   894.8000      7.9474      2.3785      0.0358     16.4527     73.6252     15.6367
   894.9000      7.9474      2.3995      0.0197     15.1789     73.6053     15.4902
   895.0000      7.9468      2.4221      0.0676     13.8112     72.9400     15.2185
   895.1000      7.9468      2.4393      0.0660     12.7703     70.0917     15.2538
   895.2000      7.9468      2.4528      0.0534     11.9489     67.7028     15.7263
   895.3000      7.9465      2.4621      0.0767     11.3903     66.5636     16.4797
   895.4000      7.9465      2.4635      0.0205     11.3047     66.4649     17.2999
   895.5000      7.9512      2.4590      0.0733     11.5777     66.8226     17.7513
   895.6000      7.9512      2.4471      0.0597     12.2973     67.5416     17.7739
   895.7000      7.9512      2.4274      0.0441     13.4920     67.8914     17.9739
   895.8000      7.9812      2.4070      0.0182     14.7295     67.4542     19.0141
   895.9000      7.9812      2.3935      0.0350     15.5463     70.1245     20.6612
   896.0000      7.9875      2.3818      0.0578     16.2542     78.3298     22.1759
   896.1000      7.9875      2.3664      0.0078     17.1862     86.0112     23.1091
   896.2000      7.9875      2.3547      0.0298     17.8989     85.7590     22.8360
   896.3000      7.9869      2.3496      0.0052     18.2031     78.1293     21.3774
   896.4000      7.9869      2.3510      0.0099     18.1229     70.3528     19.8270
   896.5000      7.9847      2.3608      0.0080     17.5302     68.7586     19.0609
   896.6000      7.9847      2.3737      0.0417     16.7475     70.4351     19.1153
   896.7000      7.9847      2.3807      0.0207     16.3225     69.0547     19.8095
   896.8000      7.9811      2.3795      0.0592     16.3968     66.2309     20.8100
   896.9000      7.9811      2.3728      0.0123     16.8007     67.6056     21.7046
   897.0000      7.9601      2.3651      0.0592     17.2654     74.3697     22.4525
   897.1000      7.9601      2.3576      0.0381     17.7206     82.9620     23.1750
   897.2000      7.9601      2.3544      0.0084     17.9133     85.6973     23.5651
   897.3000      7.9838      2.3572      0.0268     17.7444     78.3315     22.9577
   897.4000      7.9838      2.3573      0.0239     17.7365     68.5659     21.5690
   897.5000      7.9823      2.3553      0.0034     17.8631     64.3917     20.2400
   897.6000      7.9823      2.3621      0.0177     17.4474     65.5971     19.4197
   897.7000      7.9823      2.3763      0.0511     16.5875     68.9929     19.0730
   897.8000      7.9867      2.3863      0.0687     15.9801     71.9707     18.7870
   897.9000      7.9867      2.3917      0.0526     15.6518     73.6893     18.5774
   898.0000      7.9937      2.3972      0.0734     15.3213     71.9837     18.7439
   898.1000      7.9937      2.3988      0.0523     15.2243     65.2860     19.0533
   898.2000      7.9937      2.3923      0.0629     15.6177     59.3120     19.1419
   898.3000      8.0143      2.3851      0.0148     16.0568     61.0647     18.6165
   898.4000      8.0143      2.3911      0.0259     15.6903     66.6778     17.5103
   898.5000      7.9554      2.4078      0.0427     14.6785     68.1615     16.8576
   898.6000      7.9554      2.4203      0.0521     13.9236     68.4140     17.0205
   898.7000      7.9554      2.4258      0.0345     13.5887     73.2929     17.3209
   898.8000      7.9498      2.4287      0.0674     13.4110     76.6991     17.7329
   898.9000      7.9498      2.4274      0.0769     13.4890     71.6277     18.6438
   899.0000      7.9460      2.4253     -0.0022     13.6171     65.2494     19.7893
   899.1000      7.9460      2.4271      0.0501     13.5071     67.0178     20.4894
   899.2000      7.9460      2.4273      0.0698     13.4965     73.4116     20.6111
   899.3000      7.9448      2.4275      0.0311     13.4857     76.1119     20.8729
   899.4000      7.9448      2.4359      0.0392     12.9760     73.3640     21.4430
   899.5000      7.9398      2.4492      0.0410     12.1721     68.5615     21.6567
   899.6000      7.9398      2.4599      0.0469     11.5184     65.7183     21.2689
   899.7000      7.9398      2.4657      0.0849     11.1693     68.1820     20.7907
   899.8000      7.9207      2.4716      0.0389     10.8143     74.3933     20.3943
   899.9000      7.9207      2.4863      0.0618      9.9218     79.9463     19.7122
   900.0000      7.9182      2.5041      0.0916      8.8395     84.3452     18.9143
   900.1000      7.9182      2.5149      0.0707      8.1882     88.9494     18.9487
   900.2000      7.9182      2.5184      0.0910      7.9765     91.3510     19.8655
   900.3000      7.9188      2.5130      0.0799      8.3005     89.9508     20.0952
   900.4000      7.9188      2.4997      0.0640      9.1071     87.9944     19.1197
   900.5000      7.9238      2.4913      0.0138      9.6187     87.9776     18.2852
   900.6000      7.9238      2.4957     -0.0050      9.3506     89.4936     18.2785
   900.7000      7.9238      2.4988      0.0593      9.1665     91.7013     18.7632
   900.8000      7.9420      2.4845      0.0390     10.0308     92.6216     19.4312
   900.9000      7.9420      2.4648      0.0236     11.2256     89.6533     19.9171
   901.0000      7.9437      2.4607      0.0192     11.4754     85.1347     20.0198
   901.1000      7.9437      2.4693      0.0780     10.9532     84.8064     20.2313
   901.2000      7.9437      2.4732      0.0755     10.7169     85.8443     20.8557
   901.3000      7.9451      2.4647      0.0552     11.2275     82.0406     21.4327
   901.4000      7.9451      2.4450      0.0699     12.4224     77.3700     21.3539
   901.5000      7.9441      2.4192      0.0303     13.9856     77.3642     20.8535
   901.6000      7.9441      2.3999      0.0042     15.1597     80.2063     20.7585
   901.7000      7.9441      2.3949      0.0419     15.4609     83.1332     21.2240
   901.8000      7.9454      2.4040     -0.0133     14.9066     86.8602     21.4534
   901.9000      7.9454      2.4250      0.0516     13.6367     91.7857     21.1774
   902.0000      7.9467      2.4454      0.0161     12.3988     94.8225     21.0262
   902.1000      7.9467      2.4499      0.0739     12.1262     91.6971     21.4201
   902.2000      7.9467      2.4389      0.0200     12.7940     85.5666     22.1107
   902.3000      7.9516      2.4316      0.0192     13.2382     81.1216     22.3192
   902.4000      7.9516      2.4350      0.0527     13.0300     78.2628     22.0105
   902.5000      7.9473      2.4371      0.0669     12.9003     80.1609     21.8461
   902.6000      7.9473      2.4342      0.0583     13.0781     88.0617     21.8295
   902.7000      7.9473      2.4362      0.0424     12.9563     94.5826     21.6680
   902.8000      7.9452      2.4510      0.0264     12.0598     96.4779     21.1812
   902.9000      7.9452      2.4722      0.0788     10.7769     99.0883     20.6442
   903.0000      7.9418      2.4825      0.0667     10.1542    103.5272     20.3841
   903.1000      7.9418      2.4762      0.0550     10.5307    103.2619     20.0495
   903.2000      7.9418      2.4730      0.0613     10.7263     97.7678     19.1934
   903.3000      7.9208      2.4904      0.0530      9.6724     92.8543     18.1172
   903.4000      7.9208      2.5190      0.0673      7.9415     92.5055     17.7536
   903.5000      7.9171      2.5364      0.1281      6.8853     98.5870     18.3243
   903.6000      7.9171      2.5393      0.0629      6.7085    107.1139     19.0401
   903.7000      7.9171      2.5463      0.0511      6.2862    110.8849     19.3665
