~Version Information
VERS.                      2.0: CWLS Log ASCII Standard - VERSION 2.0
WRAP.                       NO: One line per depth step
~Well Information Block
STRT.FT               418.4000: 
STOP.FT              1170.0000: 
STEP.FT                 0.1000: 
NULL.                -999.2500: 
COMP.          Evergreen Operating Corporation: COMPANY
WELL.             Bernice 21-3: WELL
FLD.           Purgatoire River: FIELD
LOC.           201' FNL & 2575' FWL: LOCATION
PROV.                 Colorado: PROVINCE
CNTY.               Las Animas: COUNTRY
SRVC.                Patterson: SERVICE COMPANY
DATE.          Mon Jan 26 14:55:16 2004: LOG DATE
UWI.             05 071 07912 : UNIQUE WELL ID
~Curve Information Block
DEPT.FT            0 000 00 00: Depth
DCAL.in                       : CDL Caliper
RHOB.g/cc                     : CDL Bulk Density
RHOC.g/cc                     : CDL Density Correction
DPOR.pu                       : CDL Density Porosity
NPOR.pu                       : Neutron Porosity
GR.GAPI                       : Gamma Ray
~Parameter Information Block
~A  Depth       DCAL        RHOB        RHOC        DPOR        NPOR         GR     
# ...
   850.4000      8.2637      2.3497     -0.0316     18.1998     29.8633    114.9445
   850.5000      8.2648      2.2775     -0.0455     22.5780     30.7758    115.7688
   850.6000      8.2648      2.2101     -0.0866     26.6609     31.7013    119.8374
   850.7000      8.2648      2.1422     -0.0223     30.7730     32.2781    119.2336
   850.8000      8.2728      2.0531     -0.0628     36.1777     32.4537    111.8692
   850.9000      8.2728      1.9443     -0.0805     42.7716     32.5486    102.9260
   851.0000      8.2713      1.8337     -0.1048     49.4719     32.7920     96.7531
   851.1000      8.2713      1.7319     -0.0715     55.6454     33.0452     94.6065
   851.2000      8.2713      1.6437     -0.0854     60.9868     33.0479     91.5173
   851.3000      8.2590      1.5661     -0.0499     65.6886     32.9423     82.1265
   851.4000      8.2590      1.4881     -0.0300     70.4210     32.9013     70.9061
   851.5000      8.2513      1.4230     -0.0887     74.3618     32.7456     62.7296
   851.6000      8.2513      1.4103     -0.0188     75.1333     32.2724     59.5224
   851.7000      8.2513      1.4657      0.0416     71.7743     31.4037     63.2439
   851.8000      8.4240      1.5692      0.0871     65.5029     30.3053     69.9946
   851.9000      8.4240      1.6865      0.1548     58.3965     29.4066     74.6900
   852.0000      8.4867      1.7930      0.1966     51.9391     28.8345     80.3176
   852.1000      8.4867      1.8859      0.2016     46.3106     28.2840     89.3005
   852.2000      8.4867      1.9687      0.2092     41.2919     27.6407     98.3871
   852.3000      8.5549      2.0487      0.1449     36.4448     27.0875    107.0439
   852.4000      8.5549      2.1383      0.1524     31.0149     26.8283    116.6230
   852.5000      8.3993      2.2278      0.1703     25.5888     27.0077    124.6008
   852.6000      8.3993      2.2952      0.0962     21.5056     27.4144    128.7608
   852.7000      8.3993      2.3436      0.0468     18.5687     27.6534    131.6555
   852.8000      8.2705      2.3897      0.0251     15.7784     27.5427    135.3719
   852.9000      8.2705      2.4337      0.0545     13.1074     27.1069    138.5922
   853.0000      8.2581      2.4662      0.0525     11.1392     26.8010    136.3587
   853.1000      8.2581      2.4886      0.0419      9.7796     26.8597    127.5725
   853.2000      8.2581      2.5068      0.0523      8.6800     26.7804    121.6824
   853.3000      8.2584      2.5170      0.0661      8.0634     26.6122    126.1884
   853.4000      8.2584      2.5190      0.0494      7.9372     26.7111    137.7775
   853.5000      8.2533      2.5212      0.0671      7.8056     26.6032    145.4086
   853.6000      8.2533      2.5308      0.0222      7.2243     26.0911    141.9565
   853.7000      8.2533      2.5498      0.0287      6.0748     25.8671    134.5107
   853.8000      8.2520      2.5635      0.0500      5.2408     26.1687    131.5518
   853.9000      8.2520      2.5580      0.0359      5.5780     26.6055    130.4134
   854.0000      8.2476      2.5418      0.0250      6.5554     26.7159    123.9378
   854.1000      8.2476      2.5233      0.0311      7.6810     26.3960    113.0165
   854.2000      8.2476      2.5017     -0.0025      8.9873     26.2886    109.2761
   854.3000      8.2466      2.4877     -0.0488      9.8357     26.6181    117.4285
   854.4000      8.2466      2.4872      0.0065      9.8687     26.7492    129.0566
   854.5000      8.2483      2.4961     -0.0436      9.3297     26.5508    135.0881
   854.6000      8.2483      2.5160      0.0100      8.1191     26.6426    134.7617
   854.7000      8.2483      2.5379      0.0334      6.7929     27.3336    131.0522
   854.8000      8.2413      2.5446      0.0364      6.3849     28.1193    125.6105
   854.9000      8.2413      2.5315      0.0334      7.1823     28.4625    122.8207
   855.0000      8.2505      2.5062      0.0221      8.7154     28.4394    124.8484
   855.1000      8.2505      2.4730      0.0370     10.7278     28.4340    125.1931
   855.2000      8.2505      2.4256      0.0065     13.6003     28.6942    122.1025
   855.3000      8.2534      2.3647     -0.0169     17.2897     29.2864    123.3031
   855.4000      8.2534      2.3072     -0.0748     20.7732     30.0869    126.7080
   855.5000      8.2545      2.2637     -0.0413     23.4118     30.8258    122.5794
   855.6000      8.2545      2.2171     -0.0623     26.2391     31.2669    112.6672
   855.7000      8.2545      2.1443     -0.0542     30.6509     31.5010    104.9841
   855.8000      8.2622      2.0428     -0.0828     36.8015     31.7249     99.9992
   855.9000      8.2622      1.9297     -0.1111     43.6555     31.8979     94.5798
   856.0000      8.2741      1.8226     -0.1032     50.1476     32.0240     88.0768
   856.1000      8.2741      1.7272     -0.1250     55.9294     32.2739     82.4275
   856.2000      8.2741      1.6418     -0.0982     61.1014     32.6602     81.0950
   856.3000      8.3003      1.5625     -0.0953     65.9110     33.0792     82.0754
   856.4000      8.3003      1.4902     -0.0943     70.2909     33.4880     80.1703
   856.5000      8.3628      1.4333     -0.0978     73.7409     33.8647     76.1381
   856.6000      8.3628      1.3942     -0.0360     76.1117     33.9830     71.0521
   856.7000      8.3628      1.3645      0.0104     77.9102     33.6311     63.8296
   856.8000      8.6915      1.3385      0.0401     79.4821     33.1457     57.1721
   856.9000      8.6915      1.3204      0.0470     80.5819     32.9962     54.7657
   857.0000      9.0354      1.3167      0.0277     80.8067     33.0622     57.6504
   857.1000      9.0354      1.3260      0.0372     80.2424     32.9444     62.0325
   857.2000      9.0354      1.3378      0.0510     79.5256     32.6184     61.0881
   857.3000      8.6585      1.3450      0.0308     79.0882     32.4496     55.3090
   857.4000      8.6585      1.3462      0.0582     79.0210     32.5705     51.2898
   857.5000      8.4184      1.3455      0.0233     79.0628     32.8570     51.7679
   857.6000      8.4184      1.3552      0.0330     78.4730     33.3325     58.0928
   857.7000      8.4184      1.3801      0.0505     76.9654     33.7297     70.4215
   857.8000      8.4253      1.4091      0.0889     75.2045     33.6612     82.1528
   857.9000      8.4253      1.4293      0.0644     73.9807     33.3018     86.8657
   858.0000      8.5211      1.4343      0.1051     73.6768     33.0777     84.8119
   858.1000      8.5211      1.4204      0.1186     74.5194     33.1380     79.2856
   858.2000      8.5211      1.3936      0.0785     76.1456     33.3342     75.0839
   858.3000      8.6354      1.3692      0.0524     77.6246     33.2924     74.7836
   858.4000      8.6354      1.3532      0.0400     78.5918     32.9361     75.9195
   858.5000      8.6217      1.3405      0.0233     79.3627     32.6886     77.0173
   858.6000      8.6217      1.3350     -0.0451     79.6980     32.6989     80.5511
   858.7000      8.6217      1.3548     -0.0516     78.4967     32.6409     86.1166
   858.8000      8.6038      1.4089      0.0099     75.2163     32.3619     92.8549
   858.9000      8.6038      1.4842      0.0783     70.6550     31.9450    101.5404
   859.0000      8.6859      1.5606      0.1049     66.0216     31.4955    108.9926
   859.1000      8.6859      1.6269      0.1406     62.0070     31.1098    117.7225
   859.2000      8.6859      1.6849      0.1408     58.4897     30.6683    132.6372
   859.3000      8.7768      1.7517      0.1276     54.4404     29.9395    148.8366
   859.4000      8.7768      1.8431      0.1219     48.9005     28.9696    159.0077
   859.5000      8.5625      1.9555      0.1404     42.0892     28.3099    159.4629
   859.6000      8.5625      2.0700      0.1413     35.1530     28.3656    155.9905
   859.7000      8.5625      2.1682      0.1145     29.2012     28.6087    155.7575
   859.8000      8.1631      2.2421      0.1137     24.7213     28.5140    157.1664
   859.9000      8.1631      2.2965      0.1433     21.4219     28.3887    156.8109
