~Version Information
VERS.                      2.0: CWLS Log ASCII Standard - VERSION 2.0
WRAP.                       NO: One line per depth step
~Well Information Block
STRT.FT               -14.0000: 
STOP.FT              2531.7500: 
STEP.FT                 0.2500: 
NULL.                -999.2500: 
COMP.          Petrogulf Corporation: COMPANY
WELL.            Lavedure 7-44: WELL
FLD.           Purgatorie River: FIELD
LOC.           969' FSL & 501' FEL--: LOCATION
PROV.                       CO: PROVINCE
CNTY.               Las Animas: COUNTRY
SRVC.          Patterson Wireline: SERVICE COMPANY
DATE.          Wed Dec 10 09:23:08 2003: LOG DATE
UWI.                          : UNIQUE WELL ID
~Curve Information Block
DEPT.FT            0 000 00 00: Depth
CCL.                          : Casing Collar Locator
TT3.usec                      : CBL 3' Travel Time
AMP3.mV                       : CBL 3' Amplitude
GR.GAPI                       : Gamma Ray
~Parameter Information Block
~A  Depth       CCL         TT3         AMP3         GR     
   -14.0000   -999.2500   -999.2500   -999.2500   -999.2500
   -13.7500   -999.2500   -999.2500   -999.2500     97.0499
   -13.5000   -999.2500   -999.2500   -999.2500     99.2593
   -13.2500   -999.2500   -999.2500   -999.2500    100.0863
   -13.0000   -999.2500   -999.2500   -999.2500     98.9081
   -12.7500   -999.2500   -999.2500   -999.2500     96.1136
   -12.5000   -999.2500   -999.2500   -999.2500     92.7466
   -12.2500   -999.2500   -999.2500   -999.2500     89.8003
   -12.0000   -999.2500   -999.2500   -999.2500     87.8906
   -11.7500   -999.2500   -999.2500   -999.2500     87.1282
   -11.5000   -999.2500   -999.2500   -999.2500     87.0227
   -11.2500   -999.2500   -999.2500   -999.2500     86.8585
   -11.0000   -999.2500   -999.2500   -999.2500     86.4756
   -10.7500   -999.2500   -999.2500   -999.2500     86.4605
   -10.5000   -999.2500   -999.2500   -999.2500     87.3113
   -10.2500   -999.2500   -999.2500   -999.2500     88.6073
   -10.0000   -999.2500   -999.2500   -999.2500     89.3993
    -9.7500   -999.2500   -999.2500   -999.2500     89.5318
    -9.5000   -999.2500   -999.2500   -999.2500     90.2079
    -9.2500   -999.2500   -999.2500   -999.2500     92.7521
    -9.0000   -999.2500   -999.2500   -999.2500     96.9222
    -8.7500   -999.2500   -999.2500   -999.2500    100.9188
    -8.5000   -999.2500   1500.0000      1.0386    102.9363
    -8.2500   -999.2500   1500.0000      1.0630    102.3718
    -8.0000   -999.2500   1500.0000      1.0747     99.9039
    -7.7500   -999.2500   1500.0000      1.0744     96.9815
    -7.5000   -999.2500   1500.0000      1.0638     95.0625
    -7.2500   -999.2500   1500.0000      1.0487     94.8708
    -7.0000   -999.2500   1500.0000      1.0364     96.3154
    -6.7500   -999.2500   1500.0000      1.0290     98.9861
    -6.5000   -999.2500   1500.0000      1.0219    102.2943
    -6.2500   -999.2500   1500.0000      1.0072    105.2056
    -6.0000   -999.2500   1500.0000      0.9747    106.6437
    -5.7500   -999.2500   1500.0000      0.9135    106.4406
    -5.5000   -999.2500   1500.0000      0.8174    105.2466
    -5.2500   -999.2500   1500.0000      0.6950    103.3393
    -5.0000   -999.2500   1500.0000      0.5734    100.3203
    -4.7500   -999.2500   1500.0000      0.4878     96.4138
    -4.5000   -999.2500   1500.0000      0.4645     93.3419
    -4.2500   -999.2500   1500.0000      0.5104     93.0249
    -4.0000   -999.2500   1500.0000      0.6133     95.3624
    -3.7500   -999.2500   1500.0000      0.7438     97.8486
    -3.5000   -999.2500   1500.0000      0.8619     97.6185
    -3.2500   -999.2500   1500.0000      0.9340     93.7435
    -3.0000      0.0000   1500.0000      0.9516     87.5936
    -2.7500      0.0000   1500.0000      0.9320     81.3046
    -2.5000      0.0000   1500.0000      0.9038     76.1283
    -2.2500      0.0000   1500.0000      0.8887     72.0759
    -2.0000      1.5735   1500.0000      0.8898     68.5583
    -1.7500      2.0000   1500.0000      0.8932     64.9445
    -1.5000      0.0000   1500.0000      0.8862     60.7783
    -1.2500      2.0000   1500.0000      0.8721     55.9496
    -1.0000      0.0000   1500.0000      0.8604     50.7979
    -0.7500      0.0000   1500.0000      0.8512     46.0044
    -0.5000      0.0000   1500.0000      0.8356     42.3431
    -0.2500      0.0000   1500.0000      0.8063     40.3313
     0.0000      0.0000   1500.0000      0.7617     39.8580
     0.2500      0.0000   1500.0000      0.6487     40.2996
     0.5000      0.0000   1500.0000      0.6055     41.2943
     0.7500      0.0000   1500.0000      0.5834     43.2111
     1.0000      0.0000   1500.0000      0.5761     46.5753
     1.2500      0.0000   1500.0000      0.5704     51.2556
     1.5000      0.0000   1500.0000      0.5607     56.3832
     1.7500      0.0000   1500.0000      0.5559     60.7703
     2.0000      0.0000   1500.0000      0.5702     63.3249
     2.2500      0.0000   1500.0000      0.6106     63.5699
     2.5000      0.0000   1500.0000      0.6756     62.1106
     2.7500      0.0000   1500.0000      0.7613     60.3042
     3.0000      0.0000   1500.0000      0.8618     59.1218
     3.2500      1.9354   1500.0000      0.9623     58.5338
     3.5000      0.0000   1500.0000      1.0383     58.2597
     3.7500      0.0000   1500.0000      1.0644     58.7062
     4.0000      0.0000   1500.0000      1.0309     60.6276
     4.2500      0.0000   1500.0000      0.9573     64.0586
     4.5000      0.0000   1500.0000      0.8891     68.1348
     4.7500      0.0000   1500.0000      0.8702     71.9405
     5.0000      0.0000   1500.0000      0.9076     75.0104
     5.2500      0.0000   1500.0000      0.9644     76.8914
     5.5000      0.0000   1500.0000      0.9909     76.9637
     5.7500      0.0000   1500.0000      0.9658     75.4248
     6.0000      0.0000   1500.0000      0.9115     73.9921
     6.2500      0.0000   1500.0000      0.8750     74.8098
     6.5000      0.0000   1500.0000      0.8909     78.6856
     6.7500      0.0000   1500.0000      0.9537     84.6883
     7.0000      0.0000   1500.0000      1.0204     91.0392
     7.2500      0.0000   1500.0000      1.0438     95.9472
     7.5000      0.0000   1500.0000      1.0093     98.1158
     7.7500      0.0000   1500.0000      0.9455     97.3629
     8.0000      0.0000   1500.0000      0.9017     94.9874
     8.2500      0.0000   1500.0000      0.9096     92.9760
     8.5000      0.0000   1500.0000      0.9585     92.4069
     8.7500      0.0000   1500.0000      1.0059     92.6160
     9.0000      0.0000   1500.0000      1.0157     92.0210
     9.2500      0.0000   1499.9293      0.9892     89.7539
     9.5000      0.0000   1499.4569      0.9640     86.5237
     9.7500      0.0000   1497.0405      0.9983     83.9257
    10.0000      0.0000   1487.3972      1.2067     82.8606
    10.2500      0.0000   1457.3511      1.8885     82.6340
    10.5000      0.0000   1384.2200      3.6658     81.6393
    10.7500      0.0000   1245.0637      7.3703     78.9657
    11.0000      0.0000   1037.8663     13.4810     75.3414
    11.2500      0.0000    796.2023     21.4411     72.5227
    11.5000      0.0000    575.1349     29.6373     71.7383
    11.7500      0.0000    416.3045     36.3173     72.7240
    12.0000      0.0000    326.5349     40.6431     74.2103
    12.2500      0.0000    286.5475     42.9162     75.0767
    12.5000      0.0000    272.4717     43.9956     74.8954
    12.7500      0.0000    268.5325     44.6285     73.6823
    13.0000      0.0000    267.6353     45.1614     71.5678
    13.2500      0.0000    267.4482     45.6049     68.7574
    13.5000      0.0000    267.4025     45.8519     65.6185
    13.7500      0.0000    267.3763     45.8733     62.6749
    14.0000      0.0000    267.3589     45.7715     60.4668
    14.2500      0.0000    267.3463     45.6961     59.3326
    14.5000      0.0000    267.3313     45.7425     59.2288
    14.7500      0.0000    267.3098     45.9312     59.7510
    15.0000      0.0000    267.2841     46.2399     60.4162
    15.2500      0.0000    267.2596     46.6149     61.0044
    15.5000      0.0000    267.2375     46.9716     61.5823
    15.7500      0.0000    267.2143     47.2348     62.0943
    16.0000      0.0000    267.1870     47.3954     62.0077
    16.2500      0.0000    267.1609     47.5045     60.5790
    16.5000      0.0000    267.1470     47.6059     57.5392
    16.7500      0.0000    267.1512     47.6919     53.5145
    17.0000      0.0000    267.1680     47.7432     49.8445
    17.2500      0.0000    267.1862     47.7961     47.9391
    17.5000      0.0000    267.2013     47.9331     48.5293
    17.7500      0.0000    267.2186     48.1870     51.3346
    18.0000      0.0000    267.2441     48.4772     55.4762
    18.2500      0.0000    267.2926     48.6748     60.1602
    18.5000      0.0000    267.4519     48.7095     64.8599
    18.7500      0.0000    268.1488     48.5577     69.0395
    19.0000      0.0000    270.6045     48.0833     72.1032
    19.2500      0.0000    277.1489     46.9108     73.8102
