~Version Information
VERS.                      2.0: CWLS Log ASCII Standard - VERSION 2.0
WRAP.                       NO: One line per depth step
~Well Information Block
STRT.FT               660.8000: 
STOP.FT              2375.1000: 
STEP.FT                 0.1000: 
NULL.                -999.2500: 
COMP.          Petrogulf Corporation: COMPANY
WELL.             State 16-34V: WELL
FLD.           Purgatorie River: FIELD
LOC.           1146' FSL & 1393' FEL: LOCATION
CNTY.               Las Animas: COUNTY
SRVC.                         : SERVICE COMPANY
DATE.          Sat Jun 07 20:51:20 2003: LOG DATE
UWI.           05 071 07724 00: UNIQUE WELL ID
STAT.                 Colorado: STATE
~Curve Information Block
DEPT.FT            0 000 00 00: Depth
DCAL.in                       : Caliper from Density Tool
RHOB.g/cc                     : Bulk Density
RHOC.g/cc                     : Density Correction
DPOR.pu                       : Density Porosity
GR.GAPI                       : Gamma Ray
NPOR.pu                       : Neutron Porosity
~Parameter Information Block
~A  Depth       DCAL        RHOB        RHOC        DPOR         GR         NPOR    
# ...
  1121.6000      7.9782      2.6170      0.0555      2.0026    103.2338     27.8655
  1121.7000      7.9782      2.6170      0.0555      2.0026    103.4680     28.0245
  1121.8000      7.9341      2.6311      0.0537      1.1473    103.8800     28.1001
  1121.9000      7.9341      2.6311      0.0537      1.1473    104.4696     28.0955
  1122.0000      7.8769      2.6339      0.0539      0.9774    105.2180     28.0206
  1122.1000      7.8769      2.6339      0.0539      0.9774    106.0871     27.8910
  1122.2000      7.8769      2.6339      0.0539      0.9774    107.0205     27.7258
  1122.3000      7.8572      2.6278      0.0545      1.3437    107.9481     27.5446
  1122.4000      7.8572      2.6278      0.0545      1.3437    108.7984     27.3651
  1122.5000      7.9185      2.6183      0.0539      1.9187    109.5053     27.2010
  1122.6000      7.9185      2.6183      0.0539      1.9187    110.0168     27.0601
  1122.7000      7.9185      2.6183      0.0539      1.9187    110.2993     26.9439
  1122.8000      8.0164      2.5997      0.0504      3.0480    110.3378     26.8486
  1122.9000      8.0164      2.5997      0.0504      3.0480    110.1318     26.7665
  1123.0000      8.0610      2.5864      0.0462      3.8533    109.6961     26.6876
  1123.1000      8.0610      2.5864      0.0462      3.8533    109.0575     26.6014
  1123.2000      8.0610      2.5864      0.0462      3.8533    108.2545     26.4986
  1123.3000      8.0304      2.5673      0.0379      5.0116    107.3378     26.3720
  1123.4000      8.0304      2.5673      0.0379      5.0116    106.3708     26.2173
  1123.5000      7.9556      2.5554      0.0318      5.7308    105.4263     26.0334
  1123.6000      7.9556      2.5554      0.0318      5.7308    104.5829     25.8220
  1123.7000      7.9556      2.5554      0.0318      5.7308    103.9165     25.5882
  1123.8000      7.9003      2.5385      0.0237      6.7600    103.4916     25.3397
  1123.9000      7.9003      2.5385      0.0237      6.7600    103.3557     25.0864
  1124.0000      7.9141      2.5272      0.0201      7.4428    103.5306     24.8395
  1124.1000      7.9141      2.5272      0.0201      7.4428    104.0153     24.6105
  1124.2000      7.9141      2.5272      0.0201      7.4428    104.7852     24.4100
  1124.3000      7.9820      2.5099      0.0183      8.4911    105.7988     24.2463
  1124.4000      7.9820      2.5099      0.0183      8.4911    107.0071     24.1253
  1124.5000      8.0151      2.4983      0.0197      9.1954    108.3611     24.0493
  1124.6000      8.0151      2.4983      0.0197      9.1954    109.8165     24.0181
  1124.7000      8.0151      2.4983      0.0197      9.1954    111.3396     24.0284
  1124.8000      8.0368      2.4818      0.0248     10.1933    112.9078     24.0757
  1124.9000      8.0368      2.4818      0.0248     10.1933    114.5069     24.1543
  1125.0000      8.0491      2.4724      0.0295     10.7642    116.1270     24.2584
  1125.1000      8.0491      2.4724      0.0295     10.7642    117.7588     24.3826
  1125.2000      8.0491      2.4724      0.0295     10.7642    119.3873     24.5223
  1125.3000      8.0514      2.4619      0.0376     11.4025    120.9899     24.6734
  1125.4000      8.0514      2.4619      0.0376     11.4025    122.5375     24.8322
  1125.5000      8.0917      2.4573      0.0431     11.6765    123.9962     24.9948
  1125.6000      8.0917      2.4573      0.0431     11.6765    125.3334     25.1570
  1125.7000      8.0917      2.4573      0.0431     11.6765    126.5244     25.3139
  1125.8000      8.1331      2.4530      0.0505     11.9387    127.5603     25.4595
  1125.9000      8.1331      2.4530      0.0505     11.9387    128.4489     25.5874
  1126.0000      8.1229      2.4505      0.0540     12.0928    129.2200     25.6908
  1126.1000      8.1229      2.4505      0.0540     12.0928    129.9189     25.7635
  1126.2000      8.1229      2.4505      0.0540     12.0928    130.6027     25.8008
  1126.3000      8.0454      2.4454      0.0564     12.3996    131.3293     25.7994
  1126.4000      8.0454      2.4454      0.0564     12.3996    132.1542     25.7589
  1126.5000      7.9281      2.4409      0.0560     12.6700    133.1151     25.6811
  1126.6000      7.9281      2.4409      0.0560     12.6700    134.2307     25.5701
  1126.7000      7.9281      2.4409      0.0560     12.6700    135.4948     25.4317
  1126.8000      7.8254      2.4335      0.0538     13.1212    136.8777     25.2730
  1126.9000      7.8254      2.4335      0.0538     13.1212    138.3309     25.1008
  1127.0000      7.7775      2.4289      0.0523     13.4001    139.7936     24.9219
  1127.1000      7.7775      2.4289      0.0523     13.4001    141.2011     24.7421
  1127.2000      7.7775      2.4289      0.0523     13.4001    142.4964     24.5664
  1127.3000      7.7622      2.4239      0.0516     13.7059    143.6376     24.3989
  1127.4000      7.7622      2.4239      0.0516     13.7059    144.6035     24.2434
  1127.5000      7.8067      2.4222      0.0525     13.8077    145.3954     24.1037
  1127.6000      7.8067      2.4222      0.0525     13.8077    146.0343     23.9840
  1127.7000      7.8067      2.4222      0.0525     13.8077    146.5533     23.8895
  1127.8000      7.9112      2.4221      0.0550     13.8143    146.9899     23.8259
  1127.9000      7.9112      2.4221      0.0550     13.8143    147.3767     23.7997
  1128.0000      7.9481      2.4230      0.0562     13.7573    147.7354     23.8179
  1128.1000      7.9481      2.4230      0.0562     13.7573    148.0747     23.8872
  1128.2000      7.9481      2.4230      0.0562     13.7573    148.3875     24.0134
  1128.3000      7.9293      2.4249      0.0551     13.6396    148.6608     24.2012
  1128.4000      7.9293      2.4249      0.0551     13.6396    148.8778     24.4520
  1128.5000      7.9299      2.4267      0.0525     13.5348    149.0251     24.7633
  1128.6000      7.9299      2.4267      0.0525     13.5348    149.0981     25.1275
  1128.7000      7.9299      2.4267      0.0525     13.5348    149.1026     25.5308
  1128.8000      7.9609      2.4314      0.0492     13.2510    149.0547     25.9528
  1128.9000      7.9609      2.4314      0.0492     13.2510    148.9737     26.3680
  1129.0000      7.9845      2.4364      0.0505     12.9456    148.8780     26.7467
  1129.1000      7.9845      2.4364      0.0505     12.9456    148.7784     27.0581
  1129.2000      7.9845      2.4364      0.0505     12.9456    148.6741     27.2733
  1129.3000      7.9693      2.4440      0.0606     12.4822    148.5494     27.3690
  1129.4000      7.9693      2.4440      0.0606     12.4822    148.3758     27.3299
  1129.5000      7.9660      2.4449      0.0721     12.4320    148.1195     27.1504
  1129.6000      7.9660      2.4449      0.0721     12.4320    147.7484     26.8353
  1129.7000      7.9660      2.4449      0.0721     12.4320    147.2423     26.3988
  1129.8000      7.9619      2.4312      0.0911     13.2602    146.6012     25.8629
  1129.9000      7.9619      2.4312      0.0911     13.2602    145.8499     25.2544
  1130.0000      7.9476      2.4096      0.1018     14.5715    145.0412     24.6022
  1130.1000      7.9476      2.4096      0.1018     14.5715    144.2475     23.9337
  1130.2000      7.9476      2.4096      0.1018     14.5715    143.5509     23.2735
  1130.3000      7.9540      2.3596      0.1136     17.6007    143.0316     22.6400
  1130.4000      7.9540      2.3596      0.1136     17.6007    142.7519     22.0458
  1130.5000      8.0258      2.3165      0.1199     20.2122    142.7408     21.4962
  1130.6000      8.0258      2.3165      0.1199     20.2122    142.9942     20.9905
  1130.7000      8.0258      2.3165      0.1199     20.2122    143.4672     20.5226
  1130.8000      8.1656      2.2368      0.1297     25.0414    144.0853     20.0823
  1130.9000      8.1656      2.2368      0.1297     25.0414    144.7539     19.6562
  1131.0000      8.2864      2.1704      0.1368     29.0645    145.3750     19.2294
  1131.1000      8.2864      2.1704      0.1368     29.0645    145.8602     18.7863
