~Version Information
VERS.                      2.0: CWLS Log ASCII Standard - VERSION 2.0
WRAP.                       NO: One line per depth step
~Well Information Block
STRT.FT               757.3000: 
STOP.FT              2418.0000: 
STEP.FT                 0.1000: 
NULL.                -999.2500: 
COMP.          Petrogulf Corporation: COMPANY
WELL.            Montoya 7-21V: WELL
FLD.           Purgatorie River: FIELD
LOC.           738' FSL & 2070' FWL: LOCATION
CNTY.               Las Animas: COUNTY
SRVC.                         : SERVICE COMPANY
DATE.          Fri Aug 20 14:08:15 2004: LOG DATE
UWI.           05 071 08018 00: UNIQUE WELL ID
STAT.                 Colorado: STATE
~Curve Information Block
DEPT.FT            0 000 00 00: Depth
DCAL.in                       : CDL Caliper
RHOB.g/cc                     : CDL Bulk Density
RHOC.g/cc                     : CDL Density Correction
DPOR.pu                       : CDL Density Porosity
GR.GAPI                       : Gamma Ray
NPOR.pu                       : Neutron Porosity
~Parameter Information Block
~A  Depth       DCAL        RHOB        RHOC        DPOR         GR         NPOR    
# ...
  1218.1000      8.4774      2.5821      0.0286      4.1154    142.0860     26.7534
  1218.2000      8.4774      2.5241      0.0283      7.6289    132.7185     26.4647
  1218.3000      8.4816      2.4672     -0.0135     11.0780    130.0108     26.4507
  1218.4000      8.4816      2.4317      0.0085     13.2331    137.6280     26.5010
  1218.5000      8.4826      2.4071     -0.0236     14.7235    148.2134     26.1120
  1218.6000      8.4826      2.3846     -0.0596     16.0819    153.7049     25.5119
  1218.7000      8.4826      2.3862     -0.0604     15.9875    155.5768     25.0198
  1218.8000      8.4757      2.4184      0.0238     14.0376    158.0211     24.7514
  1218.9000      8.4757      2.4505      0.0819     12.0897    160.1311     24.7990
  1219.0000      8.4479      2.4664      0.0401     11.1300    160.2597     25.1577
  1219.1000      8.4479      2.4770      0.1212     10.4842    161.9391     25.7014
  1219.2000      8.4479      2.4885      0.0533      9.7896    169.8570     26.0891
  1219.3000      8.4104      2.5019      0.0269      8.9745    175.6437     26.0578
  1219.4000      8.4104      2.5188      0.0207      7.9520    166.0142     25.5275
  1219.5000      8.3817      2.5327      0.0917      7.1080    147.7480     24.7109
  1219.6000      8.3817      2.5310      0.0643      7.2115    136.1955     24.1244
  1219.7000      8.3817      2.5182      0.0085      7.9893    136.2035     23.9612
  1219.8000      8.3656      2.5153     -0.0137      8.1625    144.7808     23.9441
  1219.9000      8.3656      2.5249      0.0394      7.5794    151.8779     23.7307
  1220.0000      8.3553      2.5274      0.0368      7.4331    152.8388     23.2945
  1220.1000      8.3553      2.5135     -0.0222      8.2706    152.4332     22.9263
  1220.2000      8.3553      2.4917     -0.0143      9.5940    151.5066     22.3795
  1220.3000      8.3483      2.4726     -0.0287     10.7523    149.9768     21.6511
  1220.4000      8.3483      2.4669     -0.0373     11.0970    147.2076     21.2399
  1220.5000      8.3452      2.4748     -0.0445     10.6180    138.1965     21.1649
  1220.6000      8.3452      2.4768      0.0101     10.4952    127.0787     21.6009
  1220.7000      8.3452      2.4538      0.0126     11.8920    126.8867     22.7042
  1220.8000      8.3334      2.4154     -0.0524     14.2172    138.9754     23.7014
  1220.9000      8.3334      2.3940     -0.0649     15.5128    150.0414     23.9648
  1221.0000      8.3124      2.4047     -0.0222     14.8637    150.1857     23.9645
  1221.1000      8.3124      2.4360     -0.0086     12.9722    140.5844     24.2422
  1221.2000      8.3124      2.4715     -0.0022     10.8188    129.8590     24.3395
  1221.3000      8.2972      2.4981      0.0437      9.2046    125.2404     23.8710
  1221.4000      8.2972      2.5103      0.0385      8.4683    125.1132     23.2767
  1221.5000      8.2919      2.5129      0.0516      8.3094    128.1572     22.8105
  1221.6000      8.2919      2.5141      0.0594      8.2388    135.1776     22.3020
  1221.7000      8.2919      2.5232      0.0480      7.6869    142.9415     21.4324
  1221.8000      8.2832      2.5457      0.0542      6.3234    147.8826     20.5085
  1221.9000      8.2832      2.5766      0.0649      4.4483    146.0887     20.0903
  1222.0000      8.2755      2.6070      0.0679      2.6043    138.2330     20.1315
  1222.1000      8.2755      2.6257      0.1079      1.4727    129.9351     20.6467
  1222.2000      8.2755      2.6305      0.0950      1.1802    123.8276     21.7089
  1222.3000      8.2740      2.6311      0.1438      1.1458    122.0862     22.2712
  1222.4000      8.2740      2.6275      0.1121      1.3638    123.5432     21.5534
  1222.5000      8.2747      2.6154      0.1128      2.0971    120.9551     20.5845
  1222.6000      8.2747      2.5952      0.0886      3.3211    109.1702     20.2464
  1222.7000      8.2747      2.5751      0.0402      4.5402     94.9183     20.4132
  1222.8000      8.2702      2.5675      0.0400      5.0001     90.7024     20.7627
  1222.9000      8.2702      2.5763      0.0411      4.4646     96.3336     20.8426
  1223.0000      8.2564      2.5911      0.0546      3.5691     99.1367     20.6620
  1223.1000      8.2564      2.5992      0.0539      3.0776     96.0101     20.7712
  1223.2000      8.2564      2.6010      0.0464      2.9703     93.9686     21.1688
  1223.3000      8.2471      2.6001      0.0487      3.0268     92.4542     21.2018
  1223.4000      8.2471      2.6009      0.0297      2.9778     87.8979     20.7411
  1223.5000      8.2491      2.6097      0.0545      2.4399     81.7895     20.1091
  1223.6000      8.2491      2.6181      0.0912      1.9324     74.8529     19.3008
  1223.7000      8.2491      2.6144      0.0533      2.1568     67.8520     18.5519
  1223.8000      8.2535      2.6076      0.0173      2.5718     65.5561     18.1078
  1223.9000      8.2535      2.6063      0.0515      2.6484     69.0499     17.6090
  1224.0000      8.2561      2.5992      0.0324      3.0763     75.1548     16.7840
  1224.1000      8.2561      2.5740      0.0116      4.6074     80.2373     15.7883
  1224.2000      8.2561      2.5394     -0.0453      6.7023     81.9098     15.1685
  1224.3000      8.2554      2.5171     -0.0322      8.0571     80.8664     15.2295
  1224.4000      8.2554      2.5145     -0.0699      8.2119     77.5451     15.2969
  1224.5000      8.2468      2.5210      0.0154      7.8207     74.3611     15.0648
  1224.6000      8.2468      2.5246     -0.0018      7.6015     74.6707     15.0243
  1224.7000      8.2468      2.5262      0.0107      7.5020     76.2631     15.3007
  1224.8000      8.2373      2.5324      0.0085      7.1275     73.6576     15.4949
  1224.9000      8.2373      2.5436      0.0281      6.4495     67.7941     15.2074
  1225.0000      8.2434      2.5528      0.0239      5.8921     64.0547     14.4017
  1225.1000      8.2434      2.5595      0.0243      5.4874     62.4858     13.6309
  1225.2000      8.2434      2.5694      0.0280      4.8822     60.8704     13.4998
  1225.3000      8.2539      2.5791      0.0476      4.2965     61.8651     13.8522
  1225.4000      8.2539      2.5772      0.0343      4.4110     68.0738     14.1917
  1225.5000      8.2509      2.5607      0.0120      5.4094     75.1310     14.3477
  1225.6000      8.2509      2.5366      0.0269      6.8749     74.2985     14.3326
  1225.7000      8.2509      2.5113      0.0113      8.4055     65.5393     14.0059
  1225.8000      8.2497      2.4928     -0.0397      9.5249     57.2071     13.5357
  1225.9000      8.2497      2.4893     -0.0404      9.7405     52.1509     13.4239
  1226.0000      8.2601      2.4981      0.0118      9.2070     47.6842     13.6700
  1226.1000      8.2601      2.5085     -0.0085      8.5778     44.3974     13.8988
  1226.2000      8.2601      2.5133      0.0313      8.2837     45.8606     13.8478
  1226.3000      8.2716      2.5140      0.0416      8.2428     49.9369     13.5163
  1226.4000      8.2716      2.5194      0.0229      7.9122     51.1222     12.7983
  1226.5000      8.2692      2.5307      0.0495      7.2321     48.8337     11.8566
  1226.6000      8.2692      2.5377      0.0042      6.8049     46.8003     11.3087
  1226.7000      8.2692      2.5397     -0.0251      6.6853     46.9735     11.4439
  1226.8000      8.2503      2.5366      0.0669      6.8754     47.0100     12.1731
  1226.9000      8.2503      2.5274     -0.0209      7.4318     45.8777     13.0858
  1227.0000      8.2348      2.5246     -0.0097      7.5978     45.9820     13.5217
  1227.1000      8.2348      2.5274      0.0021      7.4292     47.1540     13.6384
  1227.2000      8.2348      2.5248      0.0383      7.5860     46.5212     13.9785
  1227.3000      8.2209      2.5287      0.0028      7.3495     42.8406     14.2782
  1227.4000      8.2209      2.5520      0.0380      5.9394     40.0844     14.2668
  1227.5000      8.2089      2.5783      0.0399      4.3478     42.3487     14.1752
  1227.6000      8.2089      2.5813      0.0971      4.1618     47.2093     14.0652
