~Version Information
VERS.                      2.0: CWLS Log ASCII Standard - VERSION 2.0
WRAP.                       NO: One line per depth step
~Well Information Block
STRT.FT               510.0000: 
STOP.FT              1845.5000: 
STEP.FT                 0.1000: 
NULL.                -999.2500: 
COMP.          Pioneer Natural Resources: COMPANY
WELL.           Stampede 42-18: WELL
FLD.           Purgatoire River: FIELD
LOC.           2479' FNL & 160' FEL--: LOCATION
CNTY.               Las Animas: COUNTY
SRVC.          Superior Well Services: SERVICE COMPANY
DATE.          Sat Jun 09 02:39:23 2007: LOG DATE
UWI.           05 071 08237 00: UNIQUE WELL ID
STAT.                 Colorado: STATE
~Curve Information Block
DEPT.FT            0 000 00 00: Depth
DCAL.in                       : CDL Caliper
RHOB.g/cc                     : CDL Bulk Density
RHOC.g/cc                     : CDL Density Correction
DPOR.pu                       : CDL Density Porosity
GR.GAPI                       : Gamma Ray
~Parameter Information Block
~A  Depth       DCAL        RHOB        RHOC        DPOR         GR     
# ...
  1742.0000      7.8927      2.5777     -0.0043      4.3815     73.1218
  1742.1000      7.8927      2.5669      0.0756      5.0364     68.7846
  1742.2000      7.8927      2.5545      0.0361      5.7866     69.1681
  1742.3000      7.8929      2.5423      0.0370      6.5296     74.9870
  1742.4000      7.8929      2.5414      0.0339      6.5793     83.4448
  1742.5000      7.8927      2.5496      0.0482      6.0820     87.1045
  1742.6000      7.8927      2.5540      0.0805      5.8200     85.1766
  1742.7000      7.8927      2.5540      0.0257      5.8182     83.3520
  1742.8000      7.8926      2.5606      0.0673      5.4201     81.8421
  1742.9000      7.8926      2.5744      0.0701      4.5832     78.1770
  1743.0000      7.8928      2.5910      0.0927      3.5774     75.4659
  1743.1000      7.8928      2.6057      0.0779      2.6830     77.8350
  1743.2000      7.8928      2.6127      0.0783      2.2621     82.9237
  1743.3000      7.8929      2.6093      0.0755      2.4673     85.9718
  1743.4000      7.8929      2.6040      0.0055      2.7878     87.2171
  1743.5000      7.8935      2.6098      0.0439      2.4390     87.0671
  1743.6000      7.8935      2.6224      0.0692      1.6739     85.9687
  1743.7000      7.8935      2.6314      0.0621      1.1278     87.1807
  1743.8000      7.8953      2.6342      0.0794      0.9592     88.9296
  1743.9000      7.8953      2.6252      0.0819      1.5044     85.3378
  1744.0000      7.8978      2.5975      0.0983      3.1798     78.5515
  1744.1000      7.8978      2.5536      0.0520      5.8399     77.2035
  1744.2000      7.8978      2.5049     -0.0498      8.7923     82.6544
  1744.3000      7.9005      2.4496      0.0361     12.1440     91.2592
  1744.4000      7.9005      2.3744      0.0157     16.7027     97.2765
  1744.5000      7.9036      2.2847     -0.0246     22.1373     94.3026
  1744.6000      7.9036      2.1846      0.0054     28.2090     87.9787
  1744.7000      7.9036      2.0698     -0.0910     35.1629     88.8652
  1744.8000      7.9071      1.9653     -0.1152     41.4946     97.1565
  1744.9000      7.9071      1.8932     -0.1074     45.8644    104.6884
  1745.0000      7.9103      1.8228     -0.0666     50.1359    103.2713
  1745.1000      7.9103      1.7138     -0.0412     56.7416     95.8130
  1745.2000      7.9103      1.5953     -0.1292     63.9195     91.5477
  1745.3000      7.9094      1.5259      0.0459     68.1242     91.3489
  1745.4000      7.9094      1.5018      0.0368     69.5878     91.6910
  1745.5000      7.9047      1.4891      0.0257     70.3556     91.5280
  1745.6000      7.9047      1.4804      0.0335     70.8847     89.4132
  1745.7000      7.9047      1.4905      0.0143     70.2732     86.1205
  1745.8000      7.9074      1.5406      0.0630     67.2343     88.4039
  1745.9000      7.9074      1.6422      0.0872     61.0766     98.1783
  1746.0000      7.9300      1.7792      0.1349     52.7764    104.5024
  1746.1000      7.9300      1.9090      0.1701     44.9111    103.7094
  1746.2000      7.9300      2.0029      0.2136     39.2187    105.9626
  1746.3000      7.9604      2.0791      0.1906     34.5998    114.8109
  1746.4000      7.9604      2.1756      0.1676     28.7526    122.1241
  1746.5000      7.9529      2.2898      0.2169     21.8279    124.4049
  1746.6000      7.9529      2.3771      0.1737     16.5384    126.3870
  1746.7000      7.9529      2.4157      0.1212     14.2016    126.7174
  1746.8000      7.9102      2.4264      0.0834     13.5509    124.0121
  1746.9000      7.9102      2.4373      0.0599     12.8882    126.1617
  1747.0000      7.8847      2.4563      0.0606     11.7394    135.3100
  1747.1000      7.8847      2.4684      0.0968     11.0072    142.9154
  1747.2000      7.8847      2.4654      0.0477     11.1890    145.1212
  1747.3000      7.8839      2.4689      0.0241     10.9743    146.0646
  1747.4000      7.8839      2.4948      0.0554      9.4087    144.4164
  1747.5000      7.8869      2.5224      0.0896      7.7329    138.5414
  1747.6000      7.8869      2.5312      0.0419      7.1990    138.3890
  1747.7000      7.8869      2.5258      0.0717      7.5261    148.6246
  1747.8000      7.8885      2.5151      0.0537      8.1781    158.5142
  1747.9000      7.8885      2.5030      0.0618      8.9064    160.1022
  1748.0000      7.8911      2.4928      0.0369      9.5261    151.8574
  1748.1000      7.8911      2.4905      0.0191      9.6646    135.0034
  1748.2000      7.8911      2.4950      0.0410      9.3919    115.9241
  1748.3000      7.8967      2.4933      0.0448      9.4985    105.6218
  1748.4000      7.8967      2.4809      0.0456     10.2515    107.9531
  1748.5000      7.9059      2.4607      0.0547     11.4756    115.5846
  1748.6000      7.9059      2.4371     -0.0047     12.9007    121.1166
  1748.7000      7.9059      2.4251     -0.0285     13.6286    121.4295
  1748.8000      7.9161      2.4313      0.0185     13.2574    121.2659
  1748.9000      7.9161      2.4440     -0.0092     12.4837    125.6204
  1749.0000      7.9221      2.4583      0.0292     11.6203    133.0938
  1749.1000      7.9221      2.4727      0.0207     10.7443    141.0818
  1749.2000      7.9221      2.4779      0.0556     10.4310    145.4542
  1749.3000      7.9185      2.4681      0.0278     11.0247    143.3882
  1749.4000      7.9185      2.4570      0.0382     11.6971    136.7599
  1749.5000      7.9010      2.4606      0.0104     11.4794    128.0165
  1749.6000      7.9010      2.4694      0.0611     10.9467    121.4745
  1749.7000      7.9010      2.4647      0.0068     11.2305    120.3068
  1749.8000      7.8763      2.4510      0.0103     12.0582    123.3530
  1749.9000      7.8763      2.4424      0.0211     12.5840    129.3701
  1750.0000      7.8597      2.4466      0.0155     12.3271    136.9509
  1750.1000      7.8597      2.4632      0.0491     11.3188    142.6183
  1750.2000      7.8597      2.4776      0.0688     10.4468    144.4400
  1750.3000      7.8550      2.4791      0.0699     10.3567    141.8666
  1750.4000      7.8550      2.4746      0.0636     10.6331    135.1586
  1750.5000      7.8572      2.4726      0.0617     10.7487    128.3142
  1750.6000      7.8572      2.4747      0.0394     10.6229    124.5677
  1750.7000      7.8572      2.4829      0.0448     10.1283    122.8925
  1750.8000      7.8609      2.5023      0.0238      8.9514    122.7461
  1750.9000      7.8609      2.5288      0.0642      7.3475    123.2178
  1751.0000      7.8580      2.5475      0.0769      6.2122    121.6843
  1751.1000      7.8580      2.5585      0.0635      5.5437    115.8473
  1751.2000      7.8580      2.5765      0.0529      4.4517    106.7658
  1751.3000      7.8470      2.6019      0.1158      2.9173    100.2690
  1751.4000      7.8470      2.6160      0.0838      2.0590     98.8300
  1751.5000      7.8362      2.6071      0.0907      2.6004     98.6003
  1751.6000      7.8362      2.5808      0.0490      4.1952     95.7331
  1751.7000      7.8362      2.5542      0.0379      5.8052     90.1095
  1751.8000      7.8295      2.5325      0.0520      7.1187     85.6387
  1751.9000      7.8295      2.5024      0.0833      8.9432     86.0662
  1752.0000      7.8297      2.4569      0.0271     11.7002     88.6542
  1752.1000      7.8297      2.3915      0.0858     15.6654     90.5618
  1752.2000      7.8297      2.2932      0.0646     21.6243     93.0572
  1752.3000      7.8395      2.1689      0.0031     29.1563     93.3880
  1752.4000      7.8395      2.0493     -0.0713     36.4056     89.7230
  1752.5000      7.8571      1.9482     -0.0485     42.5339     90.0301
  1752.6000      7.8571      1.8457     -0.0456     48.7461     98.7432
  1752.7000      7.8571      1.7280     -0.0674     55.8781    106.7421
  1752.8000      7.8808      1.6122     -0.0742     62.8974    108.2385
  1752.9000      7.8808      1.5174     -0.0235     68.6398    108.2259
  1753.0000      7.9406      1.4434     -0.0117     73.1275    106.7138
  1753.1000      7.9406      1.3852     -0.0232     76.6520     99.0772
