~Version Information
 VERS.                      2.0: CWLS Log ASCII Standard - VERSION 2.0
 WRAP.                       NO: One line per depth step
 ~Well Information Block
 STRT.FT               763.7500: 
 STOP.FT              2577.0000: 
 STEP.FT                 0.2500: 
 NULL.                -999.2500: 
 COMP.          Petrogulf Corporation: COMPANY
 WELL.               J&P 12-33V: WELL
 FLD.           Purgatorie River: FIELD
 LOC.           2005' FSL & 1928' FEL: LOCATION
 CNTY.               Las Animas: COUNTY
 SRVC.                         : SERVICE COMPANY
 DATE.          Sat Aug 28 09:00:36 2004: LOG DATE
 UWI.           05 071 08092 00: UNIQUE WELL ID
 STAT.                 Colorado: STATE
 PROV.                         :Province
 ~Curve Information Block
 DEPT.FT            0 000 00 00: Depth
 SP.mV                         : DIL Spontaneous Potential
 RILD.Ohm-m                    : DIL Deep Resistivity
 RILM.Ohm-m                    : DIL Medium Resistivity
 RLL3.Ohm-m                    : DIL Shallow Resistivity
 GR.GAPI                       : Gamma Ray
 ~Parameter Information Block
 ~A  Depth        SP         RILD        RILM        RLL3         GR     
# ...
  2331.7500      1.8738     23.0993     24.9663    139.3477     50.4600
  2332.0000      2.4151     22.0212     23.9987    143.7990     49.0324
  2332.2500      3.0701     20.7594     22.5220    143.0611     49.1122
  2332.5000      3.8133     19.4296     20.7181    138.3690     49.5881
  2332.7500      4.6074     18.1348     18.7992    129.4294     49.7866
  2333.0000      5.4068     16.9455     16.9443    115.2657     50.5459
  2333.2500      6.1638     15.8962     15.2693     96.0559     52.0719
  2333.5000      6.8345     14.9917     13.8286     74.0470     56.5823
  2333.7500      7.3854     14.2166     12.6324     52.7340     60.9933
  2334.0000      7.7971     13.5433     11.6654     35.1635     69.1052
  2334.2500      8.0654     12.9401     10.9006     22.7481     74.9575
  2334.5000      8.2000     12.3788     10.3076     15.2212     83.0050
  2334.7500      8.2214     11.8410      9.8570     11.3784     86.9221
  2335.0000      8.1562     11.3229      9.5221      9.9154     89.4725
  2335.2500      8.0337     10.8346      9.2793      9.9106     88.9112
  2335.5000      7.8820     10.3957      9.1081     10.8937     85.5744
  2335.7500      7.7253     10.0274      8.9913     12.6445     82.4138
  2336.0000      7.5818      9.7466      8.9149     14.9060     77.2756
  2336.2500      7.4628      9.5619      8.8684     17.1983     74.0266
  2336.5000      7.3716      9.4725      8.8450     18.8621     70.2924
  2336.7500      7.3045      9.4691      8.8412     19.3378     69.2322
  2337.0000      7.2522      9.5362      8.8562     18.4900     70.7537
  2337.2500      7.2020      9.6541      8.8901     16.7146     73.8971
  2337.5000      7.1401      9.8019      8.9433     14.7216     80.6553
  2337.7500      7.0539      9.9597      9.0150     13.1546     85.3719
  2338.0000      6.9331     10.1121      9.1034     12.3175     91.0773
  2338.2500      6.7716     10.2495      9.2055     12.1486     93.6543
  2338.5000      6.5673     10.3707      9.3184     12.3829     96.1255
  2338.7500      6.3227     10.4815      9.4398     12.7474     97.1543
  2339.0000      6.0436     10.5927      9.5687     13.0809     97.9134
  2339.2500      5.7376     10.7164      9.7056     13.3539     97.9915
  2339.5000      5.4110     10.8622      9.8517     13.6203     98.0812
  2339.7500      5.0659     11.0354     10.0084     13.9472     98.5097
  2340.0000      4.6986     11.2361     10.1763     14.3619     99.6778
  2340.2500      4.2993     11.4611     10.3554     14.8370    100.4058
  2340.5000      3.8536     11.7058     10.5446     15.3082    100.8651
  2340.7500      3.3456     11.9660     10.7424     15.7058    100.6918
  2341.0000      2.7616     12.2387     10.9475     15.9838     99.6757
  2341.2500      2.0940     12.5206     11.1587     16.1328     98.4531
  2341.5000      1.3441     12.8066     11.3752     16.1749     96.2101
  2341.7500      0.5234     13.0887     11.5961     16.1476     94.9520
  2342.0000     -0.3471     13.3561     11.8198     16.0880     93.9634
  2342.2500     -1.2407     13.5957     12.0433     16.0266     93.8629
  2342.5000     -2.1291     13.7935     12.2624     15.9921     94.5078
  2342.7500     -2.9879     13.9363     12.4710     16.0132     95.6347
  2343.0000     -3.8003     14.0150     12.6620     16.1081     98.1829
  2343.2500     -4.5577     14.0276     12.8279     16.2632     99.6701
  2343.5000     -5.2588     13.9818     12.9616     16.4191     99.8296
  2343.7500     -5.9057     13.8944     13.0577     16.4825     98.2502
  2344.0000     -6.5007     13.7879     13.1133     16.3663     94.7882
  2344.2500     -7.0424     13.6859     13.1293     16.0341     93.1363
  2344.5000     -7.5241     13.6080     13.1101     15.5253     93.1502
  2344.7500     -7.9334     13.5674     13.0638     14.9458     94.6278
  2345.0000     -8.2543     13.5689     13.0015     14.4321     97.1688
  2345.2500     -8.4714     13.6085     12.9354     14.1021     97.7866
  2345.5000     -8.5744     13.6739     12.8777     14.0140     95.9059
  2345.7500     -8.5631     13.7457     12.8388     14.1523     93.0047
  2346.0000     -8.4491     13.8008     12.8262     14.4545     87.7194
  2346.2500     -8.2555     13.8173     12.8435     14.8622     84.5724
  2346.5000     -8.0122     13.7816     12.8897     15.3590     81.4847
  2346.7500     -7.7500     13.6941     12.9600     15.9625     80.7216
  2347.0000     -7.4947     13.5697     13.0459     16.6772     81.4028
  2347.2500     -7.2623     13.4337     13.1369     17.4479     82.7053
  2347.5000     -7.0576     13.3137     13.2225     18.1556     84.7971
  2347.7500     -6.8743     13.2320     13.2939     18.6591     85.6966
  2348.0000     -6.6986     13.2004     13.3459     18.8521     86.2702
  2348.2500     -6.5133     13.2188     13.3780     18.6994     86.6361
  2348.5000     -6.3029     13.2773     13.3940     18.2400     87.8299
  2348.7500     -6.0569     13.3609     13.4021     17.5714     88.8810
  2349.0000     -5.7725     13.4551     13.4128     16.8311     89.9619
  2349.2500     -5.4547     13.5511     13.4379     16.1743     90.0894
  2349.5000     -5.1146     13.6486     13.4893     15.7435     89.8708
  2349.7500     -4.7681     13.7545     13.5779     15.6343     89.9391
  2350.0000     -4.4331     13.8801     13.7131     15.8739     90.6395
  2350.2500     -4.1281     14.0375     13.9028     16.4225     91.1787
  2350.5000     -3.8702     14.2368     14.1524     17.1900     91.1451
  2350.7500     -3.6737     14.4843     14.4653     18.0583     90.1436
  2351.0000     -3.5482     14.7812     14.8415     18.9108     87.1518
  2351.2500     -3.4978     15.1232     15.2769     19.6778     84.5782
  2351.5000     -3.5209     15.5006     15.7624     20.3963     80.8836
  2351.7500     -3.6107     15.9003     16.2827     21.2405     78.9231
  2352.0000     -3.7574     16.3088     16.8174     22.4657     76.4239
  2352.2500     -3.9508     16.7168     17.3427     24.2467     74.4137
  2352.5000     -4.1825     17.1235     17.8353     26.4901     70.1196
  2352.7500     -4.4473     17.5377     18.2781     28.7642     66.7339
  2353.0000     -4.7430     17.9743     18.6644     30.4403     62.6512
  2353.2500     -5.0689     18.4453     18.9997     30.9927     61.6115
  2353.5000     -5.4230     18.9500     19.2995     30.2784     62.7597
  2353.7500     -5.7993     19.4705     19.5842     28.6249     64.3819
  2354.0000     -6.1867     19.9760     19.8720     26.6924     66.0663
  2354.2500     -6.5689     20.4335     20.1732     25.2166     66.1577
  2354.5000     -6.9266     20.8215     20.4874     24.7776     65.0219
  2354.7500     -7.2399     21.1374     20.8034     25.6625     63.5975
  2355.0000     -7.4908     21.3945     21.1029     27.8036     60.0573
  2355.2500     -7.6637     21.6117     21.3665     30.7673     56.4401
  2355.5000     -7.7450     21.7997     21.5786     33.8159     49.5664
  2355.7500     -7.7203     21.9489     21.7313     36.0888     45.0923
  2356.0000     -7.5732     22.0257     21.8223     36.8954     40.9174
  2356.2500     -7.2845     21.9778     21.8493     36.0096     40.6724
  2356.5000     -6.8333     21.7504     21.8022     33.8174     43.8988
  2356.7500     -6.2006     21.3068     21.6571     31.2120     47.6869
  2357.0000     -5.3744     20.6456     21.3773     29.2648     54.3565
  2357.2500     -4.3547     19.8044     20.9218     28.8045     58.6279
  2357.5000     -3.1584     18.8497     20.2619     30.0655     63.2396
  2357.7500     -1.8223     17.8583     19.3984     32.5238     64.3421
  2358.0000     -0.4012     16.8985     18.3693     35.0069     62.7678
  2358.2500      1.0365     16.0177     17.2421     36.1172     60.3776
  2358.5000      2.4182     15.2381     16.0951     34.8542     57.4473
  2358.7500      3.6769     14.5588     14.9979     31.1217     57.4669
  2359.0000      4.7605     13.9628     13.9994     25.7752     61.5959
  2359.2500      5.6376     13.4262     13.1254     20.1525     66.5596
  2359.5000      6.2990     12.9273     12.3827     15.4143     75.1000
