~Version Information
VERS.                      2.0: CWLS Log ASCII Standard - VERSION 2.0
WRAP.                       NO: One line per depth step
~Well Information Block
STRT.FT               950.0000: 
STOP.FT              2417.7000: 
STEP.FT                 0.1000: 
NULL.                -999.2500: 
COMP.          Pioneer Natural Resources: COMPANY
WELL.            Chevron 13-13: WELL
FLD.           Purgatoire River: FIELD
LOC.           1560' FSL & 711' FWL--: LOCATION
CNTY.               Las Animas: COUNTY
SRVC.          Superior Well Services: SERVICE COMPANY
DATE.          Mon Feb 12 14:55:24 2007: LOG DATE
UWI.           05 071 08319 00: UNIQUE WELL ID
STAT.                 Colorado: STATE
~Curve Information Block
DEPT.FT            0 000 00 00: Depth
DCAL.in                       : CDL Caliper
RHOB.g/cc                     : CDL Bulk Density
RHOC.g/cc                     : CDL Density Correction
DPOR.pu                       : CDL Density Porosity
GR.GAPI                       : Gamma Ray
~Parameter Information Block
~A  Depth       DCAL        RHOB        RHOC        DPOR         GR     
# ...
  1431.6000      8.0778      2.4998      0.0961      9.1014    120.7249
  1431.7000      8.0778      2.5467      0.1863      6.2636    122.3363
  1431.8000      8.0784      2.5711      0.1771      4.7809    121.9810
  1431.9000      8.0784      2.5735      0.1392      4.6364    120.0032
  1432.0000      8.0761      2.5700      0.1515      4.8501    120.0092
  1432.1000      8.0761      2.5601      0.1210      5.4473    119.6493
  1432.2000      8.0761      2.5430      0.0989      6.4858    117.9129
  1432.3000      8.0676      2.5370      0.0593      6.8498    116.7225
  1432.4000      8.0676      2.5537      0.1269      5.8381    113.9121
  1432.5000      8.0613      2.5720      0.1171      4.7247    109.3791
  1432.6000      8.0613      2.5735      0.0976      4.6391    110.1213
  1432.7000      8.0613      2.5545      0.0771      5.7856    118.8804
  1432.8000      8.0606      2.5139      0.0652      8.2491    128.8922
  1432.9000      8.0606      2.4612      0.0397     11.4438    134.3389
  1433.0000      8.0644      2.4153      0.0091     14.2240    135.1312
  1433.1000      8.0644      2.3883      0.0222     15.8586    133.6063
  1433.2000      8.0644      2.3846      0.0178     16.0836    131.6819
  1433.3000      8.0701      2.3993      0.0650     15.1957    126.7972
  1433.4000      8.0701      2.4110      0.1208     14.4824    116.0271
  1433.5000      8.0734      2.4082      0.0871     14.6569    103.7320
  1433.6000      8.0734      2.4063      0.0781     14.7693     99.5055
  1433.7000      8.0734      2.4254      0.1119     13.6120    106.9952
  1433.8000      8.0754      2.4701      0.1694     10.9002    120.6874
  1433.9000      8.0754      2.5201      0.2705      7.8704    133.5467
  1434.0000      8.0679      2.5477      0.2458      6.2000    139.9315
  1434.1000      8.0679      2.5574      0.1594      5.6116    135.7331
  1434.2000      8.0679      2.5711      0.1861      4.7827    123.9338
  1434.3000      8.0453      2.5861      0.1705      3.8736    111.8841
  1434.4000      8.0453      2.5856      0.1604      3.9016    106.8542
  1434.5000      8.0216      2.5738      0.1059      4.6167    108.4261
  1434.6000      8.0216      2.5742      0.1089      4.5928    108.1692
  1434.7000      8.0216      2.6032      0.1238      2.8355    101.7604
  1434.8000      8.0027      2.6698      0.1176     -1.1982     90.9406
  1434.9000      8.0027      2.7753      0.1941     -7.5942     80.6274
  1435.0000      7.9856      2.8943      0.2172    -14.8041     75.5376
  1435.1000      7.9856      2.9995      0.2492    -21.1823     75.4685
  1435.2000      7.9856      3.1014      0.2409    -27.3548     75.6943
  1435.3000      7.9746      3.2231      0.2417    -34.7358     74.9550
  1435.4000      7.9746      3.3461      0.3228    -42.1900     73.9148
  1435.5000      7.9747      3.4182      0.3304    -46.5546     71.8379
  1435.6000      7.9747      3.4168      0.2129    -46.4735     70.1592
  1435.7000      7.9747      3.3685      0.1007    -43.5457     70.1334
  1435.8000      7.9939      3.3035      0.0612    -39.6084     70.9846
  1435.9000      7.9939      3.2004      0.0290    -33.3573     69.5240
  1436.0000      8.0271      3.0255     -0.1218    -22.7589     64.9168
  1436.1000      8.0271      2.8194     -0.1985    -10.2656     64.6038
  1436.2000      8.0271      2.6547     -0.3065     -0.2849     72.9387
  1436.3000      8.0542      2.5523     -0.2910      5.9227     83.1269
  1436.4000      8.0542      2.4837     -0.1798     10.0781     87.7168
  1436.5000      8.0742      2.4401     -0.2214     12.7221     86.5588
  1436.6000      8.0742      2.4425     -0.1350     12.5772     85.5291
  1436.7000      8.0742      2.4780      0.0350     10.4259     89.7059
  1436.8000      8.0982      2.5078      0.0819      8.6208     96.0915
  1436.9000      8.0982      2.5166      0.0847      8.0851     98.0391
  1437.0000      8.1157      2.5117      0.1261      8.3795     95.4549
  1437.1000      8.1157      2.5075      0.0550      8.6363     93.8977
  1437.2000      8.1157      2.5130      0.0734      8.3019     96.4930
  1437.3000      8.1086      2.5118      0.1053      8.3739    100.3380
  1437.4000      8.1086      2.4847      0.0541     10.0153    102.3220
  1437.5000      8.0876      2.4491     -0.0075     12.1782    101.6380
  1437.6000      8.0876      2.4303      0.0470     13.3142     97.8217
  1437.7000      8.0876      2.4237      0.0718     13.7123     94.9646
  1437.8000      8.0795      2.4097      0.0684     14.5663     99.4351
  1437.9000      8.0795      2.3864      0.0156     15.9729    108.3177
  1438.0000      8.0981      2.3774     -0.0128     16.5202    113.3357
  1438.1000      8.0981      2.3929      0.0656     15.5847    114.0618
  1438.2000      8.0981      2.4048      0.1183     14.8627    114.4806
  1438.3000      8.1347      2.3829      0.0632     16.1869    116.4810
  1438.4000      8.1347      2.3203      0.0887     19.9840    117.6661
  1438.5000      8.1606      2.2240      0.0233     25.8205    112.2421
  1438.6000      8.1606      2.1187     -0.0201     32.1988    101.3621
  1438.7000      8.1606      2.0234     -0.0216     37.9730     92.7234
  1438.8000      8.1706      1.9359     -0.0456     43.2772     90.1820
  1438.9000      8.1706      1.8617     -0.0899     47.7771     91.2901
  1439.0000      8.1735      1.8208     -0.0852     50.2569     94.3683
  1439.1000      8.1735      1.8219     -0.0890     50.1903    100.2679
  1439.2000      8.1735      1.8550      0.0145     48.1806    107.2057
  1439.3000      8.1734      1.9102      0.0385     44.8340    111.6278
  1439.4000      8.1734      1.9886      0.1322     40.0874    114.5364
  1439.5000      8.1745      2.0895      0.1937     33.9698    120.6011
  1439.6000      8.1745      2.2000      0.2460     27.2717    128.5613
  1439.7000      8.1745      2.2878      0.3046     21.9540    130.2504
  1439.8000      8.1786      2.3205      0.2425     19.9679    124.0298
  1439.9000      8.1786      2.3052      0.1160     20.8964    117.8595
  1440.0000      8.1869      2.2744      0.0821     22.7651    118.5895
  1440.1000      8.1869      2.2486      0.0736     24.3274    123.6120
  1440.2000      8.1869      2.2324      0.0959     25.3111    124.1670
  1440.3000      8.1964      2.2197      0.0947     26.0774    119.1577
  1440.4000      8.1964      2.2077      0.0791     26.8043    115.4850
  1440.5000      8.1966      2.2098      0.0502     26.6801    116.8154
  1440.6000      8.1966      2.2299      0.1086     25.4622    117.5504
  1440.7000      8.1966      2.2523      0.0876     24.1026    114.0082
  1440.8000      8.1891      2.2782      0.0442     22.5350    111.1141
  1440.9000      8.1891      2.3213      0.1280     19.9218    111.9089
  1441.0000      8.1918      2.3715      0.1866     16.8810    114.4807
  1441.1000      8.1918      2.4033      0.1960     14.9521    116.6541
  1441.2000      8.1918      2.4050      0.1439     14.8488    116.0971
  1441.3000      8.2138      2.3847      0.1397     16.0788    111.0849
  1441.4000      8.2138      2.3651      0.1226     17.2688    106.7006
  1441.5000      8.2463      2.3653      0.1210     17.2528    110.1001
  1441.6000      8.2463      2.3777      0.1510     16.5042    119.8465
  1441.7000      8.2463      2.3850      0.0912     16.0609    129.2781
  1441.8000      8.2695      2.3878      0.0977     15.8888    135.6555
  1441.9000      8.2695      2.3889      0.1069     15.8270    140.0599
  1442.0000      8.2854      2.3857      0.0875     16.0157    138.8475
  1442.1000      8.2854      2.3762      0.0606     16.5941    129.4516
  1442.2000      8.2854      2.3586      0.0820     17.6584    121.7544
  1442.3000      8.3029      2.3421      0.0628     18.6601    122.4173
  1442.4000      8.3029      2.3372      0.0606     18.9589    124.4197
  1442.5000      8.3185      2.3362      0.0759     19.0167    122.2226
  1442.6000      8.3185      2.3330      0.0543     19.2092    121.8303
  1442.7000      8.3185      2.3411      0.0709     18.7200    127.3173
