~Version Information
VERS.                      2.0: CWLS Log ASCII Standard - VERSION 2.0
WRAP.                       NO: One line per depth step
~Well Information Block
STRT.FT                 0.0000: 
STOP.FT              1390.5000: 
STEP.FT                 0.2500: 
NULL.                -999.2500: 
COMP.          Petrogulf Corporation: COMPANY
WELL.             Leier 17-42R: WELL
FLD.           Purgatorie River: FIELD
LOC.           2398' FNL & 1109' FEL: LOCATION
PROV.                 Colorado: PROVINCE
CNTY.               Las Animas: COUNTRY
SRVC.                Patterson: SERVICE COMPANY
DATE.          Thu Nov 10 14:34:29 2005: LOG DATE
UWI.                          : UNIQUE WELL ID
~Curve Information Block
DEPT.FT            0 000 00 00: Depth
CCL.                          : Casing Collar Locator
TT3.usec                      : CBL 3' Travel Time
AMP3.mV                       : CBL 3' Amplitude
GR.GAPI                       : Gamma Ray
~Parameter Information Block
~A  Depth       CCL         TT3         AMP3         GR     
# ...
   837.5000      0.0000    664.3292      5.5667    111.8258
   837.7500      0.0000    664.7313      5.9374    109.4148
   838.0000      0.0000    665.0920      6.2290    105.9138
   838.2500      0.0000    664.6933      6.5122    103.9011
   838.5000      0.0000    662.5400      6.7985    105.3028
   838.7500      0.0000    658.4599      7.0131    110.4293
   839.0000      0.0000    654.7966      7.1154    117.5036
   839.2500      0.0000    654.9286      7.1582    123.5892
   839.5000      0.0000    658.9410      7.2157    126.5273
   839.7500      0.0000    663.5045      7.3123    126.0376
   840.0000      0.0000    666.1741      7.4327    123.1791
   840.2500      0.0000    666.8608      7.5592    119.2657
   840.5000      0.0000    665.6953      7.6968    115.2377
   840.7500      0.0000    662.0111      7.8803    111.5256
   841.0000      0.0000    656.6169      8.1336    108.3707
   841.2500      0.0000    653.5593      8.4212    106.2878
   841.5000      0.0000    655.7832      8.6778    105.8356
   841.7500      0.0000    660.8278      8.8804    106.7192
   842.0000      0.0000    664.7874      9.0552    107.6343
   842.2500      0.0000    666.7408      9.2219    107.4460
   842.5000      0.0000    667.5436      9.3815    106.2649
   842.7500      0.0000    667.9336      9.5389    105.1687
   843.0000      0.0000    668.4605      9.6833    105.2952
   843.2500      0.0000    669.4839      9.7994    107.3051
   843.5000      0.0000    669.4852      9.9383    110.9798
   843.7500      0.0000    662.8489     10.1959    114.8514
   844.0000      0.0000    646.0180     10.6160    116.8812
   844.2500      0.0000    628.6851     11.1815    116.1632
   844.5000      0.0000    621.1998     11.8721    113.6362
   844.7500      0.0000    609.2271     12.6925    110.8591
   845.0000      0.0000    568.0024     13.6678    108.5775
   845.2500      0.0000    501.6222     14.8155    106.5906
   845.5000      0.0000    438.8626     16.1296    104.4843
   845.7500      0.0000    391.8152     17.5955    102.3333
   846.0000      0.0000    353.3494     19.1965    100.8960
   846.2500      0.0000    323.4913     20.8833    101.0340
   846.5000      0.0000    306.9321     22.5160    102.8127
   846.7500      0.0000    300.8776     23.8583    105.4500
   847.0000      0.0000    299.3301     24.6670    108.2630
   847.2500      0.0000    299.1065     24.7687    111.2450
   847.5000      0.0000    299.9991     24.0889    114.6071
   847.7500      0.0000    304.9223     22.7049    118.3258
   848.0000      0.0000    322.4458     20.8556    122.3889
   848.2500      0.0000    365.4588     18.8423    126.8497
   848.5000      0.0000    437.1854     16.9184    131.2639
   848.7500      0.0000    517.3983     15.2251    134.4818
   849.0000      0.0000    576.9356     13.7996    135.3205
   849.2500      0.0000    606.0786     12.6562    133.3593
   849.5000      0.0000    615.5475     11.7981    129.2004
   849.7500      0.0000    617.1104     11.1570    124.1752
   850.0000      0.0000    613.7413     10.6341    119.6060
   850.2500      0.0000    602.6969     10.2025    115.9794
   850.5000      0.0000    584.1969      9.8997    112.7907
   850.7500      0.0000    565.5366      9.7411    109.4184
   851.0000      0.0000    551.4681      9.7120    106.1045
   851.2500      0.0000    538.2863      9.8180    103.8342
   851.5000      0.0000    523.1624     10.0630    103.3378
   851.7500      0.0000    507.7345     10.4212    104.4625
   852.0000      0.0000    494.1439     10.9065    106.3788
   852.2500      0.0000    483.7010     11.6014    108.1288
   852.5000      0.0000    473.9930     12.5401    109.0523
   852.7500      0.0000    457.1329     13.6282    108.9446
   853.0000      0.0000    426.3847     14.7435    107.9494
   853.2500      0.0000    385.8710     15.8727    106.4298
   853.5000      0.0000    348.2846     17.1045    104.8332
   853.7500      0.0000    322.3674     18.4968    103.3217
   854.0000      0.0000    308.3434     19.9821    101.6002
   854.2500      0.0000    302.2796     21.4007     99.4125
   854.5000      0.0000    300.1311     22.5432     97.0477
   854.7500      0.0000    299.4869     23.1619     95.1049
   855.0000      0.0000    299.7213     23.0861     94.0479
   855.2500      0.0000    302.4294     22.3394     94.1244
   855.5000      0.0000    314.4721     21.0900     95.4036
   855.7500      0.0000    349.9476     19.5605     97.6805
   856.0000      0.0000    418.2456     17.9830    100.4037
   856.2500      0.0000    503.2213     16.5545    102.6988
   856.5000      0.0000    571.4353     15.3744    103.5573
   856.7500      0.0000    607.7382     14.3861    102.3483
   857.0000      0.0000    624.5109     13.4368     99.3479
   857.2500      0.0000    639.9385     12.4511     95.7083
   857.5000      0.0000    658.5211     11.5178     92.6626
   857.7500      0.0000    667.4533     10.7935     90.5109
   858.0000      0.0000    654.4071     10.3470     88.2521
   858.2500      0.0000    627.0858     10.1253     84.3958
   858.5000      0.0000    603.3672     10.0552     78.5559
   858.7500      0.0000    585.5583     10.1179     72.3739
   859.0000      0.0000    562.4628     10.2974     68.5565
   859.2500      0.0000    539.0007     10.5399     68.7125
   859.5000      0.0000    530.9414     10.8275     72.2430
   859.7500      0.0000    526.7161     11.2221     77.2397
   860.0000      0.0000    496.1620     11.7977     82.0052
   860.2500      0.0000    438.8300     12.5708     85.7046
   860.5000      0.0000    385.8938     13.4856     88.3613
   860.7500      0.0000    357.5724     14.4489     90.8409
   861.0000      0.0000    349.0430     15.3851     94.5765
   861.2500      0.0000    349.6866     16.1842    100.5337
   861.5000      0.0000    355.1646     16.5741    107.9775
   861.7500      0.0000    366.1748     16.2533    114.5802
   862.0000      0.0000    383.3939     15.3610    118.3333
   862.2500      0.0000    406.2383     14.4353    119.1716
   862.5000      0.0000    446.3657     13.6382    118.1240
   862.7500      0.0000    524.5917     12.7625    115.4464
   863.0000      0.0000    628.3594     11.9072    110.8677
   863.2500      0.0000    705.6287     11.2722    105.4156
   863.5000      2.0000    723.3746     10.7655    101.5660
   863.7500      0.0000    700.9241     10.2221    101.1833
   864.0000     -2.0000    676.1213      9.6163    104.0085
   864.2500      0.0000    661.4176      9.0428    108.2628
   864.5000      0.0000    647.8621      8.6749    112.2349
   864.7500      0.0000    632.9468      8.7114    115.3141
   865.0000      0.0000    620.1202      9.1254    117.9818
   865.2500      0.0000    608.6687      9.4708    120.9936
   865.5000      0.0000    598.8740      9.3639    124.4617
   865.7500      0.0000    593.4824      8.9857    127.5111
   866.0000      0.0000    593.9859      8.6656    128.7071
   866.2500      0.0000    601.8807      8.4348    127.0015
   866.5000      0.0000    618.1288      8.2023    122.6321
   866.7500      0.0000    638.3370      7.9451    117.2442
   867.0000      0.0000    653.9299      7.6756    113.0374
   867.2500      0.0000    659.5407      7.4176    111.6605
   867.5000      0.0000    654.9003      7.2125    113.5475
   867.7500      0.0000    643.5103      7.0679    117.8401
   868.0000      0.0000    633.7963      6.9188    122.8079
   868.2500      0.0000    633.0541      6.6856    126.5285
   868.5000      0.0000    637.6292      6.3522    127.6358
   868.7500      0.0000    639.6110      5.9597    125.8953
   869.0000      0.0000    640.6323      5.5409    122.0867
   869.2500      0.0000    646.8964      5.1195    117.0473
   869.5000      0.0000    657.3791      4.7422    110.7985
   869.7500      0.0000    667.3104      4.4369    102.8483
   870.0000      0.0000    676.1554      4.2020     93.4921
   870.2500      0.0000    687.6787      4.0512     84.5067
   870.5000      0.0000    701.8898      3.9918     77.9994
   870.7500      0.0000    708.1006      3.9692     74.4627
