~Version Information
VERS.                      2.0: CWLS Log ASCII Standard - VERSION 2.0
WRAP.                       NO: One line per depth step
~Well Information Block
STRT.FT               546.2500: 
STOP.FT              2488.5000: 
STEP.FT                 0.2500: 
NULL.                -999.2500: 
COMP.          Petrogulf Corporation: COMPANY
WELL.               Egan 9-11V: WELL
FLD.           Purgatorie River: FIELD
LOC.           724' FNL & 1379' FWL: LOCATION
PROV.                 Colorado: PROVINCE
CNTY.               Las Animas: COUNTRY
SRVC.          Patterson Wireline: SERVICE COMPANY
DATE.          Fri Jul 11 23:16:48 2003: LOG DATE
UWI.           05 071 07875 00: UNIQUE WELL ID
~Curve Information Block
DEPT.FT            0 000 00 00: Depth
DCAL.in                       : CDL Caliper
RHOB.g/cc                     : CDL Bulk Density
RHOC.g/cc                     : CDL Density Correction
DPOR.pu                       : CDL Density Porosity
GR.GAPI                       : Gamma Ray
NPOR.pu                       : Neutron Porosity
~Parameter Information Block
~A  Depth       DCAL        RHOB        RHOC        DPOR         GR         NPOR    
# ...
  1578.2500      8.4355      2.5472      0.0304      6.2302    139.9822     28.1350
  1578.5000      8.4491      2.5366      0.0390      6.8732    141.7309     28.3250
  1578.7500      8.4508      2.5285      0.0482      7.3642    143.8376     28.5205
  1579.0000      8.4517      2.5109      0.0661      8.4306    147.6040     28.9553
  1579.2500      8.4541      2.4915      0.0791      9.6061    149.6217     29.3419
  1579.5000      8.4551      2.4424      0.0962     12.5795    150.5130     30.0307
  1579.7500      8.4555      2.3927      0.1015     15.5960    149.2447     30.5355
  1580.0000      8.4614      2.2931      0.0919     21.6286    144.2945     31.3078
  1580.2500      8.4857      2.2166      0.0747     26.2661    139.1042     31.7842
  1580.5000      8.5188      2.1066      0.0500     32.9334    129.4966     32.3479
  1580.7500      8.5188      2.0500      0.0458     36.3651    122.7960     32.5856
  1581.0000      8.4827      2.0086      0.0606     38.8728    113.8094     32.6926
  1581.2500      8.4535      2.0150      0.0757     38.4821    109.2151     32.5566
  1581.5000      8.4552      2.0731      0.0906     34.9663    105.4254     31.9382
  1581.7500      8.4675      2.1369      0.0938     31.0972    105.4177     31.2327
  1582.0000      8.4544      2.2524      0.1001     24.0997    109.2063     29.9348
  1582.2500      8.4104      2.3306      0.1112     19.3551    113.6735     29.1468
  1582.5000      8.3846      2.4321      0.1311     13.2070    121.6317     28.4308
  1582.7500      8.3709      2.4823      0.1359     10.1665    126.8328     28.3053
  1583.0000      8.3453      2.5283      0.1207      7.3735    133.2381     28.4670
  1583.2500      8.3290      2.5425      0.0997      6.5143    136.0634     28.6707
  1583.5000      8.3175      2.5483      0.0669      6.1665    137.7596     28.9522
  1583.7500      8.2949      2.5472      0.0511      6.2289    137.3628     29.0477
  1584.0000      8.2888      2.5447      0.0389      6.3842    135.1707     28.9127
  1584.2500      8.3008      2.5435      0.0361      6.4553    133.0615     28.5802
  1584.5000      8.2933      2.5412      0.0338      6.5935    129.6514     27.7818
  1584.7500      8.2649      2.5375      0.0310      6.8189    127.7533     27.1906
  1585.0000      8.2417      2.5249      0.0238      7.5796    126.2472     26.4833
  1585.2500      8.2281      2.5097      0.0192      8.5030    126.1516     26.2118
  1585.5000      8.2222      2.4723      0.0172     10.7700    126.6505     26.1117
  1585.7500      8.2205      2.4350      0.0198     13.0294    126.9380     26.2472
  1586.0000      8.2194      2.3577      0.0240     17.7151    126.7883     26.8007
  1586.2500      8.2180      2.2931      0.0228     21.6297    126.0186     27.4146
  1586.5000      8.2171      2.1867      0.0170     28.0817    123.1015     28.5649
  1586.7500      8.2176      2.1195      0.0187     32.1509    119.5331     29.3049
  1587.0000      8.2201      2.0448      0.0420     36.6768    111.6587     30.0387
  1587.2500      8.2252      2.0222      0.0684     38.0497    105.3509     30.1499
  1587.5000      8.2410      2.0368      0.1051     37.1634     96.2880     29.6652
  1587.7500      8.2911      2.0775      0.1170     34.6998     91.6965     28.8970
  1588.0000      8.3516      2.1732      0.1106     28.8993     88.0326     27.1233
  1588.2500      8.3224      2.2499      0.0950     24.2479     87.5257     25.6448
  1588.5000      8.2112      2.3655      0.0679     17.2449     88.3298     23.3692
  1588.7500      8.1389      2.4334      0.0526     13.1265     89.1302     22.0604
  1589.0000      8.1227      2.5124      0.0370      8.3419     90.2544     20.6489
  1589.2500      8.1219      2.5487      0.0328      6.1379     91.1689     20.0699
  1589.5000      8.1216      2.5831      0.0374      4.0575     93.1630     19.5917
  1589.7500      8.1205      2.5963      0.0464      3.2526     94.7347     19.4473
  1590.0000      8.1205      2.6079      0.0646      2.5515     96.7035     19.4383
  1590.2500      8.1210      2.6125      0.0770      2.2729     97.5539     19.5765
  1590.5000      8.1211      2.6172      0.0929      1.9890     98.5834     19.9967
  1590.7500      8.1219      2.6196      0.1004      1.8424     99.4781     20.4000
  1591.0000      8.1237      2.6229      0.1070      1.6410    101.2336     21.1396
  1591.2500      8.1243      2.6252      0.1090      1.5052    102.4506     21.6650
  1591.5000      8.1234      2.6286      0.1102      1.2975    103.8265     22.3605
  1591.7500      8.1223      2.6307      0.1099      1.1716    104.1254     22.7210
  1592.0000      8.1217      2.6325      0.1065      1.0582    103.2168     23.1890
  1592.2500      8.1212      2.6322      0.1013      1.0770    101.8414     23.5259
  1592.5000      8.1213      2.6283      0.0881      1.3161     99.9453     24.0632
  1592.7500      8.1214      2.6230      0.0758      1.6364     99.8581     24.3520
  1593.0000      8.1211      2.6114      0.0547      2.3392    102.2884     24.4956
  1593.2500      8.1220      2.6019      0.0412      2.9154    105.0030     24.3389
  1593.5000      8.1243      2.5866      0.0257      3.8408    108.7558     23.7712
  1593.7500      8.1263      2.5769      0.0195      4.4332    110.2936     23.2698
  1594.0000      8.1264      2.5647      0.0159      5.1688    110.9314     22.4950
  1594.2500      8.1253      2.5595      0.0168      5.4877    110.1447     21.9891
  1594.5000      8.1236      2.5576      0.0237      5.6016    106.4928     21.2158
  1594.7500      8.1246      2.5609      0.0329      5.3999    102.3091     20.7116
  1595.0000      8.1312      2.5722      0.0542      4.7153     94.8743     20.1341
  1595.2500      8.1313      2.5826      0.0714      4.0877     90.6257     19.9706
  1595.5000      8.1136      2.5988      0.0940      3.1031     86.8972     20.0779
  1595.7500      8.0991      2.6081      0.1022      2.5396     85.9027     20.2826
  1596.0000      8.0983      2.6177      0.1006      1.9568     85.3184     20.5525
  1596.2500      8.1050      2.6212      0.0923      1.7469     85.3516     20.6452
  1596.5000      8.1147      2.6233      0.0783      1.6195     86.9167     20.7755
  1596.7500      8.1197      2.6236      0.0730      1.6013     89.2201     20.9984
  1597.0000      8.1199      2.6232      0.0736      1.6264     93.5067     21.6539
  1597.2500      8.1189      2.6221      0.0763      1.6937     96.1001     22.2281
  1597.5000      8.1184      2.6181      0.0760      1.9349     99.5612     23.0311
  1597.7500      8.1194      2.6135      0.0707      2.2114    102.2671     23.4084
  1598.0000      8.1210      2.6045      0.0582      2.7546    107.5109     23.6546
  1598.2500      8.1223      2.5984      0.0502      3.1252    111.2429     23.5973
  1598.5000      8.1237      2.5919      0.0423      3.5216    115.3721     23.2103
  1598.7500      8.1241      2.5907      0.0402      3.5962    116.2101     22.8072
  1599.0000      8.1231      2.5943      0.0417      3.3756    113.9300     22.1184
  1599.2500      8.1223      2.5997      0.0454      3.0492    110.4263     21.6672
  1599.5000      8.1223      2.6094      0.0519      2.4577    104.0705     21.0593
  1599.7500      8.1218      2.6152      0.0544      2.1089    100.4414     20.7164
  1600.0000      8.1209      2.6205      0.0539      1.7895     97.4096     20.3383
  1600.2500      8.1207      2.6215      0.0524      1.7288     97.0660     20.2082
  1600.5000      8.1211      2.6203      0.0527      1.7976     98.0636     20.1903
  1600.7500      8.1212      2.6189      0.0553      1.8863     98.8601     20.2317
  1601.0000      8.1217      2.6170      0.0599      2.0023     98.9378     20.2160
  1601.2500      8.1232      2.6161      0.0610      2.0556     97.9379     20.1037
  1601.5000      8.1236      2.6149      0.0580      2.1273     95.4974     19.8234
  1601.7500      8.1221      2.6138      0.0536      2.1942     94.0795     19.6283
  1602.0000      8.1212      2.6114      0.0458      2.3403     93.3408     19.4286
