~Version Information
 VERS.                                  2.0 : CWLS LAS VERSION
 WRAP.                                   NO : WRAPING MODE
 SWARE .                 MController 2.5.0E : SOFTWARE VERSION
~Well Information
 WELL.                            Eric 42-9 : WELL
 COMP.         Pioneer Natural Resources Inc: COMPANY
 FLD.                      Purgatorie River : FIELD
 LOC.                 SE/NE Sec 9 T32S R65W : LOCATION
 DATE.                            10/310/04 : DATE(S) LOGGED
 SRVC.       Blanco Geological Services LLC : SERVICE COMPANY
 STAT.                                   CO : STATE
 CNTY.                           Las Animas : COUNTY
 CTRY.                                  USA : COUNTRY
 API.                       05-071-07999-00 : API NUMBER
 STRT.FT                             346.00 : START DEPTH
 STOP.FT                            1616.00 : STOP DEPTH
 STEP.FT                               1.00 : DEPTH INCREMENT
 NULL.                                -9999 : NULL VALUE
~Curve information
 DEPTH.FT                                   :
 ROP.MIN/FT                                 :
 GAS.UNITS                                  :
~ASCII Log data
# ...
     1346.00        2.683        190.2 
     1347.00        0.367        122.8 
     1348.00        0.333        173.9 
     1349.00        0.333        218.1 
     1350.00        0.233        240.3 
     1351.00        0.133        249.3 
     1352.00        0.167        270.8 
     1353.00        0.167        283.5 
     1354.00        0.200        282.3 
     1355.00        0.217        261.2 
     1356.00        0.233        243.4 
     1357.00        0.167        233.5 
     1358.00        0.200        223.6 
     1359.00        0.167        205.7 
     1360.00        0.200        185.8 
     1361.00        0.167        160.7 
     1362.00        0.167        148.8 
     1363.00        0.100        145.1 
     1364.00        0.133        146.7 
     1365.00        0.167        151.4 
     1366.00        0.067        152.9 
     1367.00        0.067        154.2 
     1368.00        0.067        155.4 
     1369.00        0.067        156.8 
     1370.00        0.067        158.5 
     1371.00        0.167        162.4 
     1372.00        0.167        162.1 
     1373.00        0.167        156.6 
     1374.00        0.200        148.7 
     1375.00        0.233        141.3 
     1376.00        4.800        372.4 
     1377.00        0.367        373.9 
     1378.00        0.267        247.9 
     1379.00        0.267        152.5 
     1380.00        0.300         89.1 
     1381.00        0.300        112.4 
     1382.00        0.300        118.7 
     1383.00        0.250        123.9 
     1384.00        0.167        126.8 
     1385.00        0.200        129.2 
     1386.00        0.233        131.5 
     1387.00        0.233        133.9 
     1388.00        0.200        135.7 
     1389.00        0.200        136.0 
     1390.00        0.233        135.4 
     1391.00        0.267        134.6 
     1392.00        0.233        132.4 
     1393.00        0.133        128.7 
     1394.00        0.200        126.1 
     1395.00        0.200        121.3 
     1396.00        0.167        115.9 
     1397.00        0.167        112.7 
     1398.00        0.233        110.9 
     1399.00        0.217        106.8 
     1400.00        0.200        103.2 
     1401.00        0.233         99.9 
     1402.00        0.233         95.2 
     1403.00        0.200         91.6 
     1404.00        0.233         88.7 
     1405.00        0.233         88.7 
     1406.00        5.217       1222.4 
     1407.00        0.717       1247.5 
     1408.00        0.567       1121.8 
     1409.00        0.500        678.7 
     1410.00        0.467        440.0 
     1411.00        0.433        104.3 
     1412.00        0.433        106.2 
     1413.00        0.417        108.7 
     1414.00        0.400        108.5 
     1415.00        0.433        100.8 
     1416.00        0.667         86.0 
     1417.00        0.500         67.3 
     1418.00        0.533         58.9 
     1419.00        0.633         51.6 
     1420.00        0.683         37.2 
     1421.00        0.333         24.8 
     1422.00        9.317        148.0 
     1423.00        2.333        159.9 
     1424.00        0.733        165.4 
     1425.00        0.717        162.0 
     1426.00        0.667        137.8 
     1427.00        0.567        120.3 
     1428.00        0.533        142.3 
     1429.00        0.533        155.7 
     1430.00        0.583        157.1 
     1431.00        0.533        152.0 
     1432.00        0.633        132.0 
     1433.00        0.633        107.3 
     1434.00        0.700         86.0 
     1435.00        0.667         73.4 
     1436.00        9.983        155.2 
     1437.00        0.150        136.2 
     1438.00        0.233        135.7 
     1439.00        0.333        134.3 
     1440.00        0.433        132.0 
     1441.00       13.600       1443.0 
     1442.00        0.267         66.2 
     1443.00        0.333         66.9 
     1444.00        0.233         65.9 
     1445.00        0.233         61.9 
     1446.00        0.200         55.9 
     1447.00        0.267         49.5 
     1448.00        0.300         42.0 
     1449.00        0.383         33.5 
     1450.00        0.167         25.7 
     1451.00        0.267         23.7 
     1452.00        0.233         23.5 
     1453.00        0.200         25.2 
     1454.00        0.200         27.1 
     1455.00        0.367         37.0 
     1456.00        0.267         47.5 
     1457.00        0.133         54.3 
     1458.00        0.267         68.7 
     1459.00        0.433         91.5 
     1460.00        0.233        102.5 
     1461.00        0.550        122.2 
     1462.00        0.433        130.7 
     1463.00        0.467        131.8 
     1464.00        0.433        130.6 
     1465.00        0.500        120.2 
     1466.00        5.533       2425.3 
     1467.00        0.900       2487.5 
     1468.00        0.533       1795.6 
     1469.00        0.800        905.0 
     1470.00        0.717        113.6 
     1471.00        0.567         44.0 
     1472.00        0.500         35.6 
     1473.00        0.500         30.3 
     1474.00        0.500         24.1 
     1475.00        0.433         20.8 
     1476.00        0.450         19.6 
     1477.00        0.400         20.6 
     1478.00        0.467         23.8 
     1479.00        0.433         25.6 
     1480.00        0.467         29.4 
     1481.00        0.500         33.2 
     1482.00        0.667         37.1 
     1483.00        0.550         39.2 
     1484.00        0.467         43.2 
     1485.00        0.400         48.2 
     1486.00        0.400         53.7 
     1487.00        0.433         59.3 
     1488.00        0.433         61.0 
     1489.00        0.433         60.8 
     1490.00        0.450         57.5 
     1491.00        0.467         69.1 
     1492.00        0.433         85.6 
     1493.00        0.467         99.0 
     1494.00        0.433        104.2 
     1495.00        0.467        104.3 
     1496.00        3.983        118.1 
     1497.00        1.150        984.0 
     1498.00        1.133       1032.0 
     1499.00        0.967        809.5 
     1500.00        1.150        579.1 
     1501.00        0.833         61.7 
     1502.00        0.867         22.7 
     1503.00        0.733         16.2 
     1504.00        0.783         18.3 
     1505.00        0.733         36.6 
     1506.00        0.733         77.3 
     1507.00        0.800        103.6 
     1508.00        0.750        118.1 
     1509.00        0.767        123.8 
     1510.00        0.733        122.7 
     1511.00        0.767        108.2 
     1512.00        0.767        119.4 
     1513.00        0.750        119.8 
     1514.00        0.767        114.9 
     1515.00        0.733        114.3 
     1516.00        0.767        112.9 
     1517.00        0.783        110.2 
     1518.00        0.700        108.8 
     1519.00        0.833        102.6 
     1520.00        0.800        104.9 
     1521.00        0.850        107.2 
     1522.00        0.633         96.7 
     1523.00        0.567         83.6 
     1524.00        0.533         89.6 
     1525.00        0.367         93.2 
     1526.00        4.150        357.8 
     1527.00        3.083       1726.1 
     1528.00        1.283        533.4 
     1529.00        0.933         35.0 
     1530.00        0.733         20.7 
     1531.00        0.800         20.6 
     1532.00        0.783         30.1 
     1533.00        0.733         60.4 
     1534.00        0.733         83.1 
     1535.00        0.767         86.4 
     1536.00        0.517         86.2 
     1537.00        0.600         82.8 
     1538.00        0.467         78.0 
     1539.00        0.533         82.3 
     1540.00        0.500         82.4 
     1541.00        0.500         69.1 
     1542.00        0.467         67.8 
     1543.00        0.483         81.5 
     1544.00        0.500         89.8 
     1545.00        0.500         98.3 
