~Version Information
VERS.                      2.0: CWLS Log ASCII Standard - VERSION 2.0
WRAP.                       NO: One line per depth step
~Well Information Block
STRT.FT               840.0000: 
STOP.FT              2020.0000: 
STEP.FT                 0.1000: 
NULL.                -999.2500: 
COMP.          Petrogulf Corporation: COMPANY
WELL.           Lavedure 7-44R: WELL
FLD.           Purgatorie River: FIELD
LOC.           946' FSL & 521' FEL: LOCATION
PROV.                 Colorado: PROVINCE
CNTY.               Las Animas: COUNTRY
SRVC.                Patterson: SERVICE COMPANY
DATE.          Mon Sep 26 08:30:48 2005: LOG DATE
UWI.                          : UNIQUE WELL ID
~Curve Information Block
DEPT.FT            0 000 00 00: Depth
DCAL.in                       : CDL Caliper
RHOB.g/cc                     : CDL Bulk Density
RHOC.g/cc                     : CDL Density Correction
DPOR.pu                       : CDL Density Porosity
GR.GAPI                       : Gamma Ray
NPOR.pu                       : Neutron Porosity
~Parameter Information Block
~A  Depth       DCAL        RHOB        RHOC        DPOR         GR         NPOR    
# ...
  2001.6000      7.7880      2.5093      0.0112      8.5298    132.4383   -999.2500
  2001.7000      7.7880      2.5091      0.0158      8.5381    128.4169   -999.2500
  2001.8000      7.7921      2.5083      0.0104      8.5891    122.1230   -999.2500
  2001.9000      7.7921      2.5043      0.0007      8.8308    115.5636   -999.2500
  2002.0000      7.7976      2.5011      0.0369      9.0229    112.9274   -999.2500
  2002.1000      7.7976      2.5034      0.0467      8.8850    114.1538   -999.2500
  2002.2000      7.7976      2.5085      0.0733      8.5729    115.2997   -999.2500
  2002.3000      7.7876      2.5106      0.0369      8.4462    115.4936   -999.2500
  2002.4000      7.7876      2.5081      0.0529      8.5992    117.1176   -999.2500
  2002.5000      7.7751      2.4930      0.0431      9.5128    119.4426   -999.2500
  2002.6000      7.7751      2.4587      0.0355     11.5961    119.7248   -999.2500
  2002.7000      7.7751      2.4227     -0.0095     13.7729    117.7801   -999.2500
  2002.8000      7.7760      2.4085      0.0081     14.6338    113.7703   -999.2500
  2002.9000      7.7760      2.4123     -0.0029     14.4038    109.4832   -999.2500
  2003.0000      7.7852      2.4162      0.0199     14.1675    111.6846   -999.2500
  2003.1000      7.7852      2.4149      0.0147     14.2456    120.2935   -999.2500
  2003.2000      7.7852      2.4137      0.0434     14.3220    127.7899   -999.2500
  2003.3000      7.7761      2.4113      0.0549     14.4648    130.4422   -999.2500
  2003.4000      7.7761      2.4041      0.0596     14.9004    127.7798   -999.2500
  2003.5000      7.7659      2.3937      0.0482     15.5323    122.2299   -999.2500
  2003.6000      7.7659      2.3731      0.0876     16.7826    118.0927   -999.2500
  2003.7000      7.7659      2.3364      0.0202     19.0036    116.9521   -999.2500
  2003.8000      7.7695      2.3053     -0.0243     20.8879    117.8194   -999.2500
  2003.9000      7.7695      2.3041      0.0144     20.9612    119.8358   -999.2500
  2004.0000      7.7842      2.3255      0.0258     19.6656    122.1576   -999.2500
  2004.1000      7.7842      2.3559      0.0214     17.8258    122.2963   -999.2500
  2004.2000      7.7842      2.3984      0.0170     15.2509    118.4729   -999.2500
  2004.3000      7.7980      2.4415      0.1210     12.6352    112.9982   -999.2500
  2004.4000      7.7980      2.4617      0.0800     11.4136    110.8904   -999.2500
  2004.5000      7.7817      2.4696      0.0727     10.9309    113.8513   -999.2500
  2004.6000      7.7817      2.4911      0.0756      9.6300    118.9947   -999.2500
  2004.7000      7.7817      2.5266      0.1380      7.4798    123.3088   -999.2500
  2004.8000      7.7734      2.5587      0.1136      5.5338    123.2801   -999.2500
  2004.9000      7.7734      2.5738      0.0956      4.6202    117.6442   -999.2500
  2005.0000      7.7677      2.5695      0.0444      4.8767    112.9171   -999.2500
  2005.1000      7.7677      2.5588     -0.0035      5.5288    114.7464   -999.2500
  2005.2000      7.7677      2.5566      0.0476      5.6631    118.5814   -999.2500
  2005.3000      7.7693      2.5637      0.0648      5.2279    119.0956   -999.2500
  2005.4000      7.7693      2.5778      0.0347      4.3751    118.7072   -999.2500
  2005.5000      7.7788      2.5925      0.1010      3.4839    119.7259   -999.2500
  2005.6000      7.7788      2.5904      0.0828      3.6115    119.3797   -999.2500
  2005.7000      7.7788      2.5702      0.0505      4.8379    116.0445   -999.2500
  2005.8000      7.7796      2.5538      0.0059      5.8315    113.4611   -999.2500
  2005.9000      7.7796      2.5571      0.0430      5.6274    114.6492   -999.2500
  2006.0000      7.7769      2.5746      0.0539      4.5676    119.1742   -999.2500
  2006.1000      7.7769      2.5944      0.0176      3.3687    124.3329   -999.2500
  2006.2000      7.7769      2.6077      0.0536      2.5633    126.6033   -999.2500
  2006.3000      7.7781      2.6074      0.0764      2.5839    127.3151   -999.2500
  2006.4000      7.7781      2.6018      0.0186      2.9224    126.5990   -999.2500
  2006.5000      7.7671      2.6048      0.0409      2.7412    115.7599   -999.2500
  2006.6000      7.7671      2.6064      0.0979      2.6454     85.6411   -999.2500
  2006.7000      7.7671      2.5952      0.0388      3.3196     44.2816   -999.2500
  2006.8000      7.7664      2.5901      0.0267      3.6288     14.1862   -999.2500
  2006.9000      7.7664      2.6039      0.0867      2.7961      2.6103   -999.2500
  2007.0000      7.7711      2.6205      0.0696      1.7888      0.2644   -999.2500
  2007.1000      7.7711      2.6214      0.0547      1.7338      0.0141   -999.2500
  2007.2000      7.7711      2.5985      0.0536      3.1211      0.0000   -999.2500
  2007.3000      7.7604      2.5612     -0.0250      5.3800   -999.2500   -999.2500
  2007.4000      7.7604      2.5293      0.0519      7.3157   -999.2500   -999.2500
  2007.5000      7.7589      2.5172     -0.0589      8.0496   -999.2500   -999.2500
  2007.6000      7.7589      2.5334     -0.0062      7.0676   -999.2500   -999.2500
  2007.7000      7.7589      2.5647      0.0698      5.1672   -999.2500   -999.2500
  2007.8000      7.7669      2.5950      0.0264      3.3322   -999.2500   -999.2500
  2007.9000      7.7669      2.6194      0.1001      1.8542   -999.2500   -999.2500
  2008.0000      7.7671      2.6254      0.0960      1.4888   -999.2500   -999.2500
  2008.1000      7.7671      2.6103      0.0656      2.4048   -999.2500   -999.2500
  2008.2000      7.7671      2.5868      0.0597      3.8273   -999.2500   -999.2500
  2008.3000      7.7630      2.5653      0.0599      5.1307   -999.2500   -999.2500
  2008.4000      7.7630      2.5572      0.0611      5.6263   -999.2500   -999.2500
  2008.5000      7.7264      2.5682      0.0567      4.9603   -999.2500   -999.2500
  2008.6000      7.7264      2.5840      0.1092      3.9971   -999.2500   -999.2500
  2008.7000      7.7264      2.5876      0.0949      3.7807   -999.2500   -999.2500
  2008.8000      7.7264      2.5841      0.0632      3.9923   -999.2500   -999.2500
  2008.9000      7.7264      2.5839      0.1036      4.0088   -999.2500   -999.2500
  2009.0000      7.7320      2.5817      0.0742      4.1396   -999.2500   -999.2500
  2009.1000      7.7320      2.5748      0.0463      4.5581   -999.2500   -999.2500
  2009.2000      7.7320      2.5675      0.0983      5.0001   -999.2500   -999.2500
  2009.3000      7.7280      2.5636      0.0489      5.2378   -999.2500   -999.2500
  2009.4000      7.7280      2.5651      0.0516      5.1458   -999.2500   -999.2500
  2009.5000      7.7518      2.5648      0.0576      5.1645   -999.2500   -999.2500
  2009.6000      7.7518      2.5624      0.0209      5.3102   -999.2500   -999.2500
  2009.7000      7.7518      2.5694      0.0502      4.8862   -999.2500   -999.2500
  2009.8000      7.7572      2.5764      0.0532      4.4593   -999.2500   -999.2500
  2009.9000      7.7572      2.5638      0.0547      5.2264   -999.2500   -999.2500
  2010.0000      7.7641      2.5430     -0.0183      6.4837   -999.2500   -999.2500
  2010.1000      7.7641      2.5389      0.0620      6.7309   -999.2500   -999.2500
  2010.2000      7.7641      2.5526      0.0143      5.9010   -999.2500   -999.2500
  2010.3000      7.7608      2.5710      0.0592      4.7857   -999.2500   -999.2500
  2010.4000      7.7608      2.5790      0.0771      4.3015   -999.2500   -999.2500
  2010.5000      7.7503      2.5686      0.0825      4.9341   -999.2500   -999.2500
  2010.6000      7.7503      2.5482      0.0450      6.1706   -999.2500   -999.2500
  2010.7000      7.7503      2.5338      0.0470      7.0425   -999.2500   -999.2500
  2010.8000      7.7449      2.5296      0.0735      7.2958   -999.2500   -999.2500
  2010.9000      7.7449      2.5358      0.0168      6.9197   -999.2500   -999.2500
  2011.0000      7.7518      2.5475      0.1092      6.2128   -999.2500   -999.2500
  2011.1000      7.7518      2.5414      0.0938      6.5803   -999.2500   -999.2500
