~Version Information
VERS.                      2.0: CWLS Log ASCII Standard - VERSION 2.0
WRAP.                       NO: One line per depth step
~Well Information Block
STRT.FT               360.0000: 
STOP.FT              1622.7000: 
STEP.FT                 0.1000: 
NULL.                -999.2500: 
COMP.          Pioneer Natural Resources: COMPANY
WELL.                Eric 42-9: WELL
FLD.           Purgatoire River: FIELD
LOC.           2050' FNL & 850' FEL: LOCATION
PROV.                 Colorado: PROVINCE
CNTY.               Las Animas: COUNTRY
SRVC.                Patterson: SERVICE COMPANY
DATE.          Mon Nov 01 08:19:51 2004: LOG DATE
UWI.           05 071 07999 00: UNIQUE WELL ID
~Curve Information Block
DEPT.FT            0 000 00 00: Depth
DCAL.in                       : CDL Caliper
RHOB.g/cc                     : CDL Bulk Density
RHOC.g/cc                     : CDL Density Correction
DPOR.pu                       : CDL Density Porosity
NPOR.pu                       : Neutron Porosity
GR.GAPI                       : Gamma Ray
~Parameter Information Block
~A  Depth       DCAL        RHOB        RHOC        DPOR        NPOR         GR     
# ...
  1502.4000      7.9590      2.5842      0.0782      3.9854      6.8374     72.3012
  1502.5000      7.9657      2.5973      0.0398      3.1946      6.4435     74.5094
  1502.6000      7.9657      2.6118      0.0194      2.3159      6.0409     77.3932
  1502.7000      7.9657      2.6258      0.0439      1.4660      5.8587     81.4816
  1502.8000      7.9722      2.6273      0.0434      1.3738      5.7484     85.5557
  1502.9000      7.9722      2.6167     -0.0155      2.0165      5.5193     85.5602
  1503.0000      7.9771      2.6094      0.0018      2.4617      5.2669     80.7624
  1503.1000      7.9771      2.6125      0.0158      2.2704      5.2419     74.5670
  1503.2000      7.9771      2.6177      0.0416      1.9606      5.4073     73.1069
  1503.3000      7.9794      2.6120      0.0333      2.3036      5.6984     75.1913
  1503.4000      7.9794      2.5945      0.0336      3.3609      6.1987     75.5967
  1503.5000      7.9785      2.5788     -0.0284      4.3169      6.7424     75.6043
  1503.6000      7.9785      2.5796     -0.0154      4.2671      7.0155     76.5207
  1503.7000      7.9785      2.5998     -0.0004      3.0425      7.1333     75.8223
  1503.8000      7.9740      2.6262      0.0336      1.4442      7.5432     73.0782
  1503.9000      7.9740      2.6387      0.0321      0.6836      8.3978     71.3853
  1504.0000      7.9719      2.6305      0.0470      1.1831      9.2954     74.1969
  1504.1000      7.9719      2.6102      0.0403      2.4128      9.8439     79.3573
  1504.2000      7.9719      2.5935     -0.0021      3.4237     10.0993     79.1819
  1504.3000      7.9750      2.5835      0.0462      4.0290     10.4078     74.1491
  1504.4000      7.9750      2.5617      0.0271      5.3530     10.9471     72.6653
  1504.5000      7.9776      2.5254     -0.0264      7.5513     11.5141     75.2247
  1504.6000      7.9776      2.4991     -0.0345      9.1438     12.0160     78.7460
  1504.7000      7.9776      2.4966      0.0185      9.2962     12.7815     83.1099
  1504.8000      7.9783      2.5011      0.0349      9.0224     13.8001     86.3021
  1504.9000      7.9783      2.4923      0.0140      9.5559     14.6459     86.6630
  1505.0000      7.9794      2.4731     -0.0099     10.7197     15.0930     85.5515
  1505.1000      7.9794      2.4572     -0.0036     11.6856     15.2396     85.2702
  1505.2000      7.9794      2.4496      0.0148     12.1457     15.4470     87.3146
  1505.3000      7.9787      2.4526     -0.0153     11.9609     15.8304     88.2238
  1505.4000      7.9787      2.4686      0.0306     10.9951     15.9292     85.4098
  1505.5000      7.9743      2.4917      0.0419      9.5944     15.3743     86.1578
  1505.6000      7.9743      2.5133      0.0764      8.2824     14.5753     92.8517
  1505.7000      7.9743      2.5226      0.0753      7.7208     13.7223     94.5747
  1505.8000      7.9709      2.5120      0.0397      8.3618     13.0340     86.6709
  1505.9000      7.9709      2.4881      0.0391      9.8131     13.2558     77.5252
  1506.0000      7.9753      2.4675     -0.0089     11.0633     14.1659     74.2056
  1506.1000      7.9753      2.4635     -0.0108     11.3027     14.8433     75.8078
  1506.2000      7.9753      2.4730      0.0224     10.7277     15.1593     80.9696
  1506.3000      7.9804      2.4890     -0.0089      9.7605     15.1264     89.7718
  1506.4000      7.9804      2.5077      0.0344      8.6220     14.5358     97.3656
  1506.5000      7.9830      2.5186      0.0493      7.9628     14.1370     99.8552
  1506.6000      7.9830      2.5178      0.0382      8.0113     14.6992    101.1401
  1506.7000      7.9830      2.5130      0.0582      8.3001     15.3579    102.7590
  1506.8000      7.9872      2.5070      0.0616      8.6683     14.9844    101.1128
  1506.9000      7.9872      2.5019      0.0100      8.9747     14.4063     95.5273
  1507.0000      7.9900      2.5038      0.0261      8.8597     14.7205     89.9257
  1507.1000      7.9900      2.5067      0.0323      8.6841     15.4299     85.4391
  1507.2000      7.9900      2.4972      0.0247      9.2592     15.7057     80.4950
  1507.3000      7.9853      2.4752      0.0109     10.5914     15.4522     77.9225
  1507.4000      7.9853      2.4625     -0.0453     11.3643     14.8880     79.6765
  1507.5000      7.9818      2.4776      0.0210     10.4472     14.5355     84.5238
  1507.6000      7.9818      2.5031      0.0742      8.9059     14.5668     89.9536
  1507.7000      7.9818      2.5091      0.0586      8.5370     14.5085     91.7379
  1507.8000      7.9868      2.5009      0.0115      9.0388     14.1162     88.1399
  1507.9000      7.9868      2.5001      0.0465      9.0877     13.7533     81.8319
  1508.0000      7.9919      2.5001      0.0519      9.0877     13.7505     79.8417
  1508.1000      7.9919      2.4926     -0.0047      9.5385     13.8020     84.0578
  1508.2000      7.9919      2.4928      0.0419      9.5277     13.5013     87.9861
  1508.3000      7.9869      2.5027      0.0611      8.9279     13.1635     87.9203
  1508.4000      7.9869      2.5126      0.0202      8.3268     13.3400     86.7012
  1508.5000      7.9812      2.5224      0.0491      7.7333     13.8726     86.1175
  1508.6000      7.9812      2.5257      0.0819      7.5322     14.2914     84.4296
  1508.7000      7.9812      2.5121      0.0279      8.3580     14.4985     82.7194
  1508.8000      7.9791      2.4901      0.0199      9.6879     14.6265     83.4505
  1508.9000      7.9791      2.4770      0.0298     10.4860     14.8001     82.9785
  1509.0000      7.9762      2.4762      0.0252     10.5322     14.8565     79.1136
  1509.1000      7.9762      2.4781      0.0452     10.4176     14.2882     75.7177
  1509.2000      7.9762      2.4747      0.0196     10.6259     13.2030     74.6222
  1509.3000      7.9729      2.4734     -0.0090     10.7056     12.4943     74.9010
  1509.4000      7.9729      2.4864      0.0136      9.9153     12.6114     80.0746
  1509.5000      7.9690      2.5132      0.0390      8.2924     12.9927     92.4996
  1509.6000      7.9690      2.5369      0.0356      6.8537     13.1101    102.4145
  1509.7000      7.9690      2.5393      0.0438      6.7069     13.0904     99.0320
  1509.8000      7.9648      2.5190      0.0114      7.9374     13.0967     89.5113
  1509.9000      7.9648      2.4947      0.0131      9.4133     13.2276     87.8116
  1510.0000      7.9630      2.4876     -0.0113      9.8449     13.4702     95.2083
  1510.1000      7.9630      2.4991      0.0305      9.1430     13.6683    103.0648
  1510.2000      7.9630      2.5103      0.0220      8.4682     13.8191    105.9850
  1510.3000      7.9643      2.5099      0.0214      8.4900     13.8982    104.6943
  1510.4000      7.9643      2.5056      0.0185      8.7496     13.8950    102.9712
  1510.5000      7.9668      2.5100      0.0051      8.4829     14.0182    106.1178
  1510.6000      7.9668      2.5278      0.0334      7.4062     13.9823    111.5844
  1510.7000      7.9668      2.5504      0.0636      6.0360     13.3220    109.6377
  1510.8000      7.9690      2.5661      0.0886      5.0821     12.7329    102.1062
  1510.9000      7.9690      2.5705      0.0556      4.8185     12.8752     97.3267
  1511.0000      7.9702      2.5632      0.0463      5.2599     13.2604     93.9536
  1511.1000      7.9702      2.5449      0.0196      6.3702     13.7397     87.2645
  1511.2000      7.9702      2.5206      0.0455      7.8409     14.5703     80.9112
  1511.3000      7.9697      2.4982      0.0173      9.1990     14.9532     82.1360
  1511.4000      7.9697      2.4816      0.0389     10.2050     14.3210     91.0007
  1511.5000      7.9689      2.4743     -0.0340     10.6508     13.3906     97.5537
  1511.6000      7.9689      2.4738      0.0294     10.6815     12.9515     95.0885
  1511.7000      7.9689      2.4706      0.0075     10.8751     13.2896     89.5842
  1511.8000      7.9699      2.4690     -0.0011     10.9706     14.0593     88.6569
  1511.9000      7.9699      2.4783      0.0003     10.4049     14.4671     90.9598
