~Version Information
VERS.                      2.0: CWLS Log ASCII Standard - VERSION 2.0
WRAP.                       NO: One line per depth step
~Well Information Block
STRT.FT               706.1000: 
STOP.FT              2370.0000: 
STEP.FT                 0.1000: 
NULL.                -999.2500: 
COMP.          Petrogulf Corporation: COMPANY
WELL.             State 16-12V: WELL
FLD.           Purgatorie River: FIELD
LOC.           1992' FNL & 1237' FWL: LOCATION
CNTY.               Las Animas: COUNTY
SRVC.                         : SERVICE COMPANY
DATE.          Thu Aug 04 09:34:25 2005: LOG DATE
UWI.           05-071-08016-00: UNIQUE WELL ID
STAT.                 Colorado: STATE
~Curve Information Block
DEPT.FT            0 000 00 00: Depth
DCAL.in                       : CDL Caliper
DPOR.pu                       : CDL Density Porosity
GR.GAPI                       : Gamma Ray
NPOR.pu                       : Neutron Porosity
RHOB.g/cc                     : CDL Bulk Density
RHOC.g/cc                     : CDL Density Correction
~Parameter Information Block
~A  Depth       DCAL        DPOR         GR         NPOR        RHOB        RHOC    
# ...
  2232.5000      8.0004     10.1767    124.0265     24.6084      2.4821      0.0981
  2232.6000      8.0004     10.4681    124.0776     24.9364      2.4773      0.0733
  2232.7000      8.0004     11.4958    122.9364     24.8945      2.4603      0.0725
  2232.8000      8.0000     12.5197    119.3438     24.7928      2.4434      0.0154
  2232.9000      8.0000     12.9337    116.1896     24.8506      2.4366      0.0557
  2233.0000      8.0031     12.7488    118.3935     25.0813      2.4396      0.0296
  2233.1000      8.0031     12.0081    125.6118     25.1718      2.4519      0.0623
  2233.2000      8.0031     10.8574    133.5827     24.9831      2.4709      0.0818
  2233.3000      7.9583      9.7615    137.5900     24.8777      2.4889      0.0887
  2233.4000      7.9583      9.1578    135.7537     24.8828      2.4989      0.0794
  2233.5000      7.9300      9.1883    130.8241     24.7244      2.4984      0.0997
  2233.6000      7.9300      9.6165    126.3850     24.5332      2.4913      0.0753
  2233.7000      7.9300      9.9664    123.0390     24.6596      2.4856      0.0760
  2233.8000      7.9248      9.7329    119.2252     25.1434      2.4894      0.0547
  2233.9000      7.9248      8.7833    113.3686     25.5609      2.5051      0.0441
  2234.0000      7.9857      7.8957    108.0029     25.6333      2.5197      0.0828
  2234.1000      7.9857      7.9942    106.1337      2.5807      2.5181      0.0917
  2234.2000      7.9857      8.7249    105.5989      2.6399      2.5060      0.0335
  2234.3000      8.0075      8.8524    105.7009      2.6965      2.5039      0.0029
  2234.4000      8.0075      8.1617    108.7938      2.7180      2.5153      0.0437
  2234.5000      7.9965      7.5599    113.7693      2.6420      2.5253      0.0506
  2234.6000      7.9965      7.1838    117.0627      2.4078      2.5315      0.0410
  2234.7000      7.9965      6.6593    119.5217      2.0135      2.5401      0.0451
  2234.8000      7.9418      6.5295    123.1263      1.6122      2.5423      0.0707
  2234.9000      7.9418      7.3469    127.4429      1.3347      2.5288      0.0546
  2235.0000      7.9701      8.3588    133.7726      0.6424      2.5121      0.0013
  2235.1000      7.9701      8.7216    141.8701     -1.5086      2.5061      0.0467
  2235.2000      7.9701      8.6113    147.6020     -5.5623      2.5079      0.0551
  2235.3000      8.0346      8.3326    147.7556    -10.5529      2.5125      0.0610
  2235.4000      8.0346      7.7631    144.2250    -15.2938      2.5219      0.0116
  2235.5000      8.0286      6.8156    141.3403    -17.2134      2.5375      0.0722
  2235.6000      8.0286      5.7537    139.3692    -11.1310      2.5551      0.0515
  2235.7000      8.0286      4.7554    137.1348     -0.1333      2.5715      0.0677
  2235.8000      8.0316      4.0497    137.4392      3.6167      2.5832      0.0826
  2235.9000      8.0316      4.0555    139.8947      1.4296      2.5831      0.1091
  2236.0000      8.0034      4.7832    139.1680      0.3410      2.5711      0.0662
  2236.1000      8.0034      5.6241    134.5011      0.9909      2.5572      0.0466
  2236.2000      8.0034      6.2405    129.9538      3.0031      2.5470      0.0544
  2236.3000      8.0004      6.6453    128.0401      6.8988      2.5404      0.0150
  2236.4000      8.0004      6.6908    127.1796     12.0374      2.5396      0.0341
  2236.5000      7.9687      6.4282    122.5728     16.3155      2.5439      0.0463
  2236.6000      7.9687      6.1412    114.1639     18.5917      2.5487      0.0665
  2236.7000      7.9687      5.9426    108.4270     19.6197      2.5519      0.0576
  2236.8000      7.9506      5.7389    107.5706     20.0815      2.5553      0.0672
  2236.9000      7.9506      5.6190    107.7315     20.0306      2.5573      0.1022
  2237.0000      7.9716      5.5272    106.1308     19.7307      2.5588      0.0873
  2237.1000      7.9716      4.8301    102.7485     19.7927      2.5703      0.0750
  2237.2000      7.9716      3.6980     99.6050     20.2668      2.5890      0.1133
  2237.3000      7.9786      3.2693     97.8585     20.4197      2.5961      0.1183
  2237.4000      7.9786      3.8933     96.9764     20.2108      2.5858      0.0761
  2237.5000      7.9560      4.7536     97.1904     20.0994      2.5716      0.0338
  2237.6000      7.9560      5.2964     97.7532     19.9066      2.5626      0.0507
  2237.7000      7.9560      6.0395     96.6747     19.4154      2.5503      0.0619
  2237.8000      7.9928      7.4530     94.1764     19.3416      2.5270      0.0522
  2237.9000      7.9928      9.0895     93.5009     20.2875      2.5000      0.0438
  2238.0000      8.0149     10.4596     96.6967     21.6034      2.4774      0.0445
  2238.1000      8.0149     12.1670    101.8342     22.4734      2.4492      0.0442
  2238.2000      8.0149     15.7445    104.4772     22.8252      2.3902      0.0385
  2238.3000      8.0003     22.3725    102.6496     22.9111      2.2809     -0.0063
  2238.4000      8.0003     31.7563     98.4899     23.2412      2.1260     -0.0291
  2238.5000      8.0279     41.9268     94.5894     24.0867      1.9582     -0.0946
  2238.6000      8.0279     50.2796     90.2781     25.1611      1.8204     -0.1166
  2238.7000      8.0279     55.5659     81.8915     25.9915      1.7332     -0.1193
  2238.8000      8.1230     58.6449     70.6015     26.3827      1.6824     -0.0776
  2238.9000      8.1230     61.7414     63.1173     27.1086      1.6313     -0.0259
  2239.0000      8.1281     66.8127     61.0513     28.9721      1.5476      0.0267
  2239.1000      8.1281     73.1483     60.4068     31.5050      1.4431      0.0263
  2239.2000      8.1281     76.9624     58.9290     33.8630      1.3801     -0.0068
  2239.3000      8.4548     75.3592     56.7452     35.5672      1.4066      0.0150
  2239.4000      8.4548     69.7833     54.5074     36.6698      1.4986      0.0773
  2239.5000      9.1252     63.5513     53.2999     37.5258      1.6014      0.1196
  2239.6000      9.1252     58.2563     53.8105     38.0133      1.6888      0.1730
  2239.7000      9.1252     53.9270     55.8051     37.8908      1.7602      0.2479
  2239.8000      9.2105     49.3254     58.3672     37.4872      1.8361      0.1577
  2239.9000      9.2105     42.0780     60.2714     37.1263      1.9557      0.0592
  2240.0000      8.4782     31.7202     61.2377     36.5257      2.1266      0.0937
  2240.1000      8.4782     21.3167     61.0954     35.3897      2.2983      0.1708
  2240.2000      8.4782     14.2501     61.5326     34.1528      2.4149      0.1980
  2240.3000      8.0569     11.1318     65.5478     33.1270      2.4663      0.1994
  2240.4000      8.0569     10.5558     70.1118     32.0098      2.4758      0.1224
  2240.5000      7.9965     11.0592     70.3442     30.8737      2.4675      0.1008
  2240.6000      7.9965     11.6262     67.1485     30.1228      2.4582      0.0173
  2240.7000      7.9965     11.6205     63.1476     29.6244      2.4583      0.0654
  2240.8000      8.0102     11.1252     59.5323     28.9569      2.4664      0.0489
  2240.9000      8.0102     10.5345     56.9402     28.0167      2.4762      0.0561
  2241.0000      8.0243     10.1538     56.2252     26.7918      2.4825      0.0622
  2241.1000      8.0243      9.9023     56.7186     25.5857      2.4866      0.0087
  2241.2000      8.0243      9.6133     56.4347     24.7162      2.4914      0.0362
  2241.3000      8.0026      9.5186     56.0370     24.2136      2.4929      0.0699
  2241.4000      8.0026      9.5529     57.6422     24.4137      2.4924      0.0854
  2241.5000      7.9506      9.3797     60.3185     25.1553      2.4952      0.0748
  2241.6000      7.9506      9.1037     61.3384     25.6437      2.4998      0.1028
  2241.7000      7.9506      8.6387     60.6695     25.6787      2.5075      0.0324
  2241.8000      7.9414      7.7374     63.9631     25.5064      2.5223      0.0871
  2241.9000      7.9414      7.1236     64.6285     25.2849      2.5325      0.1026
  2242.0000      7.9819      7.5711     64.9154     25.2140      2.5251      0.1560
