~Version Information
VERS.                      2.0: CWLS Log ASCII Standard - VERSION 2.0
WRAP.                       NO: One line per depth step
~Well Information Block
STRT.FT               234.0000: 
STOP.FT              1773.2000: 
STEP.FT                 0.1000: 
NULL.                -999.2500: 
COMP.          Pioneer Natural Resources: COMPANY
WELL.             Tami J 23-18: WELL
FLD.           Purgatorie River: FIELD
LOC.           2250' FSL & 2400' FWL: LOCATION
PROV.                 Colorado: PROVINCE
CNTY.               Las Animas: COUNTRY
SRVC.                         : SERVICE COMPANY
DATE.          Mon Dec 13 07:02:50 2004: LOG DATE
UWI.           05 071 08073 00: UNIQUE WELL ID
~Curve Information Block
DEPT.FT            0 000 00 00: Depth
LTEN.lb                       : Surface Line Tension
DCAL.in                       : CDL Caliper
RHOB.g/cc                     : CDL Bulk Density
RHOC.g/cc                     : CDL Density Correction
DPOR.pu                       : CDL Density Porosity
GR.GAPI                       : Gamma Ray
NPOR.pu                       : Neutron Porosity
~Parameter Information Block
~A  Depth       LTEN        DCAL        RHOB        RHOC        DPOR         GR         NPOR    
   234.0000    598.6375      2.0698      1.4836      0.3605     70.6924    121.2314     22.3218
   234.1000    598.6375      2.0698      1.4549      0.3707     72.4321    111.0994     22.1107
   234.2000    598.6375      2.0698      1.4333      0.3545     73.7409    107.0881     22.9953
   234.3000    618.5434      2.0779      1.4083      0.3366     75.2574    106.8986     23.4890
   234.4000    618.5434      2.0779      1.3803      0.2857     76.9535    107.6220     23.0759
   234.5000    564.3492      2.0799      1.3549      0.2451     78.4926    109.2848     22.7729
   234.6000    564.3492      2.0799      1.3248      0.2550     80.3173    109.1573     22.9207
   234.7000    564.3492      2.0799      1.2766      0.1914     83.2368    105.5939     23.2919
   234.8000    581.6788      2.0790      1.2169      0.1182     86.8552    101.4173     23.8308
   234.9000    581.6788      2.0790      1.1652      0.0405     89.9906     99.8547     24.0640
   235.0000    586.4838      2.0751      1.1286     -0.0065     92.2068    103.0814     23.2005
   235.1000    586.4838      2.0751      1.0967     -0.0373     94.1407    109.2492     21.3229
   235.2000    586.4838      2.0751      1.0519     -0.0592     96.8536    113.3102     19.8098
   235.3000    606.8120      2.0677      0.9905     -0.1908    100.5737    116.8457     19.5310
   235.4000    606.8120      2.0677      0.9309     -0.2379    104.1906    122.7623     19.9689
   235.5000    620.5856      2.0630      0.8873     -0.2778    106.8276    126.7623     20.6850
   235.6000    620.5856      2.0630      0.8562     -0.2718    108.7146    123.6741     21.5187
   235.7000    620.5856      2.0630      0.8316     -0.3305    110.2055    114.0909     22.0576
   235.8000    585.0627      2.0571      0.8120     -0.3409    111.3965    104.0366     22.1181
   235.9000    585.0627      2.0571      0.7910     -0.3648    112.6665    100.5745     22.1252
   236.0000    562.8373      2.0536      0.7641     -0.4179    114.2971    103.2253     22.2761
   236.1000    562.8373      2.0536      0.7370     -0.4492    115.9412    105.5046     22.2050
   236.2000    562.8373      2.0536      0.7173     -0.4823    117.1318    105.0119     21.5175
   236.3000    584.0904      2.0510      0.7042     -0.4545    117.9277    102.1493     20.6192
   236.4000    584.0904      2.0510      0.6901     -0.4758    118.7822     97.1273     20.4248
   236.5000    593.8409      2.0489      0.6749     -0.4999    119.7018     92.3658     21.0178
   236.6000    593.8409      2.0489      0.6656     -0.4940    120.2664     91.7259     21.7492
   236.7000    593.8409      2.0489      0.6650     -0.4427    120.3047     93.5343     21.8653
   236.8000    584.4061      2.0515      0.6711     -0.4638    119.9315     91.8388     20.9312
   236.9000    584.4061      2.0515      0.6807     -0.4572    119.3528     85.1914     19.6225
   237.0000    604.8441      2.0578      0.6887     -0.4319    118.8649     79.1263     19.1739
   237.1000    604.8441      2.0578      0.6944     -0.4408    118.5217     80.0467     20.0297
   237.2000    604.8441      2.0578      0.7006     -0.4496    118.1437     85.4786     21.0524
   237.3000    574.4143      2.0610      0.7075     -0.4062    117.7271     87.8698     20.8885
   237.4000    574.4143      2.0610      0.7168     -0.4203    117.1638     87.1687     20.0661
   237.5000    594.0466      2.0610      0.7341     -0.3800    116.1142     88.9385     19.7915
   237.6000    594.0466      2.0610      0.7553     -0.3337    114.8332     93.9668     19.8235
   237.7000    594.0466      2.0610      0.7698     -0.3301    113.9526     98.2789     19.6085
   237.8000    582.3379      2.0555      0.7758     -0.3103    113.5887    100.9773     19.4669
   237.9000    582.3379      2.0555      0.7787     -0.3428    113.4106    103.4648     19.9256
   238.0000    582.6264      2.0570      0.7832     -0.3032    113.1375    106.2649     20.5912
   238.1000    582.6264      2.0570      0.7883     -0.3088    112.8309    105.6102     20.5014
   238.2000    582.6264      2.0570      0.7938     -0.3035    112.4970     97.4631     19.7712
   238.3000    566.6123      2.0684      0.8042     -0.3096    111.8644     85.4630     19.1499
   238.4000    566.6123      2.0684      0.8198     -0.2905    110.9242     77.3124     18.8242
   238.5000    587.4327      2.0716      0.8307     -0.2596    110.2610     76.0110     18.9158
   238.6000    587.4327      2.0716      0.8316     -0.2914    110.2045     79.1852     19.5678
   238.7000    587.4327      2.0716      0.8309     -0.2726    110.2481     84.0627     20.3351
   238.8000    583.1273      2.0647      0.8375     -0.2777    109.8483     90.6428     20.9370
   238.9000    583.1273      2.0647      0.8466     -0.2232    109.2968     98.3718     21.3805
   239.0000    583.5324      2.0600      0.8495     -0.2553    109.1216    101.5305     21.4854
   239.1000    583.5324      2.0600      0.8533     -0.2920    108.8896     98.2416     21.5970
   239.2000    583.5324      2.0600      0.8646     -0.2354    108.2042     94.3577     22.0955
   239.3000    579.1946      2.0622      0.8726     -0.2268    107.7240     93.3905     22.4906
   239.4000    579.1946      2.0622      0.8715     -0.2375    107.7871     94.6391     22.2790
   239.5000    620.3124      2.0652      0.8701     -0.2528    107.8711     97.4492     21.8675
   239.6000    620.3124      2.0652      0.8724     -0.2244    107.7336    100.6047     21.9027
   239.7000    620.3124      2.0652      0.8735     -0.2294    107.6665    102.4772     22.2518
   239.8000    627.8781      2.0679      0.8718     -0.2287    107.7682    104.4206     22.6601
   239.9000    627.8781      2.0679      0.8734     -0.2380    107.6701    108.6747     23.1390
   240.0000    574.9089      2.0715      0.8856     -0.2136    106.9332    110.8318     23.1324
   240.1000    574.9089      2.0715      0.9044     -0.1951    105.7917    108.5623     22.2400
   240.2000    574.9089      2.0715      0.9192     -0.1776    104.8961    110.3826     21.3829
   240.3000    587.8208      2.0749      0.9288     -0.1785    104.3140    117.6116     21.3860
   240.4000    587.8208      2.0749      0.9371     -0.1425    103.8124    120.9873     21.6642
   240.5000    578.0123      2.0721      0.9420     -0.1724    103.5133    118.0041     21.7436
   240.6000    578.0123      2.0721      0.9382     -0.1601    103.7458    111.4960     21.8553
   240.7000    578.0123      2.0721      0.9261     -0.1938    104.4761    105.7351     21.8095
   240.8000    544.5041      2.0629      0.9148     -0.1935    105.1641    104.1413     21.2914
   240.9000    544.5041      2.0629      0.9105     -0.1853    105.4271    107.9983     20.6976
   241.0000    560.9656      2.0608      0.9168     -0.2051    105.0403    117.6583     20.8525
   241.1000    560.9656      2.0608      0.9347     -0.1751    103.9595    127.0718     21.7847
   241.2000    560.9656      2.0608      0.9508     -0.1360    102.9800    129.6019     22.6348
   241.3000    587.1554      2.0683      0.9509     -0.1667    102.9766    125.6258     23.0214
   241.4000    587.1554      2.0683      0.9356     -0.1696    103.9016    118.4323     23.0108
   241.5000    603.6684      2.0737      0.9137     -0.2080    105.2286    115.3068     22.3549
   241.6000    603.6684      2.0737      0.8948     -0.2132    106.3729    118.5269     21.2878
   241.7000    603.6684      2.0737      0.8882     -0.2356    106.7785    122.3644     20.7809
   241.8000    574.8945      2.0684      0.8947     -0.2157    106.3838    125.8764     21.2952
   241.9000    574.8945      2.0684      0.9010     -0.1653    105.9972    129.6066     22.3130
   242.0000    623.5555      2.0613      0.8984     -0.2221    106.1593    129.4384     22.8908
   242.1000    623.5555      2.0613      0.9007     -0.2271    106.0180    125.9236     22.9361
   242.2000    623.5555      2.0613      0.9191     -0.2221    104.9047    124.6502     22.8597
   242.3000    613.2559      2.0573      0.9367     -0.1249    103.8367    127.5100     22.4771
