~Version Information
VERS.                      2.0: CWLS Log ASCII Standard - VERSION 2.0
WRAP.                       NO: One line per depth step
~Well Information Block
STRT.FT               898.0000: 
STOP.FT              2359.2000: 
STEP.FT                 0.1000: 
NULL.                -999.2500: 
COMP.          Pioneer Natural Resources: COMPANY
WELL.             Trimax 44-23: WELL
FLD.           Purgatoire River: FIELD
LOC.           527' FSL & 1064' FEL: LOCATION
PROV.                 Colorado: PROVINCE
CNTY.               Las Animas: COUNTRY
SRVC.                Patterson: SERVICE COMPANY
DATE.          Mon Mar 14 07:28:19 2005: LOG DATE
UWI.           05 071 08326 00: UNIQUE WELL ID
~Curve Information Block
DEPT.FT            0 000 00 00: Depth
DCAL.in                       : CDL Caliper
RHOB.g/cc                     : CDL Bulk Density
RHOC.g/cc                     : CDL Density Correction
DPOR.pu                       : CDL Density Porosity
GR.GAPI                       : Gamma Ray
NPOR.pu                       : Neutron Porosity
~Parameter Information Block
~A  Depth       DCAL        RHOB        RHOC        DPOR         GR         NPOR    
# ...
  2059.6000      7.8539      2.1636      0.0603     29.4763     67.6690     27.9755
  2059.7000      7.8539      2.0748      0.0362     34.8584     61.2148     28.3390
  2059.8000      7.8704      2.0106      0.0116     38.7503     60.3053     29.1915
  2059.9000      7.8704      1.9939      0.0109     39.7614     63.8133     30.3088
  2060.0000      7.8871      2.0217      0.0830     38.0802     68.1969     30.4876
  2060.1000      7.8871      2.0662      0.1529     35.3791     73.0241     29.5246
  2060.2000      7.8871      2.1076      0.1997     32.8701     76.0658     28.8777
  2060.3000      7.9175      2.1500      0.1971     30.3012     75.2325     29.2806
  2060.4000      7.9175      2.2102      0.2096     26.6570     73.7834     29.8621
  2060.5000      7.9626      2.2956      0.2039     21.4786     72.7557     29.8454
  2060.6000      7.9626      2.3856      0.1941     16.0212     70.0559     29.5519
  2060.7000      7.9626      2.4444      0.1051     12.4630     66.2056     29.1118
  2060.8000      7.9516      2.4688      0.0344     10.9799     64.6537     28.1849
  2060.9000      7.9516      2.4843      0.0801     10.0446     67.7936     26.9533
  2061.0000      7.8826      2.4937      0.0927      9.4714     73.9325     26.0776
  2061.1000      7.8826      2.4950      0.0386      9.3962     79.5360     25.6671
  2061.2000      7.8826      2.5078      0.0599      8.6209     83.4783     25.7179
  2061.3000      7.8307      2.5351      0.1251      6.9632     85.0198     26.3841
  2061.4000      7.8307      2.5549      0.1429      5.7646     81.7236     26.7294
  2061.5000      7.8105      2.5572      0.1444      5.6260     75.1285     25.8249
  2061.6000      7.8105      2.5547      0.0681      5.7746     69.0519     24.4864
  2061.7000      7.8105      2.5620      0.1129      5.3360     66.1357     24.2406
  2061.8000      7.8017      2.5747      0.1598      4.5621     67.7901     24.9305
  2061.9000      7.8017      2.5868      0.1156      3.8327     72.8550     25.3832
  2062.0000      7.7850      2.5957      0.1663      3.2921     77.0954     25.9792
  2062.1000      7.7850      2.5908      0.1645      3.5878     78.2338     27.1591
  2062.2000      7.7850      2.5697      0.1314      4.8655     78.9185     27.7181
  2062.3000      7.7623      2.5418      0.0740      6.5597     79.5247     27.0154
  2062.4000      7.7623      2.5155      0.0997      8.1497     77.7129     26.2624
  2062.5000      7.7643      2.4990      0.0632      9.1502     76.0797     26.2018
  2062.6000      7.7643      2.4949      0.0755      9.4006     78.7089     26.1532
  2062.7000      7.7643      2.4979      0.0679      9.2154     84.1015     26.2918
  2062.8000      7.7885      2.5009      0.0977      9.0354     88.9098     26.9947
  2062.9000      7.7885      2.4960      0.1175      9.3305     91.0822     27.4096
  2063.0000      7.8005      2.4871      0.1039      9.8740     88.2490     27.1454
  2063.1000      7.8005      2.4926      0.0931      9.5406     80.8619     26.6066
  2063.2000      7.8005      2.5189      0.1336      7.9441     73.8609     25.9504
  2063.3000      7.7880      2.5515      0.1247      5.9709     71.6780     25.3831
  2063.4000      7.7880      2.5814      0.1556      4.1605     72.1284     25.2097
  2063.5000      7.7646      2.6085      0.1790      2.5182     70.5659     25.4338
  2063.6000      7.7646      2.6286      0.2078      1.2981     66.9069     26.0014
  2063.7000      7.7646      2.6356      0.1949      0.8700     64.4131     26.6057
  2063.8000      7.7503      2.6300      0.1741      1.2119     64.3704     26.8972
  2063.9000      7.7503      2.6158      0.1319      2.0749     65.9753     26.6192
  2064.0000      7.7549      2.5954      0.1193      3.3070     68.9392     25.4385
  2064.1000      7.7549      2.5757      0.0414      4.5035     72.3559     23.9166
  2064.2000      7.7549      2.5633      0.0524      5.2562     73.3533     23.0584
  2064.3000      7.7720      2.5548      0.0698      5.7720     71.2861     23.0635
  2064.4000      7.7720      2.5479      0.0216      6.1852     69.2810     23.5390
  2064.5000      7.7863      2.5456      0.0397      6.3243     69.1645     24.1933
  2064.6000      7.7863      2.5453      0.0424      6.3476     69.4818     24.5531
  2064.7000      7.7863      2.5418      0.0553      6.5602     69.3906     24.4928
  2064.8000      7.7940      2.5321      0.0373      7.1458     67.4200     24.2544
  2064.9000      7.7940      2.5192      0.0260      7.9289     62.3211     23.5960
  2065.0000      7.7939      2.5116      0.0083      8.3909     57.9461     22.6765
  2065.1000      7.7939      2.5189      0.0142      7.9436     57.9140     22.2903
  2065.2000      7.7939      2.5411      0.0630      6.5980     60.9837     22.8255
  2065.3000      7.7860      2.5663      0.0532      5.0752     64.3151     23.5438
  2065.4000      7.7860      2.5890      0.0491      3.6963     65.5524     23.4294
  2065.5000      7.7759      2.6122      0.0777      2.2910     63.7933     22.5550
  2065.6000      7.7759      2.6364      0.0682      0.8225     60.7899     21.6336
  2065.7000      7.7759      2.6561      0.1013     -0.3708     59.0826     21.3303
  2065.8000      7.7638      2.6593      0.1083     -0.5657     58.6093     21.9566
  2065.9000      7.7638      2.6417      0.1021      0.5047     58.1973     22.9038
  2066.0000      7.7535      2.6190      0.0610      1.8770     58.6893     23.3164
  2066.1000      7.7535      2.6100      0.0765      2.4214     61.2207     23.2040
  2066.2000      7.7535      2.6099      0.0761      2.4292     65.0521     22.8597
  2066.3000      7.7529      2.5999      0.0880      3.0374     68.2300     22.6190
  2066.4000      7.7529      2.5746      0.0426      4.5699     69.5593     22.7647
  2066.5000      7.7658      2.5446      0.0198      6.3899     69.3386     22.9779
  2066.6000      7.7658      2.5176      0.0010      8.0242     69.3458     23.1521
  2066.7000      7.7658      2.4952      0.0070      9.3804     71.3184     23.7769
  2066.8000      7.7817      2.4843      0.0006     10.0430     73.1785     24.5515
  2066.9000      7.7817      2.4929      0.0236      9.5220     72.8414     24.4612
  2067.0000      7.7913      2.5110      0.0441      8.4230     71.3430     23.5247
  2067.1000      7.7913      2.5229      0.0408      7.7026     71.1201     23.0205
  2067.2000      7.7913      2.5301      0.0552      7.2679     72.2321     23.5387
  2067.3000      7.7879      2.5453      0.0383      6.3467     70.1373     24.0482
  2067.4000      7.7879      2.5740      0.0465      4.6067     63.4588     23.5932
  2067.5000      7.7761      2.5973      0.1213      3.1921     58.8966     22.5335
  2067.6000      7.7761      2.5937      0.0967      3.4139     59.7809     21.6530
  2067.7000      7.7761      2.5791      0.0724      4.2955     61.1188     21.2475
  2067.8000      7.7699      2.5779      0.0852      4.3673     59.4840     21.2572
  2067.9000      7.7699      2.5815      0.1286      4.1515     57.7386     21.6552
  2068.0000      7.7728      2.5756      0.0939      4.5106     57.8563     22.5426
  2068.1000      7.7728      2.5711      0.0634      4.7808     58.0969     23.4340
  2068.2000      7.7728      2.5810      0.0422      4.1831     57.1361     23.7279
  2068.3000      7.7780      2.5915      0.1085      3.5432     55.3724     23.7078
  2068.4000      7.7780      2.5868      0.0546      3.8285     54.5838     23.6285
  2068.5000      7.7833      2.5718      0.0552      4.7380     55.6262     23.4223
  2068.6000      7.7833      2.5580      0.0298      5.5746     56.7197     23.1075
  2068.7000      7.7833      2.5557      0.0240      5.7138     55.9186     22.7171
  2068.8000      7.7903      2.5634      0.0571      5.2512     53.9234     22.2222
  2068.9000      7.7903      2.5688      0.0711      4.9224     52.2077     21.7670
  2069.0000      7.7901      2.5669      0.0707      5.0356     53.0540     21.7628
  2069.1000      7.7901      2.5634      0.0402      5.2477     57.6211     22.3341
