~Version Information
VERS.                      2.0: CWLS Log ASCII Standard - VERSION 2.0
WRAP.                       NO: One line per depth step
~Well Information Block
STRT.FT               420.0000: 
STOP.FT              1527.5000: 
STEP.FT                 0.1000: 
NULL.                -999.2500: 
COMP.          Evergreen Operating Corporation: COMPANY
WELL.              Chase 21-10: WELL
FLD.           Purgatoire River: FIELD
LOC.           1122' FNL & 1544' FWL: LOCATION
PROV.                       CO: PROVINCE
CNTY.               Las Animas: COUNTRY
SRVC.                         : SERVICE COMPANY
DATE.          Tue May 25 08:18:37 2004: LOG DATE
UWI.           05 071 08006 00: UNIQUE WELL ID
~Curve Information Block
DEPT.FT            0 000 00 00: Depth
DCAL.in                       : CDL Caliper
RHOB.g/cc                     : CDL Bulk Density
RHOC.g/cc                     : CDL Density Correction
DPOR.pu                       : CDL Density Porosity
GR.GAPI                       : Gamma Ray
NPOR.pu                       : Neutron Porosity
~Parameter Information Block
~A  Depth       DCAL        RHOB        RHOC        DPOR         GR         NPOR    
# ...
  1005.6000      8.0361      2.4838      0.0379     10.0734    120.5791     46.2344
  1005.7000      8.0361      2.4965      0.0441      9.3026    118.0280     46.3101
  1005.8000      8.0282      2.4996      0.1256      9.1141    115.0078     46.3331
  1005.9000      8.0282      2.4876      0.0793      9.8438    112.5965     46.2388
  1006.0000      8.0526      2.4606      0.1294     11.4816    113.4353     46.1246
  1006.1000      8.0526      2.4129      0.0674     14.3695    119.3267     46.0310
  1006.2000      8.0526      2.3559      0.0128     17.8215    122.6139     46.0640
  1006.3000      8.0123      2.3271     -0.0537     19.5721    112.4527     46.4062
  1006.4000      8.0123      2.3393      0.0425     18.8297     94.1124     46.8096
  1006.5000      8.0271      2.3579      0.1149     17.7031     84.8557     46.6766
  1006.6000      8.0271      2.3578      0.0592     17.7074     90.9561     46.0889
  1006.7000      8.0271      2.3461      0.0647     18.4163    105.6777     45.7030
  1006.8000      8.0124      2.3203      0.0855     19.9819    120.4162     45.6418
  1006.9000      8.0124      2.2724      0.1233     22.8844    129.0170     45.6803
  1007.0000      7.9996      2.2268      0.0219     25.6475    132.3215     45.8280
  1007.1000      7.9996      2.2257      0.0194     25.7173    134.8167     46.1559
  1007.2000      7.9996      2.2658      0.1149     23.2844    135.5841     46.5272
  1007.3000      8.0150      2.2959      0.1523     21.4606    131.6047     46.7838
  1007.4000      8.0150      2.2960      0.0960     21.4552    129.1594     46.9468
  1007.5000      8.0020      2.3040      0.0680     20.9714    134.6340     47.0578
  1007.6000      8.0020      2.3437      0.1639     18.5633    142.1833     47.0225
  1007.7000      8.0020      2.3887      0.2167     15.8347    146.8589     46.7008
  1007.8000      7.9900      2.4171      0.1207     14.1136    150.1911     46.1418
  1007.9000      7.9900      2.4437      0.0622     12.5003    151.9433     45.6581
  1008.0000      8.0135      2.4776      0.1020     10.4463    148.6841     45.3807
  1008.1000      8.0135      2.4947      0.1277      9.4141    137.8222     45.2615
  1008.2000      8.0135      2.4786      0.1007     10.3863    128.3720     45.2931
  1008.3000      8.0126      2.4495      0.0553     12.1526    130.0778     45.4742
  1008.4000      8.0126      2.4236      0.1029     13.7230    138.2899     45.6157
  1008.5000      7.9833      2.4001     -0.0182     15.1427    144.7728     45.7244
  1008.6000      7.9833      2.3861      0.0769     15.9930    145.0020     46.0186
  1008.7000      7.9833      2.3822      0.0518     16.2325    137.8481     46.1042
  1008.8000      8.0021      2.3962      0.0060     15.3846    130.6641     45.5816
  1008.9000      8.0021      2.4418      0.0800     12.6210    129.6735     45.0313
  1009.0000      8.0226      2.4893      0.2055      9.7371    129.3257     45.0465
  1009.1000      8.0226      2.4991      0.1851      9.1430    121.2827     45.3142
  1009.2000      8.0226      2.4887      0.1553      9.7755    108.6225     45.5016
  1009.3000      8.0581      2.4881      0.2280      9.8112     98.7898     45.7974
  1009.4000      8.0581      2.4811      0.2241     10.2336     95.2297     46.1093
  1009.5000      8.0464      2.4442      0.1676     12.4709     97.9894     46.2071
  1009.6000      8.0464      2.3968      0.0902     15.3435    103.6184     46.3841
  1009.7000      8.0464      2.3757      0.1465     16.6218    108.7546     46.8235
  1009.8000      8.0523      2.3920      0.1710     15.6349    109.5299     47.1074
  1009.9000      8.0523      2.4198      0.1864     13.9511    106.9650     46.8535
  1010.0000      8.0619      2.4308      0.1424     13.2830    109.7960     46.2016
  1010.1000      8.0619      2.4341      0.1374     13.0841    119.4271     45.7359
  1010.2000      8.0619      2.4426      0.1709     12.5720    124.6367     45.9852
  1010.3000      8.0746      2.4469      0.1685     12.3083    120.4450     46.6609
  1010.4000      8.0746      2.4452      0.1377     12.4096    117.2224     46.8639
  1010.5000      8.0652      2.4433      0.1136     12.5262    122.9031     46.3811
  1010.6000      8.0652      2.4457      0.1050     12.3824    129.0195     45.9228
  1010.7000      8.0652      2.4539      0.0984     11.8828    127.3350     45.8997
  1010.8000      8.0537      2.4625      0.0519     11.3619    122.2094     46.0956
  1010.9000      8.0537      2.4738      0.0557     10.6765    123.1604     46.1762
  1011.0000      8.0334      2.4945      0.1263      9.4267    135.6518     46.0450
  1011.1000      8.0334      2.5223      0.1225      7.7423    151.0007     45.9246
  1011.2000      8.0334      2.5462      0.0945      6.2882    154.7797     46.0827
  1011.3000      8.0668      2.5514      0.1587      5.9782    146.4601     46.5679
  1011.4000      8.0668      2.5433      0.0666      6.4686    141.0318     47.0119
  1011.5000      8.0661      2.5496      0.0638      6.0848    144.1188     47.0378
  1011.6000      8.0661      2.5727      0.1230      4.6860    146.2067     46.7243
  1011.7000      8.0661      2.5825      0.1000      4.0889    141.0484     46.5248
  1011.8000      8.0390      2.5613      0.1374      5.3781    133.3848     46.6357
  1011.9000      8.0390      2.5218      0.0186      7.7713    129.8762     46.6241
  1012.0000      8.0153      2.4934      0.0307      9.4895    129.2255     46.1616
  1012.1000      8.0153      2.4908      0.0142      9.6483    128.0248     45.7472
  1012.2000      8.0153      2.4950      0.0301      9.3948    125.9809     45.8244
  1012.3000      8.0246      2.4828      0.0461     10.1313    126.5003     45.9609
  1012.4000      8.0246      2.4651     -0.0174     11.2041    130.5683     45.7580
  1012.5000      8.0568      2.4638      0.0116     11.2858    134.1695     45.3324
  1012.6000      8.0568      2.4756     -0.0487     10.5691    137.8640     44.9540
  1012.7000      8.0568      2.4847      0.0510     10.0177    146.6884     44.8019
  1012.8000      8.0322      2.4822      0.0259     10.1697    159.0517     44.8962
  1012.9000      8.0322      2.4721      0.0435     10.7820    163.6883     45.1792
  1013.0000      8.0720      2.4586     -0.0071     11.5982    158.4862     45.3936
  1013.1000      8.0720      2.4439      0.0175     12.4911    155.4536     45.4888
  1013.2000      8.0720      2.4445     -0.0137     12.4569    155.9919     45.7582
  1013.3000      8.0494      2.4675      0.0405     11.0627    154.9649     46.2128
  1013.4000      8.0494      2.4775      0.1221     10.4536    156.3839     46.6546
  1013.5000      8.0498      2.4539      0.0348     11.8876    159.6212     46.9861
  1013.6000      8.0498      2.4268      0.0491     13.5301    157.3586     47.0207
  1013.7000      8.0498      2.4173      0.0922     14.1053    152.3857     46.6789
  1013.8000      8.0267      2.4108      0.0202     14.4984    151.2434     46.2624
  1013.9000      8.0267      2.3989      0.0172     15.2161    151.9068     46.0510
  1014.0000      8.0249      2.3880      0.0606     15.8793    148.0349     46.0214
  1014.1000      8.0249      2.3800      0.0314     16.3625    140.6161     46.1403
  1014.2000      8.0249      2.3769      0.0212     16.5528    134.2410     46.3542
  1014.3000      8.0272      2.3770      0.0439     16.5474    131.9548     46.4389
  1014.4000      8.0272      2.3850      0.0618     16.0619    140.1452     46.4407
  1014.5000      8.0697      2.4165      0.0694     14.1506    152.1958     46.6923
  1014.6000      8.0697      2.4750      0.0771     10.6042    153.1829     47.0820
  1014.7000      8.0697      2.5308      0.1787      7.2254    146.7579     47.1515
  1014.8000      8.0698      2.5431      0.2224      6.4778    142.4715     47.1046
  1014.9000      8.0698      2.5147      0.1209      8.1972    137.3346     47.3003
  1015.0000      8.0932      2.4907      0.0572      9.6566    132.8429     47.4423
  1015.1000      8.0932      2.4968      0.1366      9.2845    138.4112     47.3079
