~Version Information
VERS.                      2.0: CWLS Log ASCII Standard - VERSION 2.0
WRAP.                       NO: One line per depth step
~Well Information Block
STRT.FT               -11.0000: 
STOP.FT              1523.2500: 
STEP.FT                 0.2500: 
NULL.                -999.2500: 
COMP.          Petrogulf Corporation: COMPANY
WELL.             State 16-43R: WELL
FLD.           Purgatorie River: FIELD
LOC.           2538' FSL & 716' FEL--: LOCATION
PROV.                       CO: PROVINCE
CNTY.               Las Animas: COUNTRY
SRVC.          Patterson Wireline: SERVICE COMPANY
DATE.          Fri Sep 09 13:13:52 2005: LOG DATE
UWI.           05 071 08338 00: UNIQUE WELL ID
~Curve Information Block
DEPT.FT            0 000 00 00: Depth
CCL.                          : Casing Collar Locator
TT3.usec                      : CBL 3' Travel Time
AMP3.mV                       : CBL 3' Amplitude
GR.GAPI                       : Gamma Ray
~Parameter Information Block
~A  Depth       CCL         TT3         AMP3         GR     
# ...
   592.0000      0.0000    336.8312     11.5666     86.7411
   592.2500      0.0000    336.8503     11.5230     87.7738
   592.5000      0.0000    336.8898     11.4649     87.6745
   592.7500      0.0000    336.9766     11.3897     85.8229
   593.0000      0.0000    337.1173     11.3113     82.5934
   593.2500      0.0000    337.3112     11.2502     79.0683
   593.5000      0.0000    337.5779     11.2219     76.3506
   593.7500      0.0000    337.9745     11.2313     75.1047
   594.0000      0.0000    338.6412     11.2748     75.3162
   594.2500      0.0000    339.9387     11.3426     76.1344
   594.5000      0.0000    342.5377     11.4187     76.1512
   594.7500      0.0000    347.1234     11.4841     74.3610
   595.0000      0.0000    353.6865     11.5211     71.0305
   595.2500      0.0000    361.0891     11.5200     67.4330
   595.5000      0.0000    367.6238     11.4823     64.7325
   595.7500      0.0000    372.1626     11.4185     63.3260
   596.0000      0.0000    374.7150     11.3446     63.1580
   596.2500      0.0000    375.9919     11.2792     64.0795
   596.5000      0.0000    376.6822     11.2397     65.6874
   596.7500      0.0000    377.1295     11.2372     67.4467
   597.0000      0.0000    377.4210     11.2744     69.2046
   597.2500      0.0000    377.5737     11.3449     70.9016
   597.5000      0.0000    377.6288     11.4355     71.6425
   597.7500      0.0000    377.6622     11.5273     69.9403
   598.0000      0.0000    377.7756     11.6012     65.3800
   598.2500      0.0000    378.2877     11.6446     59.6048
   598.5000      0.0000    380.1443     11.6548     55.2716
   598.7500      0.0000    385.4462     11.6358     54.0768
   599.0000      0.0000    397.2829     11.5942     55.6686
   599.2500      0.0000    418.0847     11.5408     58.0401
   599.5000      0.0000    447.6546     11.4921     58.8535
   599.7500      0.0000    483.5247     11.4653     56.8133
   600.0000      0.0000    523.4186     11.4653     52.3061
   600.2500      0.0000    565.6828     11.4736     46.9120
   600.5000      0.0000    606.6050     11.4547     42.3328
   600.7500      0.0000    639.4675     11.3801     39.7100
   601.0000      0.0000    658.6201     11.2554     39.5652
   601.2500      0.0000    665.1142     11.1264     41.8173
   601.5000      0.0000    667.4855     11.0628     45.7447
   601.7500      0.0000    675.6832     11.1262     50.2618
   602.0000      0.0000    693.4506     11.3297     54.4819
   602.2500      0.0000    716.4176     11.6102     58.0774
   602.5000      0.0000    736.9943     11.8494     61.2583
   602.7500      0.0000    750.1530     11.9497     64.5929
   603.0000      0.0000    754.7314     11.8982     68.6553
   603.2500      0.0000    751.7468     11.7564     73.5533
   603.5000      0.0000    743.7038     11.5974     78.8706
   603.7500      0.0000    734.7230     11.4634     84.1716
   604.0000      0.0000    729.1519     11.3630     89.2016
   604.2500      0.0000    729.1504     11.2826     93.3108
   604.5000      0.0000    733.7194     11.1913     95.2250
   604.7500      0.0000    739.9480     11.0427     94.0404
   605.0000      0.0000    745.1003     10.7904     90.4254
   605.2500      0.0000    747.7985     10.4195     86.4190
   605.5000      0.0000    747.6646      9.9733     83.9948
   605.7500      0.0000    744.6339      9.5406     84.0682
   606.0000      0.0000    739.3195      9.1973     86.7927
   606.2500      0.0000    733.8959      8.9569     92.1065
   606.5000      0.0000    731.4724      8.7765     99.4148
   606.7500      0.0000    733.6268      8.6020    106.9757
   607.0000      0.0000    738.8947      8.4045    112.3958
   607.2500      0.0000    744.1747      8.1889    114.2955
   607.5000      0.0000    747.1927      7.9887    113.4481
   607.7500      0.0000    747.2773      7.8539    112.1887
   608.0000      0.0000    744.6393      7.8323    112.6301
   608.2500      0.0000    740.0286      7.9482    115.1209
   608.5000      0.0000    735.1072      8.1870    118.0733
   608.7500      0.0000    732.4396      8.4959    119.2975
   609.0000      0.0000    734.6819      8.8005    117.7647
   609.2500      0.0000    743.8387      9.0321    113.9867
   609.5000      0.0000    760.3088      9.1615    108.7404
   609.7500      0.0000    781.0980      9.2171    102.1039
   610.0000      0.0000    800.1744      9.2591     94.0916
   610.2500      0.0000    814.4230      9.3282     85.6061
   610.5000      0.0000    829.6418      9.4242     78.1597
   610.7500     -2.0000    855.5483      9.5204     72.8607
   611.0000      0.0000    891.7065      9.5732     70.1495
   611.2500      0.0000    921.3588      9.5421     70.3969
   611.5000      0.0000    922.7971      9.4372     74.1573
   611.7500      0.0000    887.5474      9.3417     81.5469
   612.0000      0.0000    828.3961      9.3470     91.5594
   612.2500      0.0000    770.4033      9.4725    102.1820
   612.5000      0.0000    732.9255      9.6807    111.1313
   612.7500      0.0000    719.1641      9.9349    116.6127
   613.0000      0.0000    720.9384     10.2018    117.9301
   613.2500      0.0000    729.6579     10.4403    115.8077
   613.5000      0.0000    741.5812     10.6317    112.0778
   613.7500      0.0000    755.8896     10.7962    108.6878
   614.0000      0.0000    771.1602     10.9691    106.7352
   614.2500      0.0000    784.6282     11.1784    106.2280
   614.5000      0.0000    794.0558     11.4373    106.4851
   614.7500      0.0000    799.2312     11.7337    106.6941
   615.0000      0.0000    801.4868     12.0230    106.3794
   615.2500      0.0000    802.2856     12.2497    105.6606
   615.5000      0.0000    802.4756     12.3775    105.0976
   615.7500      0.0000    802.2277     12.4037    105.2834
   616.0000      0.0000    801.0071     12.3474    106.6152
   616.2500      0.0000    797.2282     12.2332    109.1247
   616.5000      0.0000    788.1239     12.0850    112.1662
   616.7500      0.0000    771.0108     11.9299    114.6431
   617.0000      0.0000    746.1145     11.7959    116.0770
   617.2500      0.0000    718.3892     11.6962    117.2259
   617.5000      0.0000    695.2388     11.6158    119.1572
   617.7500      0.0000    681.5269     11.5227    121.8843
   618.0000      0.0000    677.1014     11.3994    124.4564
   618.2500      0.0000    679.0064     11.2586    126.2490
   618.5000      0.0000    684.6623     11.1288    127.5782
   618.7500      0.0000    692.1648     11.0263    128.8986
   619.0000      0.0000    698.7338     10.9486    129.9887
   619.2500      0.0000    701.1862     10.8867    130.4403
   619.5000      0.0000    698.7324     10.8382    130.6802
   619.7500      0.0000    693.4523     10.8046    131.9221
   620.0000      0.0000    686.5194     10.7825    135.0069
   620.2500      0.0000    675.8304     10.7609    139.6439
   620.5000      0.0000    659.6964     10.7272    144.9773
   620.7500      0.0000    641.5847     10.6738    150.3342
   621.0000      0.0000    628.9141     10.6013    154.9584
   621.2500      0.0000    627.1068     10.5187    157.5405
   621.5000      0.0000    634.9406     10.4446    156.7456
   621.7500      0.0000    644.7294     10.4004    152.2622
   622.0000      0.0000    647.5960     10.3990    145.2914
   622.2500      0.0000    640.5706     10.4332    138.1428
   622.5000      0.0000    629.0831     10.4789    133.2040
   622.7500      0.0000    622.5175     10.5091    131.8451
   623.0000      0.0000    628.0056     10.5103    133.9113
   623.2500      0.0000    647.4144     10.4847    137.8123
   623.5000      0.0000    676.9889     10.4403    141.0488
   623.7500      0.0000    708.6472     10.3811    141.5324
   624.0000      0.0000    733.6443     10.3101    139.1775
   624.2500      0.0000    747.0215     10.2420    135.8732
   624.5000      0.0000    748.7003     10.2037    133.3571
   624.7500      0.0000    740.9370     10.2161    131.4670
   625.0000      0.0000    726.3875     10.2730    129.0794
   625.2500      0.0000    708.7995     10.3421    126.4268
