~Version Information
VERS.                      2.0: CWLS Log ASCII Standard - VERSION 2.0
WRAP.                       NO: One line per depth step
~Well Information Block
STRT.FT               -13.0000: 
STOP.FT              1411.2500: 
STEP.FT                 0.2500: 
NULL.                -999.2500: 
COMP.                         : COMPANY
WELL.                         : WELL
FLD.                          : FIELD
LOC.                          : LOCATION
CNTY.                         : COUNTY
SRVC.                         : SERVICE COMPANY
DATE.          Sat Jan 17 07:25:27 2004: LOG DATE
UWI.                          : UNIQUE WELL ID
STAT.                         : STATE
~Curve Information Block
DEPT.FT            0 000 00 00: Depth
CCL.                          : Casing Collar Locator
TT3.usec                      : CBL 3' Travel Time
AMP3.mV                       : CBL 3' Amplitude
GR.GAPI                       : Gamma Ray
~Parameter Information Block
~A  Depth       CCL         TT3         AMP3         GR     
# ...
   556.5000      0.0000    309.6767     23.0588     32.8066
   556.7500      0.0000    309.2615     21.7563     31.0340
   557.0000      0.0000    307.5637     20.7733     30.5529
   557.2500      0.0000    306.1992     19.9951     31.2714
   557.5000     -4.0000    306.9589     19.1798     32.4847
   557.7500      0.0000    311.7051     18.2311     33.2607
   558.0000      0.0000    321.8981     17.2970     33.0925
   558.2500      0.0000    336.6367     16.6520     32.2496
   558.5000      0.0000    351.0558     16.4981     31.5452
   558.7500      0.0000    358.7583     16.8268     31.7395
   559.0000      0.0000    357.5514     17.4042     33.0180
   559.2500      0.0000    352.1511     17.8694     34.8733
   559.5000      0.0000    350.4596     17.8934     36.5175
   559.7500      0.0000    358.0006     17.3291     37.4806
   560.0000      0.0000    375.8301     16.2714     37.7525
   560.2500      0.0000    402.4195     14.9862     37.4185
   560.5000      0.0000    436.5060     13.7679     36.4310
   560.7500      0.0000    477.3766     12.8360     34.7638
   561.0000      0.0000    522.1597     12.3089     32.6740
   561.2500      0.0000    564.9806     12.2092     30.8741
   561.5000      0.0000    600.7407     12.4706     30.3240
   561.7500      0.0000    628.0890     12.9630     31.4667
   562.0000      0.0000    647.1249     13.5495     33.6613
   562.2500      0.0000    655.9557     14.1439     35.6644
   562.5000      0.0000    650.4564     14.7379     36.6440
   562.7500      0.0000    626.2208     15.3924     36.5855
   563.0000      0.0000    581.4766     16.1981     36.0402
   563.2500      0.0000    520.3015     17.2192     35.7970
   563.5000      0.0000    453.1096     18.4551     36.4653
   563.7500      0.0000    392.5559     19.8494     37.9085
   564.0000      0.0000    347.5732     21.3144     39.1588
   564.2500      0.0000    320.1322     22.7292     39.2621
   564.5000      0.0000    306.4571     23.9383     38.2834
   564.7500      0.0000    300.8790     24.8028     37.2542
   565.0000      0.0000    298.9701     25.2883     37.0375
   565.2500      0.0000    298.3918     25.4825     37.4837
   565.5000      0.0000    298.2397     25.4939     37.8252
   565.7500      0.0000    298.2177     25.3392     37.6484
   566.0000      0.0000    298.2220     24.9572     37.1907
   566.2500      0.0000    298.2150     24.3246     36.8103
   566.5000      0.0000    298.2160     23.5278     36.5263
   566.7500      0.0000    298.2621     22.7129     36.1565
   567.0000      0.0000    298.3629     21.9869     35.6283
   567.2500      0.0000    298.4897     21.3787     34.9581
   567.5000      0.0000    298.6106     20.8762     34.2085
   567.7500      0.0000    298.7242     20.4721     33.7901
   568.0000      0.0000    298.8475     20.1627     34.4855
   568.2500      0.0000    298.9765     19.9333     36.6336
   568.5000      0.0000    299.0673     19.7726     39.4097
   568.7500      0.0000    299.0572     19.7026     41.3569
   569.0000      0.0000    298.9045     19.7713     41.4739
   569.2500      0.0000    298.6157     20.0109     39.6187
   569.5000      0.0000    298.2426     20.4029     36.3411
   569.7500      0.0000    297.8596     20.8779     32.7298
   570.0000      0.0000    297.5393     21.3479     30.1039
   570.2500      0.0000    297.3302     21.7524     29.3540
   570.5000      0.0000    297.2389     22.0883     30.3542
   570.7500      0.0000    297.2287     22.4000     32.0099
   571.0000      0.0000    297.2495     22.7424     32.9610
   571.2500      0.0000    297.2799     23.1503     32.3427
   571.5000      0.0000    297.3369     23.6281     30.1065
   571.7500      0.0000    297.4374     24.1622     26.9260
   572.0000      0.0000    297.5586     24.7464     23.8562
   572.2500      0.0000    297.6491     25.4063     21.9040
   572.5000      0.0000    297.6750     26.1959     21.6955
   572.7500      0.0000    297.6399     27.1548     23.2817
   573.0000      0.0000    297.5781     28.2382     26.1020
   573.2500      0.0000    297.5688     29.2776     29.3554
   573.5000      0.0000    297.7602     30.0127     32.5417
   573.7500      0.0000    298.3168     30.1925     35.4483
   574.0000      0.0000    299.2780     29.6969     37.6747
   574.2500      0.0000    300.4663     28.6308     38.6584
   574.5000      0.0000    301.5675     27.3284     38.3195
   574.7500      0.0000    302.3301     26.1930     37.3027
   575.0000      0.0000    302.7094     25.4341     36.3362
   575.2500      0.0000    302.8492     24.9439     35.5799
   575.5000      0.0000    302.9535     24.4360     34.7985
   575.7500      0.0000    303.1674     23.6886     33.9187
   576.0000      0.0000    303.5240     22.6923     33.0905
   576.2500      0.0000    303.9418     21.6868     32.3533
   576.5000      0.0000    304.2465     21.1079     31.5599
   576.7500      0.0000    304.2278     21.3664     30.6111
   577.0000      0.0000    303.7455     22.4751     29.6042
   577.2500      0.0000    302.8603     23.8860     28.7805
   577.5000      0.0000    301.9113     24.8372     28.3956
   577.7500      0.0000    301.7397     24.8964     28.6284
   578.0000      0.0000    304.4070     24.1373     29.5722
   578.2500      0.0000    314.5284     22.8958     31.2275
   578.5000      0.0000    339.8855     21.4832     33.4114
   578.7500      0.0000    388.5776     20.0898     35.7185
   579.0000      0.0000    462.3097     18.8233     37.7845
   579.2500      0.0000    551.2840     17.7457     39.6656
   579.5000      0.0000    637.1944     16.8638     41.7825
   579.7500      0.0000    702.8132     16.1169     44.4449
   580.0000      0.0000    740.2301     15.4111     47.6005
   580.2500      0.0000    752.7590     14.6824     51.1187
   580.5000      0.0000    750.8251     13.9290     55.1201
   580.7500      0.0000    744.8674     13.1924     59.8147
   581.0000      0.0000    740.2721     12.5104     65.0291
   581.2500      0.0000    737.8141     11.8861     70.0374
   581.5000      0.0000    737.1809     11.3041     73.9027
   581.7500      0.0000    738.5569     10.7702     75.9200
   582.0000      0.0000    741.3991     10.3134     75.9336
   582.2500      0.0000    743.6094      9.9402     74.7190
   582.5000      0.0000    742.6559      9.6066     74.0053
   582.7500      0.0000    737.2161      9.2543     75.3488
   583.0000      0.0000    727.8838      8.8589     78.6002
   583.2500      0.0000    716.7314      8.4298     81.8624
   583.5000      0.0000    705.9524      7.9768     83.2311
   583.7500      0.0000    696.4275      7.4948     82.4282
   584.0000      0.0000    687.6161      6.9852     80.7162
   584.2500      0.0000    679.0850      6.4836     79.5077
   584.5000      0.0000    671.9458      6.0501     79.1951
   584.7500      0.0000    668.4618      5.7200     79.1571
   585.0000      0.0000    670.2058      5.4680     78.7313
   585.2500      0.0000    676.6973      5.2330     77.9829
   585.5000      0.0000    685.6479      4.9714     77.4641
   585.7500      0.0000    694.5049      4.6810     77.4416
   586.0000      0.0000    702.2637      4.3849     77.5314
   586.2500      0.0000    710.0219      4.1054     77.0834
   586.5000      0.0000    719.4106      3.8526     75.8802
   586.7500      0.0000    730.5160      3.6260     74.3898
   587.0000      0.0000    741.6943      3.4191     73.4299
   587.2500      0.0000    751.0308      3.2247     73.7094
   587.5000      0.0000    757.3353      3.0374     75.3844
   587.7500      0.0000    760.1810      2.8524     77.7633
   588.0000      0.0000    759.9681      2.6685     79.7116
   588.2500      0.0000    758.0317      2.5040     80.5941
   588.5000      0.0000    756.0897      2.4026     80.5657
   588.7500      0.0000    755.4281      2.4040     79.9413
   589.0000      0.0000    756.6854      2.5005     78.8744
   589.2500      0.0000    760.0909      2.6298     77.7381
   589.5000      0.0000    765.3720      2.7172     77.1895
   589.7500      0.0000    771.5229      2.7256     77.5963
