~Version Information
VERS.                      2.0: CWLS Log ASCII Standard - VERSION 2.0
WRAP.                       NO: One line per depth step
~Well Information Block
STRT.FT                -8.2500: 
STOP.FT              1175.7500: 
STEP.FT                 0.2500: 
NULL.                -999.2500: 
COMP.          Evergreen Operating Corporation: COMPANY
WELL.             Justin 32-10: WELL
FLD.           Purgatorie River: FIELD
LOC.           2994' FNL & 1449' FEL: LOCATION
PROV.                 Colorado: PROVINCE
CNTY.               Las Animas: COUNTRY
SRVC.                         : SERVICE COMPANY
DATE.          Wed Sep 29 10:00:10 2004: LOG DATE
UWI.           05 071 08053 00: UNIQUE WELL ID
~Curve Information Block
DEPT.FT            0 000 00 00: Depth
GR.GAPI                       : Gamma Ray
CCL.                          : Casing Collar Locator
TT3.usec                      : CBL 3' Travel Time
AMP3.mV                       : CBL 3' Amplitude
~Parameter Information Block
~A  Depth        GR         CCL         TT3         AMP3    
# ...
   896.2500     45.3509      0.0000    274.1720     33.8248
   896.5000     46.8039      0.0000    274.2050     34.0004
   896.7500     49.5705      0.0000    274.2203     34.2939
   897.0000     53.5353      0.0000    274.2191     34.6839
   897.2500     58.4356      0.0000    274.2079     35.0975
   897.5000     64.4725      0.0000    274.1974     35.4734
   897.7500     72.3113      0.0000    274.1999     35.7883
   898.0000     82.5618      0.0000    274.2224     36.0384
   898.2500     95.0760      0.0000    274.2595     36.2192
   898.5000    108.3582      0.0000    274.2951     36.3344
   898.7500    119.7191      0.0000    274.3131     36.4170
   899.0000    126.6621      0.0000    274.3062     36.5170
   899.2500    128.6384      0.0000    274.2781     36.6525
   899.5000    127.3881      0.0000    274.2386     36.7856
   899.7500    125.4605      0.0000    274.1978     36.8620
   900.0000    124.4583      0.0000    274.1636     36.8679
   900.2500    124.3388      0.0000    274.1433     36.8394
   900.5000    123.8388      0.0000    274.1414     36.8262
   900.7500    121.5717      0.0000    274.1542     36.8566
   901.0000    117.0206      0.0000    274.1685     36.9316
   901.2500    110.6662      0.0000    274.1699     37.0413
   901.5000    103.4290      0.0000    274.1532     37.1797
   901.7500     96.1200      0.0000    274.1248     37.3459
   902.0000     89.1962      0.0000    274.0965     37.5337
   902.2500     82.6799      0.0000    274.0782     37.7222
   902.5000     76.2829      0.0000    274.0733     37.8844
   902.7500     69.7677      0.0000    274.0794     38.0054
   903.0000     63.2650      0.0000    274.0898     38.0919
   903.2500     57.1543      0.0000    274.0969     38.1655
   903.5000     51.6566      0.0000    274.0953     38.2486
   903.7500     46.8067      0.0000    274.0833     38.3503
   904.0000     42.9047      0.0000    274.0621     38.4631
   904.2500     40.5892      0.0000    274.0343     38.5727
   904.5000     40.2334      0.0000    274.0016     38.6727
   904.7500     41.4643      0.0000    273.9667     38.7627
   905.0000     43.4124      0.0000    273.9356     38.8325
   905.2500     45.3035      0.0000    273.9164     38.8560
   905.5000     46.7333      0.0000    273.9137     38.8088
   905.7500     47.5002      0.0000    273.9247     38.6805
   906.0000     47.4086      0.0000    273.9417     38.4619
   906.2500     46.4145      0.0000    273.9586     38.1343
   906.5000     44.8873      0.0000    273.9737     37.6786
   906.7500     43.4445      0.0000    273.9877     37.0832
   907.0000     42.4027      0.0000    273.9994     36.3418
   907.2500     41.4966      0.0000    274.0036     35.4630
   907.5000     40.2277      0.0000    274.0004     34.4688
   907.7500     38.4961      0.0000    274.0073     33.3550
   908.0000     36.9387      0.0000    274.0594     32.0706
   908.2500     36.6709      0.0000    274.1874     30.5850
   908.5000     38.5909      0.0000    274.3886     28.9800
   908.7500     42.7082      0.0000    274.6133     27.4491
   909.0000     47.9447      0.0000    274.7857     26.2083
   909.2500     52.6533      0.0000    274.8516     25.4034
   909.5000     55.7854      0.0000    274.8138     25.0666
   909.7500     57.8167      0.0000    274.7170     25.1199
   910.0000     60.1736      0.0000    274.6020     25.4266
   910.2500     63.3791      0.0000    274.4830     25.8708
   910.5000     65.9668      0.0000    274.3654     26.4013
   910.7500     65.5992      0.0000    274.2639     27.0126
   911.0000     61.2312      0.0000    274.1983     27.7230
   911.2500     54.0649      0.0000    274.1758     28.5915
   911.5000     46.5765      0.0000    274.1843     29.7036
   911.7500     40.8437      0.0000    274.2012     31.0743
   912.0000     37.5332      0.0000    274.2100     32.5619
   912.2500     35.8927      0.0000    274.2113     33.9184
   912.5000     34.5352      0.0000    274.2237     34.9500
   912.7500     32.5937      0.0000    274.3061     35.6373
   913.0000     30.4416      0.0000    274.6243     36.1118
   913.2500     29.2958      0.0000    275.5367     36.5234
   913.5000     30.1523      0.0000    277.5051     36.8941
   913.7500     33.1547      0.0000    280.6436     37.0076
   914.0000     37.7756      0.0000    284.2087     36.4023
   914.2500     43.2869      0.0000    286.8185     34.6139
   914.5000     49.0798      0.0000    287.5346     31.6322
   914.7500     54.8132      0.0000    286.6423     28.1317
   915.0000     60.4067      0.0000    285.2079     25.0950
   915.2500     65.8991      0.0000    284.0984     23.1473
   915.5000     71.2881      0.9247    283.6117     22.2779
   915.7500     76.4844      0.0000    283.7853     22.1124
   916.0000     81.4296      0.0000    284.7447     22.3653
   916.2500     86.2141      0.0000    286.6190     23.1155
   916.5000     90.8258      0.0000    289.0385     24.7282
   916.7500     94.6604      0.0000    290.7998     27.4123
   917.0000     96.6169      0.0000    290.4488     30.7768
   917.2500     96.0249      0.0000    287.5447     33.9401
   917.5000     93.4276      0.0000    283.1860     36.1750
   917.7500     90.2404      0.0000    279.0920     37.3693
   918.0000     87.6976      0.0000    276.3209     37.8725
   918.2500     86.2543      0.0000    274.9095     38.0819
   918.5000     85.8102      0.0000    274.3698     38.2349
   918.7500     86.1385      0.0000    274.2305     38.4231
   919.0000     86.9973      0.0000    274.2276     38.6457
   919.2500     88.0370      0.0000    274.2557     38.8493
   919.5000     88.8488      0.0000    274.2811     38.9829
   919.7500     89.1518      0.0000    274.2927     39.0469
   920.0000     88.9137      0.0000    274.2923     39.0886
   920.2500     88.4759      0.0000    274.2894     39.1481
   920.5000     88.6207      0.0000    274.2930     39.2133
   920.7500     90.1156      0.0000    274.3061     39.2391
   921.0000     92.8943      0.0000    274.3279     39.2107
   921.2500     95.8685      0.0000    274.3601     39.1763
   921.5000     97.6488      0.0000    274.4052     39.2064
   921.7500     97.5004      0.0000    274.4603     39.3235
   922.0000     95.9543      0.0000    274.5146     39.4778
   922.2500     94.6071      0.0000    274.5551     39.5869
   922.5000     94.8488      0.0000    274.5752     39.5954
   922.7500     96.5663      0.0000    274.5784     39.5067
   923.0000     98.2231      0.0000    274.5751     39.3676
   923.2500     98.1502      0.0000    274.5725     39.2194
   923.5000     95.6614      0.0000    274.5713     39.0599
   923.7500     91.1739      0.0000    274.5693     38.8506
   924.0000     85.7487      0.0000    274.5650     38.5541
   924.2500     80.7971      0.0000    274.5592     38.1655
   924.5000     77.8926      0.0000    274.5549     37.7223
   924.7500     78.1100      0.0000    274.5587     37.2891
   925.0000     81.1127      0.0000    274.5784     36.9273
   925.2500     85.0976      0.0000    274.6167     36.6661
   925.5000     87.9832      0.0000    274.6684     36.4909
   925.7500     88.7686      0.0000    274.7243     36.3534
   926.0000     87.8343      0.0000    274.7772     36.2037
   926.2500     86.2712      0.0000    274.8204     36.0315
   926.5000     85.1667      0.0000    274.8444     35.8757
   926.7500     85.3476      0.0000    274.8394     35.7796
   927.0000     87.1884      0.0000    274.8016     35.7420
   927.2500     90.2079      0.0000    274.7369     35.7328
   927.5000     93.0341      0.0000    274.6588     35.7535
   927.7500     94.4190      0.0000    274.5796     35.8500
   928.0000     94.4227      0.0000    274.5034     36.0496
   928.2500     94.0700      0.0000    274.4284     36.3079
   928.5000     93.8593      0.0000    274.3586     36.5228
   928.7500     93.3485      0.0000    274.3108     36.5713
   929.0000     92.2663      0.0000    274.3068     36.3473
   929.2500     91.3002      0.0000    274.3579     35.8326
   929.5000     91.5106      0.0000    274.4551     35.1481
