~Version Information
VERS.                      2.0: CWLS Log ASCII Standard - VERSION 2.0
WRAP.                       NO: One line per depth step
~Well Information Block
STRT.FT               400.0000: 
STOP.FT              2201.0000: 
STEP.FT                 0.1000: 
NULL.                -999.2500: 
COMP.          Evergreen Operating Corporation: COMPANY
WELL.            Triumph 13-10: WELL
FLD.           Purgatorie River: FIELD
LOC.           1551' FSL & 522' FWL: LOCATION
PROV.                 Colorado: PROVINCE
CNTY.               Las Animas: COUNTRY
SRVC.                Patterson: SERVICE COMPANY
DATE.          Mon Jul 26 07:55:18 2004: LOG DATE
UWI.           05 071 08108 00: UNIQUE WELL ID
~Curve Information Block
DEPT.FT            0 000 00 00: Depth
DCAL.in                       : CDL Caliper
RHOB.g/cc                     : CDL Bulk Density
RHOC.g/cc                     : CDL Density Correction
DPOR.pu                       : CDL Density Porosity
NPOR.pu                       : Neutron Porosity
GR.GAPI                       : Gamma Ray
~Parameter Information Block
~A  Depth       DCAL        RHOB        RHOC        DPOR        NPOR         GR     
# ...
  1456.0000      8.1307      2.5868      0.0587      3.8329     20.0912     77.0962
  1456.1000      8.1307      2.5654      0.0387      5.1294     19.9870     76.0728
  1456.2000      8.1307      2.5448      0.0169      6.3732     19.6570     73.3998
  1456.3000      8.1264      2.5352      0.0012      6.9602     19.9252     71.1086
  1456.4000      8.1264      2.5376      0.0112      6.8115     20.4126     71.4261
  1456.5000      8.1306      2.5471     -0.0048      6.2344     20.3362     75.4724
  1456.6000      8.1306      2.5597      0.0250      5.4726     20.0149     78.4380
  1456.7000      8.1306      2.5706     -0.0060      4.8113     20.3050     77.1748
  1456.8000      8.1332      2.5786      0.0236      4.3266     21.2596     75.5672
  1456.9000      8.1332      2.5797      0.0516      4.2580     22.4938     76.0211
  1457.0000      8.1335      2.5631      0.0527      5.2669     24.0137     76.5382
  1457.1000      8.1335      2.5239      0.0354      7.6418     25.8517     78.1191
  1457.2000      8.1335      2.4683     -0.0042     11.0150     27.6493     84.6957
  1457.3000      8.1349      2.3981     -0.0047     15.2670     29.1390     94.3223
  1457.4000      8.1349      2.3121     -0.0443     20.4796     30.3347    100.4817
  1457.5000      8.1371      2.2283     -0.0560     25.5558     31.2860    100.2617
  1457.6000      8.1371      2.1652     -0.0808     29.3842     32.1679     98.7313
  1457.7000      8.1371      2.1119     -0.0706     32.6142     33.1734    101.7232
  1457.8000      8.1394      2.0523     -0.0783     36.2234     34.1748    105.1837
  1457.9000      8.1394      1.9885     -0.0550     40.0903     34.9062    102.3717
  1458.0000      8.1899      1.9217     -0.0150     44.1413     35.4622     97.6022
  1458.1000      8.1899      1.8454     -0.0481     48.7660     36.0777     96.5876
  1458.2000      8.1899      1.7682     -0.0301     53.4415     36.5147     94.8900
  1458.3000      8.1620      1.7132     -0.0013     56.7739     36.4963     88.6098
  1458.4000      8.1620      1.6860      0.0701     58.4220     36.1023     80.5710
  1458.5000      8.1505      1.6634      0.0927     59.7959     35.5128     73.7365
  1458.6000      8.1505      1.6271      0.0613     61.9958     34.9138     69.3129
  1458.7000      8.1505      1.5917      0.0286     64.1391     34.4344     68.1235
  1458.8000      8.1714      1.5875      0.0210     64.3924     34.0437     69.2533
  1458.9000      8.1714      1.6337      0.0806     61.5914     33.6212     70.4272
  1459.0000      8.1960      1.7291      0.1618     55.8131     32.8282     70.5315
  1459.1000      8.1960      1.8526      0.2160     48.3294     31.3278     72.7809
  1459.2000      8.1960      1.9710      0.2655     41.1530     29.3923     82.0933
  1459.3000      8.1892      2.0662      0.2419     35.3841     27.8446     95.5480
  1459.4000      8.1892      2.1539      0.2377     30.0677     26.8743    103.1883
  1459.5000      8.1926      2.2525      0.2717     24.0912     25.9983     99.0611
  1459.6000      8.1926      2.3532      0.2311     17.9877     25.0943     87.7827
  1459.7000      8.1926      2.4380      0.1433     12.8512     24.0799     80.6048
  1459.8000      8.1067      2.4956      0.1485      9.3548     22.9179     82.4451
  1459.9000      8.1067      2.5220      0.0708      7.7552     21.8874     88.6460
  1460.0000      8.0932      2.5223      0.0561      7.7401     21.2091     92.5804
  1460.1000      8.0932      2.5034      0.0154      8.8844     21.1595     91.5051
  1460.2000      8.0932      2.4816     -0.0372     10.2083     21.7700     88.6765
  1460.3000      8.0893      2.4840     -0.0267     10.0623     22.5036     87.4413
  1460.4000      8.0893      2.5160      0.0159      8.1199     23.0283     85.4936
  1460.5000      8.0966      2.5526      0.0465      5.9045     23.1368     83.0122
  1460.6000      8.0966      2.5778     -0.0106      4.3769     22.7998     86.9621
  1460.7000      8.0966      2.5933      0.0581      3.4372     22.6329     98.8127
  1460.8000      8.1005      2.5986      0.0455      3.1171     23.1115    109.5498
  1460.9000      8.1005      2.5947      0.0617      3.3538     23.9278    113.2055
  1461.0000      8.1008      2.5812      0.0830      4.1717     24.7254    116.1125
  1461.1000      8.1008      2.5585      0.0270      5.5438     25.4747    124.8018
  1461.2000      8.1008      2.5451     -0.0098      6.3573     26.1010    133.5847
  1461.3000      8.0969      2.5561      0.0587      5.6930     26.2243    133.8415
  1461.4000      8.0969      2.5711      0.1104      4.7794     25.7948    126.7532
  1461.5000      8.0815      2.5640      0.0969      5.2110     25.5530    123.4976
  1461.6000      8.0815      2.5448      0.0337      6.3759     25.8909    132.3268
  1461.7000      8.0815      2.5387      0.0295      6.7482     26.2392    147.0894
  1461.8000      8.1265      2.5425      0.0707      6.5152     25.8143    157.2265
  1461.9000      8.1265      2.5449     -0.0054      6.3697     24.9915    157.9702
  1462.0000      8.1272      2.5513      0.0597      5.9815     24.8087    152.5314
  1462.1000      8.1272      2.5602      0.0549      5.4404     25.1001    145.9919
  1462.2000      8.1272      2.5676      0.0009      4.9960     24.9326    134.1979
  1462.3000      8.1059      2.5782      0.0429      4.3504     24.5433    119.9679
  1462.4000      8.1059      2.5898      0.0233      3.6456     24.8785    117.7225
  1462.5000      8.1076      2.5905      0.0770      3.6040     25.5439    128.7847
  1462.6000      8.1076      2.5770      0.0157      4.4254     25.4663    139.0146
  1462.7000      8.1076      2.5671      0.0088      5.0262     24.8532    139.1362
  1462.8000      8.0945      2.5726      0.0171      4.6930     24.6485    133.4061
  1462.9000      8.0945      2.5795      0.0559      4.2710     24.8872    128.3291
  1463.0000      8.1009      2.5761      0.0462      4.4766     24.9768    124.8421
  1463.1000      8.1009      2.5707      0.0302      4.8031     25.2465    122.9475
  1463.2000      8.1009      2.5744      0.0359      4.5845     26.0244    123.1418
  1463.3000      8.1018      2.5878      0.0571      3.7670     26.4602    126.7449
  1463.4000      8.1018      2.6021      0.0419      2.9002     26.0534    131.7534
  1463.5000      8.0948      2.5988      0.0819      3.1038     25.4141    131.2975
  1463.6000      8.0948      2.5634      0.0443      5.2513     25.0933    127.6437
  1463.7000      8.0948      2.5122      0.0223      8.3527     25.2914    128.3041
  1463.8000      8.0615      2.4848     -0.0629     10.0142     26.0839    131.6622
  1463.9000      8.0615      2.5023     -0.0009      8.9544     27.0560    136.3296
  1464.0000      8.0957      2.5418      0.0748      6.5583     27.5253    146.3578
  1464.1000      8.0957      2.5698      0.0486      4.8628     27.2524    159.3132
  1464.2000      8.0957      2.5785      0.0409      4.3324     26.7050    165.1026
  1464.3000      8.1247      2.5777      0.0422      4.3827     26.4742    158.7845
  1464.4000      8.1247      2.5775      0.0319      4.3959     26.4620    147.6122
  1464.5000      8.1220      2.5792      0.0890      4.2919     25.9460    140.7024
  1464.6000      8.1220      2.5750      0.0624      4.5460     24.9029    139.8011
  1464.7000      8.1220      2.5606      0.0707      5.4163     24.2231    141.1815
  1464.8000      8.1040      2.5468      0.0146      6.2535     24.2112    140.2185
  1464.9000      8.1040      2.5544      0.0523      5.7940     24.3119    134.1795
  1465.0000      8.0990      2.5947      0.0054      3.3523     23.9995    125.6614
  1465.1000      8.0990      2.6547      0.0876     -0.2846     23.2499    122.6908
  1465.2000      8.0990      2.7057      0.0896     -3.3747     22.2799    127.2047
  1465.3000      8.0999      2.7360      0.0662     -5.2119     21.3309    132.7230
  1465.4000      8.0999      2.7411      0.1397     -5.5238     20.5449    129.7212
  1465.5000      8.1012      2.7155      0.0607     -3.9699     20.1495    115.4494
