~Version Information
 VERS.                                  2.0 : CWLS LAS VERSION
 WRAP.                                   NO : WRAPING MODE
 SWARE .                 MController 2.5.0J : SOFTWARE VERSION
~Well Information
 WELL.                       Vision 31-11Tr : WELL
 COMP.    Pioneer Natural Resources USA Inc : COMPANY
 FLD.                      Purgatoire River : FIELD
 LOC.                 NW/NE SEC11 T32S R66W : LOCATION
 DATE.                             10/07/05 : DATE(S) LOGGED
 SRVC.       Blanco Geological Services LLC : SERVICE COMPANY
 STAT.                             Colorado : STATE
 CNTY.                           Las Animas : COUNTY
 CTRY.                                  USA : COUNTRY
 API.                       05-071-08305-00 : API NUMBER
 STRT.FT                             408.00 : START DEPTH
 STOP.FT                            1824.00 : STOP DEPTH
 STEP.FT                               1.00 : DEPTH INCREMENT
 NULL.                                -9999 : NULL VALUE
~Curve information
 DEPTH.FT                                   :
 ROP.MIN/FT                                 :
 GAS.UNITS                                  :
~ASCII Log data
# ...
      1408.0         0.53       1950.5 
      1409.0         0.47       2151.0 
      1410.0         0.33       1936.0 
      1411.0         0.40       1906.0 
      1412.0         0.40       1551.5 
      1413.0         0.33        999.5 
      1414.0         0.28        792.3 
      1415.0         0.23        825.5 
      1416.0         0.53        899.0 
      1417.0         0.37        923.1 
      1418.0         0.43        897.0 
      1419.0         0.37        823.5 
      1420.0         1.13        785.5 
      1421.0         0.38        583.8 
      1422.0         0.27        686.3 
      1423.0         0.20        755.9 
      1424.0         0.17        892.2 
      1425.0         0.27        968.2 
      1426.0         0.37       1030.8 
      1427.0         0.30       1039.1 
      1428.0         0.20       1036.6 
      1429.0         0.37       1017.5 
      1430.0         0.33        939.2 
      1431.0         0.37        883.2 
      1432.0         0.33        809.4 
      1433.0         0.28        750.4 
      1434.0         0.33        735.9 
      1435.0         0.17        651.8 
      1436.0         2.07       1428.1 
      1437.0         0.50       1810.0 
      1438.0         0.25       1896.0 
      1439.0         0.37       1937.9 
      1440.0         0.37       1782.9 
      1441.0         0.33       1550.3 
      1442.0         0.30       1217.7 
      1443.0         0.33        918.6 
      1444.0         0.37        735.2 
      1445.0         0.27        666.0 
      1446.0         0.20        660.5 
      1447.0         0.13        615.0 
      1448.0         0.27        610.2 
      1449.0         0.32        548.3 
      1450.0         0.33        558.6 
      1451.0         0.40        580.9 
      1452.0         0.43        594.4 
      1453.0         0.30        588.9 
      1454.0         0.33        574.4 
      1455.0         0.27        550.6 
      1456.0         0.17        536.7 
      1457.0         0.17        531.6 
      1458.0         0.13        535.4 
      1459.0         0.23        535.4 
      1460.0         0.27        577.0 
      1461.0         0.35        626.6 
      1462.0         0.37        648.9 
      1463.0         0.43        654.0 
      1464.0         0.33        632.1 
      1465.0         0.30        625.0 
      1466.0         2.32       1708.5 
      1467.0         0.40       1763.3 
      1468.0         0.30       1758.1 
      1469.0         0.30       1590.9 
      1470.0         0.30       1326.9 
      1471.0         0.37       1055.9 
      1472.0         0.27        817.4 
      1473.0         0.30        655.3 
      1474.0         0.40        554.1 
      1475.0         0.35        577.7 
      1476.0         0.37        601.2 
      1477.0         0.37        597.3 
      1478.0         0.23        582.2 
      1479.0         0.23        580.6 
      1480.0         0.23        538.3 
      1481.0         0.17        507.4 
      1482.0         0.30        506.4 
      1483.0         0.40        509.7 
      1484.0         0.27        513.8 
      1485.0         0.17        517.1 
      1486.0         0.30        519.0 
      1487.0         0.35        528.0 
      1488.0         0.30        530.3 
      1489.0         0.30        533.2 
      1490.0         0.33        544.5 
      1491.0         0.33        552.8 
      1492.0         0.30        567.0 
      1493.0         0.30        574.4 
      1494.0         0.33        573.8 
      1495.0         0.30        569.0 
      1496.0         2.62       1151.9 
      1497.0         0.30       1170.3 
      1498.0         0.40       1152.3 
      1499.0         0.37       1114.5 
      1500.0         0.35       1100.7 
      1501.0         0.30        995.6 
      1502.0         0.30        850.9 
      1503.0         0.40        654.7 
      1504.0         0.43        649.5 
      1505.0         0.37        625.0 
      1506.0         0.37        627.3 
      1507.0         0.30        623.4 
      1508.0         0.30        603.1 
      1509.0         0.30        588.9 
      1510.0         0.35        564.4 
      1511.0         0.37        555.4 
      1512.0         0.33        551.6 
      1513.0         0.33        547.7 
      1514.0         0.33        550.9 
      1515.0         0.33        551.6 
      1516.0         0.33        551.9 
      1517.0         0.33        549.3 
      1518.0         0.37        546.1 
      1519.0         0.37        538.3 
      1520.0         0.42        537.4 
      1521.0         0.33        540.6 
      1522.0         0.43        547.0 
      1523.0         0.43        567.0 
      1524.0         0.47        567.0 
      1525.0         0.40        560.6 
      1526.0         3.72       1256.0 
      1527.0         0.37        893.5 
      1528.0         0.38        718.2 
      1529.0         0.47        642.8 
      1530.0         0.47        659.8 
      1531.0         0.47        663.1 
      1532.0         0.47        633.1 
      1533.0         0.40        602.1 
      1534.0         0.37        537.7 
      1535.0         0.43        485.8 
      1536.0         0.42        457.1 
      1537.0         0.40        444.9 
      1538.0         0.40        451.3 
      1539.0         0.37        461.6 
      1540.0         0.37        466.5 
      1541.0         0.37        465.2 
      1542.0         0.37        477.1 
      1543.0         0.40        504.5 
      1544.0         0.27        515.5 
      1545.0         0.42        538.7 
      1546.0         0.27        536.4 
      1547.0         0.23        534.5 
      1548.0         0.37        538.0 
      1549.0         0.33        547.7 
      1550.0         0.40        541.9 
      1551.0         0.40        525.4 
      1552.0         0.40        485.2 
      1553.0         0.37        475.8 
      1554.0         0.42        462.9 
      1555.0         0.23        193.2 
      1556.0         3.38       1155.5 
      1557.0         0.53       1011.1 
      1558.0         0.37        773.3 
      1559.0         0.23        668.2 
      1560.0         0.43        606.0 
      1561.0         0.47        569.9 
      1562.0         0.37        535.4 
      1563.0         0.33        533.5 
      1564.0         0.35        486.8 
      1565.0         0.30        464.5 
      1566.0         0.27        461.6 
      1567.0         0.30        465.5 
      1568.0         0.27        475.5 
      1569.0         0.30        488.1 
      1570.0         0.70        507.1 
      1571.0         0.37        526.7 
      1572.0         0.37        535.1 
      1573.0         0.38        532.5 
      1574.0         0.37        529.0 
      1575.0         0.40        524.5 
      1576.0         0.37        515.5 
      1577.0         0.43        508.4 
      1578.0         0.37        515.5 
      1579.0         0.40        520.6 
      1580.0         0.37        521.6 
      1581.0         0.40        526.7 
      1582.0         0.38        529.6 
      1583.0         0.33        530.9 
      1584.0         0.47        530.6 
      1585.0         0.23        491.3 
      1586.0         2.42       1183.8 
      1587.0         0.43       1288.3 
      1588.0         0.20       1284.4 
      1589.0         0.47       1153.5 
      1590.0         0.30       1007.6 
      1591.0         0.30        686.9 
      1592.0         0.30        629.9 
      1593.0         0.30        539.9 
      1594.0         0.30        476.8 
      1595.0         0.20        476.8 
      1596.0         0.13        503.2 
      1597.0         0.12        524.2 
      1598.0         0.17        605.7 
      1599.0         0.17        688.8 
      1600.0         0.40        737.2 
      1601.0         0.37        789.1 
      1602.0         0.40        792.3 
      1603.0         0.40        700.1 
      1604.0         0.40        679.2 
      1605.0         0.43        575.7 
      1606.0         0.43        492.3 
      1607.0         0.45        476.8 
