~Version Information
VERS.                      2.0: CWLS Log ASCII Standard - VERSION 2.0
WRAP.                       NO: One line per depth step
~Well Information Block
STRT.FT               -13.5000: 
STOP.FT              2474.2500: 
STEP.FT                 0.2500: 
NULL.                -999.2500: 
COMP.          Pioneer Natural Resources: COMPANY
WELL.              Tiaga 23-14: WELL
FLD.           Purgatorie River: FIELD
LOC.           2168' FSL & 2030' FWL--: LOCATION
PROV.                       CO: PROVINCE
CNTY.               Las Animas: COUNTRY
SRVC.                         : SERVICE COMPANY
DATE.          Thu May 12 17:01:37 2005: LOG DATE
UWI.                          : UNIQUE WELL ID
~Curve Information Block
DEPT.FT            0 000 00 00: Depth
TT3.usec                      : CBL 3' Travel Time
AMP3.mV                       : CBL 3' Amplitude
GR.GAPI                       : Gamma Ray
CCL.                          : Casing Collar Locator
~Parameter Information Block
~A  Depth       TT3         AMP3         GR         CCL     
# ...
   790.5000    710.8542      7.7523     39.9297      0.0000
   790.7500    762.6434      7.2086     41.9905      0.0000
   791.0000    829.4036      6.6034     43.5749      0.0000
   791.2500    883.2378      6.1859     44.9289      0.0000
   791.5000    915.0554      6.0174     46.0072      0.0000
   791.7500    930.0759      5.9941     46.3490      0.0000
   792.0000    935.6046      6.0137     45.7425     -2.0000
   792.2500    935.4380      6.0563     44.5983      2.0000
   792.5000    927.2354      6.1876     43.4037      0.0000
   792.7500    904.9418      6.5522     42.1379      0.0000
   793.0000    868.8907      7.2650     40.4667      0.0000
   793.2500    832.8586      8.1291     38.2434      0.0000
   793.5000    812.5223      8.6622     35.6747      0.0000
   793.7500    806.5013      8.6515     33.2480      0.0000
   794.0000    797.8329      8.3733     31.5469      0.0000
   794.2500    774.1425      8.1540     30.9318      0.0000
   794.5000    740.9656      8.0715     31.3053      0.0000
   794.7500    714.1891      8.0697     32.2657      0.0000
   795.0000    704.1245      8.0876     33.4512      0.0000
   795.2500    712.7964      8.0711     34.6836      0.0000
   795.5000    738.0970      7.9883     35.8894      0.0000
   795.7500    770.7738      7.8504     37.0290      0.0000
   796.0000    796.9564      7.6866     38.1296      0.0000
   796.2500    810.4077      7.5084     39.3069      0.0000
   796.5000    814.8801      7.3031     40.6076      0.0000
   796.7500    815.5101      7.0828     41.7607      0.0000
   797.0000    813.9686      6.9172     42.3166      0.0000
   797.2500    809.7612      6.8533     42.2402      0.0000
   797.5000    803.3304      6.8373     42.2570      0.0000
   797.7500    797.4001      6.7705     43.3395      0.0000
   798.0000    794.7086      6.6157     45.7997      0.0000
   798.2500    796.9150      6.4281     49.0143      0.0000
   798.5000    806.9688      6.2867     52.0703      0.0000
   798.7500    827.6652      6.2204     54.4950      0.0000
   799.0000    854.8172      6.2115     56.2731      0.0000
   799.2500    877.4131      6.2286     57.5548      0.0000
   799.5000    888.3687      6.2288     58.6642      0.0000
   799.7500    887.3785      6.1773     59.9909      0.0000
   800.0000    873.3802      6.1012     61.4005      0.0000
   800.2500    846.2671      6.0792     62.0492      0.0000
   800.5000    815.3374      6.1458     61.2482      0.0000
   800.7500    791.9382      6.2551     59.2625      0.0000
   801.0000    776.6182      6.3432     56.8665      0.0000
   801.2500    765.8835      6.3706     54.3921      0.0000
   801.5000    762.2170      6.3361     51.6674      0.0000
   801.7500    769.1526      6.2750     48.7368      0.0000
   802.0000    784.2283      6.2262     46.2083      0.0000
   802.2500    799.9277      6.2051     44.6708      0.0000
   802.5000    807.4990      6.2103     43.8976      0.0000
   802.7500    799.8076      6.2398     42.9827      0.0000
   803.0000    775.7993      6.2897     41.4269      0.0000
   803.2500    745.8893      6.3449     39.7705      0.0000
   803.5000    725.7529      6.3899     38.8704      0.0000
   803.7500    720.3198      6.4253     38.8657      0.0000
   804.0000    722.2353      6.4586     39.1921      0.0000
   804.2500    724.3817      6.4866     39.3936      0.0000
   804.5000    725.2096      6.5043     39.5236      0.0000
   804.7500    725.5073      6.5163     39.7546      0.0000
   805.0000    726.4832      6.5258     39.9205      0.0000
   805.2500    731.1518      6.5325     39.6506      0.0000
   805.5000    745.0552      6.5389     38.8541      0.0000
   805.7500    770.7234      6.5471     37.8494      0.0000
   806.0000    800.2881      6.5477     37.0131      0.0000
   806.2500    822.0650      6.5224     36.5123      0.0000
   806.5000    833.7687      6.4701     36.4519      0.0000
   806.7500    840.0964      6.4086     37.0650      0.0000
   807.0000    844.6068      6.3448     38.5839      0.0000
   807.2500    849.9481      6.2699     40.9797      0.0000
   807.5000    858.5975      6.1901     43.9275      0.0000
   807.7500    870.4868      6.1321     46.9659      0.0000
   808.0000    881.7700      6.1154     49.5898      0.0000
   808.2500    884.8641      6.1405     51.1984      0.0000
   808.5000    870.8827      6.1914     51.0610      0.0000
   808.7500    840.5181      6.2378     48.6935      0.0000
   809.0000    809.8258      6.2607     44.5673      0.0000
   809.2500    797.4247      6.2826     40.2540      0.0000
   809.5000    811.3821      6.3405     37.4821      0.0000
   809.7500    846.1625      6.4299     37.0193      0.0000
   810.0000    883.8039      6.5098     38.4895      0.0000
   810.2500    905.7786      6.5565     40.9414      0.0000
   810.5000    909.3688      6.5808     43.3509      0.0000
   810.7500    905.7954      6.5979     44.8605      0.0000
   811.0000    904.9825      6.6060     45.0192      0.0000
   811.2500    908.1792      6.5932     43.9103      0.0000
   811.5000    911.0099      6.5488     42.0252      0.0000
   811.7500    910.8824      6.4741     39.9874      0.0000
   812.0000    910.9564      6.3931     38.2105      0.0000
   812.2500    913.5943      6.3451     36.6797      0.0000
   812.5000    911.8705      6.3491     35.2404      0.0000
   812.7500    894.0378      6.3841     34.1531      0.0000
   813.0000    860.4054      6.4134     34.0352      0.0000
   813.2500    831.7319      6.4137     35.1229      0.0000
   813.5000    830.1241      6.3772     36.8845      0.0000
   813.7500    851.8636      6.3122     38.5665      0.0000
   814.0000    874.1077      6.2489     39.9295      0.0000
   814.2500    883.2610      6.2179     41.2032      0.0000
   814.5000    877.7241      6.2191     42.3982      0.0000
   814.7500    856.2167      6.2308     42.9890      0.0000
   815.0000    823.1318      6.2393     42.4497      0.0000
   815.2500    792.4053      6.2380     40.9792      0.0000
   815.5000    773.7572      6.2135     39.4961      0.0000
   815.7500    768.5020      6.1603     38.8980      0.0000
   816.0000    780.6644      6.0956     39.5369      0.0000
   816.2500    814.4018      6.0387     41.4323      0.0000
   816.5000    857.7802      5.9910     44.5824      0.0000
   816.7500    883.7610      5.9500     48.7978      0.0000
   817.0000    873.5970      5.9225     53.4910      0.0000
   817.2500    835.2899      5.9109     57.9192      0.0000
   817.5000    795.4288      5.9150     61.5711      0.0000
   817.7500    771.8602      5.9438     64.2953      0.0000
   818.0000    760.6949      5.9994     66.3244      0.0000
   818.2500    751.7110      6.0626     68.2060      0.0000
   818.5000    743.4744      6.1043     70.3293      0.0000
   818.7500    737.9271      6.1017     72.2870      0.0000
   819.0000    733.0025      6.0476     72.8631      0.0000
   819.2500    727.4778      5.9492     70.9005      0.0000
   819.5000    725.3311      5.8290     66.3477      0.0000
   819.7500    732.1995      5.7255     60.4898      0.0000
   820.0000    745.2182      5.6663     55.0407      0.0000
   820.2500    748.0099      5.6448     51.0191      0.0000
   820.5000    726.9948      5.6455     48.5629      0.0000
   820.7500    684.9680      5.6723     47.4766      0.0000
   821.0000    632.8335      5.7306     47.5653      0.0000
   821.2500    587.3174      5.7931     48.6724      0.0000
   821.5000    567.0401      5.8175     50.8592      0.0000
   821.7500    573.8558      5.7933     54.5492      0.0000
   822.0000    596.5845      5.7377     60.1732      0.0000
   822.2500    625.6636      5.6601     67.4511      0.0000
   822.5000    647.0446      5.5623     75.0268      0.0000
   822.7500    642.2172      5.4554     81.0329      0.0000
   823.0000    603.8958      5.3637     84.2753      0.0000
   823.2500    547.7217      5.3102     84.9064      0.0000
   823.5000    502.3207      5.2936     83.8384      0.0000
   823.7500    485.6582      5.2826     81.6643      0.0000
