~Version Information
VERS.                      2.0: CWLS Log ASCII Standard - VERSION 2.0
WRAP.                       NO: One line per depth step
~Well Information Block
STRT.FT                -3.0000: 
STOP.FT              2043.2500: 
STEP.FT                 0.2500: 
NULL.                -999.2500: 
COMP.          Pioneer Natural Resources: COMPANY
WELL.           Galloway 32-13: WELL
FLD.           Purgatorie River: FIELD
LOC.           1809' FNL & 2004' FEL--: LOCATION
PROV.                       CO: PROVINCE
CNTY.               Las Animas: COUNTRY
SRVC.          Patterson Wireline: SERVICE COMPANY
DATE.          Thu Jul 14 13:02:15 2005: LOG DATE
UWI.           05 071 08423 00: UNIQUE WELL ID
~Curve Information Block
DEPT.FT            0 000 00 00: Depth
CCL.                          : Casing Collar Locator
TT3.usec                      : CBL 3' Travel Time
AMP3.mV                       : CBL 3' Amplitude
GR.GAPI                       : Gamma Ray
~Parameter Information Block
~A  Depth       CCL         TT3         AMP3         GR     
# ...
   265.0000      0.0000    842.6760      3.8868     96.1328
   265.2500      0.0000    846.4095      3.8372     99.7813
   265.5000      0.0000    846.0576      3.7806    101.4858
   265.7500      0.0000    840.2084      3.7281    100.1734
   266.0000      0.0000    827.6140      3.6908     96.5902
   266.2500      0.0000    808.9682      3.6796     92.2546
   266.5000      0.0000    788.3729      3.6999     88.4516
   266.7500      0.0000    772.2030      3.7456     86.4238
   267.0000      0.0000    765.9481      3.8006     87.5669
   267.2500      0.0000    771.5666      3.8464     92.3604
   267.5000      0.0000    786.5607      3.8708     99.0980
   267.7500      0.0000    804.7360      3.8736    104.3080
   268.0000      0.0000    819.0343      3.8654    104.9079
   268.2500      0.0000    825.5715      3.8605    100.3520
   268.5000      0.0000    825.6027      3.8689     93.0319
   268.7500      0.0000    822.9741      3.8909     86.5697
   269.0000      0.0000    819.3074      3.9177     83.3810
   269.2500      0.0000    812.3422      3.9384     83.4724
   269.5000      0.0000    799.4054      3.9486     85.3309
   269.7500      0.0000    781.4267      3.9525     87.6650
   270.0000      0.0000    762.4866      3.9572     89.9737
   270.2500      0.0000    746.3568      3.9652     91.7796
   270.5000      0.0000    734.8145      3.9715     92.4233
   270.7500      0.0000    728.5415      3.9681     92.0095
   271.0000      0.0000    727.6615      3.9498     91.6347
   271.2500      0.0000    731.0005      3.9168     92.0871
   271.5000      0.0000    736.1732      3.8728     92.9075
   271.7500      0.0000    741.2083      3.8201     93.1542
   272.0000      0.0000    746.0151      3.7583     92.5369
   272.2500      0.0000    752.1632      3.6861     91.6160
   272.5000      0.0000    761.3652      3.6050     91.4477
   272.7500      0.0000    774.0311      3.5233     92.9710
   273.0000      0.0000    789.0964      3.4518     96.0610
   273.2500      0.0000    804.9063      3.3943     99.1777
   273.5000      0.0000    819.7947      3.3449    100.4865
   273.7500      0.0000    832.1095      3.2947     99.3743
   274.0000      0.0000    840.6860      3.2384     96.7049
   274.2500      0.0000    845.5862      3.1721     93.8673
   274.5000      0.0000    847.9515      3.0903     91.8786
   274.7500      0.0000    849.0699      2.9883     91.1478
   275.0000      0.0000    849.7176      2.8725     91.5500
   275.2500      0.0000    850.1627      2.7661     92.5643
   275.5000      0.0000    850.4595      2.7007     93.5626
   275.7500      0.0000    850.6348      2.6913     94.0384
   276.0000      0.0000    850.7354      2.7228     93.4696
   276.2500      0.0000    850.8243      2.7615     91.1156
   276.5000      0.0000    851.0087      2.7787     86.4232
   276.7500      0.0000    851.4083      2.7647     79.8633
   277.0000      0.0000    852.0452      2.7281     73.0258
   277.2500      0.0000    852.7754      2.6859     67.5286
   277.5000      0.0000    853.3690      2.6504     63.9520
   277.7500      0.0000    853.6727      2.6223     61.9248
   278.0000      0.0000    853.6976      2.5970     60.9564
   278.2500      0.0000    853.6134      2.5707     60.8995
   278.5000      0.0000    853.6732      2.5429     61.6679
   278.7500      0.0000    854.0390      2.5157     62.8333
   279.0000      0.0000    854.3784      2.4958     63.6600
   279.2500      0.0000    853.3654      2.4945     63.4969
   279.5000      0.0000    848.8492      2.5228     62.1474
   279.7500      0.0000    839.4083      2.5827     59.9851
   280.0000      0.0000    826.2523      2.6610     57.7297
   280.2500      0.0000    813.1295      2.7337     56.0029
   280.5000      0.0000    803.9952      2.7851     55.0365
   280.7500      0.0000    801.1761      2.8221     54.6889
   281.0000      0.0000    805.5445      2.8661     54.5567
   281.2500      0.0000    816.8564      2.9319     54.1079
   281.5000      0.0000    832.5233      3.0174     53.0936
   281.7500      0.0000    846.6361      3.1128     52.0065
   282.0000      0.0000    852.2989      3.2145     51.7552
   282.2500      0.0000    846.4637      3.3266     52.6094
   282.5000      0.0000    832.4033      3.4534     53.7844
   282.7500      0.0000    816.9464      3.5913     54.2485
   283.0000      0.0000    805.4037      3.7296     53.6289
   283.2500      0.0000    799.0705      3.8582     52.2214
   283.5000      0.0000    796.3450      3.9722     50.5143
   283.7500      0.0000    794.8868      4.0705     48.9097
   284.0000      0.0000    792.7918      4.1518     47.5992
   284.2500      0.0000    788.9839      4.2132     46.4534
   284.5000      0.0000    783.3891      4.2501     45.1635
   284.7500      0.0000    776.5353      4.2565     43.7134
   285.0000      0.0000    768.4960      4.2237     42.5858
   285.2500      0.0000    758.8961      4.1364     42.2491
   285.5000      0.0000    749.2055      3.9781     42.4732
   285.7500      0.0000    744.6570      3.7512     42.4472
   286.0000      0.0000    751.4797      3.4949     41.7006
   286.2500      0.0000    770.4849      3.2717     40.6766
   286.5000      0.0000    794.2462      3.1273     40.3077
   286.7500      0.0000    812.2595      3.0647     41.2868
   287.0000      0.0000    818.8980      3.0554     43.8938
   287.2500      0.0000    816.0947      3.0685     48.2604
   287.5000     -2.0000    809.8766      3.0866     54.5903
   287.7500      0.0000    805.5704      3.1074     63.0691
   288.0000      0.0000    804.7857      3.1434     73.4446
   288.2500      0.0000    805.0864      3.2266     84.6366
   288.5000      0.0000    802.7126      3.3917     94.8744
   288.7500      0.0000    796.0582      3.6320    102.2951
   289.0000      0.0000    786.4716      3.8760    105.4837
   289.2500      0.0000    776.4985      4.0354    104.0069
   289.5000      0.0000    768.0141      4.0767     98.9919
   289.7500      0.0000    761.2841      4.0366     92.9216
   290.0000      0.0000    754.9290      3.9747     88.2863
   290.2500      0.0000    746.9757      3.9301     86.3543
   290.5000      0.0000    736.5883      3.9135     87.0354
   290.7500      0.0000    725.0110      3.9179     89.2574
   291.0000      0.0000    714.6732      3.9304     91.4280
   291.2500      0.0000    707.3280      3.9403     92.2420
   291.5000      0.0000    703.0824      3.9445     91.2647
   291.7500      0.0000    700.9402      3.9497     88.5143
   292.0000      0.0000    699.8331      3.9684     83.8794
   292.2500      0.0000    699.1302      4.0099     77.6088
   292.5000      0.0000    698.5928      4.0704     71.1513
   292.7500      0.0000    698.1660      4.1336     66.7887
   293.0000      0.0000    697.8435      4.1819     66.0677
   293.2500      0.0000    697.6166      4.2075     68.6758
   293.5000      0.0000    697.4688      4.2130     72.9793
   293.7500      0.0000    697.3779      4.2064     77.3924
   294.0000      0.0000    697.3263      4.1955     80.8514
   294.2500      0.0000    697.3072      4.1851     82.5628
   294.5000      0.0000    697.3253      4.1777     82.4382
   294.7500      0.0000    697.3911      4.1762     81.6003
   295.0000      0.0000    697.5095      4.1852     81.4239
   295.2500      0.0000    697.6690      4.2066     82.1250
   295.5000      0.0000    697.8413      4.2334     82.9146
   295.7500      0.0000    697.9907      4.2512     83.1614
   296.0000      0.0000    698.0837      4.2497     82.7543
   296.2500      0.0000    698.0959      4.2332     81.6095
   296.5000      0.0000    698.0209      4.2175     79.4260
   296.7500      0.0000    697.8737      4.2166     76.1458
   297.0000      0.0000    697.6830      4.2325     72.5689
   297.2500      0.0000    697.4538      4.2563     70.1153
   297.5000      0.0000    697.0948      4.2772     69.5465
   297.7500      0.0000    696.3405      4.2908     70.0655
   298.0000      0.0000    694.8361      4.2994     70.0930
   298.2500      0.0000    692.5604      4.3033     68.8167
