~Version Information
VERS.                      2.0: CWLS Log ASCII Standard - VERSION 2.0
WRAP.                       NO: One line per depth step
~Well Information Block
STRT.FT                -7.5000: 
STOP.FT              2304.7500: 
STEP.FT                 0.2500: 
NULL.                -999.2500: 
COMP.          Pioneer Natural Resources: COMPANY
WELL.          Foothills 12-36: WELL
FLD.           Purgatorie River: FIELD
LOC.           2450' FNL & 201' FWL--: LOCATION
PROV.                       CO: PROVINCE
CNTY.               Las Animas: COUNTRY
SRVC.          Patterson Wireline: SERVICE COMPANY
DATE.          Tue Apr 26 11:10:08 2005: LOG DATE
UWI.           05 071 08339 00: UNIQUE WELL ID
~Curve Information Block
DEPT.FT            0 000 00 00: Depth
CCL.                          : Casing Collar Locator
TT3.usec                      : CBL 3' Travel Time
AMP3.mV                       : CBL 3' Amplitude
GR.GAPI                       : Gamma Ray
~Parameter Information Block
~A  Depth       CCL         TT3         AMP3         GR     
# ...
  2103.0000      0.0000    731.5614      3.7997     77.9205
  2103.2500      0.0000    733.1892      3.8329     72.5308
  2103.5000      0.0000    734.0202      3.8718     63.7213
  2103.7500      0.0000    734.3319      3.9021     54.5506
  2104.0000      0.0000    733.8586      3.8953     47.5930
  2104.2500      0.0000    731.8360      3.8437     43.2619
  2104.5000      0.0000    728.1305      3.7756     40.3086
  2104.7500      0.0000    724.3770      3.7338     37.6576
  2105.0000      0.0000    723.1920      3.7405     35.5912
  2105.2500      0.0000    725.9136      3.7833     35.3730
  2105.5000      0.0000    731.5062      3.8314     38.0159
  2105.7500      0.0000    737.7360      3.8680     43.5429
  2106.0000      0.0000    742.7402      3.9073     51.3003
  2106.2500      0.0000    745.4087      3.9760     60.5163
  2106.5000      0.0000    745.4771      4.0775     70.3177
  2106.7500      0.0000    743.9978      4.1755     79.5825
  2107.0000      0.0000    742.8897      4.2134     87.4089
  2107.2500      0.0000    742.9549      4.1583     93.9007
  2107.5000      0.0000    742.3446      4.0372     99.9673
  2107.7500      0.0000    737.5965      3.9236    105.8978
  2108.0000      0.0000    726.8541      3.8784    110.4486
  2108.2500      0.0000    712.4632      3.9114    111.8187
  2108.5000      0.0000    700.1974      3.9946    109.4138
  2108.7500      0.0000    695.4086      4.0894    104.4286
  2109.0000      0.0000    699.3621      4.1580     98.7872
  2109.2500      0.0000    708.5397      4.1728     93.5636
  2109.5000      0.0000    717.0470      4.1331     88.4282
  2109.7500      0.0000    720.2947      4.0663     82.6270
  2110.0000      0.0000    717.3930      4.0036     76.2694
  2110.2500      0.0000    710.8252      3.9560     70.5118
  2110.5000      0.0000    704.3793      3.9140     66.8054
  2110.7500      0.0000    701.0930      3.8647     66.1516
  2111.0000      0.0000    701.8201      3.8019     68.7684
  2111.2500      0.0000    704.2798      3.7279     73.9855
  2111.5000      0.0000    703.2916      3.6593     80.2739
  2111.7500      0.0000    693.6609      3.6222     85.6369
  2112.0000      0.0000    675.3606      3.6299     88.5756
  2112.2500      0.0000    655.8082      3.6677     89.1775
  2112.5000      0.0000    644.5006      3.7101     89.1359
  2112.7500      0.0000    645.0715      3.7429     90.1757
  2113.0000      0.0000    654.5491      3.7653     92.2260
  2113.2500      0.0000    668.8193      3.7813     93.4196
  2113.5000      0.0000    685.0923      3.7974     91.9964
  2113.7500      0.0000    700.1650      3.8233     87.8055
  2114.0000      0.0000    710.5330      3.8591     81.9819
  2114.2500      0.0000    714.9669      3.8860     75.9164
  2114.5000      0.0000    715.1070      3.8811     70.8876
  2114.7500      0.0000    713.1555      3.8435     68.0518
  2115.0000      0.0000    709.9478      3.7952     68.0726
  2115.2500      0.0000    705.5375      3.7567     70.6737
  2115.5000      0.0000    700.8978      3.7240     74.7971
  2115.7500      0.0000    697.9328      3.6725     79.3004
  2116.0000      0.0000    697.7475      3.5834     83.4806
  2116.2500      0.0000    699.8566      3.4728     86.9785
  2116.5000      0.0000    703.3127      3.3897     89.3682
  2116.7500      0.0000    707.5851      3.3759     89.9936
  2117.0000      0.0000    712.1335      3.4299     88.3317
  2117.2500      0.0000    716.0590      3.5110     84.6723
  2117.5000      0.0000    718.6254      3.5742     80.2747
  2117.7500      0.0000    719.8115      3.5957     76.5025
  2118.0000      2.0000    720.3737      3.5766     73.8504
  2118.2500      2.0000    721.4611      3.5375     71.9700
  2118.5000      0.0000    723.8495      3.5112     70.5983
  2118.7500      0.0000    727.3016      3.5313     70.3160
  2119.0000      0.0000    730.5256      3.6150     72.1661
  2119.2500      0.0000    731.6235      3.7466     76.3354
  2119.5000      0.0000    728.2919      3.8801     81.3615
  2119.7500      0.0000    717.2809      3.9649     85.0699
  2120.0000      0.0000    694.5219      3.9775     86.4457
  2120.2500      0.0000    658.1324      3.9353     86.3042
  2120.5000      0.0000    612.3864      3.8782     86.0266
  2120.7500      0.0000    567.0610      3.8346     85.8984
  2121.0000      0.0000    531.3966      3.8068     84.8424
  2121.2500      0.0000    509.1164      3.7786     81.7974
  2121.5000      0.0000    499.2637      3.7374     77.3750
  2121.7500      0.0000    500.6902      3.6970     73.7902
  2122.0000      0.0000    515.2921      3.6906     72.8840
  2122.2500      0.0000    546.8417      3.7296     74.6211
  2122.5000      0.0000    595.8362      3.7879     77.6825
  2122.7500      0.0000    655.0829      3.8328     80.5863
  2123.0000      0.0000    711.5412      3.8588     81.9272
  2123.2500      0.0000    753.7239      3.8859     80.7834
  2123.5000      0.0000    777.4380      3.9257     77.6494
  2123.7500      0.0000    785.1514      3.9557     74.2813
  2124.0000      0.0000    781.1678      3.9349     72.0691
  2124.2500      0.0000    768.1484      3.8466     70.9370
  2124.5000      0.0000    748.3492      3.7194     70.2037
  2124.7500      0.0000    727.3303      3.6058     70.0992
  2125.0000      0.0000    713.5955      3.5425     71.6240
  2125.2500      0.0000    712.1979      3.5397     74.9274
  2125.5000      0.0000    719.9983      3.6002     78.7429
  2125.7500      0.0000    729.3698      3.7190     81.6997
  2126.0000      0.0000    735.5804      3.8568     83.3836
  2126.2500      0.0000    739.3012      3.9444     83.7885
  2126.5000      0.0000    743.5908      3.9290     82.6036
  2126.7500      0.0000    750.3844      3.8036     79.6929
  2127.0000      0.0000    759.3773      3.5936     76.0292
  2127.2500      0.0000    768.7451      3.3494     73.6644
  2127.5000      0.0000    776.3583      3.1466     74.4733
  2127.7500      0.0000    780.6486      3.0467     78.7647
  2128.0000      0.0000    780.5059      3.0462     85.1516
  2128.2500      0.0000    774.9310      3.0915     91.7187
  2128.5000      0.0000    763.7331      3.1345     97.0243
  2128.7500      0.0000    749.0412      3.1470    100.1210
  2129.0000      0.0000    735.2750      3.1108    100.4005
  2129.2500      0.0000    726.6636      3.0343     98.0449
  2129.5000      0.0000    724.6875      2.9629     94.5278
  2129.7500      0.0000    727.4803      2.9365     92.0596
  2130.0000      0.0000    730.5739      2.9530     92.0790
  2130.2500      0.0000    728.7441      2.9877     94.3217
  2130.5000      0.0000    719.2488      3.0258     97.5245
  2130.7500      0.0000    704.0475      3.0593    100.7712
  2131.0000      0.0000    688.2025      3.0808    103.9311
  2131.2500      0.0000    676.0172      3.1014    107.0403
  2131.5000      0.0000    668.7827      3.1442    109.5729
  2131.7500      0.0000    665.3944      3.2006    110.3667
  2132.0000      0.0000    664.1143      3.2196    108.4906
  2132.2500      0.0000    663.7242      3.1681    104.3910
  2132.5000      0.0000    663.6560      3.0838     99.8712
  2132.7500      0.0000    663.6813      3.0333     96.6196
  2133.0000      0.0000    663.6800      3.0258     94.9177
  2133.2500      0.0000    663.6042      3.0026     93.8581
  2133.5000      0.0000    663.4593      2.9244     92.4975
  2133.7500      0.0000    663.2626      2.8362     90.6577
  2134.0000      0.0000    663.0251      2.8140     88.8856
  2134.2500      0.0000    662.7873      2.8641     87.8490
  2134.5000      0.0000    662.6635      2.9095     87.7028
  2134.7500      0.0000    662.9338      2.8863     87.7939
  2135.0000      0.0000    664.2678      2.8307     87.0368
  2135.2500      0.0000    668.1210      2.8442     84.8772
  2135.5000      0.0000    676.8149      2.9718     81.9883
  2135.7500      0.0000    692.3444      3.1355     79.7470
  2136.0000      0.0000    713.7506      3.2096     78.8208
  2136.2500      0.0000    735.3174      3.1576     78.3612
