~Version Information
VERS.                      2.0: CWLS Log ASCII Standard - VERSION 2.0
WRAP.                       NO: One line per depth step
~Well Information Block
STRT.FT               557.0000: 
STOP.FT              2136.0000: 
STEP.FT                 0.2500: 
NULL.                -999.2500: 
COMP.          Petrogulf Corporation: COMPANY
WELL.           Montoya 12-41R: WELL
FLD.           Purgatorie River: FIELD
LOC.           1086' FNL & 610' FEL: LOCATION
CNTY.               Las Animas: COUNTY
SRVC.                         : SERVICE COMPANY
DATE.          Thu Nov 18 06:03:03 2004: LOG DATE
UWI.           05 071 08241 00: UNIQUE WELL ID
STAT.                 Colorado: STATE
~Curve Information Block
DEPT.FT            0 000 00 00: Depth
SP.mV                         : DIL Spontaneous Potential
RILD.Ohm-m                    : DIL Deep Resistivity
RILM.Ohm-m                    : DIL Medium Resistivity
RLL3.Ohm-m                    : DIL Shallow Resistivity
GR.GAPI                       : Gamma Ray
~Parameter Information Block
~A  Depth        SP         RILD        RILM        RLL3         GR     
# ...
  1901.0000    -81.5339     13.3986     13.6925     15.9171    126.5907
  1901.2500    -80.7416     13.8205     14.2584     16.6871    124.8507
  1901.5000    -80.0569     14.2869     14.8901     17.5202    123.6163
  1901.7500    -79.4965     14.7992     15.5911     18.5172    123.3732
  1902.0000    -79.0656     15.3575     16.3665     19.7834    123.1801
  1902.2500    -78.7629     15.9610     17.2225     21.3932    122.7324
  1902.5000    -78.5814     16.6095     18.1664     23.3620    120.4179
  1902.7500    -78.5127     17.3036     19.2052     25.6375    117.1142
  1903.0000    -78.5392     18.0459     20.3444     28.1119    109.6760
  1903.2500    -78.6337     18.8405     21.5864     30.6512    104.0908
  1903.5000    -78.7710     19.6919     22.9294     33.1290     96.8352
  1903.7500    -78.9362     20.6030     24.3670     35.4515     93.2977
  1904.0000    -79.1433     21.5728     25.8898     37.5714     89.4823
  1904.2500    -79.4390     22.5950     27.4880     39.4888     87.2054
  1904.5000    -79.9008     23.6565     29.1545     41.2470     82.9134
  1904.7500    -80.6212     24.7395     30.8880     42.9265     79.0265
  1905.0000    -81.6862     25.8241     32.6924     44.6400     71.8173
  1905.2500    -83.1471     26.8921     34.5729     46.5189     66.7028
  1905.5000    -84.9991     27.9302     36.5280     48.6899     59.8702
  1905.7500    -87.1736     28.9324     38.5404     51.2362     56.3065
  1906.0000    -89.5381     29.8977     40.5689     54.1560     52.2015
  1906.2500    -91.9253     30.8271     42.5458     57.3304     49.7942
  1906.5000    -94.1585     31.7182     44.3850     60.5201     46.1145
  1906.7500    -96.0899     32.5620     45.9974     63.3959     43.7964
  1907.0000    -97.6216     33.3409     47.3133     65.6038     41.5838
  1907.2500    -98.7161     34.0289     48.2995     66.8444     41.6441
  1907.5000    -99.3878     34.5983     48.9659     66.9477     44.6194
  1907.7500    -99.6776     35.0246     49.3538     65.9207     48.3073
  1908.0000    -99.6339     35.2929     49.5237     63.9538     55.1327
  1908.2500    -99.2963     35.4011     49.5368     61.3863     59.5224
  1908.5000    -98.6859     35.3601     49.4432     58.6374     64.1603
  1908.7500    -97.8143     35.1915     49.2769     56.1249     65.2763
  1909.0000    -96.6926     34.9227     49.0585     54.1907     63.8900
  1909.2500    -95.3499     34.5839     48.7951     53.0534     61.5698
  1909.5000    -93.8424     34.2028     48.4875     52.7971     57.5863
  1909.7500    -92.2663     33.8057     48.1332     53.3908     55.1821
  1910.0000    -90.7526     33.4142     47.7274     54.7236     51.9881
  1910.2500    -89.4493     33.0452     47.2677     56.6330     49.9679
  1910.5000    -88.4899     32.7105     46.7519     58.9145     47.3074
  1910.7500    -87.9574     32.4147     46.1786     61.3134     46.1767
  1911.0000    -87.8541     32.1564     45.5481     63.5182     45.9351
  1911.2500    -88.0955     31.9281     44.8603     65.1773     46.6353
  1911.5000    -88.5325     31.7174     44.1180     65.9506     48.2531
  1911.7500    -88.9837     31.5090     43.3276     65.5863     49.3298
  1912.0000    -89.2900     31.2895     42.5046     63.9923     50.9151
  1912.2500    -89.3449     31.0499     41.6736     61.2726     52.2948
  1912.5000    -89.1168     30.7902     40.8667     57.7074     55.5813
  1912.7500    -88.6360     30.5206     40.1186     53.6873     58.8567
  1913.0000    -87.9769     30.2588     39.4616     49.6247     65.4130
  1913.2500    -87.2252     30.0271     38.9183     45.8743     70.6273
  1913.5000    -86.4591     29.8465     38.5002     42.6861     78.8836
  1913.7500    -85.7308     29.7317     38.2068     40.2001     84.0686
  1914.0000    -85.0606     29.6872     38.0295     38.4763     90.5974
  1914.2500    -84.4425     29.7057     37.9586     37.5388     94.1119
  1914.5000    -83.8491     29.7691     37.9877     37.4130     98.7829
  1914.7500    -83.2548     29.8510     38.1203     38.1327    101.7585
  1915.0000    -82.6443     29.9194     38.3685     39.7114    105.2129
  1915.2500    -82.0270     29.9410     38.7492     42.0928    105.6219
  1915.5000    -81.4287     29.8842     39.2753     45.1113    101.3480
  1915.7500    -80.8784     29.7211     39.9420     48.4896     95.0107
  1916.0000    -80.3871     29.4294     40.7121     51.8829     82.0843
  1916.2500    -79.9286     28.9937     41.4997     54.9546     72.9558
  1916.5000    -79.4407     28.4076     42.1622     57.4461     61.1650
  1916.7500    -78.8439     27.6747     42.5069     59.2098     55.3876
  1917.0000    -78.0682     26.8098     42.3248     60.1926     49.8087
  1917.2500    -77.0915     25.8378     41.4471     60.3838     47.5691
  1917.5000    -75.9525     24.7904     39.8126     59.7591     45.4978
  1917.7500    -74.7505     23.7003     37.5030     58.2523     44.9661
  1918.0000    -73.6213     22.5981     34.7182     55.7732     46.4386
  1918.2500    -72.7048     21.5080     31.7108     52.2652     49.6951
  1918.5000    -72.1046     20.4472     28.7145     47.7742     58.7620
  1918.7500    -71.8683     19.4261     25.8994     42.4952     67.5341
  1919.0000    -71.9731     18.4510     23.3637     36.7714     83.8176
  1919.2500    -72.3367     17.5258     21.1461     31.0372     95.7569
  1919.5000    -72.8382     16.6535     19.2455     25.7282    113.2667
  1919.7500    -73.3421     15.8377     17.6388     21.1886    123.7147
  1920.0000    -73.7314     15.0822     16.2932     17.6100    136.5098
  1920.2500    -73.9257     14.3902     15.1747     15.0156    142.6174
  1920.5000    -73.8980     13.7644     14.2516     13.2916    147.5207
  1920.7500    -73.6730     13.2055     13.4965     12.2423    148.2232
  1921.0000    -73.3223     12.7131     12.8871     11.6508    147.2050
  1921.2500    -72.9457     12.2849     12.4059     11.3281    146.2886
  1921.5000    -72.6530     11.9177     12.0389     11.1407    145.4047
  1921.7500    -72.5393     11.6070     11.7749     11.0174    144.9612
  1922.0000    -72.6640     11.3483     11.6042     10.9407    144.0839
  1922.2500    -73.0381     11.1365     11.5166     10.9277    143.5137
  1922.5000    -73.6189     10.9666     11.5009     11.0087    143.1588
  1922.7500    -74.3267     10.8332     11.5434     11.2058    142.9454
  1923.0000    -75.0598     10.7313     11.6270     11.5200    141.1323
  1923.2500    -75.7225     10.6555     11.7318     11.9239    138.4601
  1923.5000    -76.2410     10.6007     11.8359     12.3644    133.4340
  1923.7500    -76.5715     10.5618     11.9177     12.7721    130.6323
  1924.0000    -76.6923     10.5335     11.9588     13.0777    128.2701
  1924.2500    -76.5957     10.5108     11.9468     13.2279    127.6273
  1924.5000    -76.2787     10.4889     11.8768     13.1990    127.1682
  1924.7500    -75.7487     10.4632     11.7516     13.0012    127.0143
  1925.0000    -75.0350     10.4300     11.5801     12.6743    127.1853
  1925.2500    -74.2051     10.3860     11.3751     12.2741    127.5900
  1925.5000    -73.3636     10.3295     11.1507     11.8571    128.2620
  1925.7500    -72.6500     10.2597     10.9203     11.4674    128.5291
  1926.0000    -72.2097     10.1771     10.6958     11.1303    128.7627
  1926.2500    -72.1639     10.0836     10.4865     10.8535    129.0826
  1926.5000    -72.5826      9.9820     10.2988     10.6334    130.1054
  1926.7500    -73.4699      9.8760     10.1367     10.4642    131.0658
  1927.0000    -74.7527      9.7696     10.0012     10.3434    132.4637
  1927.2500    -76.2934      9.6663      9.8908     10.2732    133.0360
  1927.5000    -77.9023      9.5693      9.8019     10.2569    132.9411
  1927.7500    -79.3647      9.4801      9.7292     10.2913    132.1893
  1928.0000    -80.4757      9.3991      9.6664     10.3614    130.2518
  1928.2500    -81.0751      9.3249      9.6069     10.4401    128.7077
  1928.5000    -81.0776      9.2548      9.5445     10.4931    126.8584
  1928.7500    -80.4936      9.1857      9.4741     10.4887    126.5230
