~Version Information
VERS.                      2.0: CWLS Log ASCII Standard - VERSION 2.0
WRAP.                       NO: One line per depth step
~Well Information Block
STRT.FT               554.1000: 
STOP.FT              2173.5000: 
STEP.FT                 0.1000: 
NULL.                -999.2500: 
COMP.          Petrogulf Corporation: COMPANY
WELL.            Montoya 6-14R: WELL
FLD.           Purgatorie River: FIELD
LOC.           867' FSL & 751' FWL: LOCATION
CNTY.               Las Animas: COUNTY
SRVC.                         : SERVICE COMPANY
DATE.          Mon Nov 15 06:14:10 2004: LOG DATE
UWI.           05 071 08242 00: UNIQUE WELL ID
STAT.                 Colorado: STATE
~Curve Information Block
DEPT.FT            0 000 00 00: Depth
DCAL.in                       : CDL Caliper
RHOB.g/cc                     : CDL Bulk Density
RHOC.g/cc                     : CDL Density Correction
DPOR.pu                       : CDL Density Porosity
GR.GAPI                       : Gamma Ray
NPOR.pu                       : Neutron Porosity
~Parameter Information Block
~A  Depth       DCAL        RHOB        RHOC        DPOR         GR         NPOR    
# ...
  1840.5000      8.0252      2.5186      0.1201      7.9635    139.6559     27.8418
  1840.6000      8.0252      2.4978      0.0770      9.2241    136.5328     28.8533
  1840.7000      8.0252      2.4833      0.0319     10.1001    131.4572     29.6890
  1840.8000      7.9838      2.4915      0.0556      9.6053    126.3852     29.1902
  1840.9000      7.9838      2.5136      0.0789      8.2641    124.6576     27.8967
  1841.0000      7.9515      2.5327      0.1072      7.1063    128.5517     27.4311
  1841.1000      7.9515      2.5464      0.1277      6.2792    133.0629     28.1824
  1841.2000      7.9515      2.5589      0.1494      5.5197    131.1167     29.0465
  1841.3000      7.9439      2.5679      0.1352      4.9774    126.1432     29.1097
  1841.4000      7.9439      2.5691      0.1268      4.9025    125.3180     28.6908
  1841.5000      7.9439      2.5632      0.0964      5.2580    126.3730     28.7460
  1841.6000      7.9439      2.5540      0.0551      5.8202    123.4686     29.3754
  1841.7000      7.9439      2.5447      0.0778      6.3815    118.1454     29.2445
  1841.8000      7.9449      2.5343      0.0502      7.0135    115.9720     28.0748
  1841.9000      7.9449      2.5262      0.0754      7.5018    119.3229     27.0136
  1842.0000      7.9463      2.5257      0.0761      7.5320    124.8286     26.3554
  1842.1000      7.9463      2.5220      0.0933      7.7604    126.0836     26.0252
  1842.2000      7.9463      2.5059      0.0623      8.7321    121.8643     26.4270
  1842.3000      7.9484      2.4958      0.0456      9.3480    118.0492     27.5308
  1842.4000      7.9484      2.5057      0.0924      8.7460    120.1402     28.4574
  1842.5000      7.9513      2.5222      0.1087      7.7466    128.5075     28.6191
  1842.6000      7.9513      2.5334      0.1043      7.0682    135.1921     28.6620
  1842.7000      7.9513      2.5462      0.1006      6.2899    131.9499     29.2432
  1842.8000      7.9568      2.5658      0.1026      5.1031    124.3175     30.0293
  1842.9000      7.9568      2.5801      0.1290      4.2349    123.1056     30.6189
  1843.0000      7.9599      2.5782      0.1018      4.3531    128.5597     31.2267
  1843.1000      7.9599      2.5714      0.1026      4.7661    131.3934     32.0984
  1843.2000      7.9599      2.5736      0.1002      4.6293    126.4986     32.5041
  1843.3000      7.9575      2.5774      0.0977      4.3994    120.9422     31.4614
  1843.4000      7.9575      2.5712      0.1106      4.7780    121.0675     29.6674
  1843.5000      7.9596      2.5588      0.0620      5.5283    125.0446     28.4802
  1843.6000      7.9596      2.5505      0.0708      6.0299    127.6247     27.6720
  1843.7000      7.9596      2.5490      0.0536      6.1205    124.4047     26.9322
  1843.8000      7.9635      2.5506      0.0453      6.0263    117.3911     26.8021
  1843.9000      7.9635      2.5503      0.0456      6.0405    113.4541     27.1621
  1844.0000      7.9718      2.5413      0.0501      6.5907    113.6775     27.5275
  1844.1000      7.9718      2.5189      0.0167      7.9472    114.3380     28.0486
  1844.2000      7.9718      2.4967     -0.0075      9.2924    116.6046     29.0661
  1844.3000      7.9931      2.4952     -0.0245      9.3802    120.9038     29.7930
  1844.4000      7.9931      2.5110      0.0312      8.4272    123.6407     29.1989
  1844.5000      8.0119      2.5190      0.0697      7.9384    124.1360     27.9379
  1844.6000      8.0119      2.5096      0.0721      8.5099    124.2374     27.5736
  1844.7000      8.0119      2.4921      0.0166      9.5695    125.8337     28.3622
  1844.8000      8.0212      2.4741      0.0392     10.6601    130.9715     29.2184
  1844.9000      8.0212      2.4652      0.0310     11.1995    138.3659     29.5310
  1845.0000      8.0246      2.4755      0.0325     10.5742    143.5721     29.7502
  1845.1000      8.0246      2.4938      0.0880      9.4672    143.1299     30.1145
  1845.2000      8.0246      2.5002      0.0513      9.0815    138.5582     30.0308
  1845.3000      8.0221      2.4950      0.0839      9.3957    134.6071     29.5277
  1845.4000      8.0221      2.4921      0.0659      9.5668    133.3927     29.4949
  1845.5000      8.0095      2.4963      0.1094      9.3158    132.8661     29.8549
  1845.6000      8.0095      2.4975      0.1074      9.2429    131.0001     29.7207
  1845.7000      8.0095      2.4940      0.0957      9.4534    130.0989     29.0907
  1845.8000      8.0007      2.4970      0.0952      9.2756    132.0119     28.4945
  1845.9000      8.0007      2.5110      0.0887      8.4239    133.3732     28.1660
  1846.0000      8.0136      2.5260      0.1429      7.5149    129.4334     28.4416
  1846.1000      8.0136      2.5347      0.1179      6.9893    122.8426     29.4460
  1846.2000      8.0136      2.5421      0.1350      6.5370    120.9237     30.2996
  1846.3000      8.0311      2.5381      0.2027      6.7798    126.0394     30.2453
  1846.4000      8.0311      2.5091      0.1715      8.5374    132.5732     30.0429
  1846.5000      8.0545      2.4700      0.0994     10.9090    134.7690     30.4305
  1846.6000      8.0545      2.4456      0.0972     12.3892    132.4941     30.6718
  1846.7000      8.0545      2.4420      0.1374     12.6088    128.8439     30.1303
  1846.8000      8.0873      2.4469      0.1381     12.3113    126.2213     29.1076
  1846.9000      8.0873      2.4524      0.0689     11.9781    122.3746     28.1318
  1847.0000      8.1075      2.4691      0.0523     10.9610    116.5458     27.7446
  1847.1000      8.1075      2.5068      0.1227      8.6779    112.6367     27.6149
  1847.2000      8.1075      2.5488      0.2046      6.1357    109.9542     27.1116
  1847.3000      8.0993      2.5782      0.2087      4.3508    106.7851     26.9263
  1847.4000      8.0993      2.6078      0.2543      2.5549    106.3946     27.6625
  1847.5000      8.0689      2.6419      0.3022      0.4884    108.2803     28.3789
  1847.6000      8.0689      2.6583      0.2515     -0.5031    111.5189     28.0691
  1847.7000      8.0689      2.6549      0.2115     -0.2999    118.5519     27.3526
  1847.8000      8.0320      2.6487      0.2157      0.0775    125.4590     27.1937
  1847.9000      8.0320      2.6294      0.1830      1.2508    128.2642     27.3921
  1848.0000      7.9980      2.5880      0.0845      3.7579    131.4799     27.5663
  1848.1000      7.9980      2.5553      0.0364      5.7376    136.7534     27.3732
  1848.2000      7.9980      2.5565      0.0421      5.6655    137.7416     26.8967
  1848.3000      7.9620      2.5769      0.0838      4.4278    132.5973     26.9265
  1848.4000      7.9620      2.5885      0.0851      3.7256    129.1912     27.5788
  1848.5000      7.9442      2.5784      0.0788      4.3402    132.9756     28.4818
  1848.6000      7.9442      2.5542      0.0626      5.8087    138.7293     29.3858
  1848.7000      7.9442      2.5281      0.0448      7.3905    139.8483     29.9091
  1848.8000      7.9461      2.5111      0.0203      8.4185    137.2288     29.8769
  1848.9000      7.9461      2.5148      0.0135      8.1968    135.4427     29.4906
  1849.0000      7.9612      2.5329      0.0676      7.0949    135.0241     29.1453
  1849.1000      7.9612      2.5445      0.0644      6.3945    131.8727     29.0882
  1849.2000      7.9612      2.5383      0.0620      6.7690    129.1590     29.0726
  1849.3000      7.9893      2.5165      0.0304      8.0893    132.4503     28.6820
  1849.4000      7.9893      2.4899     -0.0054      9.7006    136.1398     28.0225
  1849.5000      8.0172      2.4739     -0.0218     10.6742    134.8546     27.7446
  1849.6000      8.0172      2.4753      0.0141     10.5902    131.4072     28.2421
  1849.7000      8.0172      2.4873      0.0552      9.8601    127.2458     29.0111
  1849.8000      8.0363      2.4980      0.0394      9.2150    124.4073     29.2944
  1849.9000      8.0363      2.5041      0.0277      8.8403    125.2905     28.8125
  1850.0000      8.0344      2.5087      0.0550      8.5608    129.7444     27.3878
