~Version Information
VERS.                      2.0: CWLS Log ASCII Standard - VERSION 2.0
WRAP.                       NO: One line per depth step
~Well Information Block
STRT.FT               -14.0000: 
STOP.FT              2531.7500: 
STEP.FT                 0.2500: 
NULL.                -999.2500: 
COMP.          Petrogulf Corporation: COMPANY
WELL.            Lavedure 7-44: WELL
FLD.           Purgatorie River: FIELD
LOC.           969' FSL & 501' FEL--: LOCATION
PROV.                       CO: PROVINCE
CNTY.               Las Animas: COUNTRY
SRVC.          Patterson Wireline: SERVICE COMPANY
DATE.          Wed Dec 10 09:23:08 2003: LOG DATE
UWI.                          : UNIQUE WELL ID
~Curve Information Block
DEPT.FT            0 000 00 00: Depth
CCL.                          : Casing Collar Locator
TT3.usec                      : CBL 3' Travel Time
AMP3.mV                       : CBL 3' Amplitude
GR.GAPI                       : Gamma Ray
~Parameter Information Block
~A  Depth       CCL         TT3         AMP3         GR     
# ...
  1493.5000      0.0000    709.1424      2.5846     86.8123
  1493.7500      0.0000    701.4215      2.8162     80.7634
  1494.0000      0.0000    691.0622      2.9876     74.2621
  1494.2500      0.0000    680.5272      3.0298     67.9163
  1494.5000      0.0000    673.1831      2.9457     62.1238
  1494.7500      0.0000    672.7859      2.8200     57.0218
  1495.0000      0.0000    680.3542      2.7640     52.8913
  1495.2500      0.0000    692.3850      2.8267     50.1623
  1495.5000      0.0000    703.5325      2.9444     49.0217
  1495.7500      0.0000    710.6842      2.9857     49.2275
  1496.0000      0.0000    714.0024      2.8600     50.2567
  1496.2500      0.0000    715.1041      2.5898     51.5323
  1496.5000      0.0000    715.3244      2.2889     52.6869
  1496.7500      0.0000    715.2831      2.0796     53.6898
  1497.0000      0.0000    715.1574      2.0197     54.5767
  1497.2500      0.0000    714.9822      2.0886     55.1226
  1497.5000      0.0000    714.8472      2.2283     55.0681
  1497.7500      0.0000    714.9954      2.3880     54.6942
  1498.0000      0.0000    715.9650      2.5259     54.9578
  1498.2500      0.0000    718.6755      2.5868     56.8641
  1498.5000      0.0000    724.1796      2.5195     60.5706
  1498.7500      0.0000    732.8862      2.3287     65.0653
  1499.0000      0.0000    743.6838      2.0847     68.8029
  1499.2500      0.0000    753.7609      1.8693     70.8158
  1499.5000      0.0000    759.5189      1.7261     71.2763
  1499.7500      0.0000    758.2983      1.6602     71.0655
  1500.0000      0.0000    750.0532      1.6558     70.9122
  1500.2500      0.0000    737.6882      1.6850     70.8895
  1500.5000      0.0000    725.4568      1.7198     70.4889
  1500.7500      0.0000    716.6621      1.7408     69.1324
  1501.0000      0.0000    712.6848      1.7299     66.8612
  1501.2500      0.0000    713.6162      1.6721     64.6671
  1501.5000      0.0000    718.9565      1.5795     64.0258
  1501.7500      0.0000    727.4021      1.4952     65.7915
  1502.0000      0.0000    736.5734      1.4567     69.2043
  1502.2500      0.0000    743.7230      1.4727     71.9527
  1502.5000      0.0000    746.9406      1.5387     71.6865
  1502.7500      0.0000    745.7109      1.6475     67.8466
  1503.0000      0.0000    740.7228      1.7750     61.9573
  1503.2500      0.0000    733.5244      1.8890     56.1902
  1503.5000      0.0000    726.1527      1.9813     51.9435
  1503.7500      0.0000    720.4273      2.0678     49.5864
  1504.0000      0.0000    717.1282      2.1531     48.8507
  1504.2500      0.0000    715.8250      2.2242     49.2660
  1504.5000      0.0000    715.5272      2.2752     50.5680
  1504.7500      0.0000    715.4194      2.3127     52.8305
  1505.0000      0.0000    715.1122      2.3409     56.0769
  1505.2500      0.0000    714.5109      2.3654     59.9360
  1505.5000      0.0000    713.6768      2.3948     64.0039
  1505.7500      0.0000    712.7717      2.4299     68.4094
  1506.0000      0.0000    712.0176      2.4694     73.5253
  1506.2500      0.0000    711.6221      2.5269     79.0621
  1506.5000      0.0000    711.8044      2.6156     83.9422
  1506.7500      0.0000    712.9890      2.7170     87.2461
  1507.0000      0.0000    716.1078      2.7817     88.8411
  1507.2500      0.0000    722.5651      2.7622     89.0176
  1507.5000      0.0000    733.4209      2.6514     88.2436
  1507.7500      0.0000    748.2792      2.5072     87.5807
  1508.0000      0.0000    765.1077      2.4260     88.7052
  1508.2500      0.0000    781.2440      2.4606     92.9461
  1508.5000      0.0000    794.4488      2.5714    100.4225
  1508.7500      0.0000    803.5116      2.6777    110.2913
  1509.0000      0.0000    808.5635      2.7376    121.5041
  1509.2500      0.0000    810.3356      2.7542    133.1187
  1509.5000      0.0000    808.4753      2.7310    144.2980
  1509.7500      0.0000    801.3022      2.6643    154.4323
  1510.0000      0.0000    788.2538      2.5680    163.1720
  1510.2500      0.0000    772.3525      2.4763    170.0692
  1510.5000      0.0000    759.3853      2.4189    174.2114
  1510.7500      0.0000    754.4976      2.4000    174.5597
  1511.0000      0.0000    760.2094      2.3925    170.8850
  1511.2500      0.0000    776.5331      2.3556    164.3968
  1511.5000      0.0000    799.8986      2.2725    157.3139
  1511.7500      0.0000    820.7225      2.1697    151.3974
  1512.0000      0.0000    825.7974      2.0881    146.5582
  1512.2500      0.0000    807.8797      2.0395    141.1218
  1512.5000      0.0000    773.0001      1.9996    133.7931
  1512.7500      0.0000    736.1209      1.9412    125.2190
  1513.0000      0.0000    709.7692      1.8675    117.4332
  1513.2500      0.0000    697.2687      1.8108    112.0149
  1513.5000      0.0000    694.8626      1.8018    108.8069
  1513.7500      0.0000    698.0311      1.8404    105.9323
  1514.0000      0.0000    705.4290      1.8968    101.1533
  1514.2500      0.0000    717.5835      1.9445     93.9980
  1514.5000      2.0000    732.9749      1.9908     86.6705
  1514.7500      0.0000    746.6683      2.0720     82.2252
  1515.0000      0.0000    753.7868      2.2194     81.7337
  1515.2500      0.0000    753.8209      2.4229     83.6741
  1515.5000      0.0000    750.2372      2.6142     85.8364
  1515.7500      0.0000    745.9235      2.7013     87.2022
  1516.0000      0.0000    740.7357      2.6463     88.1270
  1516.2500      0.0000    733.8297      2.5068     89.4469
  1516.5000      0.0000    726.5524      2.3802     91.7548
  1516.7500      0.0000    722.1120      2.3163     95.3373
  1517.0000      0.0000    723.6006      2.2982    100.4132
  1517.2500      0.0000    732.9532      2.2910    107.1114
  1517.5000      0.0000    750.3575      2.2846    115.0469
  1517.7500      0.0000    773.2304      2.3014    123.0580
  1518.0000      0.0000    796.1719      2.3767    129.7477
  1518.2500      0.0000    813.2231      2.5218    134.4832
  1518.5000      0.0000    820.9027      2.6968    137.7899
  1518.7500      0.0000    819.3447      2.8349    140.6541
  1519.0000      0.0000    811.1005      2.8922    143.5186
  1519.2500      0.0000    799.3187      2.8649    146.0161
  1519.5000      0.0000    787.1506      2.7718    147.7053
  1519.7500      0.0000    778.4084      2.6437    149.0234
  1520.0000      0.0000    777.3821      2.5263    151.1209
  1520.2500      0.0000    786.3021      2.4638    154.5211
  1520.5000      0.0000    802.7993      2.4674    158.2759
  1520.7500      0.0000    820.9969      2.5074    160.7900
  1521.0000      0.0000    835.4700      2.5392    161.2878
  1521.2500      0.0000    843.8918      2.5319    160.2337
  1521.5000      0.0000    846.8436      2.4758    158.6650
  1521.7500      0.0000    846.5374      2.3758    157.5436
  1522.0000      0.0000    845.5240      2.2497    157.4521
  1522.2500      0.0000    845.4531      2.1300    158.2981
  1522.5000      0.0000    846.5250      2.0536    159.3165
  1522.7500      0.0000    848.0206      2.0464    159.6130
  1523.0000      0.0000    849.0834      2.1158    158.8524
  1523.2500      0.0000    849.0837      2.2493    157.5279
  1523.5000      0.0000    847.7194      2.4138    156.6512
  1523.7500      0.0000    844.9405      2.5655    156.9314
  1524.0000      0.0000    840.3311      2.6701    158.0903
  1524.2500      0.0000    832.5245      2.7163    159.0928
  1524.5000      0.0000    820.4421      2.7128    159.0658
  1524.7500      0.0000    806.0686      2.6786    157.9397
  1525.0000      0.0000    794.7172      2.6344    156.3497
  1525.2500      0.0000    790.1460      2.5916    155.1446
  1525.5000      0.0000    789.3933      2.5508    154.9230
  1525.7500      0.0000    784.7324      2.5131    155.6308
  1526.0000      0.0000    772.0515      2.4855    156.4114
  1526.2500      0.0000    756.3604      2.4664    156.1860
  1526.5000      0.0000    747.4194      2.4381    154.4500
  1526.7500      0.0000    749.6057      2.3870    151.1604
