~Version Information
VERS.                      2.0: CWLS Log ASCII Standard - VERSION 2.0
WRAP.                       NO: One line per depth step
~Well Information Block
STRT.FT               650.0000: 
STOP.FT              1080.5000: 
STEP.FT                 0.2500: 
NULL.                -999.2500: 
COMP.          Pioneer Natural Resources: COMPANY
WELL.            Galileo 21-11: WELL
FLD.           Purgatoire River: FIELD
LOC.           407' FNL & 2394' FWL: LOCATION
PROV.                 Colorado: PROVINCE
CNTY.               Las Animas: COUNTRY
SRVC.                Patterson: SERVICE COMPANY
DATE.          Mon Apr 11 11:14:18 2005: LOG DATE
UWI.           05 071 08353 00: UNIQUE WELL ID
~Curve Information Block
DEPT.FT            0 000 00 00: Depth
SN.Ohm-m                      : IEL Short Normal
SP.mV                         : IEL Spontaneous Potential
DIR.Ohm-m                     : IEL Induction Resistivity
GR.GAPI                       : Gamma Ray
~Parameter Information Block
~A  Depth        SN          SP         DIR          GR     
# ...
  1018.5000    407.0676    132.4139     17.5339    121.3727
  1018.7500    326.8352    152.9682     17.2246    120.3941
  1019.0000    248.4445    176.1619     16.9203    119.5644
  1019.2500    168.1466    199.6471     16.6391    119.4202
  1019.5000     98.4347    220.5320     16.3941    119.6942
  1019.7500     55.7933    236.1422     16.1920    120.2772
  1020.0000     43.7904    244.8256     16.0324    121.8655
  1020.2500     48.7742    246.5070     15.9071    123.2469
  1020.5000     52.7429    242.5896     15.8040    125.2082
  1020.7500     47.8683    235.1865     15.7099    126.1485
  1021.0000     38.3685    226.2753     15.6125    126.9227
  1021.2500     31.2949    217.3881     15.5028    127.1567
  1021.5000     30.0243    209.7367     15.3779    127.3220
  1021.7500     35.1150    204.1586     15.2448    127.3815
  1022.0000     43.9531    200.7294     15.1206    127.4871
  1022.2500     49.8705    198.7238     15.0260    127.5041
  1022.5000     51.0207    197.4083     14.9784    126.8003
  1022.7500     61.2957    196.9219     14.9881    125.3354
  1023.0000    106.5828    198.0051     15.0594    121.6656
  1023.2500    208.2449    200.6208     15.1915    119.1336
  1023.5000    357.7714    203.0395     15.3783    117.3331
  1023.7500    500.4393    202.5738     15.6085    118.0368
  1024.0000    566.4385    197.2828     15.8682    120.7935
  1024.2500    530.0509    187.0257     16.1487    122.3304
  1024.5000    431.1071    173.2018     16.4542    122.3819
  1024.7500    339.8679    157.8914     16.8033    120.9185
  1025.0000    297.4542    143.2660     17.2227    117.8125
  1025.2500    299.0766    131.2719     17.7345    115.8920
  1025.5000    338.5959    123.2289     18.3447    113.6110
  1025.7500    424.8936    119.5370     19.0339    112.3920
  1026.0000    541.6776    119.9081     19.7581    111.1172
  1026.2500    643.0037    123.8565     20.4585    110.9072
  1026.5000    699.7570    130.8114     21.0809    111.8554
  1026.7500    716.7092    139.8820     21.5956    113.2552
  1027.0000    703.7579    149.9409     22.0069    116.0826
  1027.2500    658.8799    160.2084     22.3484    118.1070
  1027.5000    584.1818    170.6268     22.6674    120.7044
  1027.7500    505.7890    181.4241     23.0051    121.7884
  1028.0000    463.3978    192.3507     23.3786    121.8756
  1028.2500    462.4328    202.5767     23.7721    120.7135
  1028.5000    457.7982    211.3762     24.1418    117.5727
  1028.7500    416.6267    218.6866     24.4370    115.2320
  1029.0000    360.3635    224.8864     24.6282    112.4035
  1029.2500    314.1693    230.1899     24.7254    111.1911
  1029.5000    264.4257    234.4089     24.7736    110.3049
  1029.7500    196.3705    237.2123     24.8304    110.2264
  1030.0000    127.8318    238.4836     24.9414    110.5651
  1030.2500     81.6751    238.4675     25.1285    110.8340
  1030.5000     59.2457    237.7051     25.3967    110.9460
  1030.7500     50.2347    236.8561     25.7511    110.7952
  1031.0000     47.0697    236.4643     26.2043    110.3199
  1031.2500     46.7536    236.7217     26.7677    109.7205
  1031.5000     48.1907    237.3515     27.4324    107.8001
  1031.7500     50.7059    237.7125     28.1587    105.5801
  1032.0000     53.3575    237.0979     28.8832    101.2507
  1032.2500     54.8349    235.0623     29.5387     98.4898
  1032.5000     54.5325    231.5815     30.0777     96.1518
  1032.7500     53.7424    226.9522     30.4869     96.3167
  1033.0000     55.2417    221.5019     30.7874     98.6904
  1033.2500     60.5973    215.3090     31.0207    100.8826
  1033.5000     67.6653    208.1144     31.2267    103.9860
  1033.7500     73.1960    199.4825     31.4227    105.8540
  1034.0000     78.4029    189.1176     31.5946    108.7888
  1034.2500     88.9340    177.2044     31.7046    110.8423
  1034.5000    108.2170    164.7160     31.7111    113.2631
  1034.7500    133.1539    153.6195     31.5899    113.9231
  1035.0000    160.6109    146.6244     31.3451    113.5417
  1035.2500    200.6136    146.1384     31.0082    112.9477
  1035.5000    274.5139    152.9207     30.6222    112.5250
  1035.7500    379.4540    165.6224     30.2245    112.6946
  1036.0000    460.3871    181.6623     29.8335    113.0938
  1036.2500    455.5190    198.4869     29.4542    113.0285
  1036.5000    366.1079    214.1435     29.0949    112.2386
  1036.7500    247.9630    227.2366     28.7776    111.5422
  1037.0000    150.4914    236.9540     28.5250    110.7946
  1037.2500     90.3048    243.2869     28.3339    110.4881
  1037.5000     61.9306    246.9907     28.1631    109.9907
  1037.7500     52.0141    249.1265     27.9564    109.6970
  1038.0000     49.2972    250.5522     27.6844    110.0583
  1038.2500     48.4777    251.7134     27.3647    111.2783
  1038.5000     48.1038    252.7252     27.0400    114.5958
  1038.7500     47.8633    253.5577     26.7406    117.2625
  1039.0000     47.5850    254.2000     26.4707    120.5737
  1039.2500     47.1096    254.7437     26.2243    121.8516
  1039.5000     46.4641    255.3555     26.0054    122.9091
  1039.7500     45.9312    256.1592     25.8298    123.7252
  1040.0000     45.6438    257.1156     25.7047    125.3210
  1040.2500     45.3444    257.9942     25.6095    126.0536
  1040.5000     44.7492    258.4468     25.4932    125.9875
  1040.7500     43.8711    258.1172     25.2963    125.5276
  1041.0000     42.9021    256.7167     24.9812    125.3165
  1041.2500     42.0344    254.0472     24.5580    125.7615
  1041.5000     41.5007    250.0124     24.0848    127.0240
  1041.7500     41.6610    244.6282     23.6444    127.9102
  1042.0000     43.2446    237.9458     23.3060    128.5364
  1042.2500     47.7547    229.8071     23.0944    128.1622
  1042.5000     56.2154    219.5390     22.9827    126.9304
  1042.7500     65.7842    205.8170     22.9153    126.5951
  1043.0000     70.1651    186.8205     22.8435    128.0420
  1043.2500     66.7755    160.6294     22.7508    129.9753
  1043.5000     60.3852    125.8315     22.6505    132.1829
  1043.7500     57.7152     82.3830     22.5636    131.9848
  1044.0000     63.3581     32.5542     22.4986    128.7043
  1044.2500     83.2883    -18.7457     22.4436    125.1541
  1044.5000    129.4053    -65.0995     22.3687    119.3965
  1044.7500    213.6230   -101.0216     22.2353    116.1237
  1045.0000    330.3374   -124.1473     22.0105    113.1195
  1045.2500    448.2189   -135.5717     21.6866    112.6898
  1045.5000    531.2641   -138.3606     21.2906    114.3521
  1045.7500    569.1266   -135.6914     20.8753    116.6539
  1046.0000    578.0035   -129.8524     20.4939    120.8019
  1046.2500    577.3580   -122.1909     20.1747    123.2531
  1046.5000    576.0507   -113.4579     19.9149    125.5501
  1046.7500    574.8052   -104.1087     19.6923    126.1253
  1047.0000    570.3580    -94.4351     19.4820    126.0414
  1047.2500    554.0218    -84.6060     19.2674    125.6070
  1047.5000    514.5720    -74.6962     19.0421    124.5649
  1047.7500    459.0426    -64.6707     18.8062    123.6839
  1048.0000    421.3168    -54.3004     18.5616    122.3503
  1048.2500    415.8527    -43.1586     18.3072    121.7161
  1048.5000    407.7354    -30.8349     18.0385    121.6506
  1048.7500    364.8101    -17.1919     17.7528    122.3712
  1049.0000    298.9708     -2.3726     17.4562    124.5111
  1049.2500    247.6825     13.4020     17.1650    126.4233
  1049.5000    240.2927     29.8905     16.9002    129.3602
  1049.7500    268.3123     46.5097     16.6788    130.7494
  1050.0000    288.0615     61.7902     16.5071    130.9614
  1050.2500    264.8460     73.0145     16.3804    129.8666
  1050.5000    208.3189     76.4483     16.2882    127.9322
  1050.7500    159.0540     68.4478     16.2216    127.7060
  1051.0000    148.3569     47.3344     16.1796    130.0274
  1051.2500    177.5523     15.1397     16.1701    132.9794
  1051.5000    231.1686    -22.2608     16.2063    137.9827
  1051.7500    304.2942    -57.3355     16.3014    140.8948
