~Version Information
VERS.                      2.0: CWLS Log ASCII Standard - VERSION 2.0
WRAP.                       NO: One line per depth step
~Well Information Block
STRT.FT               294.0000: 
STOP.FT              1961.5000: 
STEP.FT                 0.2500: 
NULL.                -999.2500: 
COMP.          Pioneer Natural Resources: COMPANY
WELL.          Commander 43-26 Tr: WELL
FLD.           Purgatoire River: FIELD
LOC.           2439' FSL & 446' FEL: LOCATION
PROV.                 Colorado: PROVINCE
CNTY.               Las Animas: COUNTRY
SRVC.                Patterson: SERVICE COMPANY
DATE.          Thu Apr 14 18:26:07 2005: LOG DATE
UWI.           05 071 08341 00: UNIQUE WELL ID
~Curve Information Block
DEPT.FT            0 000 00 00: Depth
SN.Ohm-m                      : IEL Short Normal
SP.mV                         : IEL Spontaneous Potential
DIR.Ohm-m                     : IEL Induction Resistivity
GR.GAPI                       : Gamma Ray
~Parameter Information Block
~A  Depth        SN          SP         DIR          GR     
# ...
  1064.5000   2000.0000   2000.0000     18.9352    115.0854
  1064.7500   2000.0000   2000.0000     18.7903    114.2398
  1065.0000   2000.0000   2000.0000     18.5956    112.5601
  1065.2500   2000.0000   2000.0000     18.3585    111.5342
  1065.5000   2000.0000   2000.0000     18.0865    110.4629
  1065.7500   2000.0000   2000.0000     17.7855    110.1063
  1066.0000   2000.0000   2000.0000     17.4595    110.3989
  1066.2500   2000.0000   2000.0000     17.1160    111.4747
  1066.5000   2000.0000   2000.0000     16.7702    114.7358
  1066.7500   2000.0000   2000.0000     16.4434    117.7600
  1067.0000   2000.0000   2000.0000     16.1530    122.3962
  1067.2500   2000.0000   2000.0000     15.9023    124.8318
  1067.5000   2000.0000   2000.0000     15.6791    127.0923
  1067.7500   2000.0000   2000.0000     15.4658    127.9859
  1068.0000   2000.0000   2000.0000     15.2543    129.0578
  1068.2500   2000.0000   2000.0000     15.0517    129.6478
  1068.5000   2000.0000   2000.0000     14.8748    130.0157
  1068.7500   2000.0000   2000.0000     14.7394    129.7307
  1069.0000   2000.0000   2000.0000     14.6516    128.2764
  1069.2500   2000.0000   2000.0000     14.6072    126.4936
  1069.5000   2000.0000   2000.0000     14.5969    122.6681
  1069.7500   2000.0000   2000.0000     14.6155    119.8450
  1070.0000   2000.0000   2000.0000     14.6683    116.9297
  1070.2500   2000.0000   2000.0000     14.7711    116.9155
  1070.5000   2000.0000   2000.0000     14.9435    120.2670
  1070.7500   2000.0000   2000.0000     15.1992    123.8807
  1071.0000   2000.0000   2000.0000     15.5416    128.7062
  1071.2500   2000.0000   2000.0000     15.9652    130.2261
  1071.5000   2000.0000   2000.0000     16.4619    129.3608
  1071.7500   2000.0000   2000.0000     17.0282    127.1449
  1072.0000   2000.0000   2000.0000     17.6659    122.3357
  1072.2500   2000.0000   2000.0000     18.3774    118.3231
  1072.5000   2000.0000   2000.0000     19.1598    110.8462
  1072.7500   2000.0000   2000.0000     20.0049    104.7948
  1073.0000   2000.0000   2000.0000     20.9094     94.5043
  1073.2500   2000.0000   2000.0000     21.8840     87.3139
  1073.5000   2000.0000   2000.0000     22.9504     76.9095
  1073.7500   2000.0000   2000.0000     24.1215     70.6555
  1074.0000   2000.0000   2000.0000     25.3715     62.9180
  1074.2500   2000.0000   2000.0000     26.6107     59.1331
  1074.5000   2000.0000   2000.0000     27.6862     55.3980
  1074.7500   2000.0000   2000.0000     28.4231     53.4940
  1075.0000   2000.0000   2000.0000     28.6878     49.6390
  1075.2500   2000.0000   2000.0000     28.4293     45.7605
  1075.5000   2000.0000   2000.0000     27.6774     38.8387
  1075.7500   2000.0000   2000.0000     26.5252     34.8894
  1076.0000   2000.0000   2000.0000     25.1162     32.4186
  1076.2500   2000.0000   2000.0000     23.6165     33.8892
  1076.5000   2000.0000   2000.0000     22.1703     40.8287
  1076.7500   2000.0000   2000.0000     20.8604     48.0866
  1077.0000   2000.0000   2000.0000     19.7034     61.6825
  1077.2500   2000.0000   2000.0000     18.6709     71.8288
  1077.5000   2000.0000   2000.0000     17.7197     87.4236
  1077.7500   2000.0000   2000.0000     16.8135     97.2481
  1078.0000   2000.0000   2000.0000     15.9342    109.5262
  1078.2500   2000.0000   2000.0000     15.0842    115.2400
  1078.5000   2000.0000   2000.0000     14.2829    119.7031
  1078.7500   2000.0000   2000.0000     13.5571    120.6171
  1079.0000   2000.0000   2000.0000     12.9308    120.9202
  1079.2500   2000.0000   2000.0000     12.4169    121.2116
  1079.5000   2000.0000   2000.0000     12.0173    121.6486
  1079.7500   2000.0000   2000.0000     11.7260    121.3577
  1080.0000   2000.0000   2000.0000     11.5334    119.3795
  1080.2500   2000.0000   2000.0000     11.4271    117.2126
  1080.5000   2000.0000   2000.0000     11.3913    113.9938
  1080.7500   2000.0000   2000.0000     11.4090    112.8788
  1081.0000   2000.0000   2000.0000     11.4673    113.8321
  1081.2500   2000.0000   2000.0000     11.5635    115.9627
  1081.5000   2000.0000   2000.0000     11.7030    119.3142
  1081.7500   2000.0000   2000.0000     11.8894    119.9887
  1082.0000   2000.0000   2000.0000     12.1135    116.7417
  1082.2500   2000.0000   2000.0000     12.3524    111.9834
  1082.5000   2000.0000   2000.0000     12.5811    103.8919
  1082.7500   2000.0000   2000.0000     12.7892    100.2253
  1083.0000   2000.0000   2000.0000     12.9877    100.0975
  1083.2500   2000.0000   2000.0000     13.1988    103.5519
  1083.5000   2000.0000   2000.0000     13.4362    111.3318
  1083.7500   2000.0000   2000.0000     13.6961    116.2346
  1084.0000   2000.0000   2000.0000     13.9627    121.0705
  1084.2500   2000.0000   2000.0000     14.2240    122.3903
  1084.5000   2000.0000   2000.0000     14.4782    121.8953
  1084.7500   2000.0000   2000.0000     14.7223    120.3545
  1085.0000   2000.0000   2000.0000     14.9396    117.7456
  1085.2500   2000.0000   2000.0000     15.1013    116.9776
  1085.5000   2000.0000   2000.0000     15.1898    118.4280
  1085.7500   2000.0000   2000.0000     15.2182    120.8134
  1086.0000   2000.0000   2000.0000     15.2264    124.8928
  1086.2500   2000.0000   2000.0000     15.2567    127.0160
  1086.5000   2000.0000   2000.0000     15.3284    128.2687
  1086.7500   2000.0000   2000.0000     15.4297    127.5380
  1087.0000   2000.0000   2000.0000     15.5284    124.4461
  1087.2500   2000.0000   2000.0000     15.5945    121.8030
  1087.5000   2000.0000   2000.0000     15.6184    118.3724
  1087.7500   2000.0000   2000.0000     15.6146    116.7944
  1088.0000   2000.0000   2000.0000     15.6093    115.3129
  1088.2500   2000.0000   2000.0000     15.6262    114.7785
  1088.5000   2000.0000   2000.0000     15.6794    114.7805
  1088.7500   2000.0000   2000.0000     15.7763    115.3638
  1089.0000   2000.0000   2000.0000     15.9219    116.4412
  1089.2500   2000.0000   2000.0000     16.1167    116.5147
  1089.5000   2000.0000   2000.0000     16.3490    114.7347
  1089.7500   2000.0000   2000.0000     16.5937    112.4578
  1090.0000   2000.0000   2000.0000     16.8214    108.5491
  1090.2500   2000.0000   2000.0000     17.0134    106.2664
  1090.5000   2000.0000   2000.0000     17.1702    103.9470
  1090.7500   2000.0000   2000.0000     17.3088    103.1598
  1091.0000   2000.0000   2000.0000     17.4515    102.5429
  1091.2500   2000.0000   2000.0000     17.6168    102.0195
  1091.5000   2000.0000   2000.0000     17.8108    100.9451
  1091.7500   2000.0000   2000.0000     18.0242    100.6660
  1092.0000   2000.0000   2000.0000     18.2350    102.2634
  1092.2500   2000.0000   2000.0000     18.4180    104.7813
  1092.5000   2000.0000   2000.0000     18.5558    109.3187
  1092.7500   2000.0000   2000.0000     18.6448    111.6217
  1093.0000   2000.0000   2000.0000     18.6927    112.4103
  1093.2500   2000.0000   2000.0000     18.7104    110.9067
  1093.5000   2000.0000   2000.0000     18.7072    106.5462
  1093.7500   2000.0000   2000.0000     18.6934    103.4301
  1094.0000   2000.0000   2000.0000     18.6861    100.6050
  1094.2500   2000.0000   2000.0000     18.7075    100.6593
  1094.5000   2000.0000   2000.0000     18.7703    103.4101
  1094.7500   2000.0000   2000.0000     18.8629    106.2118
  1095.0000   2000.0000   2000.0000     18.9491    110.1180
  1095.2500   2000.0000   2000.0000     18.9908    111.7988
  1095.5000   2000.0000   2000.0000     18.9764    112.6531
  1095.7500   2000.0000   2000.0000     18.9303    112.2576
  1096.0000   2000.0000   2000.0000     18.8917    110.3397
  1096.2500   2000.0000   2000.0000     18.8826    108.2848
  1096.5000   2000.0000   2000.0000     18.8939    104.8920
  1096.7500   2000.0000   2000.0000     18.8969    103.1961
  1097.0000   2000.0000   2000.0000     18.8657    102.4401
  1097.2500   2000.0000   2000.0000     18.7905    103.2542
  1097.5000   2000.0000   2000.0000     18.6758    106.2075
  1097.7500   2000.0000   2000.0000     18.5343    108.9471
