~Version Information
VERS.                      2.0: CWLS Log ASCII Standard - VERSION 2.0
WRAP.                       NO: One line per depth step
~Well Information Block
STRT.FT               860.0000: 
STOP.FT              1907.0000: 
STEP.FT                 0.1000: 
NULL.                -999.2500: 
COMP.          Pioneer Natural Resources: COMPANY
WELL.          Victory 12-14 Tr: WELL
FLD.           Purgatoire River: FIELD
LOC.           2522' FNL & 276' FWL: LOCATION
PROV.                 Colorado: PROVINCE
CNTY.               Las Animas: COUNTRY
SRVC.                Patterson: SERVICE COMPANY
DATE.          Mon Jul 18 06:52:40 2005: LOG DATE
UWI.           05 071 08433 00: UNIQUE WELL ID
~Curve Information Block
DEPT.FT            0 000 00 00: Depth
DCAL.in                       : CDL Caliper
RHOB.g/cc                     : CDL Bulk Density
RHOC.g/cc                     : CDL Density Correction
DPOR.pu                       : CDL Density Porosity
GR.GAPI                       : Gamma Ray
NPOR.pu                       : Neutron Porosity
~Parameter Information Block
~A  Depth       DCAL        RHOB        RHOC        DPOR         GR         NPOR    
# ...
  1618.4000      7.9614      2.5813      0.0856      4.1647    145.7027     20.6926
  1618.5000      7.9388      2.5419      0.0526      6.5499    147.8572     20.8653
  1618.6000      7.9388      2.5229      0.0205      7.7031    151.2398     20.8717
  1618.7000      7.9388      2.5316      0.0698      7.1747    160.3018     20.9412
  1618.8000      7.9526      2.5493      0.0379      6.1041    170.0499     21.2564
  1618.9000      7.9526      2.5630      0.0595      5.2740    173.2723     21.7855
  1619.0000      7.9790      2.5705      0.0501      4.8183    169.6279     22.4599
  1619.1000      7.9790      2.5813      0.0206      4.1613    161.8449     22.9356
  1619.2000      7.9790      2.6047      0.0907      2.7468    153.1915     22.8251
  1619.3000      8.0005      2.6316      0.1170      1.1132    147.6922     22.6478
  1619.4000      8.0005      2.6504      0.0313     -0.0220    143.5949     22.6755
  1619.5000      8.0339      2.6581      0.0711     -0.4921    136.8699     21.8888
  1619.6000      8.0339      2.6593      0.0575     -0.5637    128.5963     19.7827
  1619.7000      8.0339      2.6639      0.0661     -0.8439    119.8850     17.4079
  1619.8000      8.0499      2.6781      0.0448     -1.7038    112.1136     16.2162
  1619.9000      8.0499      2.7051      0.0374     -3.3366    108.1643     16.5577
  1620.0000      8.0147      2.7354      0.1149     -5.1772    106.8330     17.6923
  1620.1000      8.0147      2.7442      0.0753     -5.7121    107.1896     18.7945
  1620.2000      8.0147      2.7269      0.0439     -4.6602    108.2229     18.8476
  1620.3000      7.9898      2.6949      0.1363     -2.7220    106.5624     17.5198
  1620.4000      7.9898      2.6533      0.0751     -0.1985    102.9112     16.1648
  1620.5000      7.9564      2.6207      0.0696      1.7729    100.5592     16.0604
  1620.6000      7.9564      2.6161      0.0942      2.0575     99.6797     16.9387
  1620.7000      7.9564      2.6312      0.1156      1.1423    101.1823     17.8183
  1620.8000      7.9055      2.6499      0.1094      0.0075    106.7011     18.4819
  1620.9000      7.9055      2.6636      0.1720     -0.8240    114.2500     19.0427
  1621.0000      7.9196      2.6642      0.1562     -0.8623    121.0625     19.2398
  1621.1000      7.9196      2.6512      0.1316     -0.0747    124.4885     18.7110
  1621.2000      7.9196      2.6348      0.1318      0.9241    123.8010     17.8791
  1621.3000      7.9554      2.6292      0.0923      1.2603    121.8993     17.6459
  1621.4000      7.9554      2.6383      0.1346      0.7094    120.8874     18.3382
  1621.5000      7.9672      2.6464      0.1233      0.2177    121.1309     19.1739
  1621.6000      7.9672      2.6415      0.0693      0.5165    123.7757     18.9309
  1621.7000      7.9672      2.6258      0.1190      1.4695    125.9384     17.6381
  1621.8000      7.9605      2.6018      0.0768      2.9195    122.8741     16.3018
  1621.9000      7.9605      2.5818      0.0299      4.1312    119.7338     15.6108
  1622.0000      7.9819      2.5840      0.0463      3.9998    123.5733     16.0839
  1622.1000      7.9819      2.6083      0.0431      2.5252    133.5220     17.8024
  1622.2000      7.9819      2.6362      0.0687      0.8380    141.0444     19.5068
  1622.3000      8.0019      2.6436      0.0821      0.3885    139.5792     19.7172
  1622.4000      8.0019      2.6221      0.0711      1.6923    132.5213     18.5923
  1622.5000      8.0066      2.5941      0.0061      3.3900    125.5568     17.6889
  1622.6000      8.0066      2.5885      0.0364      3.7280    120.7762     17.7837
  1622.7000      8.0066      2.6006      0.0538      2.9943    117.3841     18.3073
  1622.8000      8.0074      2.6095      0.0503      2.4568    117.2681     18.8368
  1622.9000      8.0074      2.6166      0.1006      2.0220    122.1032     19.1976
  1623.0000      8.0090      2.6326      0.1270      1.0556    125.8175     18.9030
  1623.1000      8.0090      2.6546      0.0753     -0.2801    123.5345     18.1136
  1623.2000      8.0090      2.6692      0.1267     -1.1610    119.6281     17.3165
  1623.3000      8.0180      2.6666      0.1312     -1.0086    117.8324     16.9527
  1623.4000      8.0180      2.6625      0.0840     -0.7549    118.9747     17.0706
  1623.5000      8.0012      2.6757      0.0800     -1.5550    120.9013     16.9699
  1623.6000      8.0012      2.6953      0.1367     -2.7440    117.2979     16.3746
  1623.7000      8.0012      2.7014      0.1246     -3.1138    110.1672     15.8485
  1623.8000      7.9919      2.6995      0.0417     -2.9999    108.4308     16.2209
  1623.9000      7.9919      2.7012      0.1065     -3.1058    111.5533     17.9272
  1624.0000      8.0122      2.6976      0.0645     -2.8842    112.6949     20.0884
  1624.1000      8.0122      2.6811      0.0574     -1.8839    109.9992     21.3850
  1624.2000      8.0122      2.6546      0.0621     -0.2772    106.8033     21.4787
  1624.3000      7.9983      2.6293      0.0127      1.2554    107.7404     20.6121
  1624.4000      7.9983      2.6111      0.0179      2.3604    111.6484     19.3418
  1624.5000      7.9932      2.5900     -0.0139      3.6358    114.0527     18.3361
  1624.6000      7.9932      2.5711     -0.0786      4.7788    114.0252     18.0296
  1624.7000      7.9932      2.5647      0.0394      5.1700    113.1076     18.0174
  1624.8000      8.0115      2.5588     -0.0043      5.5279    111.5315     17.7393
  1624.9000      8.0115      2.5523      0.0150      5.9191    110.9601     17.2682
  1625.0000      8.0567      2.5583      0.0315      5.5550    114.3253     17.0297
  1625.1000      8.0567      2.5758      0.1160      4.4949    118.7560     16.8713
  1625.2000      8.0567      2.5963      0.0893      3.2574    119.3237     16.3387
  1625.3000      8.0628      2.6184      0.1179      1.9182    116.0423     16.1598
  1625.4000      8.0628      2.6413      0.1307      0.5302    113.6182     16.9927
  1625.5000      7.9955      2.6618      0.1278     -0.7137    114.8102     18.2769
  1625.6000      7.9955      2.6689      0.1635     -1.1426    117.8174     18.8066
  1625.7000      7.9955      2.6503      0.1465     -0.0195    119.1345     18.1808
  1625.8000      7.9744      2.6160      0.0918      2.0604    117.7388     17.2016
  1625.9000      7.9744      2.5887      0.0445      3.7151    114.8981     16.4866
  1626.0000      7.9939      2.5780      0.0484      4.3653    113.1294     15.7413
  1626.1000      7.9939      2.5831      0.0069      4.0540    114.5333     14.8830
  1626.2000      7.9939      2.6010      0.0653      2.9691    115.0914     14.6192
  1626.3000      8.0190      2.6193      0.0774      1.8632    109.0798     15.4196
  1626.4000      8.0190      2.6313      0.0775      1.1326     99.7084     16.9609
  1626.5000      8.0167      2.6408      0.0721      0.5602     94.7023     18.3047
  1626.6000      8.0167      2.6432      0.1226      0.4147     95.9651     18.7902
  1626.7000      8.0167      2.6329      0.0276      1.0370     98.7343     18.5019
  1626.8000      8.0203      2.6164      0.0760      2.0376     97.4200     17.5750
  1626.9000      8.0203      2.5988      0.0940      3.1001     91.1576     16.5247
  1627.0000      8.0190      2.5880      0.0559      3.7555     83.9264     16.1315
  1627.1000      8.0190      2.5946      0.0882      3.3567     78.8501     16.3900
  1627.2000      8.0190      2.6130      0.0476      2.2398     77.5668     16.6734
  1627.3000      8.0147      2.6306      0.0977      1.1753     79.1989     16.3755
  1627.4000      8.0147      2.6347      0.0805      0.9276     78.8885     15.9988
  1627.5000      7.9888      2.6193      0.0804      1.8592     76.4252     16.3390
  1627.6000      7.9888      2.6006      0.0636      2.9961     75.5319     16.6432
  1627.7000      7.9888      2.5979      0.0667      3.1567     75.4490     15.7981
  1627.8000      7.9888      2.6089      0.1082      2.4924     75.0142     14.4288
  1627.9000      7.9888      2.6199      0.1027      1.8225     77.7520     13.8199
