~Version Information
VERS.                      2.0: CWLS Log ASCII Standard - VERSION 2.0
WRAP.                       NO: One line per depth step
~Well Information Block
STRT.FT               380.0000: 
STOP.FT               899.2000: 
STEP.FT                 0.1000: 
NULL.                -999.2500: 
COMP.          Pioneer Natural Resources: COMPANY
WELL.          Prospector 12-19: WELL
FLD.           Purgatoire River: FIELD
LOC.           2262' FNL & 634' FWL: LOCATION
PROV.                 Colorado: PROVINCE
CNTY.               Las Animas: COUNTRY
SRVC.                Patterson: SERVICE COMPANY
DATE.          Mon Apr 25 09:33:09 2005: LOG DATE
UWI.           05 071 08191 00: UNIQUE WELL ID
~Curve Information Block
DEPT.FT            0 000 00 00: Depth
DCAL.in                       : CDL Caliper
RHOB.g/cc                     : CDL Bulk Density
RHOC.g/cc                     : CDL Density Correction
DPOR.pu                       : CDL Density Porosity
GR.GAPI                       : Gamma Ray
NPOR.pu                       : Neutron Porosity
~Parameter Information Block
~A  Depth       DCAL        RHOB        RHOC        DPOR         GR         NPOR    
# ...
   447.2000      8.3688      2.3533      0.0384     17.9795    144.2966     30.6842
   447.3000      8.3110      2.3820      0.1046     16.2443    150.9391     29.3224
   447.4000      8.3110      2.4152      0.0740     14.2281    152.2778     29.0045
   447.5000      8.2646      2.4506      0.1346     12.0876    150.8414     29.4991
   447.6000      8.2646      2.4797      0.1191     10.3185    151.0510     29.8873
   447.7000      8.2646      2.5008      0.1219      9.0417    151.9705     29.6623
   447.8000      8.2971      2.5185      0.1585      7.9719    152.5288     29.2338
   447.9000      8.2971      2.5279      0.1729      7.3976    155.0375     29.0729
   448.0000      8.3397      2.5349      0.1024      6.9780    156.6489     29.2864
   448.1000      8.3397      2.5523      0.1411      5.9220    152.1312     29.9162
   448.2000      8.3397      2.5671      0.1671      5.0231    145.0122     30.5131
   448.3000      8.4690      2.5634      0.1183      5.2482    140.2832     30.2843
   448.4000      8.4690      2.5468      0.0824      6.2537    137.7861     29.4769
   448.5000      8.5847      2.5300      0.0329      7.2700    135.6750     29.0166
   448.6000      8.5847      2.5207      0.0471      7.8390    134.2989     28.6154
   448.7000      8.5847      2.5125      0.0424      8.3330    135.8754     27.6457
   448.8000      8.2427      2.4970      0.0146      9.2702    141.3431     26.4655
   448.9000      8.2427      2.4798     -0.0124     10.3167    146.9191     25.6961
   449.0000      8.1246      2.4714     -0.0228     10.8216    147.4199     25.7921
   449.1000      8.1246      2.4798     -0.0417     10.3133    143.0608     26.4797
   449.2000      8.1246      2.5028      0.0069      8.9204    141.2173     26.9738
   449.3000      8.0813      2.5181      0.1043      7.9933    145.6935     27.0425
   449.4000      8.0813      2.5144      0.0338      8.2207    151.1584     26.4825
   449.5000      8.0824      2.5160      0.0132      8.1232    153.0728     25.5783
   449.6000      8.0824      2.5398      0.0170      6.6818    150.6788     25.2848
   449.7000      8.0824      2.5622      0.0812      5.3227    145.1265     25.5536
   449.8000      8.1215      2.5568      0.0753      5.6477    140.6196     25.8473
   449.9000      8.1215      2.5284      0.0732      7.3716    140.8508     26.4819
   450.0000      8.0808      2.4943      0.0253      9.4382    144.9481     27.5040
   450.1000      8.0808      2.4697     -0.0040     10.9301    150.8709     27.9636
   450.2000      8.0808      2.4657      0.0144     11.1672    154.4749     27.4213
   450.3000      8.0988      2.4844     -0.0135     10.0363    148.1964     27.1664
   450.4000      8.0988      2.5206      0.0387      7.8416    135.7296     28.0051
   450.5000      8.1068      2.5583      0.1155      5.5583    131.4694     28.8468
   450.6000      8.1068      2.5787      0.0858      4.3237    136.9911     28.8167
   450.7000      8.1068      2.5838      0.0621      4.0152    139.9234     28.3168
   450.8000      8.1258      2.5903      0.1085      3.6187    134.7559     27.8014
   450.9000      8.1258      2.5986      0.0612      3.1178    127.2343     27.2993
   451.0000      8.1326      2.5917      0.0976      3.5355    125.0638     26.9608
   451.1000      8.1326      2.5655      0.0481      5.1196    130.8562     26.9108
   451.2000      8.1326      2.5459     -0.0063      6.3120    138.4732     26.8685
   451.3000      8.0905      2.5508      0.0067      6.0140    141.6554     25.9553
   451.4000      8.0905      2.5663      0.0648      5.0750    141.5315     24.0196
   451.5000      8.0773      2.5830      0.0420      4.0601    139.6087     22.4605
   451.6000      8.0773      2.6056      0.0945      2.6913    134.3265     22.4265
   451.7000      8.0773      2.6246      0.0911      1.5410    127.6603     23.7742
   451.8000      8.0126      2.6198      0.1304      1.8315    123.9848     25.5629
   451.9000      8.0126      2.5910      0.0083      3.5746    123.1566     26.4237
   452.0000      8.0011      2.5707      0.0514      4.8038    122.6192     25.9827
   452.1000      8.0011      2.5796      0.0381      4.2644    120.7678     25.2211
   452.2000      8.0011      2.5967      0.0898      3.2324    116.0030     24.5737
   452.3000      8.0120      2.5942      0.0499      3.3839    109.6027     23.8674
   452.4000      8.0120      2.5731      0.0221      4.6599    105.0010     23.2609
   452.5000      7.9999      2.5510     -0.0437      5.9994    103.2625     22.7688
   452.6000      7.9999      2.5432     -0.0313      6.4699    104.4627     22.0346
   452.7000      7.9999      2.5484     -0.0260      6.1594    106.6413     21.2402
   452.8000      8.0069      2.5511      0.0172      5.9953    105.3530     21.1445
   452.9000      8.0069      2.5536     -0.0217      5.8426     98.9756     21.5946
   453.0000      8.0107      2.5679      0.0425      4.9730     91.6547     21.3925
   453.1000      8.0107      2.5846      0.0523      3.9625     91.8500     20.6835
   453.2000      8.0107      2.5956      0.0222      3.2999    100.4346     20.7710
   453.3000      7.9746      2.6063      0.0250      2.6510    105.0820     21.2286
   453.4000      7.9746      2.6164      0.0202      2.0391    100.4009     20.4285
   453.5000      7.9783      2.6291      0.0248      1.2681     94.2078     19.0944
   453.6000      7.9783      2.6449      0.0489      0.3069     90.9056     19.2133
   453.7000      7.9783      2.6404      0.0808      0.5788     88.2715     20.2235
   453.8000      7.9726      2.6087      0.0401      2.5060     85.8683     20.2332
   453.9000      7.9726      2.5884     -0.0317      3.7310     84.6904     19.4411
   454.0000      7.9475      2.6034      0.0114      2.8213     83.6510     18.9177
   454.1000      7.9475      2.6340      0.0327      0.9703     82.4291     19.1095
   454.2000      7.9475      2.6616      0.0686     -0.7016     81.8322     19.6485
   454.3000      7.9409      2.6780      0.0497     -1.6966     80.5504     19.7362
   454.4000      7.9409      2.6724      0.0369     -1.3550     77.3178     19.6210
   454.5000      7.9760      2.6401      0.0491      0.6030     74.8718     19.8956
   454.6000      7.9760      2.5986      0.0182      3.1169     74.9295     20.1798
   454.7000      7.9760      2.5735     -0.0068      4.6376     72.8503     20.0988
   454.8000      7.9486      2.5748     -0.0097      4.5591     66.5780     19.9155
   454.9000      7.9486      2.5908      0.0174      3.5875     61.1765     19.6751
   455.0000      7.9457      2.5965      0.0665      3.2408     60.5193     19.4008
   455.1000      7.9457      2.5896      0.0066      3.6615     65.3356     19.2888
   455.2000      7.9457      2.5866      0.0420      3.8396     72.7798     19.3515
   455.3000      7.9597      2.5791      0.0571      4.2963     78.5498     19.1945
   455.4000      7.9597      2.5591      0.0249      5.5068     83.1629     18.4665
   455.5000      7.9254      2.5488      0.0196      6.1358     87.4969     18.0558
   455.6000      7.9254      2.5558      0.0842      5.7076     89.0151     18.8415
   455.7000      7.9254      2.5603      0.0832      5.4388     89.6629     20.1215
   455.8000      7.9045      2.5576      0.0471      5.5995     94.4237     20.9699
   455.9000      7.9045      2.5605      0.0737      5.4240    101.9799     21.2716
   456.0000      7.9242      2.5696      0.0684      4.8699    107.5983     21.2325
   456.1000      7.9242      2.5689      0.1005      4.9135    111.5990     20.8196
   456.2000      7.9242      2.5450      0.0662      6.3644    115.7208     20.4176
   456.3000      7.9257      2.5146      0.0414      8.2045    117.8122     20.8589
   456.4000      7.9257      2.5024      0.0381      8.9434    118.3300     21.7650
   456.5000      7.8973      2.5060      0.1032      8.7287    118.7465     22.5060
   456.6000      7.8973      2.5127      0.0825      8.3196    116.2987     23.4792
   456.7000      7.8973      2.5266      0.0520      7.4772    112.1371     24.3536
