~Version Information
VERS.                      2.0: CWLS Log ASCII Standard - VERSION 2.0
WRAP.                       NO: One line per depth step
~Well Information Block
STRT.FT                -4.0000: 
STOP.FT              2464.0000: 
STEP.FT                 0.2500: 
NULL.                -999.2500: 
COMP.          Pioneer Natural Resources: COMPANY
WELL.            Rancher 12-35: WELL
FLD.           Purgatorie River: FIELD
LOC.           2131' FNL & 297' FWL--: LOCATION
PROV.                       CO: PROVINCE
CNTY.               Las Animas: COUNTRY
SRVC.                         : SERVICE COMPANY
DATE.          Wed Oct 20 13:17:53 2004: LOG DATE
UWI.                          : UNIQUE WELL ID
~Curve Information Block
DEPT.FT            0 000 00 00: Depth
GR.GAPI                       : Gamma Ray
CCL.                          : Casing Collar Locator
TT3.usec                      : CBL 3' Travel Time
AMP3.mV                       : CBL 3' Amplitude
~Parameter Information Block
~A  Depth        GR         CCL         TT3         AMP3    
# ...
  2274.0000     45.9735      0.0000    696.9272      4.7129
  2274.2500     48.4334      0.0000    700.7257      4.6732
  2274.5000     50.8083      0.0000    701.1734      4.6645
  2274.7500     51.9594      0.0000    692.7521      4.6628
  2275.0000     52.3544      0.0000    669.4105      4.6520
  2275.2500     52.6849      0.0000    627.1616      4.6376
  2275.5000     52.9054      0.0000    567.8336      4.6398
  2275.7500     52.5860      0.0000    501.2110      4.6709
  2276.0000     51.6383      0.0000    441.6793      4.7188
  2276.2500     50.4215      0.0000    401.2776      4.7535
  2276.5000     49.3566      0.0000    386.2781      4.7500
  2276.7500     48.6582      0.0000    399.0646      4.7053
  2277.0000     48.3861      0.0000    439.1801      4.6396
  2277.2500     48.5904      0.0000    500.0138      4.5814
  2277.5000     49.3588      0.0000    566.9535      4.5468
  2277.7500     50.8648      0.0000    623.4084      4.5320
  2278.0000     53.4195      0.0000    660.3021      4.5262
  2278.2500     57.2101      0.0000    679.0503      4.5265
  2278.5000     61.7128      0.0000    686.5450      4.5346
  2278.7500     65.6109      0.0000    689.2182      4.5418
  2279.0000     67.7647      0.0000    691.0316      4.5282
  2279.2500     68.2435      0.0000    694.1478      4.4792
  2279.5000     68.0366      0.0000    699.6231      4.4009
  2279.7500     67.8029      0.0000    707.3229      4.3159
  2280.0000     67.2498      0.0000    715.8349      4.2446
  2280.2500     65.6488      0.0000    723.1860      4.1868
  2280.5000     62.5906      0.0000    728.1454      4.1208
  2280.7500     58.3847      0.0000    730.9244      4.0252
  2281.0000     54.2183      0.0000    732.8281      3.9094
  2281.2500     51.7775      0.0000    735.4215      3.8245
  2281.5000     52.0866      0.0000    739.8952      3.8303
  2281.7500     54.5178      0.0000    746.8396      3.9426
  2282.0000     57.2921      0.0000    756.5049      4.1166
  2282.2500     59.0909      0.0000    768.9620      4.2855
  2282.5000     59.9692      0.0000    783.1407      4.4075
  2282.7500     60.7162      0.0000    795.4269      4.4771
  2283.0000     61.8945      0.0000    800.5482      4.5069
  2283.2500     63.8426      0.0000    795.1613      4.5120
  2283.5000     67.0006      0.0000    780.2641      4.5019
  2283.7500     71.4412      0.0000    759.8465      4.4795
  2284.0000     76.3115      0.0000    738.1804      4.4492
  2284.2500     80.4927      0.0000    718.4809      4.4269
  2284.5000     83.8314      0.0000    702.2634      4.4367
  2284.7500     87.2373      0.0000    688.5175      4.4975
  2285.0000     91.4838      0.0000    673.6850      4.6121
  2285.2500     96.2106      0.0000    653.2191      4.7667
  2285.5000    100.4029      0.0000    624.5681      4.9367
  2285.7500    103.6823      0.0000    589.9998      5.0957
  2286.0000    106.5118      0.0000    555.8983      5.2227
  2286.2500    108.8266      0.0000    527.1905      5.3050
  2286.5000    109.1277      0.0000    502.9575      5.3385
  2286.7500    105.7819      0.0000    479.6188      5.3284
  2287.0000     99.1624      0.0000    456.9615      5.2908
  2287.2500     91.9538      0.0000    438.1747      5.2532
  2287.5000     87.2260      0.0000    425.2679      5.2455
  2287.7500     86.2686      0.0000    417.1265      5.2810
  2288.0000     88.0094      0.0000    411.3712      5.3442
  2288.2500     90.0050      0.0000    406.2786      5.4024
  2288.5000     89.8799      0.0000    400.9364      5.4348
  2288.7500     86.4034      0.0000    394.6595      5.4458
  2289.0000     80.0014      0.0000    386.8629      5.4530
  2289.2500     72.5500      0.0000    377.6045      5.4666
  2289.5000     66.3537      0.0000    368.0722      5.4878
  2289.7500     62.8386      0.0000    360.0759      5.5202
  2290.0000     62.0337      0.0000    354.9589      5.5707
  2290.2500     63.0643      0.0000    353.0354      5.6390
  2290.5000     64.7845      0.0000    353.8092      5.7120
  2290.7500     65.9288      0.0000    356.3108      5.7743
  2291.0000     65.2916      0.0000    359.3918      5.8199
  2291.2500     62.4450      0.0000    362.2492      5.8531
  2291.5000     58.2939      0.0000    364.8246      5.8770
  2291.7500     54.5222      0.0000    367.3843      5.8843
  2292.0000     52.3502      0.0000    369.6300      5.8597
  2292.2500     51.8159      0.0000    370.5280      5.7961
  2292.5000     52.2729      0.0000    369.1873      5.7058
  2292.7500     53.5291      0.0000    365.6777      5.6158
  2293.0000     56.1892      0.0000    360.8891      5.5491
  2293.2500     60.5783      0.0000    355.9420      5.5137
  2293.5000     65.6437      0.0000    351.8614      5.5095
  2293.7500     69.5338      0.0000    349.4433      5.5364
  2294.0000     71.3623      0.0000    349.0558      5.5907
  2294.2500     71.9760      0.0000    350.3915      5.6550
  2294.5000     72.7355      0.0000    352.4674      5.7025
  2294.7500     73.8034      0.0000    354.3010      5.7100
  2295.0000     74.0378      0.0000    356.2119      5.6635
  2295.2500     72.5802      0.0000    360.3759      5.5540
  2295.5000     70.0807      0.0000    369.9510      5.3827
  2295.7500     68.0187      0.0000    387.6386      5.1706
  2296.0000     67.0515      0.0000    414.7891      4.9567
  2296.2500     66.4757      0.0000    451.0378      4.7799
  2296.5000     65.5198      0.0000    493.9499      4.6615
  2296.7500     64.8870      0.0000    537.9387      4.6076
  2297.0000     66.4048      0.0000    572.7764      4.6334
  2297.2500     70.8974      0.0000    585.3623      4.7855
  2297.5000     76.7620      0.0000    567.1352      5.1150
  2297.7500     80.9212      0.0000    521.9986      5.6016
  2298.0000     81.0989      0.0000    466.8521      6.1140
  2298.2500     77.2900     -2.0000    423.8367      6.4688
  2298.5000     71.5360     -2.0000    410.8050      6.5406
  2298.7500     66.6140      0.0000    435.3225      6.3306
  2299.0000     64.6636      0.0000    491.7480      5.9581
  2299.2500     66.3827      0.0000    561.1278      5.5942
  2299.5000     70.8124      0.0000    618.0651      5.3637
  2299.7500     75.7740      0.0000    643.4473      5.2706
  2300.0000     79.0462      0.0000    632.8072      5.2291
  2300.2500     79.7051      0.0000    594.0093      5.1754
  2300.5000     78.4097      0.0000    540.4221      5.1271
  2300.7500     76.2955      0.0000    486.8475      5.1289
  2301.0000     73.8072      0.0000    447.1219      5.1805
  2301.2500     70.7827      0.0000    430.3776      5.2406
  2301.5000     67.1502      0.0000    436.9543      5.2809
  2301.7500     63.0563      0.0000    456.7040      5.3114
  2302.0000     58.7082      0.0000    472.5530      5.3530
  2302.2500     54.5960      0.0000    470.3457      5.4006
  2302.5000     51.7683      0.0000    448.3832      5.4226
  2302.7500     51.5774      0.0000    416.7632      5.3970
  2303.0000     54.8399      0.0000    387.5229      5.3365
  2303.2500     60.9191      0.0000    366.7272      5.2729
  2303.5000     67.7173      0.0000    354.3865      5.2246
  2303.7500     73.0868      0.0000    348.0714      5.1835
  2304.0000     76.3356      0.0000    345.4084      5.1315
  2304.2500     78.1327      0.0000    344.8508      5.0637
  2304.5000     79.2400      0.0000    345.7496      4.9955
  2304.7500     79.8552      0.0000    348.0654      4.9503
  2305.0000     79.8996      0.0000    351.6990      4.9437
  2305.2500     79.3349      0.0000    355.7260      4.9786
  2305.5000     78.2731      0.0000    358.3380      5.0484
  2305.7500     77.1354      0.0000    358.0096      5.1395
  2306.0000     76.5521      0.0000    354.8745      5.2310
  2306.2500     76.8795      0.0000    350.6544      5.2982
  2306.5000     78.0030      0.0000    347.1879      5.3221
  2306.7500     79.5439      0.0000    345.2469      5.3002
  2307.0000     80.8274      0.0000    344.5988      5.2471
  2307.2500     80.9033      0.0000    344.6836      5.1841
