~Version Information
VERS.                      2.0: CWLS Log ASCII Standard - VERSION 2.0
WRAP.                       NO: One line per depth step
~Well Information Block
STRT.FT                -2.7500: 
STOP.FT              2141.2500: 
STEP.FT                 0.2500: 
NULL.                -999.2500: 
COMP.          Pioneer Nautural Resources: COMPANY
WELL.             Enzo 43-8 Tr: WELL
FLD.           Purgatorie River: FIELD
LOC.           2303' FSL & 604' FEL--: LOCATION
PROV.                       CO: PROVINCE
CNTY.               Las Animas: COUNTRY
SRVC.                         : SERVICE COMPANY
DATE.          Thu Nov 04 09:01:55 2004: LOG DATE
UWI.            05-071-08213  : UNIQUE WELL ID
~Curve Information Block
DEPT.FT            0 000 00 00: Depth
GR.GAPI                       : Gamma Ray
CCL.                          : Casing Collar Locator
TT3.usec                      : CBL 3' Travel Time
AMP3.mV                       : CBL 3' Amplitude
~Parameter Information Block
~A  Depth        GR         CCL         TT3         AMP3    
# ...
  1270.2500    161.5678      0.0000    762.5648      9.7094
  1270.5000    163.6196      0.0000    759.7910     10.1096
  1270.7500    164.7499      0.0000    757.1660     10.5885
  1271.0000    165.3902      0.0000    755.3710     11.1311
  1271.2500    165.4686      0.0000    754.4056     11.6957
  1271.5000    164.3502      0.0000    753.9416     12.2134
  1271.7500    161.6244      0.0000    753.7003     12.5994
  1272.0000    157.6611      0.0000    753.5369     12.7835
  1272.2500    153.4704      0.0000    753.3766     12.7493
  1272.5000    150.1998      0.0000    753.1991     12.5477
  1272.7500    148.4572      0.0000    753.0621     12.2643
  1273.0000    147.9061      0.0000    753.0754     11.9786
  1273.2500    147.6744      0.0000    753.3034     11.7504
  1273.5000    147.1723      0.0000    753.7057     11.6222
  1273.7500    146.4671      0.0000    754.2086     11.6051
  1274.0000    145.9062      0.0000    754.8616     11.6642
  1274.2500    145.6772      0.0000    755.9610     11.7243
  1274.5000    145.9326      0.0000    757.9725     11.6879
  1274.7500    146.8804      0.0000    761.1207     11.4571
  1275.0000    148.0510      0.0000    764.9760     10.9679
  1275.2500    147.6002      0.0000    768.6897     10.2237
  1275.5000    142.9866      0.0000    771.8349      9.2901
  1275.7500    132.6543      0.0000    774.8204      8.2533
  1276.0000    117.2887      0.0000    778.3652      7.1867
  1276.2500     99.7470      0.0000    782.8549      6.1511
  1276.5000     83.7659      0.0000    788.2341      5.2010
  1276.7500     72.0857      0.0000    794.2992      4.3790
  1277.0000     65.0460      0.0000    800.7584      3.7053
  1277.2500     60.8214      0.0000    806.4785      3.1770
  1277.5000     57.3813      0.0000    808.6909      2.7777
  1277.7500     54.4693      0.0000    804.3846      2.4921
  1278.0000     53.4452      0.0000    793.5533      2.3139
  1278.2500     55.1628      0.0000    780.0687      2.2416
  1278.5000     58.3916      0.0000    768.2804      2.2666
  1278.7500     60.6763      0.0000    759.8053      2.3703
  1279.0000     60.6490      0.0000    754.4034      2.5334
  1279.2500     59.2047      0.0000    752.2409      2.7497
  1279.5000     58.4533      0.0000    753.9086      3.0266
  1279.7500     59.8533      0.0000    759.6900      3.3684
  1280.0000     63.2317      0.0000    770.3364      3.7558
  1280.2500     67.0402      0.0000    786.9189      4.1456
  1280.5000     69.4331      0.0000    808.0606      4.4996
  1280.7500     69.5645      0.0000    828.7552      4.8268
  1281.0000     68.2193      0.0000    843.7612      5.1893
  1281.2500     67.2158      0.0000    851.4733      5.6374
  1281.5000     68.0797      0.0000    853.7241      6.1196
  1281.7500     71.0025      0.0000    852.9920      6.4728
  1282.0000     74.6722      0.0000    851.1762      6.5411
  1282.2500     77.2164      0.0000    850.8068      6.3233
  1282.5000     77.9503      0.0000    855.4034      5.9965
  1282.7500     78.4899      0.0000    866.7426      5.7906
  1283.0000     81.8237      0.0000    881.9744      5.8362
  1283.2500     89.8267      0.0000    894.5978      6.1117
  1283.5000    101.4920      0.0000    898.6230      6.4942
  1283.7500    113.6622      0.0000    891.9985      6.8529
  1284.0000    123.6347      0.0000    877.0779      7.1319
  1284.2500    131.0015      0.0000    858.3629      7.3772
  1284.5000    136.9158      0.0000    839.5345      7.6898
  1284.7500    142.1181      0.0000    822.5429      8.1438
  1285.0000    146.4336      0.0000    809.2272      8.7400
  1285.2500    149.8995      0.0000    802.3192      9.4210
  1285.5000    153.1120      0.0000    803.9745     10.1118
  1285.7500    156.0830      0.0000    813.9324     10.7556
  1286.0000    157.7510      0.0000    829.8326     11.3345
  1286.2500    157.1510      0.0000    848.5157     11.8619
  1286.5000    154.3892      0.0000    865.5322     12.3397
  1286.7500    150.0922      0.0000    874.3478     12.7180
  1287.0000    144.6669      0.0000    869.4941     12.9036
  1287.2500    138.5973      0.0000    852.4210     12.8143
  1287.5000    132.9258      0.0000    832.9076     12.4368
  1287.7500    128.7970      0.0000    821.8109     11.8470
  1288.0000    126.6374      0.0000    821.0163     11.1716
  1288.2500    126.0159      0.0000    821.6946     10.5169
  1288.5000    126.0855      0.0000    813.9155      9.9285
  1288.7500    126.0976      0.0000    797.2591      9.4144
  1289.0000    125.9901      0.0000    781.2097      8.9863
  1289.2500    126.6161      0.0000    776.6237      8.6653
  1289.5000    128.8534      0.0000    787.7832      8.4638
  1289.7500    132.2907      0.0000    809.6336      8.3766
  1290.0000    135.2095      0.0000    829.9551      8.3838
  1290.2500    135.9984      0.0000    836.5480      8.4555
  1290.5000    134.4822      0.0000    826.6643      8.5566
  1290.7500    131.9343      0.0000    810.4562      8.6564
  1291.0000    129.5669      0.0000    803.2520      8.7419
  1291.2500    126.8042      0.0000    812.5708      8.8241
  1291.5000    121.6456      0.0000    831.8279      8.9316
  1291.7500    113.2520      0.0000    846.4639      9.0918
  1292.0000    103.7485      0.0000    846.3868      9.3088
  1292.2500     97.1065      0.0000    833.2026      9.5535
  1292.5000     96.5391      0.0000    817.2696      9.7799
  1292.7500    102.9435      0.0000    809.6395      9.9621
  1293.0000    114.9106      0.0000    815.7626     10.1186
  1293.2500    129.3391      0.0000    832.8503     10.2912
  1293.5000    142.2776      0.0000    850.8865     10.4933
  1293.7500    150.0683      0.0000    857.9984     10.6863
  1294.0000    150.5702      0.0000    848.1219     10.8100
  1294.2500    144.1334      0.0000    824.8688     10.8211
  1294.5000    133.9784      0.0000    798.0833     10.6934
  1294.7500    125.2075      0.0000    776.5681     10.4050
  1295.0000    122.2721      0.0000    763.5627      9.9495
  1295.2500    126.4257      0.0000    757.4828      9.3531
  1295.5000    135.1373      0.0000    755.1893      8.6723
  1295.7500    143.8442      0.0000    754.3085      7.9766
  1296.0000    148.8806      0.0000    753.7128      7.3256
  1296.2500    149.6054      0.0000    753.0864      6.7488
  1296.5000    147.8946      0.0000    752.4589      6.2470
  1296.7500    145.5479      0.0000    751.9327      5.8225
  1297.0000    142.6160      0.0000    751.5754      5.4979
  1297.2500    138.3177      0.0000    751.3994      5.2986
  1297.5000    132.8185      0.0000    751.3856      5.2230
  1297.7500    127.7594      0.0000    751.4996      5.2412
  1298.0000    125.4769      0.0000    751.6847      5.3180
  1298.2500    127.6659      0.0000    751.8661      5.4315
  1298.5000    133.8281      0.0000    751.9803      5.5689
  1298.7500    140.6835      0.0000    752.0027      5.7036
  1299.0000    144.0249      0.0000    751.9559      5.7848
  1299.2500    142.0047      0.0000    751.9042      5.7661
  1299.5000    136.5910      0.0000    751.9307      5.6481
  1299.7500    131.5591      0.0000    752.0894      5.4832
  1300.0000    129.1991      0.0000    752.3735      5.3350
  1300.2500    129.0859      0.0000    752.7323      5.2407
  1300.5000    129.4297      0.0000    753.1145      5.2078
  1300.7500    128.8949      0.0000    753.4932      5.2254
  1301.0000    127.2511      0.0000    753.8588      5.2686
  1301.2500    124.9825      0.0000    754.2021      5.3004
  1301.5000    122.8344      0.0000    754.5125      5.2839
  1301.7500    121.7985      0.0000    754.7905      5.2031
  1302.0000    122.9050      0.0000    755.0515      5.0733
  1302.2500    126.3015      0.0000    755.3117      4.9297
  1302.5000    130.6518      0.0000    755.5709      4.8062
  1302.7500    134.2892      0.0000    755.8145      4.7225
  1303.0000    137.1505      0.0000    756.0349      4.6825
  1303.2500    140.9229      0.0000    756.2491      4.6783
  1303.5000    146.9168      0.0000    756.4996      4.6993
