~Version Information
VERS.                      2.0: CWLS Log ASCII Standard - VERSION 2.0
WRAP.                       NO: One line per depth step
~Well Information Block
STRT.FT               962.7000: 
STOP.FT              2435.5000: 
STEP.FT                 0.1000: 
NULL.                -999.2500: 
COMP.          Petrogulf Corporation: COMPANY
WELL.              Hand 8-44 V: WELL
FLD.           Purgatorie River: FIELD
LOC.           1076' FEL & 820' FSL: LOCATION
CNTY.               Las Animas: COUNTY
SRVC.                         : SERVICE COMPANY
DATE.          Fri Nov 21 14:12:41 2003: LOG DATE
UWI.                          : UNIQUE WELL ID
STAT.                 Colorado: STATE
~Curve Information Block
DEPT.FT            0 000 00 00: Depth
DCAL.in                       : CDL Caliper
RHOB.g/cc                     : CDL Bulk Density
RHOC.g/cc                     : CDL Density Correction
DPOR.pu                       : CDL Density Porosity
GR.GAPI                       : Gamma Ray
NPOR.pu                       : Neutron Porosity
~Parameter Information Block
~A  Depth       DCAL        RHOB        RHOC        DPOR         GR         NPOR    
# ...
  1749.9000      8.1842      2.4936      0.0732      9.4801    129.1192     26.3878
  1750.0000      8.1939      2.5166     -0.0048      8.0823    125.3106     26.6936
  1750.1000      8.1939      2.5462      0.0894      6.2880    125.8477     27.1484
  1750.2000      8.1939      2.5627      0.0930      5.2900    129.3705     27.3411
  1750.3000      8.1950      2.5899      0.0707      3.6444    134.3638     27.3346
  1750.4000      8.1950      2.6482      0.2827      0.1081    139.4716     27.4752
  1750.5000      8.1982      2.7054      0.3424     -3.3600    143.0699     27.7802
  1750.6000      8.1982      2.7164      0.3795     -4.0227    141.1609     27.9061
  1750.7000      8.1982      2.6750      0.2216     -1.5127    135.1136     27.6021
  1750.8000      8.2362      2.6213      0.1130      1.7392    133.3575     27.1476
  1750.9000      8.2362      2.5980      0.0658      3.1524    137.0272     26.9867
  1751.0000      8.3347      2.6081      0.1299      2.5392    139.3239     27.0520
  1751.1000      8.3347      2.6311      0.1183      1.1446    136.4679     27.0761
  1751.2000      8.3347      2.6573      0.1965     -0.4451    131.1652     26.8359
  1751.3000      8.2472      2.6808      0.2145     -1.8643    128.2407     26.4072
  1751.4000      8.2472      2.6843      0.2699     -2.0762    128.5719     26.0732
  1751.5000      8.2034      2.6654      0.1219     -0.9306    126.2517     25.8636
  1751.6000      8.2034      2.6422      0.1654      0.4729    117.9128     25.6808
  1751.7000      8.2034      2.6122      0.1005      2.2916    112.0070     25.4305
  1751.8000      8.1384      2.5691      0.0411      4.9006    116.8747     25.2722
  1751.9000      8.1384      2.5366     -0.0094      6.8734    122.6617     25.3911
  1752.0000      8.1582      2.5373      0.0057      6.8307    119.3626     25.5994
  1752.1000      8.1582      2.5540      0.0655      5.8185    116.6377     25.7664
  1752.2000      8.1582      2.5536      0.1048      5.8413    119.7520     25.8326
  1752.3000      8.1821      2.5472     -0.0182      6.2280    121.3562     25.7305
  1752.4000      8.1821      2.5657      0.1302      5.1119    121.6415     25.6269
  1752.5000      8.2418      2.5864      0.1987      3.8573    128.9149     25.5572
  1752.6000      8.2418      2.5720      0.1419      4.7261    140.8169     25.1578
  1752.7000      8.2418      2.5264      0.1211      7.4904    145.9201     24.5000
  1752.8000      8.3266      2.4714      0.1128     10.8256    145.1586     24.3489
  1752.9000      8.3266      2.4316      0.1286     13.2380    148.3524     24.7411
  1753.0000      8.3467      2.4289      0.0936     13.4009    153.2419     24.9032
  1753.1000      8.3467      2.4530      0.1703     11.9414    153.8346     24.4119
  1753.2000      8.3467      2.4668      0.1528     11.1006    153.2157     23.4518
  1753.3000      8.3438      2.4658      0.1116     11.1643    152.9192     22.6754
  1753.4000      8.3438      2.4768      0.0924     10.4999    153.5877     22.9559
  1753.5000      8.3898      2.5017      0.1990      8.9887    157.1453     24.4409
  1753.6000      8.3898      2.5245      0.2649      7.6031    163.3375     26.2941
  1753.7000      8.3898      2.5569      0.2624      5.6424    169.4749     27.5129
  1753.8000      8.3764      2.6117      0.3787      2.3241    173.6026     28.2385
  1753.9000      8.3764      2.6507      0.5009     -0.0450    176.6076     29.3601
  1754.0000      8.3685      2.6380      0.3204      0.7248    178.7654     30.6875
  1754.1000      8.3685      2.6091      0.1683      2.4816    176.0098     31.3922
  1754.2000      8.3685      2.6128      0.2410      2.2541    166.5937     31.1407
  1754.3000      8.3899      2.6532      0.2693     -0.1922    156.1350     30.5881
  1754.4000      8.3899      2.7078      0.3101     -3.5050    149.8954     30.4957
  1754.5000      8.3820      2.7422      0.3202     -5.5850    147.2638     30.5376
  1754.6000      8.3820      2.7344      0.2711     -5.1126    143.8396     30.2085
  1754.7000      8.3820      2.7005      0.2216     -3.0594    139.1178     29.5589
  1754.8000      8.3726      2.6648      0.1531     -0.8998    134.8812     28.8171
  1754.9000      8.3726      2.6261      0.1782      1.4457    130.0176     28.0658
  1755.0000      8.2643      2.5882      0.0585      3.7445    123.9161     27.2032
  1755.1000      8.2643      2.5816     -0.0031      4.1443    116.9501     26.0359
  1755.2000      8.2643      2.6041      0.0836      2.7805    109.0950     24.5696
  1755.3000      8.2282      2.6109      0.0866      2.3708    103.8627     23.5353
  1755.4000      8.2282      2.5809      0.0473      4.1871    104.7725     23.5585
  1755.5000      8.1430      2.5379      0.0470      6.7965    107.6802     24.0666
  1755.6000      8.1430      2.5106      0.0426      8.4473    107.0985     24.4120
  1755.7000      8.1430      2.5032      0.0376      8.8994    102.4498     24.5828
  1755.8000      8.1701      2.5089      0.0149      8.5545     94.5882     24.6518
  1755.9000      8.1701      2.5318      0.0336      7.1650     88.8204     24.9354
  1756.0000      8.1885      2.5645      0.1054      5.1839     92.1061     25.6514
  1756.1000      8.1885      2.5848      0.1143      3.9517    101.0674     26.5647
  1756.2000      8.1885      2.5927      0.1444      3.4721    109.7017     27.3056
  1756.3000      8.1823      2.6071      0.1728      2.6013    119.2198     27.6307
  1756.4000      8.1823      2.6260      0.2849      1.4541    128.7375     27.4984
  1756.5000      8.1991      2.6360      0.1847      0.8479    130.0832     26.9616
  1756.6000      8.1991      2.6419      0.1776      0.4896    121.2057     26.3081
  1756.7000      8.1991      2.6447      0.1626      0.3207    111.3012     25.8994
  1756.8000      8.2617      2.6271      0.1216      1.3885    109.4894     25.7807
  1756.9000      8.2617      2.5906      0.0224      3.6006    113.6569     25.9756
  1757.0000      8.2471      2.5673      0.0087      5.0098    115.7304     26.4022
  1757.1000      8.2471      2.5809      0.0060      4.1892    114.1232     26.8072
  1757.2000      8.2471      2.6162      0.1022      2.0509    112.2798     27.1667
  1757.3000      8.2119      2.6357      0.1150      0.8652    111.9447     27.6380
  1757.4000      8.2119      2.6321      0.0699      1.0876    113.4275     28.1563
  1757.5000      8.1941      2.6208      0.1439      1.7717    113.4126     28.2932
  1757.6000      8.1941      2.6093      0.1104      2.4639    111.3578     27.9015
  1757.7000      8.1941      2.6140      0.0408      2.1832    111.0369     27.4042
  1757.8000      8.1804      2.6432      0.1485      0.4118    109.8386     27.0868
  1757.9000      8.1804      2.6742      0.1896     -1.4661    104.5325     26.6795
  1758.0000      8.1751      2.6886      0.1286     -2.3386     98.2490     26.1625
  1758.1000      8.1751      2.6812      0.1710     -1.8935     96.6442     25.9842
  1758.2000      8.1751      2.6584      0.1171     -0.5105    101.2983     26.2053
  1758.3000      8.1910      2.6503      0.1197     -0.0199    108.0389     26.5023
  1758.4000      8.1910      2.6690      0.1242     -1.1510    114.8119     26.7184
  1758.5000      8.1903      2.6842      0.2196     -2.0711    120.3444     26.9421
  1758.6000      8.1903      2.6683      0.1168     -1.1075    121.4522     27.3429
  1758.7000      8.1903      2.6309      0.1145      1.1555    118.4340     27.8338
  1758.8000      8.2004      2.5905      0.0696      3.6041    113.6329     28.2459
  1758.9000      8.2004      2.5532      0.0327      5.8682    110.3449     28.5499
  1759.0000      8.2070      2.5237      0.0080      7.6574    110.6987     28.6244
  1759.1000      8.2070      2.5078      0.0732      8.6161    111.7489     28.3124
  1759.2000      8.2070      2.5044      0.0880      8.8247    112.1298     27.7561
  1759.3000      8.1842      2.5134      0.0108      8.2807    114.4400     27.2927
  1759.4000      8.1842      2.5531      0.0142      5.8751    121.2156     27.2257
