~Version Information
 VERS.                                  2.0 : CWLS LAS VERSION
 WRAP.                                   NO : WRAPING MODE
 SWARE .                 MController 2.5.0J : SOFTWARE VERSION
~Well Information
 WELL.                       Vision 31-11Tr : WELL
 COMP.    Pioneer Natural Resources USA Inc : COMPANY
 FLD.                      Purgatoire River : FIELD
 LOC.                 NW/NE SEC11 T32S R66W : LOCATION
 DATE.                             10/07/05 : DATE(S) LOGGED
 SRVC.       Blanco Geological Services LLC : SERVICE COMPANY
 STAT.                             Colorado : STATE
 CNTY.                           Las Animas : COUNTY
 CTRY.                                  USA : COUNTRY
 API.                       05-071-08305-00 : API NUMBER
 STRT.FT                             408.00 : START DEPTH
 STOP.FT                            1824.00 : STOP DEPTH
 STEP.FT                               1.00 : DEPTH INCREMENT
 NULL.                                -9999 : NULL VALUE
~Curve information
 DEPTH.FT                                   :
 ROP.MIN/FT                                 :
 GAS.UNITS                                  :
~ASCII Log data
# ...
      1208.0         0.30         80.2 
      1209.0         0.37         76.7 
      1210.0         0.27         73.8 
      1211.0         0.33         73.0 
      1212.0         0.33         72.2 
      1213.0         0.43         71.0 
      1214.0         0.35         69.8 
      1215.0         0.27         69.8 
      1216.0         0.23         69.5 
      1217.0         0.27         69.8 
      1218.0         0.27         69.6 
      1219.0         0.27         69.7 
      1220.0         0.27         69.3 
      1221.0         0.20         69.1 
      1222.0         0.20         66.5 
      1223.0         0.23         64.9 
      1224.0         0.27         64.3 
      1225.0         0.23         62.6 
      1226.0         1.02         60.8 
      1227.0         0.10         53.9 
      1228.0         0.27         64.4 
      1229.0         0.47         89.2 
      1230.0         0.23         95.1 
      1231.0         0.13         97.5 
      1232.0         0.27         95.7 
      1233.0         0.30         93.9 
      1234.0         0.20         91.1 
      1235.0         0.17         88.8 
      1236.0         0.13         87.2 
      1237.0         0.17         87.2 
      1238.0         0.13         87.7 
      1239.0         0.07         87.7 
      1240.0         0.28         91.0 
      1241.0         0.23         93.9 
      1242.0         0.23         94.7 
      1243.0         0.23         92.6 
      1244.0         0.20         92.2 
      1245.0         0.27         85.3 
      1246.0         0.17         84.4 
      1247.0         0.20         82.4 
      1248.0         0.37         78.8 
      1249.0         0.17         76.5 
      1250.0         0.27         76.5 
      1251.0         0.17         77.7 
      1252.0         0.33         77.9 
      1253.0         0.23         77.9 
      1254.0         0.32         76.7 
      1255.0         0.17         74.1 
      1256.0         2.33        146.7 
      1257.0         0.33        153.4 
      1258.0         0.58        153.6 
      1259.0         0.33        140.5 
      1260.0         0.33        128.4 
      1261.0         0.33        114.1 
      1262.0         0.30        102.3 
      1263.0         0.30         93.4 
      1264.0         0.30         88.6 
      1265.0         0.30         84.1 
      1266.0         0.30         77.5 
      1267.0         0.30         75.4 
      1268.0         0.32         74.3 
      1269.0         0.27         70.7 
      1270.0         0.30         68.7 
      1271.0         0.13         68.9 
      1272.0         0.23         70.0 
      1273.0         0.30         70.7 
      1274.0         0.27         72.6 
      1275.0         0.30         73.9 
      1276.0         0.23         74.7 
      1277.0         0.27         75.4 
      1278.0         0.30         82.4 
      1279.0         0.30         87.6 
      1280.0         0.35         90.2 
      1281.0         0.27         89.7 
      1282.0         0.30         89.4 
      1283.0         0.23         87.0 
      1284.0         0.27         84.5 
      1285.0         0.27         81.1 
      1286.0         1.93        132.8 
      1287.0         0.12        144.3 
      1288.0         0.37        148.5 
      1289.0         0.33        148.0 
      1290.0         0.27        147.8 
      1291.0         0.27        142.2 
      1292.0         0.30        131.7 
      1293.0         0.30        118.1 
      1294.0         0.33        106.0 
      1295.0         0.33         99.2 
      1296.0         0.33         94.5 
      1297.0         0.30         90.1 
      1298.0         0.22         89.8 
      1299.0         0.23         87.7 
      1300.0         0.30         88.8 
      1301.0         0.33         94.1 
      1302.0         0.33         97.0 
      1303.0         0.33         97.1 
      1304.0         0.33         96.1 
      1305.0         0.33         94.3 
      1306.0         0.33         92.6 
      1307.0         0.37         90.7 
      1308.0         0.33         89.2 
      1309.0         0.35         87.9 
      1310.0         0.33         86.2 
      1311.0         0.33         86.0 
      1312.0         0.33         85.8 
      1313.0         0.33         86.0 
      1314.0         0.30         82.4 
      1315.0         0.33         82.5 
      1316.0         1.12         79.6 
      1317.0         0.77        119.1 
      1318.0         0.33        154.6 
      1319.0         0.30        164.9 
      1320.0         0.23        161.0 
      1321.0         0.20        159.9 
      1322.0         0.17        143.9 
      1323.0         0.23        133.0 
      1324.0         0.37        117.8 
      1325.0         0.30        104.4 
      1326.0         0.27        102.1 
      1327.0         0.28        101.8 
      1328.0         0.30         99.5 
      1329.0         0.20         93.8 
      1330.0         0.27         93.8 
      1331.0         0.27         90.5 
      1332.0         0.23         83.9 
      1333.0         0.23         83.9 
      1334.0         0.27         83.9 
      1335.0         0.17         79.9 
      1336.0         0.10         79.9 
      1337.0         0.13         80.4 
      1338.0         0.23         80.4 
      1339.0         0.30         84.1 
      1340.0         0.27         86.7 
      1341.0         0.28         89.0 
      1342.0         0.30         90.2 
      1343.0         0.30         89.6 
      1344.0         0.30         87.6 
      1345.0         0.33         85.7 
      1346.0         1.53         96.2 
      1347.0         0.33        113.0 
      1348.0         0.38        127.5 
      1349.0         0.37        137.8 
      1350.0         0.27        136.4 
      1351.0         0.17        123.2 
      1352.0         0.23        116.1 
      1353.0         0.20        112.2 
      1354.0         0.23        104.4 
      1355.0         0.27         99.7 
      1356.0         0.27         95.4 
      1357.0         0.23         93.8 
      1358.0         0.17         94.0 
      1359.0         0.17         92.3 
      1360.0         0.17         92.3 
      1361.0         0.23         95.2 
      1362.0         0.28        103.6 
      1363.0         0.23        105.0 
      1364.0         0.20        105.2 
      1365.0         0.23        104.7 
      1366.0         0.23        106.1 
      1367.0         0.17        114.0 
      1368.0         0.23        147.2 
      1369.0         0.20        196.2 
      1370.0         0.23        239.1 
      1371.0         0.23        244.6 
      1372.0         0.23        283.3 
      1373.0         0.20        317.6 
      1374.0         0.17        351.7 
      1375.0         0.20        351.7 
      1376.0         1.38        908.9 
      1377.0         0.40       1052.7 
      1378.0         0.30       1155.2 
      1379.0         0.20       1200.3 
      1380.0         0.27       1204.1 
      1381.0         0.20       1170.0 
      1382.0         0.13       1090.4 
      1383.0         0.13       1090.4 
      1384.0         0.30       1059.8 
      1385.0         0.27        953.7 
      1386.0         0.20        901.9 
      1387.0         0.22        874.1 
      1388.0         0.13        856.1 
      1389.0         0.30        854.8 
      1390.0         0.43        834.2 
      1391.0         0.37        809.4 
      1392.0         0.37        762.3 
      1393.0         0.43        664.0 
      1394.0         0.33        580.9 
      1395.0         0.27        531.9 
      1396.0         0.17        521.3 
      1397.0         0.17        490.6 
      1398.0         0.28        466.8 
      1399.0         0.17        445.2 
      1400.0         0.23        440.0 
      1401.0         0.17        440.0 
      1402.0         0.33        205.8 
      1403.0         0.33        216.8 
      1404.0         0.20        216.4 
      1405.0         0.37        213.6 
      1406.0         1.78       1174.8 
      1407.0         0.33       1473.6 
