~Version Information
VERS.                      2.0: CWLS Log ASCII Standard - VERSION 2.0
WRAP.                       NO: One line per depth step
~Well Information Block
STRT.FT               530.0000: 
STOP.FT              1825.0000: 
STEP.FT                 0.1000: 
NULL.                -999.2500: 
COMP.          Pioneer Natural Resources: COMPANY
WELL.          Vision 31-11 Tr: WELL
FLD.           Purgatoire River: FIELD
LOC.           742' FNL & 1593' FEL: LOCATION
STAT.                 Colorado: State
CNTY.               Las Animas: COUNTY
CTRY. USA : Country
SECT. 11 : Section
TOWN. 32S : Township
RANG. 66W : Range
SRVC.                Patterson: SERVICE COMPANY
DATE.          Mon Oct 10 07:17:32 2005: LOG DATE
API.           05 071 08305 00: UNIQUE WELL ID
~Curve Information Block
DEPT.FT            0 000 00 00: Depth
DCAL.in                       : CDL Caliper
RHOB.g/cc                     : CDL Bulk Density
RHOC.g/cc                     : CDL Density Correction
DPOR.pu                       : CDL Density Porosity
GR.GAPI                       : Gamma Ray
NPOR.pu                       : Neutron Porosity
~Parameter Information Block
~A  Depth       DCAL        RHOB        RHOC        DPOR         GR         NPOR    
# ...
  1038.8000      8.5544      2.4985      0.0473      9.1790    146.8881     24.3733
  1038.9000      8.5544      2.5139      0.0730      8.2503    144.7307     23.9452
  1039.0000      8.5460      2.5138     -0.0008      8.2566    143.9970     24.0260
  1039.1000      8.5460      2.5135      0.0033      8.2709    144.2325     24.6575
  1039.2000      8.5460      2.5176      0.0506      8.0226    146.8347     25.2384
  1039.3000      8.5553      2.5138      0.0274      8.2532    149.5298     25.3703
  1039.4000      8.5553      2.5072     -0.0031      8.6525    147.5781     24.9940
  1039.5000      8.6406      2.5112      0.0414      8.4151    142.5521     24.5272
  1039.6000      8.6406      2.5166      0.0769      8.0851    138.4722     24.4145
  1039.7000      8.6406      2.5163      0.0657      8.1019    136.2319     24.4938
  1039.8000      8.5683      2.5212      0.0402      7.8047    134.7533     24.5882
  1039.9000      8.5683      2.5258      0.0557      7.5280    135.3553     24.6800
  1040.0000      8.5360      2.5130      0.0369      8.3015    141.2278     24.4614
  1040.1000      8.5360      2.4853      0.0355      9.9840    150.5161     24.0283
  1040.2000      8.5360      2.4501      0.0168     12.1140    154.2729     23.9832
  1040.3000      8.5543      2.4185     -0.0276     14.0316    147.5721     24.4863
  1040.4000      8.5543      2.4145     -0.0488     14.2719    136.5092     25.1983
  1040.5000      8.5460      2.4489     -0.0041     12.1850    129.8720     25.7122
  1040.6000      8.5460      2.4954      0.0761      9.3684    131.4465     25.8390
  1040.7000      8.5460      2.5148      0.0886      8.1922    137.8350     25.7371
  1040.8000      8.5576      2.5046      0.0221      8.8142    142.9723     25.5823
  1040.9000      8.5576      2.4958      0.0306      9.3427    145.1252     25.4081
  1041.0000      8.5404      2.5028      0.0440      8.9222    145.3260     25.3602
  1041.1000      8.5404      2.5163      0.0473      8.1018    141.7228     25.4513
  1041.2000      8.5404      2.5264      0.0893      7.4910    135.1654     25.3116
  1041.3000      8.5453      2.5359      0.0015      6.9127    132.1407     24.8704
  1041.4000      8.5453      2.5546      0.0784      5.7800    134.6246     24.6550
  1041.5000      8.4443      2.5643      0.1058      5.1966    136.5154     24.6812
  1041.6000      8.4443      2.5371      0.0823      6.8404    135.6169     24.2665
  1041.7000      8.4443      2.4839      0.0307     10.0668    139.1691     23.5358
  1041.8000      8.3146      2.4433     -0.0138     12.5248    148.2240     23.4431
  1041.9000      8.3146      2.4369      0.0203     12.9170    151.5711     24.1241
  1042.0000      8.3201      2.4579      0.0069     11.6397    144.4077     24.8488
  1042.1000      8.3201      2.4873      0.0514      9.8581    138.1078     25.1149
  1042.2000      8.3201      2.5079      0.0684      8.6101    141.7879     24.6952
  1042.3000      8.2853      2.5192      0.0689      7.9255    152.2951     23.9109
  1042.4000      8.2853      2.5267      0.1082      7.4712    162.8957     23.6740
  1042.5000      8.2803      2.5362      0.1046      6.8987    165.8666     24.3578
  1042.6000      8.2803      2.5632      0.1211      5.2597    160.6892     25.3480
  1042.7000      8.2803      2.6100      0.1781      2.4243    155.4800     25.8649
  1042.8000      8.2517      2.6480      0.2478      0.1205    153.0054     25.7992
  1042.9000      8.2517      2.6532      0.1811     -0.1957    152.1184     25.5435
  1043.0000      8.2170      2.6344      0.1117      0.9445    154.3393     25.3559
  1043.1000      8.2170      2.6118      0.1000      2.3147    158.1493     25.1805
  1043.2000      8.2170      2.5952      0.1358      3.3240    157.1690     24.9671
  1043.3000      8.1886      2.5860      0.1057      3.8782    149.6152     24.6904
  1043.4000      8.1886      2.5797      0.0800      4.2612    139.3154     24.3041
  1043.5000      8.1769      2.5665      0.0927      5.0610    130.4334     24.2127
  1043.6000      8.1769      2.5411      0.0879      6.6016    126.0199     24.5963
  1043.7000      8.1769      2.5108      0.0339      8.4373    123.6886     24.6819
  1043.8000      8.1994      2.4912      0.0201      9.6272    119.4211     24.0568
  1043.9000      8.1994      2.4869     -0.0008      9.8844    116.0339     23.3505
  1044.0000      8.2077      2.4894      0.0225      9.7334    120.4469     23.2716
  1044.1000      8.2077      2.4913      0.0172      9.6165    132.2971     23.6660
  1044.2000      8.2077      2.4967      0.0088      9.2915    140.2917     23.9163
  1044.3000      8.2107      2.5042      0.0247      8.8346    136.5936     23.7805
  1044.4000      8.2107      2.4969      0.0526      9.2809    129.5714     23.2502
  1044.5000      8.2094      2.4719     -0.0174     10.7922    129.5370     22.8223
  1044.6000      8.2094      2.4483      0.0053     12.2252    135.0410     23.1116
  1044.7000      8.2094      2.4410      0.0034     12.6661    137.1114     23.6237
  1044.8000      8.2157      2.4564     -0.0161     11.7336    134.3269     23.7240
  1044.9000      8.2157      2.4811      0.0219     10.2354    131.4449     23.7585
  1045.0000      8.2028      2.4816      0.0709     10.2065    129.3774     24.0166
  1045.1000      8.2028      2.4533     -0.0211     11.9232    126.2882     24.2822
  1045.2000      8.2028      2.4323     -0.0606     13.1935    122.4382     24.3914
  1045.3000      8.1992      2.4379      0.0098     12.8553    119.5504     24.5861
  1045.4000      8.1992      2.4534      0.0390     11.9171    117.3827     25.2465
  1045.5000      8.2108      2.4635     -0.0155     11.3001    117.7954     26.0743
  1045.6000      8.2108      2.4721     -0.0059     10.7809    123.6183     26.3218
  1045.7000      8.2108      2.4922     -0.0293      9.5624    131.7726     26.1037
  1045.8000      8.2128      2.5272      0.0359      7.4430    138.2264     26.0254
  1045.9000      8.2128      2.5613      0.0408      5.3779    142.5368     26.1038
  1046.0000      8.1978      2.5851      0.0343      3.9339    144.2755     26.0020
  1046.1000      8.1978      2.6014      0.0711      2.9440    143.1965     25.8990
  1046.2000      8.1978      2.6131      0.0317      2.2393    142.3270     26.0890
  1046.3000      8.1659      2.6158      0.0978      2.0739    144.2838     26.2649
  1046.4000      8.1659      2.6003      0.0384      3.0128    144.4051     26.1708
  1046.5000      8.1730      2.5696      0.0347      4.8757    139.1253     25.7049
  1046.6000      8.1730      2.5302     -0.0345      7.2619    130.0866     25.0527
  1046.7000      8.1730      2.4915     -0.0400      9.6070    120.8102     24.6785
  1046.8000      8.1583      2.4730     -0.0312     10.7294    116.3577     24.5332
  1046.9000      8.1583      2.4839      0.0192     10.0667    117.3399     24.3348
  1047.0000      8.1745      2.5097      0.0518      8.5003    119.5122     24.1318
  1047.1000      8.1745      2.5292      0.1165      7.3191    122.3210     23.9189
  1047.2000      8.1745      2.5392      0.0831      6.7176    124.5586     23.6474
  1047.3000      8.1750      2.5483      0.1160      6.1616    123.6849     23.4046
  1047.4000      8.1750      2.5595      0.1423      5.4848    122.0226     23.2891
  1047.5000      8.1766      2.5792      0.1059      4.2907    121.4627     23.3275
  1047.6000      8.1766      2.6136      0.1249      2.2066    120.2513     23.5409
  1047.7000      8.1766      2.6454      0.1664      0.2773    116.0847     23.9198
  1047.8000      8.1537      2.6474      0.2313      0.1546    111.9456     24.4229
  1047.9000      8.1537      2.6253      0.1339      1.4958    114.4897     24.8419
  1048.0000      8.1493      2.6131      0.1140      2.2376    121.4810     24.8452
  1048.1000      8.1493      2.6158      0.1399      2.0724    124.3660     24.4094
  1048.2000      8.1493      2.6037      0.1479      2.8042    121.9496     24.0115
  1048.3000      8.1533      2.5684      0.0702      4.9439    118.9065     24.1651
