~Version Information
VERS.                      2.0: CWLS Log ASCII Standard - VERSION 2.0
WRAP.                       NO: One line per depth step
~Well Information Block
STRT.FT               392.5000: 
STOP.FT              2252.6000: 
STEP.FT                 0.1000: 
NULL.                -999.2500: 
COMP.          Petrogulf Corporation: COMPANY
WELL.          Alexander 9-43V: WELL
FLD.           Purgatorie River: FIELD
LOC.           1651' FSL & 1081' FEL: LOCATION
CNTY.               Las Animas: COUNTY
SRVC.                         : SERVICE COMPANY
DATE.          Mon Mar 17 08:48:25 2003: LOG DATE
UWI.           05 071 07727 00: UNIQUE WELL ID
STAT.                 Colorado: STATE
~Curve Information Block
DEPT.FT            0 000 00 00: Depth
DCAL.in                       : CDL Caliper
RHOB.g/cc                     : CDL Bulk Density
RHOC.g/cc                     : CDL Density Correction
DPOR.pu                       : CDL Density Porosity
GR.GAPI                       : Gamma Ray
NPOR.pu                       : Neutron Porosity
~Parameter Information Block
~A  Depth       DCAL        RHOB        RHOC        DPOR         GR         NPOR    
# ...
   786.1000      8.1315      2.5217      0.0725      7.7744    157.4137     26.7379
   786.2000      8.1315      2.5243      0.0742      7.6175    157.4137     27.0331
   786.3000      8.1396      2.5278      0.0761      7.4074    161.0307     27.3217
   786.4000      8.1396      2.5320      0.0778      7.1508    161.0307     27.5955
   786.5000      8.1461      2.5369      0.0789      6.8563    161.6330     27.8459
   786.6000      8.1461      2.5422      0.0793      6.5339    161.6330     28.0648
   786.7000      8.1461      2.5478      0.0788      6.1942    161.6330     28.2447
   786.8000      8.1386      2.5535      0.0772      5.8481    159.1718     28.3802
   786.9000      8.1386      2.5592      0.0747      5.5057    159.1718     28.4676
   787.0000      8.1300      2.5646      0.0714      5.1758    154.4303     28.5063
   787.1000      8.1300      2.5697      0.0677      4.8658    154.4303     28.4982
   787.2000      8.1300      2.5744      0.0640      4.5814    154.4303     28.4471
   787.3000      8.1290      2.5786      0.0605      4.3263    149.2737     28.3590
   787.4000      8.1290      2.5823      0.0575      4.1025    149.2737     28.2403
   787.5000      8.1321      2.5855      0.0552      3.9108    145.5793     28.0972
   787.6000      8.1321      2.5881      0.0536      3.7505    145.5793     27.9358
   787.7000      8.1321      2.5903      0.0526      3.6204    145.5793     27.7608
   787.8000      8.1378      2.5919      0.0520      3.5189    143.7711     27.5768
   787.9000      8.1378      2.5932      0.0516      3.4443    143.7711     27.3881
   788.0000      8.1486      2.5940      0.0513      3.3948    142.7134     27.1996
   788.1000      8.1486      2.5944      0.0510      3.3694    142.7134     27.0174
   788.2000      8.1486      2.5944      0.0505      3.3673    142.7134     26.8488
   788.3000      8.1661      2.5941      0.0502      3.3880    141.1721     26.7015
   788.4000      8.1661      2.5934      0.0500      3.4316    141.1721     26.5831
   788.5000      8.1884      2.5923      0.0502      3.4982    139.1340     26.4995
   788.6000      8.1884      2.5908      0.0509      3.5881    139.1340     26.4542
   788.7000      8.1884      2.5889      0.0523      3.7012    139.1340     26.4477
   788.8000      8.2260      2.5867      0.0543      3.8371    137.5502     26.4773
   788.9000      8.2260      2.5841      0.0567      3.9944    137.5502     26.5381
   789.0000      8.2723      2.5812      0.0592      4.1708    137.0193     26.6238
   789.1000      8.2723      2.5780      0.0616      4.3624    137.0193     26.7277
   789.2000      8.2723      2.5747      0.0634      4.5642    137.0193     26.8445
   789.3000      8.2953      2.5713      0.0646      4.7695    137.0282     26.9697
   789.4000      8.2953      2.5680      0.0647      4.9701    137.0282     27.1011
   789.5000      8.2824      2.5649      0.0638      5.1568    136.4764     27.2376
   789.6000      8.2824      2.5622      0.0620      5.3196    136.4764     27.3787
   789.7000      8.2824      2.5601      0.0593      5.4478    136.4764     27.5242
   789.8000      8.2661      2.5587      0.0561      5.5316    134.7156     27.6730
   789.9000      8.2661      2.5582      0.0527      5.5619    134.7156     27.8225
   790.0000      8.2554      2.5587      0.0493      5.5312    132.0002     27.9684
   790.1000      8.2554      2.5603      0.0462      5.4345    132.0002     28.1048
   790.2000      8.2554      2.5630      0.0437      5.2697    132.0002     28.2250
   790.3000      8.2424      2.5669      0.0419      5.0379    129.1082     28.3223
   790.4000      8.2424      2.5717      0.0410      4.7435    129.1082     28.3912
   790.5000      8.2333      2.5775      0.0407      4.3943    126.7199     28.4288
   790.6000      8.2333      2.5840      0.0411      4.0014    126.7199     28.4353
   790.7000      8.2333      2.5910      0.0420      3.5779    126.7199     28.4144
   790.8000      8.2275      2.5982      0.0433      3.1390    125.1029     28.3729
   790.9000      8.2275      2.6054      0.0448      2.7011    125.1029     28.3197
   791.0000      8.2202      2.6124      0.0463      2.2801    124.1230     28.2649
   791.1000      8.2202      2.6188      0.0476      1.8916    124.1230     28.2176
   791.2000      8.2202      2.6244      0.0487      1.5490    124.1230     28.1856
   791.3000      8.2083      2.6291      0.0494      1.2638    123.4260     28.1738
   791.4000      8.2083      2.6328      0.0496      1.0443    123.4260     28.1846
   791.5000      8.1888      2.6352      0.0492      0.8957    122.6742     28.2171
   791.6000      8.1888      2.6365      0.0481      0.8205    122.6742     28.2687
   791.7000      8.1888      2.6365      0.0464      0.8173    122.6742     28.3348
   791.8000      8.1628      2.6354      0.0442      0.8828    121.7663     28.4100
   791.9000      8.1628      2.6333      0.0415      1.0110    121.7663     28.4888
   792.0000      8.1379      2.6303      0.0384      1.1944    120.9897     28.5660
   792.1000      8.1379      2.6265      0.0353      1.4241    120.9897     28.6367
   792.2000      8.1379      2.6221      0.0321      1.6907    120.9897     28.6970
   792.3000      8.1258      2.6173      0.0292      1.9845    120.9377     28.7434
   792.4000      8.1258      2.6121      0.0267      2.2961    120.9377     28.7738
   792.5000      8.1244      2.6068      0.0247      2.6166    122.0418     28.7870
   792.6000      8.1244      2.6015      0.0232      2.9384    122.0418     28.7828
   792.7000      8.1244      2.5963      0.0225      3.2545    122.0418     28.7626
   792.8000      8.1255      2.5913      0.0223      3.5597    124.1004     28.7285
   792.9000      8.1255      2.5865      0.0228      3.8502    124.1004     28.6844
   793.0000      8.1257      2.5820      0.0238      4.1234    126.3739     28.6339
   793.1000      8.1257      2.5778      0.0250      4.3786    126.3739     28.5813
   793.2000      8.1257      2.5738      0.0262      4.6159    126.3739     28.5301
   793.3000      8.1240      2.5702      0.0272      4.8365    128.1310     28.4825
   793.4000      8.1240      2.5668      0.0276      5.0422    128.1310     28.4395
   793.5000      8.1188      2.5636      0.0274      5.2352    129.0683     28.4009
   793.6000      8.1188      2.5606      0.0263      5.4176    129.0683     28.3651
   793.7000      8.1188      2.5577      0.0245      5.5910    129.0683     28.3298
   793.8000      8.1116      2.5550      0.0220      5.7568    129.2930     28.2921
   793.9000      8.1116      2.5524      0.0191      5.9155    129.2930     28.2490
   794.0000      8.1078      2.5499      0.0160      6.0673    128.8850     28.1981
   794.1000      8.1078      2.5475      0.0132      6.2120    128.8850     28.1369
   794.2000      8.1078      2.5452      0.0109      6.3493    128.8850     28.0638
   794.3000      8.1078      2.5431      0.0094      6.4795    127.4228     27.9778
   794.4000      8.1078      2.5410      0.0088      6.6034    127.4228     27.8781
   794.5000      8.1092      2.5391      0.0092      6.7231    124.1924     27.7641
   794.6000      8.1092      2.5371      0.0104      6.8419    124.1924     27.6350
   794.7000      8.1092      2.5351      0.0123      6.9650    124.1924     27.4898
   794.8000      8.1108      2.5329      0.0147      7.0991    119.1740     27.3269
   794.9000      8.1108      2.5303      0.0173      7.2523    119.1740     27.1439
   795.0000      8.1097      2.5273      0.0198      7.4340    113.6518     26.9382
   795.1000      8.1097      2.5237      0.0221      7.6545    113.6518     26.7065
   795.2000      8.1097      2.5193      0.0240      7.9241    113.6518     26.4459
   795.3000      8.1026      2.5138      0.0252      8.2522    109.4586     26.1539
   795.4000      8.1026      2.5073      0.0259      8.6468    109.4586     25.8298
   795.5000      8.0949      2.4996      0.0259      9.1135    107.6412     25.4749
   795.6000      8.0949      2.4907      0.0254      9.6543    107.6412     25.0942
