~Version Information
VERS.                      2.0: CWLS Log ASCII Standard - VERSION 2.0
WRAP.                       NO: One line per depth step
~Well Information Block
STRT.FT               298.0000: 
STOP.FT              1325.5000: 
STEP.FT                 0.2500: 
NULL.                -999.2500: 
COMP.          Pioneer Natural Resources: COMPANY
WELL.          Santa Fe 43-27 Tr: WELL
FLD.           Purgatoire River: FIELD
LOC.           2018' FSL & 534' FEL: LOCATION
PROV.                 Colorado: PROVINCE
CNTY.               Las Animas: COUNTRY
SRVC.                Patterson: SERVICE COMPANY
DATE.          Tue Mar 08 10:44:11 2005: LOG DATE
UWI.           05 071 08303 00: UNIQUE WELL ID
~Curve Information Block
DEPT.FT            0 000 00 00: Depth
SN.Ohm-m                      : IEL Short Normal
SP.mV                         : IEL Spontaneous Potential
DIR.Ohm-m                     : IEL Induction Resistivity
GR.GAPI                       : Gamma Ray
~Parameter Information Block
~A  Depth        SN          SP         DIR          GR     
# ...
   432.0000   2000.0000   2000.0000     31.1683     62.1609
   432.2500   2000.0000   2000.0000     29.4526     71.1780
   432.5000   2000.0000   2000.0000     27.6517     87.3542
   432.7500   2000.0000   2000.0000     25.8905     98.3174
   433.0000   2000.0000   2000.0000     24.2580    112.4129
   433.2500   2000.0000   2000.0000     22.7993    119.6455
   433.5000   2000.0000   2000.0000     21.5244    128.1459
   433.7500   2000.0000   2000.0000     20.4195    133.1743
   434.0000   2000.0000   2000.0000     19.4597    140.3127
   434.2500   2000.0000   2000.0000     18.6238    144.2625
   434.5000   2000.0000   2000.0000     17.9036    147.6438
   434.7500   2000.0000   2000.0000     17.3031    147.9762
   435.0000   2000.0000   2000.0000     16.8249    146.6068
   435.2500   2000.0000   2000.0000     16.4579    145.4041
   435.5000   2000.0000   2000.0000     16.1753    144.1841
   435.7500   2000.0000   2000.0000     15.9442    143.7316
   436.0000   2000.0000   2000.0000     15.7379    142.9927
   436.2500   2000.0000   2000.0000     15.5420    142.1898
   436.5000   2000.0000   2000.0000     15.3514    140.5026
   436.7500   2000.0000   2000.0000     15.1654    139.2517
   437.0000   2000.0000   2000.0000     14.9842    137.7183
   437.2500   2000.0000   2000.0000     14.8084    137.2337
   437.5000   2000.0000   2000.0000     14.6363    137.6011
   437.7500   2000.0000   2000.0000     14.4589    138.5359
   438.0000   2000.0000   2000.0000     14.2581    140.6029
   438.2500   2000.0000   2000.0000     14.0115    142.1068
   438.5000   2000.0000   2000.0000     13.7046    144.0034
   438.7500   2000.0000   2000.0000     13.3408    144.8322
   439.0000   2000.0000   2000.0000     12.9395    145.4601
   439.2500   2000.0000   2000.0000     12.5258    145.6590
   439.5000   2000.0000   2000.0000     12.1206    145.8892
   439.7500   2000.0000   2000.0000     11.7385    145.9794
   440.0000   2000.0000   2000.0000     11.3931    145.9756
   440.2500   2000.0000   2000.0000     11.1014    146.0764
   440.5000   2000.0000   2000.0000     10.8823    147.0109
   440.7500   2000.0000   2000.0000     10.7495    148.3977
   441.0000   2000.0000   2000.0000     10.7056    151.4607
   441.2500   2000.0000   2000.0000     10.7417    153.7967
   441.5000   2000.0000   2000.0000     10.8434    156.9521
   441.7500   2000.0000   2000.0000     10.9990    158.3835
   442.0000   2000.0000   2000.0000     11.2034    159.0685
   442.2500   2000.0000   2000.0000     11.4565    158.5010
   442.5000   2000.0000   2000.0000     11.7572    156.0697
   442.7500   2000.0000   2000.0000     12.1014    153.2887
   443.0000   2000.0000   2000.0000     12.4814    147.5385
   443.2500   2000.0000   2000.0000     12.8869    143.1658
   443.5000   2000.0000   2000.0000     13.3038    136.9204
   443.7500   2000.0000   2000.0000     13.7124    133.3410
   444.0000   2000.0000   2000.0000     14.0903    128.8909
   444.2500   2000.0000   2000.0000     14.4214    126.5342
   444.5000   2000.0000   2000.0000     14.7040    124.4263
   444.7500   2000.0000   2000.0000     14.9510    124.5404
   445.0000   2000.0000   2000.0000     15.1791    127.6923
   445.2500   2000.0000   2000.0000     15.3973    131.6511
   445.5000   2000.0000   2000.0000     15.6020    139.1912
   445.7500   2000.0000   2000.0000     15.7814    144.3203
   446.0000   2000.0000   2000.0000     15.9232    150.6847
   446.2500   2000.0000   2000.0000     16.0218    153.4959
   446.5000   2000.0000   2000.0000     16.0829    155.1550
   446.7500   2000.0000   2000.0000     16.1234    154.5359
   447.0000   2000.0000   2000.0000     16.1657    151.3778
   447.2500   2000.0000   2000.0000     16.2308    148.2029
   447.5000   2000.0000   2000.0000     16.3336    142.3583
   447.7500   2000.0000   2000.0000     16.4825    137.6930
   448.0000   2000.0000   2000.0000     16.6793    129.3693
   448.2500   2000.0000   2000.0000     16.9194    123.2930
   448.5000   2000.0000   2000.0000     17.1951    114.8885
   448.7500   2000.0000   2000.0000     17.5057    110.7415
   449.0000   2000.0000   2000.0000     17.8672    107.8631
   449.2500   2000.0000   2000.0000     18.3095    108.3612
   449.5000   2000.0000   2000.0000     18.8581    112.1542
   449.7500   2000.0000   2000.0000     19.5109    115.9592
   450.0000   2000.0000   2000.0000     20.2230    121.8282
   450.2500   2000.0000   2000.0000     20.9104    124.7107
   450.5000   2000.0000   2000.0000     21.4703    126.0923
   450.7500   2000.0000   2000.0000     21.8160    125.0888
   451.0000   2000.0000   2000.0000     21.9174    122.3028
   451.2500   2000.0000   2000.0000     21.8251    120.8478
   451.5000   2000.0000   2000.0000     21.6541    120.7802
   451.7500   2000.0000   2000.0000     21.5309    122.3384
   452.0000   2000.0000   2000.0000     21.5391    126.2784
   452.2500   2000.0000   2000.0000     21.6970    129.0963
   452.5000   2000.0000   2000.0000     21.9725    132.1500
   452.7500   2000.0000   2000.0000     22.3196    132.9478
   453.0000   2000.0000   2000.0000     22.7145    132.3267
   453.2500   2000.0000   2000.0000     23.1782    130.8970
   453.5000   2000.0000   2000.0000     23.7787    127.1846
   453.7500   2000.0000   2000.0000     24.6138    123.3448
   454.0000   2000.0000   2000.0000     25.7752    114.8962
   454.2500   2000.0000   2000.0000     27.3006    107.2583
   454.5000   2000.0000   2000.0000     29.1313     92.9116
   454.7500   2000.0000   2000.0000     31.1083     81.8686
   455.0000   2000.0000   2000.0000     33.0343     64.6713
   455.2500   2000.0000   2000.0000     34.7804     54.0561
   455.5000   2000.0000   2000.0000     36.3564     41.2276
   455.7500   2000.0000   2000.0000     37.8843     35.0574
   456.0000   2000.0000   2000.0000     39.5097     28.6884
   456.2500   2000.0000   2000.0000     41.3328     25.7821
   456.5000   2000.0000   2000.0000     43.4050     22.8640
   456.7500   2000.0000   2000.0000     45.7841     21.7536
   457.0000   2000.0000   2000.0000     48.5711     21.1076
   457.2500   2000.0000   2000.0000     51.8531     21.1755
   457.5000   2000.0000   2000.0000     55.5226     21.8027
   457.7500   2000.0000   2000.0000     59.0837     22.5106
   458.0000   2000.0000   2000.0000     61.6941     23.8554
   458.2500   2000.0000   2000.0000     62.6127     24.7719
   458.5000   2000.0000   2000.0000     61.7358     25.9388
   458.7500   2000.0000   2000.0000     59.6364     26.6001
   459.0000   2000.0000   2000.0000     57.1277     27.6381
   459.2500   2000.0000   2000.0000     54.8573     28.4384
   459.5000   2000.0000   2000.0000     53.1573     29.7484
   459.7500   2000.0000   2000.0000     52.0490     30.5939
   460.0000   2000.0000   2000.0000     51.3203     31.5262
   460.2500   2000.0000   2000.0000     50.6656     31.6943
   460.5000   2000.0000   2000.0000     49.8686     31.0737
   460.7500   2000.0000   2000.0000     48.9335     30.2957
   461.0000   2000.0000   2000.0000     48.0566     29.5014
   461.2500   2000.0000   2000.0000     47.4460     29.7117
   461.5000   2000.0000   2000.0000     47.1362     31.0760
   461.7500   2000.0000   2000.0000     46.9014     32.1093
   462.0000   2000.0000   2000.0000     46.3242     32.9024
   462.2500   2000.0000   2000.0000     45.0400     32.9030
   462.5000   2000.0000   2000.0000     42.9923     32.9170
   462.7500   2000.0000   2000.0000     40.4538     33.5215
   463.0000   2000.0000   2000.0000     37.8016     36.0565
   463.2500   2000.0000   2000.0000     35.2978     39.0951
   463.5000   2000.0000   2000.0000     33.0403     46.0453
   463.7500   2000.0000   2000.0000     31.0302     52.5285
   464.0000   2000.0000   2000.0000     29.2472     65.4374
   464.2500   2000.0000   2000.0000     27.6833     76.1797
   464.5000   2000.0000   2000.0000     26.3406     94.6013
   464.7500   2000.0000   2000.0000     25.2175    107.2044
   465.0000   2000.0000   2000.0000     24.2990    123.7607
   465.2500   2000.0000   2000.0000     23.5512    131.8712
