~Version Information
VERS.                      2.0: CWLS Log ASCII Standard - VERSION 2.0
WRAP.                       NO: One line per depth step
~Well Information Block
STRT.FT                -7.2500: 
STOP.FT              2827.7500: 
STEP.FT                 0.2500: 
NULL.                -999.2500: 
COMP.          Pioneer Natural Resources: COMPANY
WELL.           Ei-ei-oh 31-24: WELL
FLD.           Purgatorie River: FIELD
LOC.           235' FNL & 2001' FEL--: LOCATION
PROV.                       CO: PROVINCE
CNTY.               Las Animas: COUNTRY
SRVC.          Patterson Wireline: SERVICE COMPANY
DATE.          Tue Aug 23 12:06:00 2005: LOG DATE
UWI.           05 071 08403 00: UNIQUE WELL ID
~Curve Information Block
DEPT.FT            0 000 00 00: Depth
CCL.                          : Casing Collar Locator
TT3.usec                      : CBL 3' Travel Time
AMP3.mV                       : CBL 3' Amplitude
GR.GAPI                       : Gamma Ray
~Parameter Information Block
~A  Depth       CCL         TT3         AMP3         GR     
# ...
   729.7500      0.0000    261.9704     64.6391    130.1798
   730.0000      0.0000    261.9967     64.6559    132.1610
   730.2500      0.0000    262.0207     64.6394    128.7638
   730.5000      0.0000    262.0372     64.6128    121.4447
   730.7500      0.0000    262.0447     64.5896    112.4079
   731.0000      0.0000    262.0437     64.5683    102.8173
   731.2500      0.0000    262.0355     64.5502     93.0859
   731.5000      0.0000    262.0210     64.5644     83.8426
   731.7500      0.0000    262.0010     64.6743     75.6887
   732.0000      0.0000    261.9779     64.9429     68.4993
   732.2500      0.0000    261.9580     65.3749     61.8665
   732.5000      0.0000    261.9499     65.8864     56.2397
   732.7500      0.0000    261.9566     66.3482     53.2030
   733.0000      0.0000    261.9721     66.6736     54.6050
   733.2500      0.0000    261.9859     66.8606     61.4212
   733.5000      0.0000    261.9921     66.9540     73.0853
   733.7500      0.0000    261.9914     66.9845     87.5304
   734.0000      0.0000    261.9867     66.9651    101.8242
   734.2500      0.0000    261.9763     66.9349    113.0220
   734.5000      0.0000    261.9549     66.9783    119.1567
   734.7500      0.0000    261.9192     67.1840    120.3627
   735.0000      0.0000    261.8735     67.5839    119.1077
   735.2500      0.0000    261.8293     68.1214    118.4810
   735.5000      0.0000    261.7982     68.6761    119.7940
   735.7500      0.0000    261.7846     69.1312    122.1191
   736.0000      0.0000    261.7849     69.4355    124.0657
   736.2500      0.0000    261.7918     69.6039    125.2775
   736.5000      0.0000    261.7995     69.6645    126.0850
   736.7500      0.0000    261.8054     69.6102    126.6137
   737.0000      0.0000    261.8099     69.4022    126.7987
   737.2500      0.0000    261.8154     69.0131    126.7957
   737.5000      0.0000    261.8257     68.4687    126.8650
   737.7500      0.0000    261.8433     67.8570    126.9948
   738.0000      0.0000    261.8655     67.2998    126.8437
   738.2500      0.0000    261.8876     66.9005    125.8479
   738.5000      0.0000    261.9119     66.7013    123.2209
   738.7500      0.0000    261.9856     66.6503    118.2592
   739.0000      0.0000    262.2712     66.5430    111.3443
   739.2500      0.0000    263.1535     65.9035    104.6101
   739.5000      0.0000    265.2505     63.9906    100.7306
   739.7500      0.0000    269.1449     60.2105    100.5174
   740.0000      0.0000    274.9249     54.7678    102.1833
   740.2500      0.0000    281.9911     48.8112    103.4280
   740.5000      0.0000    289.3407     43.7343    103.7156
   740.7500      0.0000    295.9541     40.3476    103.9322
   741.0000      0.0000    301.0369     38.6665    104.3897
   741.2500      0.0000    304.2504     38.2108    104.1661
   741.5000     -2.0000    305.8338     38.3871    102.4369
   741.7500      2.0000    306.3409     38.7755     99.8509
   742.0000      0.0000    306.1812     39.2115     98.3156
   742.2500      0.0000    305.3320     39.7027     99.3998
   742.5000      0.0000    303.3436     40.3948    102.9236
   742.7500      0.0000    299.6323     41.6244    107.3231
   743.0000      0.0000    293.9691     43.8080    111.4585
   743.2500      0.0000    286.8282     47.1215    115.5080
   743.5000      0.0000    279.2438     51.3344    119.9342
   743.7500      0.0000    272.3600     55.9103    124.4298
   744.0000      0.0000    267.0330     60.1744    128.2897
   744.2500      0.0000    263.5840     63.5261    131.0925
   744.5000      0.0000    261.7612     65.7077    132.8565
   744.7500      0.0000    260.9908     66.8779    134.2136
   745.0000      0.0000    260.7337     67.3824    136.1099
   745.2500      0.0000    260.6684     67.5004    138.5577
   745.5000      0.0000    260.6616     67.4009    140.2932
   745.7500      0.0000    260.6692     67.2313    140.4387
   746.0000      0.0000    260.6774     67.1375    139.7487
   746.2500      0.0000    260.6790     67.2021    139.5341
   746.5000      0.0000    260.6739     67.4026    140.1252
   746.7500      0.0000    260.6658     67.6556    140.9438
   747.0000      0.0000    260.6582     67.8921    141.2913
   747.2500      0.0000    260.6513     68.0821    140.4304
   747.5000      0.0000    260.6430     68.2079    137.4603
   747.7500      0.0000    260.6325     68.2400    131.8955
   748.0000      0.0000    260.6222     68.1554    124.3974
   748.2500      0.0000    260.6159     67.9721    116.7568
   748.5000      0.0000    260.6165     67.7473    111.1241
   748.7500      0.0000    260.6250     67.5329    108.9351
   749.0000      0.0000    260.6405     67.3463    110.0446
   749.2500      0.0000    260.6598     67.2007    112.7406
   749.5000      0.0000    260.6763     67.1419    114.7961
   749.7500      0.0000    260.6825     67.2272    114.5551
   750.0000      0.0000    260.6747     67.4612    111.1326
   750.2500      0.0000    260.6565     67.7665    104.2911
   750.5000      0.0000    260.6354     68.0244     94.9042
   750.7500      0.0000    260.6189     68.1470     85.3080
   751.0000      0.0000    260.6099     68.1222     78.3318
   751.2500      0.0000    260.6074     67.9977     75.6543
   751.5000      0.0000    260.6090     67.8239     77.3611
   751.7500      0.0000    260.6139     67.6151     82.8195
   752.0000      0.0000    260.6208     67.3754     91.1963
   752.2500      0.0000    260.6266     67.1520    101.0969
   752.5000      0.0000    260.6267     67.0317    110.4260
   752.7500      0.0000    260.6195     67.0681    117.0868
   753.0000      0.0000    260.6088     67.2253    120.0419
   753.2500      0.0000    260.6007     67.4078    119.8035
   753.5000      0.0000    260.5988     67.5402    117.6358
   753.7500      0.0000    260.6022     67.6094    114.1550
   754.0000      0.0000    260.6075     67.6455    109.2367
   754.2500      0.0000    260.6117     67.6796    103.3679
   754.5000      0.0000    260.6146     67.7196     98.2363
   754.7500      0.0000    260.6175     67.7541     95.6471
   755.0000      0.0000    260.6209     67.7712     96.4045
   755.2500      0.0000    260.6233     67.7700    100.2368
   755.5000      0.0000    260.6226     67.7570    106.1189
   755.7500      0.0000    260.6182     67.7359    112.5808
   756.0000      0.0000    260.6114     67.7011    118.3280
   756.2500      0.0000    260.6056     67.6330    122.8360
   756.5000      0.0000    260.6051     67.4918    126.2776
   756.7500      0.0000    260.6151     67.2251    128.9982
   757.0000      0.0000    260.6404     66.8000    131.1614
   757.2500      0.0000    260.6831     66.2467    132.5711
   757.5000      0.0000    260.7377     65.6709    132.5539
   757.7500      0.0000    260.7913     65.2081    130.0952
   758.0000      0.0000    260.8305     64.9502    124.3668
   758.2500      0.0000    260.8488     64.9082    115.4084
   758.5000      0.0000    260.8470     65.0321    104.3971
   758.7500      0.0000    260.8296     65.2536     93.0996
   759.0000      0.0000    260.8016     65.5087     83.0949
   759.2500      0.0000    260.7697     65.7349     75.8101
   759.5000      0.0000    260.7422     65.8604     73.0200
   759.7500      0.0000    260.7292     65.8143     76.2355
   760.0000      0.0000    260.7369     65.5688     84.9217
   760.2500      0.0000    260.7627     65.1815     95.9754
   760.5000      0.0000    260.7953     64.7859    105.7591
   760.7500      0.0000    260.8221     64.5198    112.4398
   761.0000      0.0000    260.8360     64.4511    116.3098
   761.2500      0.0000    260.8372     64.5607    118.6351
   761.5000      0.0000    260.8286     64.7796    120.4135
   761.7500      0.0000    260.8132     65.0388    121.6298
   762.0000      0.0000    260.7935     65.2967    121.6648
   762.2500      0.0000    260.7722     65.5347    120.6802
   762.5000      0.0000    260.7517     65.7445    120.0473
   762.7500      0.0000    260.7330     65.9240    120.8222
   763.0000      0.0000    260.7157     66.0818    122.2389
