~Version Information
VERS.                      2.0: CWLS Log ASCII Standard - VERSION 2.0
WRAP.                       NO: One line per depth step
~Well Information Block
STRT.FT                -6.5000: 
STOP.FT              1719.0000: 
STEP.FT                 0.5000: 
NULL.                -999.2500: 
COMP.          Pioneer Natural Resources: COMPANY
WELL.             Tami J 23-18: WELL
FLD.           Purgatorie River: FIELD
LOC.           2250' FSL & 2400' FWL: LOCATION
PROV.                 Colorado: PROVINCE
CNTY.               Las Animas: COUNTRY
SRVC.          Patterson Wireline: SERVICE COMPANY
DATE.          Fri Dec 17 13:50:12 2004: LOG DATE
UWI.           05-071-08073-00: UNIQUE WELL ID
~Curve Information Block
DEPT.FT            0 000 00 00: Depth
CCL.                          : Casing Collar Locator
TT3.usec                      : CBL 3' Travel Time
AMP3.mV                       : CBL 3' Amplitude
GR.GAPI                       : Gamma Ray
~Parameter Information Block
~A  Depth       CCL         TT3         AMP3         GR     
    -6.5000   -999.2500   -999.2500   -999.2500   -999.2500
    -6.0000   -999.2500   -999.2500   -999.2500     72.7468
    -5.5000   -999.2500   -999.2500   -999.2500     74.8428
    -5.0000   -999.2500   -999.2500   -999.2500     72.3282
    -4.5000   -999.2500   -999.2500   -999.2500     69.7788
    -4.0000   -999.2500   -999.2500   -999.2500     68.4054
    -3.5000   -999.2500   -999.2500   -999.2500     67.6978
    -3.0000   -999.2500   -999.2500   -999.2500     63.8086
    -2.5000   -999.2500   -999.2500   -999.2500     60.6397
    -2.0000   -999.2500   -999.2500   -999.2500     60.3243
    -1.5000   -999.2500   -999.2500   -999.2500     56.7628
    -1.0000   -999.2500   -999.2500   -999.2500     54.6690
    -0.5000   -999.2500   1203.0000      1.7452     61.0332
     0.0000   -999.2500   1203.0000      1.7422     65.8462
     0.5000   -999.2500   1203.0000      1.7471     61.1207
     1.0000   -999.2500   1203.0000      1.7648     56.7488
     1.5000   -999.2500   1203.0000      1.7704     51.0359
     2.0000   -999.2500   1203.0000      1.7482     40.7256
     2.5000   -999.2500   1203.0000      1.7651     33.3869
     3.0000   -999.2500   1203.0000      1.8281     34.1705
     3.5000   -999.2500   1203.0000      1.8479     42.5974
     4.0000   -999.2500   1203.0000      1.8424     55.2907
     4.5000   -999.2500   1203.0000      1.8196     66.6363
     5.0000      0.0000   1203.0000      1.7845     67.5629
     5.5000      0.0000   1203.0000      1.7733     64.7514
     6.0000      0.0000   1203.0000      1.7705     68.4353
     6.5000      0.0000   1203.0000      1.7837     72.4566
     7.0000      0.0000   1203.0000      1.7943     72.6992
     7.5000      0.0000   1203.0000      1.7854     69.7408
     8.0000      0.0000   1203.0000      1.7896     64.5902
     8.5000      0.0000   1202.9913      1.7662     59.1510
     9.0000      0.0000   1202.2441      1.7869     56.1610
     9.5000      0.0000   1188.8009      2.3478     63.8196
    10.0000      3.1650   1091.0942      7.0326     80.1247
    10.5000      0.0000    804.0747     22.1202     92.3340
    11.0000      0.0000    464.3443     41.0156     97.9205
    11.5000      0.0000    303.5569     50.2459     97.7250
    12.0000      0.0000    273.5401     51.9692     90.2920
    12.5000      0.0000    271.3625     52.1914     83.5455
    13.0000      0.0000    271.2934     52.2109     83.4944
    13.5000      0.0000    271.3075     52.0888     87.2845
    14.0000      0.0000    271.3414     51.9183     91.8261
    14.5000      0.0000    271.9635     50.5813    100.8254
    15.0000      0.0000    276.2578     46.2827    111.0038
    15.5000      0.0000    289.1674     38.8830    110.7071
    16.0000      0.0000    307.0338     30.9278     99.4766
    16.5000      0.0000    340.4504     24.5144     93.5020
    17.0000      0.0000    473.5266     19.6020     99.1976
    17.5000      0.0000    740.1479     15.5733    102.1982
    18.0000      0.0000    946.8888     12.3413     94.8392
    18.5000      0.0000   1001.3619     10.0614     89.7397
    19.0000      0.0000    998.1978      8.6453     88.0606
    19.5000      0.0000    970.8547      7.9326     91.0079
    20.0000      0.0000    916.1102      7.6413    100.3519
    20.5000      0.0000    872.1970      7.4502    105.7021
    21.0000      0.0000    858.4142      7.3550     97.3633
    21.5000      0.0000    857.0178      7.3393     82.8481
    22.0000      0.0000    857.1118      7.2422     77.5166
    22.5000      0.0000    855.9371      7.1371     86.0363
    23.0000      0.0000    851.3141      7.1350     96.1461
    23.5000      0.0000    872.1713      7.1509     98.9110
    24.0000      0.0000    965.9667      7.0775     98.4185
    24.5000      0.0000   1053.7537      7.1074     94.8892
    25.0000      4.3121   1076.0623      7.2784     87.0789
    25.5000      0.0000   1090.0579      7.4104     81.1111
    26.0000      0.0000   1077.8712      7.6048     80.7015
    26.5000      0.0000   1003.4310      8.1106     80.7279
    27.0000      0.0000    930.3230      8.6613     74.4344
    27.5000      0.0000    889.6958      8.7413     61.8844
    28.0000      0.0000    869.1129      8.5836     53.2342
    28.5000      0.0000    859.9580      8.4074     51.4385
    29.0000      0.0000    857.4007      8.3410     51.3331
    29.5000      0.0000    857.1326      8.4586     48.8286
    30.0000      0.0000    857.3058      8.6084     48.4139
    30.5000      0.0000    857.4498      8.6426     51.1062
    31.0000      0.0000    857.6729      8.7123     53.0020
    31.5000      0.0000    858.2488      8.9640     55.8117
    32.0000      0.0000    860.6858      9.2028     58.5292
    32.5000      0.0000    866.4127      9.1874     57.3577
    33.0000      0.0000    872.0135      9.1251     53.8745
    33.5000      0.0000    879.4297      9.3107     50.0815
    34.0000      0.0000    899.8690      9.5931     45.6651
    34.5000      0.0000    953.9065      9.7139     43.2794
    35.0000      0.0000   1016.8109      9.7577     42.0360
    35.5000      0.0000   1010.5475      9.8393     43.8134
    36.0000      0.0000    981.9830      9.9716     48.2539
    36.5000      0.0000    956.8702     10.1321     49.3734
    37.0000      0.0000    918.9946     10.3093     50.0375
    37.5000      0.0000    900.9249     10.5598     52.1511
    38.0000      0.0000    897.9321     10.8528     53.9360
    38.5000      0.0000    897.9182     11.0236     55.4066
    39.0000      0.0000    898.3815     10.9797     53.3493
    39.5000      0.0000    898.6249     10.7965     50.2820
    40.0000      0.0000    898.5125     10.6323     51.5975
    40.5000      0.0000    898.2665     10.5001     61.1657
    41.0000      0.0000    897.8207     10.3498     81.4789
    41.5000      0.0000    897.0337     10.2839    100.5182
    42.0000      0.0000    896.4392     10.3149    101.4169
    42.5000      0.0000    896.6192     10.3580     90.0200
    43.0000      0.0000    898.7845     10.4311     84.9948
    43.5000      0.0000    912.5740     10.6011     86.6457
    44.0000      0.0000    955.5558     10.8279     89.2900
    44.5000      0.0000   1009.7068     10.9198     94.0810
    45.0000      0.0000   1038.4437     10.7835     98.2131
    45.5000      0.0000   1047.9612     10.6863     98.0501
    46.0000      0.0000   1049.1954     10.7504     94.5311
    46.5000      0.0000   1046.3198     10.7142     89.2245
    47.0000      0.0000   1031.0345     10.4418     85.6640
    47.5000      0.0000    987.5467     10.0018     81.2016
    48.0000      0.0000    951.4009      9.5832     75.4610
    48.5000      0.0000    957.0348      9.3580     71.1847
    49.0000      0.0000    993.8116      9.1239     73.4886
    49.5000      0.0000   1036.5126      8.7565     82.5878
    50.0000      0.0000   1065.0531      8.4718     90.7577
    50.5000      0.0000   1074.7020      8.3573     89.9675
    51.0000      0.0000   1076.4961      8.2349     82.8948
    51.5000      0.0000   1072.0388      8.0300     77.6110
    52.0000      0.0000   1050.7750      7.8821     77.0225
    52.5000      0.0000   1005.1428      7.8575     81.7342
    53.0000      0.0000    932.6919      7.7924     83.8268
    53.5000      0.0000    864.5472      7.5313     81.8790
    54.0000      0.0000    841.7225      7.2088     79.2512
    54.5000      0.0000    843.6011      7.0558     77.9761
    55.0000      0.0000    849.8133      7.0435     77.4550
    55.5000      0.0000    856.3493      6.9820     75.3633
    56.0000      0.0000    864.7039      6.8323     71.6886
    56.5000      0.0000    866.6161      6.7186     65.4809
    57.0000      0.0000    852.2748      6.7224     63.1010
    57.5000      0.0000    831.6280      6.7501     67.9878
    58.0000      0.0000    818.3387      6.7596     67.3758
    58.5000      0.0000    814.4548      6.8816     58.9170
    59.0000      0.0000    813.8828      7.1231     58.4836
    59.5000      0.0000    813.3833      7.2802     65.9127
    60.0000      0.0000    813.0208      7.2216     69.4317
