~Version Information
 VERS.                                  2.0 : CWLS LAS VERSION
 WRAP.                                   NO : WRAPING MODE
 SWARE .                 MController 2.5.0I : SOFTWARE VERSION
~Well Information
 WELL.                                  N/A : WELL
 COMP.                                  N/A : COMPANY
 FLD.                                   N/A : FIELD
 LOC.                                   N/A : LOCATION
 DATE.                                  N/A : DATE(S) LOGGED
 SRVC.                                  N/A : SERVICE COMPANY
 STAT.                                  N/A : STATE
 CNTY.                                  N/A : COUNTY
 CTRY.                                  N/A : COUNTRY
 API.                                   N/A : API NUMBER
 STRT.FT                             801.00 : START DEPTH
 STOP.FT                            2405.00 : STOP DEPTH
 STEP.FT                               1.00 : DEPTH INCREMENT
 NULL.                                -9999 : NULL VALUE
~Curve information
 DEPTH.FT                                   :
 ROP.MIN/FT                                 :
 GAS.UNITS                                  :
~ASCII Log data
# ...
      1601.0          0.5         26.4 
      1602.0          0.4         26.5 
      1603.0          0.3         26.3 
      1604.0          0.4         26.3 
      1605.0          0.4         26.5 
      1606.0          0.4         26.4 
      1607.0          0.3         26.3 
      1608.0          0.4         26.4 
      1609.0          0.3         26.2 
      1610.0          0.2         26.5 
      1611.0          0.4         26.9 
      1612.0          0.3         26.6 
      1613.0          0.3         26.6 
      1614.0          0.4         26.4 
      1615.0          0.4         26.4 
      1616.0          0.3         26.1 
      1617.0          0.3         25.8 
      1618.0          0.4         26.4 
      1619.0          0.4         26.4 
      1620.0          7.1        192.6 
      1621.0          1.1         37.1 
      1622.0          0.7         24.1 
      1623.0          0.5         18.7 
      1624.0          0.4         19.7 
      1625.0          0.4         21.9 
      1626.0          0.4         22.1 
      1627.0          0.5         23.8 
      1628.0          0.4         23.9 
      1629.0          0.3         24.0 
      1630.0          0.3         23.3 
      1631.0          0.3         23.2 
      1632.0          0.4         22.5 
      1633.0          0.4         23.0 
      1634.0          0.4         23.6 
      1635.0          0.2         23.6 
      1636.0          0.3         24.3 
      1637.0          0.4         26.1 
      1638.0          0.5         26.6 
      1639.0          0.6         26.1 
      1640.0          0.4         25.8 
      1641.0          0.4         25.8 
      1642.0          0.5         26.0 
      1643.0          0.5         25.1 
      1644.0          0.4         23.8 
      1645.0          0.5         23.3 
      1646.0          0.4         24.2 
      1647.0          0.2         24.4 
      1648.0          0.2         25.3 
      1649.0          0.2         25.7 
      1650.0          4.7        187.2 
      1651.0          1.0         33.0 
      1652.0          0.9         38.8 
      1653.0          0.9         36.1 
      1654.0          0.6         25.1 
      1655.0          0.4         21.7 
      1656.0          0.5         23.0 
      1657.0          0.6         24.0 
      1658.0          0.5         24.3 
      1659.0          0.8         23.0 
      1660.0          0.5         22.4 
      1661.0          0.3         22.6 
      1662.0          0.4         24.6 
      1663.0          0.4         26.1 
      1664.0          0.3         26.3 
      1665.0          0.3         25.2 
      1666.0          0.3         23.7 
      1667.0          0.3         21.8 
      1668.0          0.3         21.5 
      1669.0          0.3         21.1 
      1670.0          0.2         21.2 
      1671.0          0.3         21.2 
      1672.0          0.3         21.1 
      1673.0          0.3         21.3 
      1674.0          0.3         21.2 
      1675.0          0.2         21.8 
      1676.0          0.3         22.2 
      1677.0          0.3         22.6 
      1678.0          0.4         23.1 
      1679.0          0.3         24.2 
      1680.0          4.0         75.5 
      1681.0          0.8         28.5 
      1682.0          0.6         42.8 
      1683.0          0.6         43.5 
      1684.0          1.1         41.0 
      1685.0          0.4         23.9 
      1686.0          0.6         17.8 
      1687.0          0.5         19.4 
      1688.0          0.5         24.1 
      1689.0          0.5         52.8 
      1690.0          0.4         78.7 
      1691.0          0.3         79.9 
      1692.0          0.3         70.3 
      1693.0          0.4         50.0 
      1694.0          0.3         39.7 
      1695.0          0.4         39.9 
      1696.0          0.4         39.4 
      1697.0          0.6         36.3 
      1698.0          0.5         30.1 
      1699.0          0.6         27.2 
      1700.0          0.5         24.0 
      1701.0          0.4         22.9 
      1702.0          0.4         28.4 
      1703.0          0.4         29.2 
      1704.0          0.4         29.1 
      1705.0          0.4         27.6 
      1706.0          0.4         25.5 
      1707.0          0.4         23.4 
      1708.0          0.4         22.7 
      1709.0          0.4         23.2 
      1710.0          6.1        207.2 
      1711.0          1.0         34.3 
      1712.0          0.5         31.5 
      1713.0          0.5         29.6 
      1714.0          0.4         22.6 
      1715.0          0.4         18.6 
      1716.0          0.5         17.0 
      1717.0          0.4         18.3 
      1718.0          0.3         19.9 
      1719.0          0.3         21.5 
      1720.0          0.4         22.4 
      1721.0          0.4         22.8 
      1722.0          0.4         22.6 
      1723.0          0.3         21.9 
      1724.0          0.3         22.0 
      1725.0          0.4         22.4 
      1726.0          0.3         22.9 
      1727.0          0.4         23.0 
      1728.0          0.4         23.0 
      1729.0          0.3         22.7 
      1730.0          0.3         22.7 
      1731.0          0.3         22.5 
      1732.0          0.4         22.6 
      1733.0          0.4         22.5 
      1734.0          0.4         23.1 
      1735.0          0.2         24.3 
      1736.0          0.3         25.3 
      1737.0          0.3         25.2 
      1738.0          0.3         24.4 
      1739.0          0.3         23.5 
      1740.0          4.0        204.5 
      1741.0          0.4        112.1 
      1742.0          0.7         46.7 
      1743.0          0.7         34.9 
      1744.0          0.7         39.6 
      1745.0          0.6         38.4 
      1746.0          0.7         29.5 
      1747.0          0.6         17.8 
      1748.0          0.5         14.2 
      1749.0          0.5         17.5 
      1750.0          0.4         19.8 
      1751.0          0.3         20.9 
      1752.0          0.3         21.5 
      1753.0          0.3         21.5 
      1754.0          0.3         22.0 
      1755.0          0.4         23.3 
      1756.0          0.4         23.7 
      1757.0          0.4         24.5 
      1758.0          0.5         24.2 
      1759.0          0.4         23.1 
      1760.0          0.5         23.1 
      1761.0          0.7         21.8 
      1762.0          0.9         21.0 
      1763.0          0.4         19.5 
      1764.0          0.3         19.7 
      1765.0          0.3         19.6 
      1766.0          0.4         19.5 
      1767.0          0.5         19.6 
      1768.0          0.4         19.8 
      1769.0          0.4         20.3 
      1770.0          9.1        322.4 
      1771.0          0.7         19.2 
      1772.0          0.4         19.9 
      1773.0          0.4         21.7 
      1774.0          0.4         22.1 
      1775.0          0.1         21.8 
      1776.0          0.3         21.8 
      1777.0          0.3         21.0 
      1778.0          0.4         20.9 
      1779.0          0.3         21.5 
      1780.0          0.4         22.6 
      1781.0          0.4         22.9 
      1782.0          0.4         22.8 
      1783.0          0.5         22.8 
      1784.0          0.4         22.3 
      1785.0          0.5         21.3 
      1786.0          0.3         20.4 
      1787.0          0.3         20.6 
      1788.0          0.3         21.5 
      1789.0          0.3         22.0 
      1790.0          0.4         23.3 
      1791.0          0.4         27.1 
      1792.0          0.4         27.9 
      1793.0          0.3         27.1 
      1794.0          0.4         24.6 
      1795.0          0.5         22.4 
      1796.0          0.5         21.3 
      1797.0          0.4         20.4 
      1798.0          0.5         19.6 
      1799.0          0.6         20.2 
      1800.0          0.4         20.9 
