~Version Information
VERS.                      2.0: CWLS Log ASCII Standard - VERSION 2.0
WRAP.                       NO: One line per depth step
~Well Information Block
STRT.FT               375.0000: 
STOP.FT              1727.7000: 
STEP.FT                 0.1000: 
NULL.                -999.2500: 
COMP.          Pioneer Natural Resources: COMPANY
WELL.          Warrior 33-1 Tr: WELL
FLD.           Purgatoire River: FIELD
LOC.           2648' FSL & 2341' FEL--: LOCATION
PROV.                 Colorado: PROVINCE
CNTY.               Las Animas: COUNTRY
SRVC.                Patterson: SERVICE COMPANY
DATE.          Sat Jun 18 07:53:12 2005: LOG DATE
UWI.           05 071 08412 00: UNIQUE WELL ID
~Curve Information Block
DEPT.FT            0 000 00 00: Depth
DCAL.in                       : CDL Caliper
RHOB.g/cc                     : CDL Bulk Density
RHOC.g/cc                     : CDL Density Correction
DPOR.pu                       : CDL Density Porosity
NPOR.pu                       : Neutron Porosity
GR.GAPI                       : Gamma Ray
~Parameter Information Block
~A  Depth       DCAL        RHOB        RHOC        DPOR        NPOR         GR     
# ...
  1258.2000      8.1358      2.5980      0.1347      3.1513     20.5000    140.1905
  1258.3000      8.1148      2.6096      0.1061      2.4462     19.4012    134.8536
  1258.4000      8.1148      2.6270      0.1150      1.3925     18.4175    123.3757
  1258.5000      8.1087      2.6487      0.1288      0.0780     17.2500    112.2891
  1258.6000      8.1087      2.6654      0.1100     -0.9328     16.0758    101.6925
  1258.7000      8.1087      2.6748      0.1422     -1.5007     15.3630     91.8967
  1258.8000      8.1082      2.6794      0.1320     -1.7818     15.5407     87.1795
  1258.9000      8.1082      2.6802      0.0780     -1.8314     16.3976     86.9557
  1259.0000      8.1076      2.6792      0.0755     -1.7677     16.9249     82.0659
  1259.1000      8.1076      2.6783      0.0802     -1.7163     16.7015     70.8429
  1259.2000      8.1076      2.6711      0.0918     -1.2790     16.4780     62.5997
  1259.3000      8.1071      2.6474      0.0720      0.1606     16.7110     63.1274
  1259.4000      8.1071      2.6146      0.0266      2.1452     17.0130     68.4261
  1259.5000      8.1066      2.5938      0.0248      3.4066     17.1399     71.1166
  1259.6000      8.1066      2.5961      0.0362      3.2678     17.3785     70.2049
  1259.7000      8.1066      2.6138      0.0601      2.1953     17.8990     68.6124
  1259.8000      8.1061      2.6237      0.0822      1.5943     18.4619     68.5187
  1259.9000      8.1061      2.6140      0.0111      2.1822     18.7518     69.3114
  1260.0000      8.1047      2.5971      0.0683      3.2067     18.4407     69.0321
  1260.1000      8.1047      2.5902      0.0796      3.6257     17.7279     69.4064
  1260.2000      8.1047      2.6068      0.0555      2.6192     17.4072     72.1452
  1260.3000      8.1040      2.6435      0.0650      0.3951     17.9729     73.9310
  1260.4000      8.1040      2.6752      0.0725     -1.5270     19.3476     72.2034
  1260.5000      8.1039      2.6857      0.0723     -2.1634     20.9958     71.0346
  1260.6000      8.1039      2.6880      0.0639     -2.3003     22.3436     74.2423
  1260.7000      8.1039      2.6983      0.0720     -2.9251     23.3136     78.9595
  1260.8000      8.1051      2.7046      0.0747     -3.3121     23.8172     83.4561
  1260.9000      8.1051      2.6900      0.0268     -2.4264     23.8804     89.0178
  1261.0000      8.1085      2.6542      0.0193     -0.2560     23.9095     93.3700
  1261.1000      8.1085      2.6075     -0.0141      2.5732     24.0696     96.3169
  1261.2000      8.1085      2.5680     -0.0014      4.9713     24.5569    101.0552
  1261.3000      8.1138      2.5433     -0.0224      6.4682     25.5659    109.7348
  1261.4000      8.1138      2.5219     -0.0046      7.7610     26.5141    121.6946
  1261.5000      8.1200      2.4890      0.0271      9.7580     26.8692    133.5319
  1261.6000      8.1200      2.4571     -0.0293     11.6938     26.8023    142.4063
  1261.7000      8.1200      2.4645     -0.0246     11.2453     26.6593    145.7264
  1261.8000      8.1272      2.5074      0.0885      8.6406     26.6262    145.1752
  1261.9000      8.1272      2.5352      0.1300      6.9593     26.5583    147.0982
  1262.0000      8.1305      2.5332      0.0760      7.0814     26.4138    151.4909
  1262.1000      8.1305      2.5256      0.1047      7.5401     26.2620    153.7437
  1262.2000      8.1305      2.5204      0.0856      7.8574     26.1209    157.2900
  1262.3000      8.1300      2.5175      0.0789      8.0303     26.3282    164.1223
  1262.4000      8.1300      2.5210      0.0898      7.8189     27.1208    166.5089
  1262.5000      8.1308      2.5328      0.0351      7.1006     27.9859    162.0983
  1262.6000      8.1308      2.5560      0.0491      5.6958     28.1239    157.9918
  1262.7000      8.1308      2.5868      0.0753      3.8286     27.6293    154.8944
  1262.8000      8.1307      2.6105      0.1433      2.3932     26.9373    151.7815
  1262.9000      8.1307      2.6135      0.1361      2.2114     26.2559    149.9921
  1263.0000      8.1300      2.6072      0.1001      2.5926     25.9768    147.7189
  1263.1000      8.1300      2.6092      0.1059      2.4706     26.3323    144.1307
  1263.2000      8.1300      2.6125      0.1144      2.2752     26.6236    142.7211
  1263.3000      8.1316      2.6071      0.0911      2.5987     26.3370    145.8731
  1263.4000      8.1316      2.6023      0.0888      2.8898     25.9706    150.6466
  1263.5000      8.1335      2.6075      0.0488      2.5728     25.8676    152.3434
  1263.6000      8.1335      2.6119      0.1197      2.3095     26.0211    149.7980
  1263.7000      8.1335      2.5998      0.0366      3.0423     26.3917    146.5497
  1263.8000      8.1335      2.5867      0.0190      3.8354     26.7948    144.7334
  1263.9000      8.1335      2.5971      0.0177      3.2031     27.0414    141.7399
  1264.0000      8.1341      2.6189      0.0992      1.8841     27.1237    138.6531
  1264.1000      8.1341      2.6162      0.1060      2.0491     27.1241    137.1666
  1264.2000      8.1341      2.5837      0.0508      4.0176     27.0514    135.6437
  1264.3000      8.1345      2.5486      0.0489      6.1443     26.7635    135.3465
  1264.4000      8.1345      2.5286      0.0684      7.3569     26.0577    136.6683
  1264.5000      8.1329      2.5202      0.0408      7.8663     25.1519    139.0067
  1264.6000      8.1329      2.5186      0.0466      7.9622     24.6361    140.5818
  1264.7000      8.1329      2.5261      0.0475      7.5098     24.7827    143.7090
  1264.8000      8.1306      2.5423      0.0901      6.5243     25.4493    150.6523
  1264.9000      8.1306      2.5598      0.0999      5.4686     26.1723    154.8296
  1265.0000      8.1304      2.5678      0.0776      4.9832     26.4311    153.0102
  1265.1000      8.1304      2.5590      0.0953      5.5175     26.2235    148.8357
  1265.2000      8.1304      2.5345      0.0512      7.0007     26.0798    146.2010
  1265.3000      8.1321      2.5029      0.0660      8.9126     26.1625    147.8082
  1265.4000      8.1321      2.4760      0.0366     10.5441     26.0066    154.7745
  1265.5000      8.1334      2.4743      0.0018     10.6512     25.4819    162.3615
  1265.6000      8.1334      2.5049      0.0711      8.7917     25.3438    162.9321
  1265.7000      8.1334      2.5399      0.1109      6.6754     26.3012    156.1054
  1265.8000      8.1347      2.5536      0.0796      5.8453     27.9145    149.5059
  1265.9000      8.1347      2.5535      0.0795      5.8461     28.9821    147.9049
  1266.0000      8.1367      2.5499      0.0958      6.0663     28.9891    148.6134
  1266.1000      8.1367      2.5337      0.0964      7.0460     28.2675    150.2720
  1266.2000      8.1367      2.5111      0.0383      8.4162     27.3300    149.0302
  1266.3000      8.1423      2.5120      0.0274      8.3609     26.7380    139.2902
  1266.4000      8.1423      2.5442      0.0970      6.4138     26.7900    127.3723
  1266.5000      8.1497      2.5818      0.1221      4.1310     27.3059    122.3110
  1266.6000      8.1497      2.6015      0.1221      2.9419     27.7955    123.3714
  1266.7000      8.1497      2.6050      0.1089      2.7280     28.1939    126.1517
  1266.8000      8.1488      2.6072      0.1309      2.5928     28.6619    130.9171
  1266.9000      8.1488      2.6094      0.1326      2.4619     29.0651    140.3323
  1267.0000      8.1407      2.5996      0.1198      3.0524     29.2829    150.7162
  1267.1000      8.1407      2.5783      0.0259      4.3445     29.1623    152.0806
  1267.2000      8.1407      2.5683      0.0617      4.9514     28.6806    142.3834
  1267.3000      8.1338      2.5769      0.1084      4.4328     28.1621    131.7237
  1267.4000      8.1338      2.5805      0.1420      4.2140     27.9887    128.2687
  1267.5000      8.1301      2.5727      0.0497      4.6837     28.2063    132.2554
  1267.6000      8.1301      2.5746      0.0397      4.5720     28.2119    138.9658
  1267.7000      8.1301      2.5817      0.1055      4.1401     27.6820    144.3152
