~Version Information
VERS.                      2.0: CWLS Log ASCII Standard - VERSION 2.0
WRAP.                       NO: One line per depth step
~Well Information Block
STRT.FT               -16.5000: 
STOP.FT              1695.5000: 
STEP.FT                 0.2500: 
NULL.                -999.2500: 
COMP.          Pioneer Natural Resources: COMPANY
WELL.          Rancher 12-35 Tr: WELL
FLD.           Purgatorie River: FIELD
LOC.           2242' FNL & 308' FWL SWNW 35 32S 67W: LOCATION
PROV.                       CO: PROVINCE
CNTY.               Las Animas: COUNTRY
SRVC.                         : SERVICE COMPANY
DATE.         Fri Jul 08 09:39:00 2005: LOG DATE
UWI.                071 08430 : UNIQUE WELL ID
~Curve Information Block
DEPT.FT            0 000 00 00: Depth
CCL.                          : Casing Collar Locator
TT3.usec                      : CBL 3' Travel Time
AMP3.mV                       : CBL 3' Amplitude
GR.GAPI                       : Gamma Ray
~Parameter Information Block
~A  Depth       CCL         TT3         AMP3         GR     
# ...
  1658.5000      0.0000    715.8179      5.1846     72.5255
  1658.7500      0.0000    709.1174      4.8040     72.2381
  1659.0000      0.0000    701.8967      4.5224     71.5117
  1659.2500      0.0000    696.6376      4.4718     69.9522
  1659.5000      0.0000    695.4465      4.5961     67.6351
  1659.7500      0.0000    698.4951      4.7374     64.9140
  1660.0000      0.0000    703.2186      4.8187     61.9682
  1660.2500      0.0000    705.6960      4.9003     58.9839
  1660.5000     -2.8189    704.0816      5.0717     56.6564
  1660.7500     -3.0000    700.6681      5.3232     56.0249
  1661.0000     -2.0883    699.9664      5.5404     57.6400
  1661.2500      0.0000    705.0209      5.6349     60.9307
  1661.5000      0.0000    715.5349      5.6624     64.3245
  1661.7500      0.0000    728.2431      5.7735     66.1219
  1662.0000      0.0000    738.5005      6.0427     65.6439
  1662.2500      0.0000    742.8773      6.3854     63.6771
  1662.5000      0.0000    741.4762      6.6707     61.7387
  1662.7500      0.0000    737.5950      6.8692     60.9351
  1663.0000      0.0000    734.8232      7.0517     61.4370
  1663.2500      0.0000    734.5264      7.2753     62.6279
  1663.5000      0.0000    735.6285      7.5096     63.5378
  1663.7500      0.0000    736.1801      7.6716     63.4128
  1664.0000      0.0000    735.1265      7.7296     62.1759
  1664.2500      0.0000    732.8702      7.7667     60.4292
  1664.5000      0.0000    730.1840      7.9174     59.0206
  1664.7500      0.0000    726.6113      8.2258     58.5259
  1665.0000      0.0000    719.7924      8.5857     58.8828
  1665.2500      0.0000    706.7893      8.8375     59.5247
  1665.5000      0.0000    687.6942      8.9192     60.1165
  1665.7500      0.0000    668.5491      8.9152     61.0997
  1666.0000      0.0000    657.8443      8.9782     63.1046
  1666.2500      0.0000    656.6403      9.2105     65.7515
  1666.5000      0.0000    653.2344      9.5920     67.6005
  1666.7500      0.0000    631.3945      9.9945     67.6293
  1667.0000      0.0000    585.4965     10.2807     66.4362
  1667.2500      0.0000    527.4209     10.4130     65.7538
  1667.5000      0.0000    479.3911     10.4569     67.0158
  1667.7500      0.0000    460.6282     10.4655     70.3749
  1668.0000      0.0000    477.9763     10.3947     74.5493
  1668.2500      0.0000    522.8823     10.1676     77.3267
  1668.5000      0.0000    573.9857      9.8031     76.8734
  1668.7500      0.0000    607.2010      9.4275     73.5402
  1669.0000      0.0000    610.9332      9.1463     70.5291
  1669.2500      0.0000    595.1208      8.9398     72.1792
  1669.5000      0.0000    584.1608      8.7161     81.0697
  1669.7500      0.0000    597.7562      8.4511     96.3739
  1670.0000      0.0000    636.1909      8.2382    114.5506
  1670.2500      0.0000    683.0157      8.1886    131.5472
  1670.5000      0.0000    720.4342      8.3055    144.7486
  1670.7500      0.0000    740.9721      8.4729    153.2949
  1671.0000      0.0000    747.0956      8.5411    157.1112
  1671.2500      0.0000    744.6887      8.4070    156.3711
  1671.5000      0.0000    738.7661      8.0544    152.0031
  1671.7500      0.0000    732.7027      7.5733    145.8681
  1672.0000      0.0000    728.4542      7.1421    139.7419
  1672.2500      0.0000    726.7734      6.9360    134.4037
  1672.5000      0.0000    727.7026      7.0078    130.1371
  1672.7500      0.0000    730.8048      7.2388    127.5256
  1673.0000      0.0000    734.7483      7.4142    126.7969
  1673.2500      0.0000    737.1247      7.3636    126.5587
  1673.5000      0.0000    735.7217      7.0622    124.2534
  1673.7500      0.0000    730.4656      6.6380    118.3395
  1674.0000      0.0000    723.8265      6.2987    109.6585
  1674.2500      0.0000    718.9307      6.2118    100.5695
  1674.5000      0.0000    717.2298      6.4018     93.1606
  1674.7500      0.0000    717.9531      6.7496     88.1436
  1675.0000      0.0000    719.4544      7.0922     84.8620
  1675.2500      0.0000    720.7078      7.3201     82.2691
  1675.5000      0.0000    721.6135      7.4025     80.0779
  1675.7500      0.0000    722.3797      7.3831     78.9652
  1676.0000      0.0000    722.9695      7.3725     79.8286
  1676.2500      0.0000    722.8708      7.4843     83.0316
  1676.5000      0.0000    720.8790      7.7270     88.0230
  1676.7500      0.0000    714.7206      7.9799     93.3641
  1677.0000      0.0000    701.8128      8.1062     97.5272
  1677.2500      0.0000    682.6550      8.0870    100.2302
  1677.5000      0.0000    664.6263      8.0305    103.0569
  1677.7500      0.0000    659.7102      8.0563    108.3553
  1678.0000      0.0000    674.7559      8.1798    116.9041
  1678.2500      0.0000    704.2712      8.3176    126.6190
  1678.5000      0.0000    735.0266      8.3960    134.3549
  1678.7500      0.0000    756.8756      8.4255    139.1045
  1679.0000      0.0000    767.6614      8.4490    142.5022
  1679.2500      0.0000    769.9913      8.4449    146.2954
  1679.5000      0.0000    766.8690      8.3268    150.7601
  1679.7500      0.0000    760.7081      8.0567    155.6674
  1680.0000      0.0000    754.0186      7.7188    161.1044
  1680.2500      0.0000    749.1785      7.4506    166.6301
  1680.5000      0.0000    747.5121      7.3207    170.5574
  1680.7500      0.0000    748.8993      7.2919    170.6714
  1681.0000      0.0000    752.2980      7.2707    165.1067
  1681.2500      0.0000    756.4543      7.1669    152.1489
  1681.5000      0.0000    760.3048      6.9554    130.2624
  1681.7500      0.0000    763.1640      6.7218    100.1112
  1682.0000      0.0000    764.8439      6.6114     66.6341
  1682.2500      0.0000    765.5850      6.7014     37.2676
  1682.5000      0.0000    765.8167      6.9384     17.1272
  1682.7500      0.0000    765.9141      7.2035      6.3681
  1683.0000      0.0000    766.0997      7.4021      1.8947
  1683.2500      0.0000    766.4921      7.4963      0.4472
  1683.5000      0.0000    767.2646      7.5005      0.0827
  1683.7500      0.0000    768.8726      7.4628      0.0108
  1684.0000      0.0000    772.1291      7.4197      0.0000
  1684.2500      0.0000    777.8086      7.3601   -999.2500
  1684.5000      0.0000    785.7938      7.2548   -999.2500
  1684.7500      0.0000    794.5289      7.1122   -999.2500
  1685.0000      0.0000    801.5537      6.9718   -999.2500
  1685.2500      0.0000    804.8403      6.8591   -999.2500
  1685.5000      0.0000    803.9259      6.7823   -999.2500
  1685.7500      0.0000    800.2413      6.7578   -999.2500
  1686.0000      0.0000    795.7946      6.7927   -999.2500
  1686.2500      0.0000    789.5403      6.8316   -999.2500
  1686.5000      0.0000    772.5724      6.7255   -999.2500
  1686.7500      0.0000    727.0621      6.2737   -999.2500
  1687.0000      0.0000    634.9939      5.3426   -999.2500
  1687.2500      0.0000    495.1329      3.9972   -999.2500
  1687.5000      0.0000    332.8448      2.5186   -999.2500
  1687.7500      0.0000    187.5713      1.2520   -999.2500
  1688.0000      0.0000     86.7832      0.4005   -999.2500
  1688.2500      0.0000     32.4746     -0.0486   -999.2500
  1688.5000      0.0000      9.7230     -0.2341   -999.2500
  1688.7500      0.0000      2.3084     -0.2940   -999.2500
  1689.0000      0.0000      0.4284     -0.3091   -999.2500
  1689.2500      0.0000      0.0573     -0.3120   -999.2500
  1689.5000      0.0000   -999.2500   -999.2500   -999.2500
  1689.7500      0.0000   -999.2500   -999.2500   -999.2500
  1690.0000      0.0000   -999.2500   -999.2500   -999.2500
  1690.2500      0.0000   -999.2500   -999.2500   -999.2500
  1690.5000      0.0000   -999.2500   -999.2500   -999.2500
  1690.7500      0.0000   -999.2500   -999.2500   -999.2500
  1691.0000      0.0000   -999.2500   -999.2500   -999.2500
  1691.2500      0.0000   -999.2500   -999.2500   -999.2500
  1691.5000      0.0000   -999.2500   -999.2500   -999.2500
  1691.7500      0.0000   -999.2500   -999.2500   -999.2500
